     3.04           OBSERVATION DATA    Mixed(MIXED)        RINEX VERSION / TYPE
cnvtToRINEX 3.14.0  convertToRINEX OPR  20250615 162114 UTC PGM / RUN BY / DATE 
----------------------------------------------------------- COMMENT             
2116                                                        MARKER NAME         
2116                                                        MARKER NUMBER       
GEODETIC                                                    MARKER TYPE         
GNSS Observer       Trimble                                 OBSERVER / AGENCY   
6337S22116          Geo Explorer 3      6.26                REC # / TYPE / VERS 
                    UNKNOWN EXT     NONE                    ANT # / TYPE        
  3916453.0842  1193364.3623  4874939.0837                  APPROX POSITION XYZ 
        1.5177        0.0000        0.0000                  ANTENNA: DELTA H/E/N
R    4 C1C C2C L1C L2C                                      SYS / # / OBS TYPES 
G    8 C1C C2W C2X C5X L1C L2W L2X L5X                      SYS / # / OBS TYPES 
C    4 C2I C7I L2I L7I                                      SYS / # / OBS TYPES 
E    4 C1X C8X L1X L8X                                      SYS / # / OBS TYPES 
    15.000                                                  INTERVAL            
  2025     6    15    14    37   45.0000000     GPS         TIME OF FIRST OBS   
  2025     6    15    15     0   45.0000000     GPS         TIME OF LAST OBS    
     0                                                      RCV CLOCK OFFS APPL 
  8 R03  5 R04  6 R05  1 R12 -1 R13 -2 R18 -3 R19  3 R20  2 GLONASS SLOT / FRQ #
R L2C -0.25000                                              SYS / PHASE SHIFT   
G L2X -0.25000                                              SYS / PHASE SHIFT   
    18                                                      LEAP SECONDS        
    38                                                      # OF SATELLITES     
   C05    93    93    93    93                              PRN / # OF OBS      
   C06    93    93    93    93                              PRN / # OF OBS      
   C09    93    93    93    93                              PRN / # OF OBS      
   C11    93    93    93    93                              PRN / # OF OBS      
   C12    93    93    93    93                              PRN / # OF OBS      
   C16    93    93    93    93                              PRN / # OF OBS      
   C21    93     0    93     0                              PRN / # OF OBS      
   C22    93     0    93     0                              PRN / # OF OBS      
   C34    93     0    93     0                              PRN / # OF OBS      
   C36    93     0    93     0                              PRN / # OF OBS      
   C39    93     0    93     0                              PRN / # OF OBS      
   C42    93     0    93     0                              PRN / # OF OBS      
   C43    93     0    93     0                              PRN / # OF OBS      
   C44    93     0    93     0                              PRN / # OF OBS      
   E03    93    93    93    93                              PRN / # OF OBS      
   E05    93    93    93    93                              PRN / # OF OBS      
   E09    93    93    93    93                              PRN / # OF OBS      
   E13    37    37    37    37                              PRN / # OF OBS      
   E15    93    93    93    93                              PRN / # OF OBS      
   E34    93    93    93    93                              PRN / # OF OBS      
   G01    93     0    93    93    93     0    93    93      PRN / # OF OBS      
   G02    27     0     0     0    20     0     0     0      PRN / # OF OBS      
   G03    93     0    93    93    93     0    93    93      PRN / # OF OBS      
   G04    93     0    93    93    93     0    93    93      PRN / # OF OBS      
   G06    93     0    93    93    93     0    93    93      PRN / # OF OBS      
   G09    93     0    93    93    93     0    93    93      PRN / # OF OBS      
   G17    93     0    93     0    93     0    93     0      PRN / # OF OBS      
   G19    93    93     0     0    93    93     0     0      PRN / # OF OBS      
   G28    93     0    93    93    92     0    93    93      PRN / # OF OBS      
   G31    93     0    93     0    93     0    93     0      PRN / # OF OBS      
   R03    93    93    93    93                              PRN / # OF OBS      
   R04    93    93    93    93                              PRN / # OF OBS      
   R05    93    93    93    93                              PRN / # OF OBS      
   R12    92    92    92    92                              PRN / # OF OBS      
   R13    93     0    93     0                              PRN / # OF OBS      
   R18    90    86    90    83                              PRN / # OF OBS      
   R19    93    93    93    93                              PRN / # OF OBS      
   R20    93    93    93    93                              PRN / # OF OBS      
DBHZ                                                        SIGNAL STRENGTH UNIT
                                                            END OF HEADER       
> 2025 06 15 14 37 45.0000000  0 37
C05  39188818.563 6  39188816.524 6 204066435.09016 157797127.42416
C06  38300384.462 6  38300379.890 6 199440158.69916 154219758.98316
C09  38665270.503 7  38665267.977 7 201340201.66817 155689017.33217
C11  23415760.926 7  23415758.667 8 121931982.70917  94285652.07018
C12  22798504.259 7  22798501.333 8 118717770.51117  91799954.07918
C16  38881037.980 7  38881039.425 7 202463751.07917 156557816.86017
C21  22291567.502 8                 116078023.73018
C22  22215881.073 8                 115683908.94318
C34  22510820.712 7                 117219737.40717
C36  25399864.694 7                 132263755.89917
C39  38918508.167 7                 202658885.22217
C42  25815821.815 6                 134429756.83916
C43  24926752.980 7                 129800114.52117
C44  23944973.744 7                 124687753.15117
E03  24562634.458 8  24562637.653 9 129077512.81418  97646313.23019
E05  22114058.769 8  22114060.435 9 116210170.12318  87912204.03119
E09  27197592.708 7  27197595.412 8 142924317.70617 108121287.83018
E15  24134338.894 8  24134342.268 9 126826805.05218  95943668.44319
E34  23796093.036 8  23796095.412 9 125049309.79518  94599000.82719
G01  21524379.673 7                  21524383.998 8  21524385.152 8 113111371.68017                  88138753.68918  84466307.38818
G02  24130023.392 4                                                 126804132.35514                                
G03  20051104.340 8                  20051109.529 8  20051107.888 9 105369256.56518                  82105939.64618  78684852.60419
G04  20639860.780 7                  20639864.837 8  20639865.888 8 108463194.71817                  84516795.30118  80995264.44818
G06  23580494.592 6                  23580502.130 7  23580500.832 8 123916335.56916                  96558210.14317  92534946.23018
G09  22873470.875 6                  22873477.814 7  22873477.067 8 120200895.93416                  93663341.69517  89760435.31818
G17  22888015.745 7                  22888020.645 7                 120277330.48117                  93722480.72417
G19  22192671.228 7  22192673.575 6                                 116623268.37017  90875286.79816                
G28  23625839.203 6                  23625844.529 7  23625847.282 8 124154613.95616                  96743883.10717  92712899.67218
G31  22230232.129 7                  22230235.730 7                 116820655.56117                  91029101.19317
R03  20345011.234 8  20345013.726 7 108908433.78718  84706415.32117
R04  19355815.534 8  19355816.766 7 103649504.47318  80616381.72617
R05  22408851.657 7  22408855.425 7 119788149.84317  93168580.39317
R12  22990599.841 6  22990602.054 6 122811717.50216  95520200.19216
R13  23178532.635 6                 123772068.94816
R18  21764560.950 7  21764564.424 7 116180699.56517  90362778.28717
R19  19412685.013 8  19412684.318 7 103844773.32418  80768133.69217
R20  21612952.949 6  21612958.110 7 115574179.53316  89891043.94517
> 2025 06 15 14 38  0.0000000  0 36
C05  39188772.167 6  39188769.668 6 204066192.843 6 157796940.138 6
C06  38299378.599 6  38299373.661 6 199434921.639 6 154215709.363 6
C09  38662760.813 7  38662757.774 7 201327132.032 7 155678911.072 7
C11  23412042.203 7  23412039.703 8 121912616.348 7  94270676.779 8
C12  22804164.251 7  22804161.399 8 118747243.823 7  91822744.693 8
C16  38880483.921 7  38880485.965 7 202460867.085 7 156555586.765 7
C21  22287915.031 8                 116059003.579 8
C22  22220551.119 8                 115708226.285 8
C34  22512058.392 7                 117226180.744 7
C36  25393941.653 7                 132232911.406 7
C39  38919305.148 7                 202663035.066 7
C42  25807374.330 6                 134385770.032 6
C43  24920058.031 7                 129765250.864 7
C44  23953834.369 7                 124733893.888 7
E03  24556476.660 8  24556479.636 9 129045152.959 8  97621833.236 9
E05  22115693.554 8  22115695.202 9 116218760.771 8  87918702.791 9
E09  27205253.413 7  27205255.497 8 142964572.271 7 108151740.138 8
E15  24130114.165 8  24130117.425 9 126804603.497 8  95926873.123 9
E34  23800040.669 8  23800043.229 9 125070055.651 8  94614694.919 9
G01  21531974.166 7                  21531978.040 8  21531979.604 8 113151280.110 7                  88169851.109 8  84496109.099 8
G03  20053458.280 8                  20053463.828 7  20053462.019 9 105381627.467 8                  82115579.308 7  78694090.626 9
G04  20634708.199 7                  20634712.472 8  20634713.494 8 108436118.992 7                  84495697.321 8  80975045.563 8
G06  23571160.399 6                  23571168.025 7  23571166.338 8 123867282.986 6                  96519987.391 7  92498316.101 8
G09  22863674.020 7                  22863680.816 7  22863679.906 8 120149412.539 7                  93623224.786 7  89721989.980 8
G17  22893089.546 7                  22893094.479 7                 120303993.568 7                  93743257.129 7
G19  22193117.217 7  22193119.933 6                                 116625612.344 7  90877113.248 6                
G28  23630702.624 6                  23630707.426 7  23630710.461 8 124180171.322 6                  96763797.940 7  92731984.688 8
G31  22229977.842 6                  22229979.656 6                 116819316.851 6                  91028058.020 6
R03  20351990.462 8  20351992.798 7 108945795.772 8  84735474.610 7
R04  19353323.569 8  19353324.504 7 103636159.822 8  80606002.554 7
R05  22399010.325 7  22399013.935 7 119735543.287 7  93127664.272 7
R12  22990458.948 5  22990460.460 5 122810964.62915  95519614.634 5
R13  23170633.785 6                 123729889.031 6
R18  21776084.279 7  21776087.994 7 116242211.002 7  90410620.447 7
R19  19414610.538 8  19414610.895 7 103855075.256 8  80776146.298 7
R20  21603175.355 6  21603180.990 7 115521894.845 6  89850378.099 7
> 2025 06 15 14 38 15.0000000  0 36
C05  39188725.147 6  39188722.790 6 204065948.161 6 157796750.938 6
C06  38298379.904 6  38298375.589 6 199429721.904 6 154211688.620 6
C09  38660256.619 6  38660254.155 7 201314095.619 6 155668830.510 7
C11  23408345.482 7  23408342.740 8 121893365.334 7  94255790.673 8
C12  22809844.154 7  22809841.391 8 118776819.954 7  91845614.789 8
C16  38879937.040 7  38879939.267 7 202458019.130 7 156553384.557 7
C21  22284276.448 8                 116040056.282 8
C22  22225231.932 8                 115732601.320 8
C34  22513319.786 8                 117232749.115 8
C36  25388033.119 7                 132202143.384 7
C39  38920108.552 7                 202667219.171 7
C42  25798931.594 7                 134341806.364 7
C43  24913379.265 7                 129730472.612 7
C44  23962704.831 7                 124780083.370 7
E03  24550330.864 8  24550334.179 9 129012858.637 8  97597402.803 9
E05  22117344.089 8  22117345.824 9 116227434.884 8  87925264.703 9
E09  27212917.399 7  27212920.261 8 143004849.503 7 108182209.617 8
E15  24125902.834 8  24125905.949 9 126782472.269 8  95910131.010 9
E34  23804004.005 8  23804006.443 9 125090882.382 8  94630450.187 9
G01  21539585.737 7                  21539589.519 7  21539591.605 8 113191279.388 7                  88201019.357 7  84525978.660 8
G03  20055829.491 8                  20055835.214 7  20055833.594 8 105394090.359 8                  82125290.664 7  78703397.320 8
G04  20629577.356 7                  20629581.203 8  20629582.396 8 108409155.040 7                  84474686.498 8  80954910.183 8
G06  23561836.039 6                  23561842.815 7  23561841.570 8 123818281.177 6                  96481804.197 7  92461723.860 8
G09  22853887.145 6                  22853893.466 7  22853892.747 8 120097980.930 6                  93583148.279 7  89683583.341 8
G17  22898183.391 7                  22898187.596 7                 120330759.975 7                  93764114.032 7
G19  22193593.346 7  22193595.866 6                                 116628113.884 7  90879062.498 6                
G28  23635590.749 6                  23635594.872 7  23635597.617 8 124205856.540 6                  96783812.331 7  92751165.178 8
G31  22229752.016 6                  22229755.015 6                 116818138.627 6                  91027139.975 6
R03  20358984.714 8  20358987.372 7 108983235.550 8  84764594.440 7
R04  19350856.042 8  19350857.044 7 103622944.694 8  80595724.141 7
R05  22389179.909 8  22389184.172 7 119682996.379 8  93086794.502 7
R12  22990353.845 5  22990356.075 6 122810401.52015  95519176.621 6
R13  23162757.520 6                 123687832.843 6
R18  21787622.332 7  21787626.611 7 116303803.125 7  90458525.370 7
R19  19416574.227 8  19416574.772 8 103865575.742 8  80784313.341 8
R20  21593418.529 6  21593423.931 7 115469720.337 6  89809797.930 7
> 2025 06 15 14 38 30.0000000  0 36
C05  39188676.657 6  39188674.266 6 204065696.431 6 157796556.275 6
C06  38297387.740 6  38297383.184 6 199424554.997 6 154207693.276 6
C09  38657758.696 7  38657756.377 7 201301087.911 7 155658772.143 7
C11  23404670.186 7  23404666.994 8 121874225.190 7  94240990.313 8
C12  22815542.539 7  22815540.236 8 118806494.123 7  91868560.730 8
C16  38879396.412 7  38879398.013 7 202455202.595 7 156551206.630 7
C21  22280650.905 8                 116021177.288 8
C22  22229923.127 8                 115757029.321 8
C34  22514604.194 8                 117239437.974 8
C36  25382138.321 7                 132171447.586 7
C39  38920918.056 7                 202671432.884 7
C42  25790492.210 6                 134297861.172 6
C43  24906715.443 7                 129695775.396 7
C44  23971583.216 7                 124826316.836 7
E03  24544197.221 8  24544200.397 9 128980625.303 8  97573018.501 9
E05  22119009.722 8  22119011.435 9 116236187.724 8  87931886.174 9
E09  27220585.555 7  27220589.014 8 143045144.579 7 108212692.598 8
E15  24121703.876 8  24121707.029 9 126760406.884 8  95893438.682 9
E34  23807982.050 8  23807984.144 9 125111785.307 8  94646263.106 9
G01  21547213.420 7                  21547217.681 8  21547219.633 8 113231364.697 7                  88232254.637 8  84555912.466 8
G03  20058218.101 7                  20058223.607 7  20058221.788 8 105406640.578 7                  82135070.030 7  78712769.229 8
G04  20624466.852 7                  20624470.755 8  20624471.819 8 108382298.383 7                  84453759.234 8  80934854.905 8
G06  23552519.730 6                  23552527.269 7  23552526.008 8 123769325.777 6                  96443657.186 7  92425166.306 8
G09  22844108.860 6                  22844115.312 7  22844114.822 8 120046596.723 6                  93543108.725 7  89645212.082 8
G17  22903295.433 7                  22903299.821 7                 120357625.003 7                  93785047.801 7
G19  22194098.414 7  22194100.636 6                                 116630768.284 7  90881130.857 6                
G28  23640501.550 6                  23640505.894 7  23640508.616 8 124231664.696 6                  96803922.563 7  92770437.483 8
G31  22229558.054 7                  22229561.617 7                 116817116.313 7                  91026343.373 7
R03  20365992.571 8  20365994.985 7 109020748.319 8  84793771.001 7
R04  19348411.343 8  19348412.414 7 103609854.152 8  80585542.633 7
R05  22379360.615 7  22379363.750 7 119630504.621 7  93045967.632 7
R12  22990282.749 5  22990282.824 5 122810023.404 5  95518882.542 5
R13  23154903.856 6                 123645895.841 6
R18  21799174.998 8  21799178.945 7 116365470.831 8  90506489.059 7
R19  19418573.185 8  19418573.763 8 103876270.114 8  80792631.195 8
R20  21583682.205 6  21583686.941 7 115417651.655 6  89769300.126 7
> 2025 06 15 14 38 45.0000000  0 36
C05  39188627.515 6  39188624.687 6 204065437.607 6 157796356.138 6
C06  38296401.792 6  38296397.137 7 199419420.785 6 154203723.191 7
C09  38655266.408 7  38655263.959 7 201288108.897 7 155648735.956 7
C11  23401015.510 7  23401012.884 8 121855196.125 7  94226275.846 8
C12  22821260.319 7  22821257.577 8 118836266.107 7  91891582.283 8
C16  38878861.918 7  38878863.491 7 202452417.434 7 156549052.979 7
C21  22277038.198 8                 116002366.564 8
C22  22234624.603 8                 115781510.163 8
C34  22515912.221 8                 117246247.220 8
C36  25376257.184 7                 132140824.265 7
C39  38921732.720 7                 202675676.153 7
C42  25782055.982 6                 134253934.612 6
C43  24900068.237 7                 129661159.374 7
C44  23980470.348 7                 124872593.937 7
E03  24538075.321 7  24538078.159 9 128948453.020 7  97548680.404 9
E05  22120690.266 8  22120692.035 8 116245019.160 8  87938567.108 8
E09  27228255.849 7  27228260.305 8 143085457.334 7 108243188.894 8
E15  24117517.460 8  24117520.636 9 126738407.450 8  95876796.280 9
E34  23811974.226 8  23811976.376 9 125132764.413 8  94662133.644 9
G01  21554858.097 7                  21554861.895 7  21554864.262 8 113271535.816 7                  88263556.799 7  84585910.314 8
G03  20060623.230 7                  20060628.429 7  20060626.542 8 105419278.016 7                  82144917.375 7  78722206.276 8
G04  20619376.657 7                  20619380.606 8  20619381.397 8 108355549.105 7                  84432915.640 8  80914879.795 8
G06  23543212.242 6                  23543219.874 7  23543219.151 8 123720417.057 6                  96405546.528 7  92388643.620 8
G09  22834339.635 6                  22834346.305 7  22834345.635 8 119995260.127 6                  93503106.211 7  89606876.367 8
G17  22908426.513 7                  22908430.331 7                 120384588.148 7                  93806057.982 7
G19  22194632.663 7  22194635.082 5                                 116633575.493 7  90883318.301 5                
G28  23645435.944 6                  23645440.734 7  23645443.128 8 124257595.563 6                  96824128.371 7  92789801.413 8
G31  22229393.326 7                  22229397.576 7                 116816250.085 7                  91025668.388 7
R03  20373013.785 8  20373016.007 7 109058333.344 8  84823003.813 7
R04  19345990.012 8  19345991.263 7 103596888.372 8  80575458.137 7
R05  22369551.113 7  22369555.220 7 119578067.878 7  93005183.578 7
R12  22990246.817 6  22990248.135 6 122809830.211 6  95518732.378 6
R13  23147073.391 6                 123604078.758 6
R18  21810741.462 8  21810745.529 7 116427213.650 8  90554511.200 7
R19  19420607.930 8  19420608.215 7 103887158.263 8  80801099.739 7
R20  21573963.744 5  21573969.571 7 115365688.610 5  89728884.448 7
> 2025 06 15 14 39  0.0000000  0 37
C05  39188575.771 6  39188573.882 6 204065170.199 6 157796149.367 6
C06  38295421.690 6  38295417.312 6 199414317.789 6 154199777.244 6
C09  38652779.281 7  38652776.546 7 201275157.040 7 155638720.772 7
C11  23397382.350 7  23397379.534 8 121836276.777 7  94211646.226 8
C12  22826995.490 7  22826993.471 8 118866134.191 7  91914678.164 8
C16  38878332.648 7  38878334.275 7 202449662.156 7 156546922.423 7
C21  22273438.889 8                 115983622.633 8
C22  22239335.654 8                 115806042.167 8
C34  22517242.453 7                 117253175.309 7
C36  25370389.992 7                 132110272.172 7
C39  38922553.256 7                 202679947.474 7
C42  25773624.151 7                 134210025.169 7
C43  24893435.547 8                 129626623.329 8
C44  23989365.568 7                 124918912.905 7
E03  24531964.750 8  24531967.308 9 128916340.357 8  97524387.419 9
E05  22122385.512 8  22122387.247 9 116253927.578 8  87945306.256 9
E09  27235929.613 6  27235934.909 8 143125786.070 6 108273697.303 8
E15  24113343.697 7  24113346.558 9 126716472.657 7  95860202.746 9
E34  23815980.677 8  23815982.718 9 125153818.083 8  94678060.608 9
G01  21562518.537 7                  21562522.205 7  21562524.141 8 113311790.998 7                  88294924.454 7  84615970.982 8
G02  24177780.120 5                                                 127055070.65215                                
G03  20063044.245 7                  20063049.534 8  20063047.723 8 105432001.111 7                  82154831.491 8  78731707.295 8
G04  20614306.415 7                  20614310.538 8  20614311.112 8 108328905.744 7                  84412154.620 8  80894983.796 8
G06  23533914.390 6                  23533921.510 7  23533920.461 8 123671553.847 6                  96367471.346 7  92352154.910 8
G09  22824579.439 6                  22824585.940 7  22824585.385 8 119943969.745 6                  93463139.723 7  89568575.175 8
G17  22913575.552 7                  22913579.751 7                 120411647.515 7                  93827143.198 7
G19  22195195.872 7  22195197.864 6                                 116636533.944 7  90885623.598 6                
G28  23650393.818 6                  23650397.946 7  23650401.118 8 124283647.397 6                  96844428.540 7  92809255.699 8
G31  22229258.293 8                  22229262.842 7                 116815538.308 8                  91025113.765 7
R03  20380048.006 8  20380050.543 7 109095989.544 8  84852291.944 7
R04  19343591.901 8  19343593.297 7 103584045.676 8  80565469.394 7
R05  22359751.546 7  22359755.492 7 119525684.953 7  92964441.382 7
R12  22990244.389 7  22990246.389 5 122809820.493 7  95518724.896 5
R13  23139264.587 6                 123562380.597 6
R18  21822321.676 8  21822325.793 7 116489029.494 8  90602590.170 7
R19  19422679.648 8  19422679.737 7 103898238.803 8  80809717.934 7
R20  21564266.850 6  21564271.648 7 115313830.910 6  89688550.751 7
> 2025 06 15 14 39 15.0000000  0 37
C05  39188522.616 6  39188520.434 6 204064894.301 6 157795936.042 6
C06  38294448.137 7  38294443.299 6 199409246.003 7 154195855.423 6
C09  38650297.284 7  38650294.690 7 201262232.468 7 155628726.674 7
C11  23393770.214 7  23393767.242 8 121817467.396 7  94197101.622 8
C12  22832750.253 7  22832747.960 8 118896098.267 7  91937848.286 8
C16  38877809.421 7  38877810.688 7 202446936.764 7 156544814.971 7
C21  22269852.256 8                 115964945.525 8
C22  22244056.683 8                 115830625.274 8
C34  22518595.509 7                 117260222.290 7
C36  25364536.566 7                 132079791.603 7
C39  38923379.000 7                 202684246.809 7
C42  25765194.857 7                 134166132.970 7
C43  24886818.711 7                 129592167.526 7
C44  23998268.398 7                 124965273.496 7
E03  24525865.122 8  24525867.857 9 128884287.460 8  97500139.631 9
E05  22124095.581 8  22124097.101 9 116262912.901 8  87952103.607 9
E09  27243606.065 6  27243612.255 8 143166130.736 6 108304217.700 8
E15  24109182.027 8  24109184.789 9 126694602.686 8  95843658.264 9
E34  23820000.954 8  23820003.282 9 125174946.387 8  94694044.023 9
G01  21570194.653 7                  21570198.337 7  21570200.536 8 113352130.164 7                  88326357.510 7  84646094.344 8
G02  24187344.857 5                                                 127105336.066 5                                
G03  20065481.576 7                  20065486.688 7  20065485.002 8 105444809.903 7                  82164812.380 7  78741272.285 8
G04  20609256.678 7                  20609260.586 8  20609261.505 8 108302368.501 7                  84391476.266 8  80875167.041 8
G06  23524624.236 6                  23524631.740 7  23524630.884 8 123622736.467 6                  96329431.897 7  92315700.430 8
G09  22814828.043 6                  22814834.564 7  22814833.733 8 119892725.856 6                  93423209.470 7  89530308.701 8
G17  22918743.312 7                  22918747.523 7                 120438802.844 7                  93848303.206 7
G19  22195787.565 7  22195789.301 6                                 116639643.643 7  90888046.711 6                
G28  23655374.133 6                  23655378.610 7  23655381.420 8 124309820.035 6                  96864822.792 7  92828800.182 8
G31  22229152.255 8                  22229156.850 7                 116814981.153 8                  91024679.615 7
R03  20387095.740 8  20387098.655 7 109133715.861 8  84881634.620 7
R04  19341216.161 8  19341217.903 7 103571325.872 8  80555576.222 7
R05  22349962.315 7  22349966.684 7 119473355.988 7  92923741.111 7
R12  22990276.823 6  22990279.828 6 122809994.464 6  95518860.192 6
R13  23131478.156 6                 123520801.865 6
R18  21833915.587 8  21833919.585 7 116550918.118 8  90650725.729 7
R19  19424787.384 8  19424786.924 7 103909511.430 8  80818485.521 7
R20  21554588.799 6  21554593.069 7 115262079.233 6  89648299.496 7
> 2025 06 15 14 39 30.0000000  0 37
C05  39188467.825 6  39188465.326 6 204064607.931 6 157795714.616 6
C06  38293479.407 6  38293475.069 6 199404203.565 6 154191956.289 6
C09  38647820.302 7  38647817.447 7 201249333.196 7 155618752.126 7
C11  23390179.225 7  23390176.023 8 121798766.098 7  94182640.609 8
C12  22838522.378 7  22838520.065 8 118926156.216 7  91961090.980 8
C16  38877291.483 7  38877292.586 7 202444239.280 7 156542729.104 7
C21  22266278.071 8                 115946333.359 8
C22  22248786.763 8                 115855257.386 8
C34  22519971.234 7                 117267386.128 7
C36  25358696.753 7                 132049380.946 7
C39  38924209.506 7                 202688572.205 7
C42  25756769.095 7                 134122256.189 7
C43  24880217.396 7                 129557790.307 7
C44  24007178.964 7                 125011673.561 7
E03  24519776.769 8  24519779.419 9 128852292.458 8  97475935.654 9
E05  22125819.393 8  22125821.210 9 116271973.071 8  87958957.568 9
E09  27251287.150 7  27251292.121 8 143206489.201 7 108334748.491 8
E15  24105032.266 8  24105035.067 9 126672795.792 8  95827161.491 9
E34  23824035.284 8  23824037.728 9 125196147.341 8  94710082.405 9
G01  21577885.893 7                  21577890.460 7  21577892.352 8 113392551.065 7                  88357854.313 7  84676278.773 8
G02  24196913.645 5                                                 127155623.504 5                                
G03  20067934.518 8                  20067940.448 7  20067938.213 8 105457702.335 8                  82174858.424 7  78750899.762 8
G04  20604226.654 7                  20604230.488 8  20604231.326 8 108275935.508 7                  84370879.175 8  80855428.152 8
G06  23515343.126 6                  23515350.451 7  23515349.600 8 123573963.291 6                  96291426.826 7  92279278.954 8
G09  22805084.779 6                  22805091.632 7  22805090.630 8 119841526.789 6                  93383314.111 7  89492075.681 8
G17  22923928.609 7                  22923933.068 7                 120466052.252 7                  93869536.476 7
G19  22196407.785 7  22196409.602 5                                 116642902.424 7  90890586.005 5                
G28  23660377.459 6                  23660381.909 7  23660384.679 8 124336111.290 6                  96885309.475 7  92848433.248 8
G31  22229075.466 7                  22229080.062 7                 116814576.518 7                  91024364.316 7
R03  20394156.240 8  20394158.713 7 109171510.725 8  84911030.607 7
R04  19338863.772 8  19338865.196 7 103558727.052 8  80545777.147 7
R05  22340182.387 7  22340187.489 7 119421079.507 7  92883081.721 7
R12  22990342.362 6  22990345.318 5 122810350.190 6  95519136.862 5
R13  23123714.193 6                 123479341.108 6
R18  21845522.572 8  21845526.540 7 116612877.033 8  90698915.936 7
R19  19426929.748 8  19426930.693 8 103920974.223 8  80827401.055 8
R20  21544929.999 6  21544934.796 7 115210431.461 6  89608128.985 7
> 2025 06 15 14 39 45.0000000  0 37
C05  39188410.877 6  39188407.862 6 204064310.412 6 157795484.552 6
C06  38292516.592 6  38292512.014 7 199399189.694 6 154188079.253 7
C09  38645347.819 7  38645345.513 7 201236458.572 7 155608796.659 7
C11  23386608.269 7  23386605.380 8 121780172.374 7  94168262.765 8
C12  22844312.530 7  22844309.968 8 118956307.058 7  91984405.497 8
C16  38876779.406 7  38876779.994 7 202441569.015 7 156540664.292 7
C21  22262715.993 8                 115927785.415 8
C22  22253526.431 8                 115879937.714 8
C34  22521369.560 8                 117274666.073 8
C36  25352869.650 7                 132019039.766 7
C39  38925044.945 7                 202692922.920 7
C42  25748345.541 7                 134078394.200 7
C43  24873630.170 7                 129523491.209 7
C44  24016096.769 7                 125058112.131 7
E03  24513699.109 8  24513701.866 9 128820354.755 8  97451775.008 9
E05  22127557.847 8  22127559.385 9 116281107.271 8  87965867.512 9
E09  27258970.019 7  27258974.570 8 143246860.406 7 108365289.021 8
E15  24100894.483 8  24100897.211 9 126651051.390 8  95810712.012 9
E34  23828083.580 8  23828085.756 9 125217420.175 8  94726175.152 9
G01  21585593.557 7                  21585597.766 8  21585599.726 8 113433052.855 7                  88389414.126 8  84706523.582 8
G02  24206487.615 5                                                 127205932.104 5                                
G03  20070403.699 8                  20070409.448 8  20070407.484 8 105470677.723 8                  82184969.108 8  78760589.162 8
G04  20599216.077 7                  20599220.098 8  20599220.919 8 108249606.181 7                  84350362.818 8  80835766.667 8
G06  23506070.062 6                  23506077.315 7  23506076.583 8 123525233.872 6                  96253455.942 7  92242890.167 8
G09  22795350.396 6                  22795357.180 7  22795356.143 8 119790371.934 6                  93343453.253 7  89453875.711 8
G17  22929131.319 7                  22929136.419 7                 120493394.321 7                  93890841.983 7
G19  22197056.036 7  22197057.807 5                                 116646309.502 7  90893240.873 5                
G28  23665403.104 7                  23665407.156 7  23665410.790 8 124362520.249 7                  96905887.886 7  92868154.209 8
G31  22229027.015 6                  22229031.244 7                 116814323.672 6                  91024167.328 7
R03  20401229.421 8  20401231.646 7 109209372.679 8  84940478.770 7
R04  19336533.233 8  19336534.722 7 103546248.503 8  80536071.590 7
R05  22330413.382 7  22330416.356 7 119368854.567 7  92842462.374 7
R12  22990442.527 6  22990446.784 6 122810886.719 6  95519554.244 6
R13  23115971.882 6                 123437998.060 6
R18  21857142.761 7  21857146.104 7 116674905.100 7  90747159.922 7
R19  19429107.883 8  19429109.057 8 103932626.528 8  80836463.938 8
R20  21535291.340 6  21535296.962 7 115158887.757 6  89568039.459 7
> 2025 06 15 14 40  0.0000000  0 37
C05  39188351.928 6  39188349.430 6 204064004.791 6 157795248.232 6
C06  38291560.124 6  38291555.015 6 199394207.487 6 154184226.693 6
C09  38642880.917 7  38642878.421 7 201223611.627 7 155598862.575 7
C11  23383058.673 7  23383055.847 8 121761689.592 7  94153970.707 8
C12  22850121.206 7  22850118.336 8 118986553.747 7  92007794.143 8
C16  38876271.178 7  38876272.802 7 202438929.050 7 156538622.920 7
C21  22259166.986 8                 115909304.807 8
C22  22258276.209 8                 115904669.222 8
C34  22522790.391 8                 117282065.205 8
C36  25347056.546 7                 131988771.440 7
C39  38925885.945 7                 202697302.027 7
C42  25739926.014 7                 134034550.172 7
C43  24867058.812 7                 129489273.563 7
C44  24025023.158 7                 125104591.987 7
E03  24507633.263 8  24507635.818 9 128788477.534 8  97427660.132 9
E05  22129310.451 8  22129312.228 9 116290318.502 8  87972835.764 9
E09  27266655.736 7  27266659.765 8 143287247.437 7 108395841.522 8
E15  24096769.007 8  24096771.884 9 126629372.813 8  95794312.309 9
E34  23832145.811 8  23832148.086 9 125238767.999 8  94742324.635 9
G01  21593316.851 7                  21593320.748 7  21593323.018 8 113473638.463 7                  88421039.243 7  84736830.981 8
G02  24216065.850 5                                                 127256264.836 5                                
G03  20072889.424 8                  20072894.750 7  20072892.834 8 105483739.104 8                  82195146.806 7  78770342.792 8
G04  20594225.980 7                  20594230.018 8  20594230.824 8 108223383.787 7                  84329929.751 8  80816184.985 8
G06  23496806.046 6                  23496813.771 7  23496812.649 8 123476551.716 6                  96215521.805 7  92206536.651 8
G09  22785624.837 6                  22785631.872 7  22785631.100 8 119739264.678 6                  93303629.486 7  89415711.263 8
G17  22934352.544 7                  22934357.501 7                 120520832.370 7                  93912222.242 7
G19  22197732.907 7  22197734.755 5                                 116649868.082 7  90896013.791 5                
G28  23670451.746 6                  23670455.749 7  23670459.207 8 124389049.770 6                  96926560.229 7  92887965.191 8
G31  22229007.485 6                  22229011.660 7                 116814225.844 6                  91024091.167 7
R03  20408315.305 8  20408318.408 7 109247304.514 8  84969981.320 7
R04  19334226.511 8  19334227.733 8 103533893.305 8  80526461.986 8
R05  22320653.460 7  22320656.895 7 119316684.694 7  92801885.874 7
R12  22990576.199 5  22990581.315 5 122811607.530 5  95520114.873 5
R13  23108251.372 6                 123396776.392 6
R18  21868776.111 7  21868779.817 7 116737005.044 7  90795459.831 7
R19  19431322.116 8  19431322.566 7 103944471.435 8  80845676.585 7
R20  21525672.754 6  21525677.910 7 115107452.060 6  89528033.930 7
> 2025 06 15 14 40 15.0000000  0 37
C05  39188291.843 6  39188289.262 6 204063690.324 6 157795005.081 6
C06  38290609.437 6  38290604.284 7 199389256.111 6 154180397.989 7
C09  38640419.063 7  38640416.545 7 201210791.578 7 155588949.308 7
C11  23379531.016 7  23379527.530 8 121743316.983 7  94139763.856 8
C12  22855948.252 7  22855945.658 8 119016895.196 7  92031256.088 8
C16  38875770.212 7  38875771.384 7 202436318.516 7 156536604.295 7
C21  22255630.630 8                 115890890.721 8
C22  22263035.164 8                 115929450.919 8
C34  22524234.028 8                 117289582.639 8
C36  25341257.833 7                 131958575.371 7
C39  38926732.304 7                 202701708.629 7
C42  25731509.326 7                 133990723.364 7
C43  24860502.976 7                 129455136.784 7
C44  24033956.926 7                 125151112.092 7
E03  24501578.505 8  24501581.115 9 128756660.057 8  97403590.451 9
E05  22131077.689 8  22131079.551 9 116299605.849 8  87979861.580 9
E09  27274343.655 7  27274347.790 8 143327649.285 7 108426405.244 8
E15  24092656.670 8  24092658.956 9 126607759.382 8  95777961.898 9
E34  23836222.750 8  23836224.521 9 125260189.952 8  94758530.189 9
G01  21601056.037 7                  21601060.040 8  21601061.892 8 113514306.848 7                  88452728.879 8  84767200.198 8
G02  24225647.947 5                                                 127306620.569 5                                
G03  20075391.057 7                  20075396.567 8  20075394.643 8 105496885.646 7                  82205390.849 8  78780159.999 8
G04  20589256.442 7                  20589260.272 8  20589261.105 8 108197267.495 7                  84309579.408 8  80796682.586 8
G06  23487551.519 6                  23487558.717 7  23487557.625 8 123427916.261 6                  96177624.066 7  92170218.012 8
G09  22775908.258 7                  22775915.183 7  22775914.425 8 119688204.413 7                  93263842.327 7  89377581.896 8
G17  22939592.392 7                  22939596.660 7                 120548364.924 7                  93933676.138 7
G19  22198439.054 7  22198441.102 6                                 116653577.225 7  90898904.018 6                
G28  23675523.120 6                  23675527.230 7  23675530.176 8 124415698.831 6                  96947325.722 7  92907865.438 8
G31  22229018.599 7                  22229021.457 6                 116814282.357 7                  91024135.184 6
R03  20415414.227 8  20415416.880 7 109285305.519 8  84999537.636 7
R04  19331941.627 8  19331943.336 8 103521660.657 8  80516947.748 8
R05  22310904.162 7  22310907.932 7 119264568.945 7  92761351.459 7
R12  22990744.578 6  22990750.388 6 122812511.694 6  95520818.009 6
R13  23100555.646 6                 123355676.052 6
R18  21880422.717 7  21880426.422 7 116799175.547 7  90843814.628 7
R19  19433572.580 8  19433572.079 7 103956508.020 8  80855038.384 7
R20  21516073.614 6  21516078.884 7 115056123.194 6  89488111.527 7
> 2025 06 15 14 40 30.0000000  0 37
C05  39188229.889 6  39188227.270 6 204063367.635 6 157794755.561 6
C06  38289664.580 6  38289659.201 7 199384336.198 6 154176593.604 7
C09  38637962.092 7  38637959.653 7 201197999.156 7 155579057.395 7
C11  23376023.904 7  23376020.282 8 121725055.344 7  94125642.819 8
C12  22861793.135 7  22861790.640 8 119047331.891 7  92054791.627 8
C16  38875274.303 7  38875276.053 7 202433738.060 7 156534608.922 7
C21  22252107.508 8                 115872543.801 8
C22  22267804.037 8                 115954283.328 8
C34  22525700.575 7                 117297218.972 7
C36  25335473.292 7                 131928452.526 7
C39  38927583.983 7                 202706143.340 7
C42  25723096.326 7                 133946914.463 7
C43  24853963.590 7                 129421081.721 7
C44  24042898.182 7                 125197672.739 7
E03  24495534.930 8  24495537.932 9 128724903.071 8  97379566.505 9
E05  22132859.878 8  22132861.447 9 116308969.837 8  87986945.359 9
E09  27282035.412 7  27282038.855 8 143368066.453 7 108456980.554 8
E15  24088556.017 8  24088558.593 9 126586211.905 8  95761661.378 9
E34  23840312.986 8  23840315.210 9 125281686.590 8  94774792.252 9
G01  21608810.723 7                  21608814.755 8  21608816.865 8 113555058.447 7                  88484483.300 8  84797631.552 8
G02  24235234.746 6                                                 127356999.868 6                                
G03  20077908.940 8                  20077914.605 8  20077912.744 8 105510117.869 8                  82215701.665 8  78790041.199 8
G04  20584307.063 7                  20584311.053 8  20584311.729 8 108171258.089 7                  84289312.355 8  80777259.989 8
G06  23478305.389 6                  23478312.880 7  23478311.339 8 123379328.422 6                  96139763.429 7  92133934.919 8
G09  22766201.189 7                  22766207.987 7  22766206.964 8 119637191.938 7                  93224092.404 7  89339488.224 8
G17  22944849.565 7                  22944853.951 7                 120575992.456 7                  93955204.060 7
G19  22199173.442 7  22199176.200 6                                 116657437.488 7  90901912.009 6                
G28  23680616.624 6                  23680621.259 7  23680624.302 8 124442467.794 6                  96968184.628 7  92927855.238 8
G31  22229058.880 8                  22229061.517 6                 116814493.955 8                  91024300.022 6
R03  20422525.393 8  20422528.913 7 109323375.658 8  85029147.744 7
R04  19329680.243 8  19329681.669 7 103509550.969 8  80507529.091 7
R05  22301164.905 7  22301168.868 7 119212508.580 7  92720860.122 7
R12  22990947.045 5  22990953.940 5 122813599.957 5  95521664.302 5
R13  23092881.433 6                 123314697.809 6
R18  21892083.180 8  21892086.576 7 116861416.927 8  90892224.510 7
R19  19435858.653 8  19435858.619 7 103968736.884 8  80864549.750 7
R20  21506494.818 6  21506500.398 7 115004902.860 6  89448273.547 7
> 2025 06 15 14 40 45.0000000  0 37
C05  39188166.838 6  39188164.088 6 204063039.922 6 157794502.157 6
C06  38288725.864 6  38288721.396 7 199379450.946 6 154172816.034 7
C09  38635511.549 7  38635509.105 7 201185237.521 7 155569189.300 7
C11  23372538.737 7  23372535.570 8 121706908.101 7  94111610.226 8
C12  22867657.249 7  22867654.761 8 119077866.898 7  92078403.197 8
C16  38874785.905 7  38874786.866 7 202431190.816 7 156532639.231 7
C21  22248597.247 8                 115854267.271 8
C22  22272583.212 8                 115979169.500 8
C34  22527190.457 7                 117304977.341 7
C36  25329702.853 7                 131898406.371 7
C39  38928441.290 7                 202710609.314 7
C42  25714687.052 7                 133903126.751 7
C43  24847439.304 7                 129387111.872 7
C44  24051848.961 7                 125244276.915 7
E03  24489504.159 8  24489506.829 9 128693209.885 8  97355590.832 9
E05  22134656.467 8  22134658.533 9 116318413.562 8  87994089.495 9
E09  27289729.673 7  27289733.447 8 143408502.001 7 108487569.794 8
E15  24084468.945 8  24084471.449 9 126564733.784 8  95745413.314 9
E34  23844418.386 8  23844420.693 9 125303261.184 8  94791113.283 9
G01  21616581.800 7                  21616585.778 7  21616588.347 8 113595896.270 7                  88516304.983 7  84828127.287 8
G02  24244827.191 6                                                 127407405.674 6                                
G03  20080444.046 8                  20080449.786 8  20080447.560 8 105523439.037 8                  82226081.815 8  78799988.821 8
G04  20579378.449 7                  20579382.822 8  20579383.271 8 108145358.908 7                  84269131.208 8  80757919.723 8
G06  23469069.006 6                  23469076.850 7  23469075.068 8 123330791.766 6                  96101942.696 7  92097690.051 8
G09  22756503.005 7                  22756510.262 7  22756509.355 8 119586230.718 7                  93184382.420 7  89301432.815 8
G17  22950125.443 7                  22950129.787 7                 120603717.956 7                  93976808.300 7
G19  22199937.195 7  22199939.881 6                                 116661452.064 7  90905040.243 6                
G28  23685733.787 7                  23685739.319 7  23685741.722 8 124469359.736 7                  96989139.381 7  92947936.848 8
G31  22229130.013 8                  22229133.156 7                 116814863.781 8                  91024588.128 7
R03  20429651.457 8  20429653.730 7 109361518.149 8  85058814.104 7
R04  19327442.373 8  19327443.522 7 103497567.484 8  80498208.591 7
R05  22291437.146 7  22291440.572 7 119160506.710 7  92680414.234 7
R12  22991191.873 6  22991192.525 5 122814875.442 6  95522656.441 5
R13  23085230.766 6                 123273845.427 6
R18  21903756.645 8  21903760.749 7 116923731.886 8  90940691.622 7
R19  19438180.909 8  19438181.764 8 103981161.102 8  80874213.023 8
R20  21496937.993 6  21496942.732 7 114953795.134 6  89408523.135 7
> 2025 06 15 14 41  0.0000000  0 37
C05  39188101.676 6  39188099.215 6 204062701.053 6 157794240.122 6
C06  38287793.337 6  38287788.921 7 199374594.177 6 154169060.494 7
C09  38633066.007 7  38633063.400 7 201172500.538 7 155559340.264 7
C11  23369074.327 7  23369071.314 8 121688869.269 7  94097661.449 8
C12  22873538.531 7  22873536.364 8 119108493.778 7  92102085.816 8
C16  38874301.832 7  38874302.429 7 202428670.688 7 156530690.522 7
C21  22245100.158 8                 115836055.017 8
C22  22277371.381 8                 116004103.241 8
C34  22528702.864 7                 117312851.579 7
C36  25323946.667 7                 131868431.015 7
C39  38929303.601 7                 202715100.405 7
C42  25706281.201 7                 133859354.183 7
C43  24840930.944 7                 129353221.338 7
C44  24060805.606 7                 125290918.223 7
E03  24483483.945 7  24483486.748 9 128661574.389 7  97331658.816 9
E05  22136467.722 8  22136469.582 9 116327930.745 8  88001289.173 9
E09  27297426.746 7  27297430.432 8 143448949.611 7 108518168.109 8
E15  24080393.856 8  24080396.373 9 126543318.966 8  95729213.164 9
E34  23848537.416 8  23848539.847 8 125324907.488 8  94807488.567 8
G01  21624368.452 7                  21624372.120 7  21624374.619 8 113636813.961 7                  88548188.847 7  84858682.658 8
G02  24254422.927 6                                                 127457831.564 6                                
G03  20082994.470 8                  20083000.474 8  20082998.320 8 105536842.876 8                  82236526.359 8  78809998.184 8
G04  20574469.950 7                  20574474.012 8  20574474.703 8 108119563.916 7                  84249031.221 8  80738657.231 8
G06  23459841.545 6                  23459849.242 7  23459847.554 8 123282300.434 6                  96064157.245 7  92061479.027 8
G09  22746814.224 7                  22746821.437 7  22746820.391 8 119535314.762 7                  93144707.693 7  89263411.208 8
G17  22955418.855 7                  22955423.577 7                 120631534.984 7                  93998483.920 7
G19  22200729.460 7  22200732.096 6                                 116665614.663 7  90908283.814 6                
G28  23690873.512 7                  23690878.494 7  23690881.091 8 124496368.188 7                  97010184.917 7  92968105.480 8
G31  22229229.195 7                  22229233.379 7                 116815385.603 7                  91024994.748 7
R03  20436788.854 8  20436791.813 7 109399726.697 8  85088531.857 7
R04  19325226.926 8  19325227.830 7 103485704.032 8  80488981.483 7
R05  22281718.707 7  22281722.123 7 119108557.254 7  92640009.157 7
R12  22991462.245 6  22991465.086 5 122816331.945 6  95523789.251 5
R13  23077603.117 6                 123233113.289 6
R18  21915442.545 8  21915447.274 7 116986113.680 8  90989210.765 7
R19  19440539.237 8  19440540.203 8 103993774.559 8  80884023.464 8
R20  21487400.802 6  21487405.549 7 114902793.649 6  89368855.313 7
> 2025 06 15 14 41 15.0000000  0 37
C05  39188035.005 6  39188032.372 6 204062353.350 6 157793971.259 6
C06  38286866.298 6  38286862.297 7 199369768.268 6 154165328.797 7
C09  38630625.044 7  38630622.253 7 201159790.535 7 155549512.098 7
C11  23365631.652 7  23365628.399 8 121670941.338 7  94083798.477 8
C12  22879437.957 7  22879436.049 8 119139214.697 7  92125841.151 8
C16  38873823.649 7  38873823.848 7 202426179.974 7 156528764.545 7
C21  22241615.386 8                 115817909.344 8
C22  22282169.339 8                 116029086.697 8
C34  22530237.545 7                 117320843.959 7
C36  25318204.274 7                 131838529.070 7
C39  38930171.488 7                 202719618.906 7
C42  25697878.581 7                 133815599.170 7
C43  24834438.742 7                 129319412.665 7
C44  24069769.581 7                 125337598.716 7
E03  24477475.148 8  24477478.114 9 128629999.056 8  97307772.278 9
E05  22138293.400 8  22138295.030 9 116337523.602 8  88008546.118 9
E09  27305125.799 7  27305130.406 8 143489411.445 7 108548777.191 8
E15  24076331.006 8  24076333.765 9 126521970.022 8  95713062.825 9
E34  23852670.773 8  23852673.161 9 125346627.812 8  94823919.837 9
G01  21632170.234 7                  21632174.148 7  21632176.479 8 113677813.591 7                  88580136.623 7  84889299.263 8
G02  24264022.708 6                                                 127508279.701 6                                
G03  20085561.290 8                  20085567.219 7  20085565.304 8 105550331.691 8                  82247037.104 7  78820070.997 8
G04  20569581.636 7                  20569585.693 8  20569586.236 8 108093875.526 7                  84229014.307 8  80719474.357 8
G06  23450622.962 7                  23450630.707 7  23450628.866 8 123233857.025 7                  96026409.176 7  92025303.775 8
G09  22737134.584 7                  22737141.406 7  22737140.361 8 119484446.640 7                  93105070.254 7  89225425.334 8
G17  22960730.439 6                  22960734.779 7                 120659445.535 6                  94020232.370 7
G19  22201550.195 7  22201552.735 5                                 116669927.532 7  90911644.515 5                
G28  23696035.638 6                  23696040.652 7  23696043.081 8 124523495.303 6                  97031322.899 7  92988362.729 8
G31  22229358.332 7                  22229362.451 7                 116816061.879 7                  91025521.743 7
R03  20443939.407 8  20443941.752 7 109438002.456 8  85118301.870 7
R04  19323034.180 8  19323035.386 7 103473962.858 8  80479849.479 7
R05  22272010.927 7  22272015.017 7 119056662.771 7  92599646.888 7
R12  22991768.111 6  22991772.358 6 122817971.880 6  95525064.850 6
R13  23069997.614 6                 123192504.24816
R18  21927141.715 7  21927146.022 7 117048564.354 7  91037783.440 7
R19  19442933.078 8  19442933.345 7 104006579.367 8  80893982.744 7
R20  21477883.720 6  21477888.172 7 114851901.368 6  89329272.471 7
> 2025 06 15 14 41 30.0000000  0 37
C05  39187966.617 6  39187963.816 6 204061996.543 6 157793695.370 6
C06  38285945.828 6  38285941.402 7 199364972.862 6 154161620.704 7
C09  38628188.434 6  38628186.587 7 201147107.189 6 155539704.555 7
C11  23362209.942 7  23362206.878 8 121653124.211 7  94070021.146 8
C12  22885356.112 7  22885353.636 8 119170029.154 7  92149668.824 8
C16  38873350.524 7  38873350.988 7 202423718.361 7 156526861.067 7
C21  22238143.352 8                 115799830.000 8
C22  22286976.676 8                 116054119.478 8
C34  22531794.844 7                 117328954.158 7
C36  25312475.999 7                 131808700.482 7
C39  38931044.176 7                 202724164.482 7
C42  25689479.222 7                 133771861.460 7
C43  24827961.570 7                 129285685.834 7
C44  24078741.655 7                 125384317.847 7
E03  24471478.223 7  24471480.939 9 128598483.647 7  97283931.105 9
E05  22140132.887 8  22140134.839 9 116347191.770 8  88015860.003 9
E09  27312827.895 6  27312832.737 8 143529887.056 6 108579396.666 8
E15  24072280.801 8  24072283.703 9 126500686.790 8  95696962.208 9
E34  23856817.885 8  23856820.494 9 125368421.813 8  94840406.863 9
G01  21639987.429 7                  21639991.649 7  21639994.011 8 113718894.787 7                  88612147.888 7  84919976.725 8
G02  24273626.795 6                                                 127558749.559 6                                
G03  20088144.789 8                  20088149.998 8  20088148.064 8 105563905.150 8                  82257613.823 8  78830207.009 8
G04  20564713.459 7                  20564717.098 8  20564718.381 8 108068293.539 7                  84209080.303 8  80700370.931 8
G06  23441413.983 7                  23441421.339 7  23441419.597 8 123185461.547 7                  95988698.480 7  91989164.382 8
G09  22727463.712 7                  22727470.340 7  22727469.536 8 119433626.234 7                  93065469.975 7  89187475.094 8
G17  22966058.962 7                  22966063.926 7                 120687449.207 7                  94042053.376 7
G19  22202399.383 7  22202401.696 6                                 116674390.251 7  90915121.924 6                
G28  23701220.212 7                  23701224.998 7  23701227.604 8 124550740.548 7                  97052552.922 7  93008708.187 8
G31  22229515.619 6                  22229520.657 7                 116816892.247 6                  91026168.831 7
R03  20451102.344 8  20451104.832 7 109476345.629 8  85148124.319 7
R04  19320864.850 8  19320866.020 7 103462343.598 8  80470812.289 7
R05  22262313.364 7  22262317.387 7 119004823.323 7  92559327.361 7
R12  22992112.938 6  22992112.773 6 122819794.936 6  95526482.697 6
R13  23062416.545 6                 123152018.762 6
R18  21938853.660 7  21938858.213 7 117111083.177 7  91086409.114 7
R19  19445362.183 8  19445362.478 7 104019575.111 8  80904090.533 7
R20  21468386.811 6  21468392.250 7 114801118.963 6  89289775.088 7
> 2025 06 15 14 41 45.0000000  0 37
C05  39187895.787 6  39187893.316 6 204061628.852 6 157793411.056 6
C06  38285030.328 6  38285026.078 7 199360206.142 6 154157934.790 7
C09  38625756.742 6  38625755.854 7 201134448.796 6 155529916.309 7
C11  23358809.212 7  23358806.211 8 121635416.164 7  94056328.164 8
C12  22891291.117 7  22891288.734 8 119200935.220 7  92173567.316 8
C16  38872883.177 7  38872883.491 7 202421284.033 7 156524978.713 7
C21  22234683.737 8                 115781815.198 8
C22  22291792.910 8                 116079199.604 8
C34  22533374.688 7                 117337180.291 7
C36  25306761.423 7                 131778943.756 7
C39  38931921.949 7                 202728735.279 7
C42  25681082.533 7                 133728139.366 7
C43  24821500.223 7                 129252039.252 7
C44  24087720.531 7                 125431073.538 7
E03  24465492.113 8  24465494.805 9 128567026.429 8  97260133.953 9
E05  22141986.574 8  22141988.565 9 116356933.288 8  88023229.400 9
E09  27320532.677 7  27320537.462 8 143570374.437 7 108610025.037 8
E15  24068242.888 8  24068245.819 9 126479467.621 8  95680910.064 9
E34  23860979.143 8  23860981.441 9 125390287.688 8  94856948.232 9
G01  21647820.482 7                  21647824.147 7  21647826.838 8 113760055.417 7                  88644221.074 7  84950713.532 8
G02  24283234.497 5                                                 127609238.991 5                                
G03  20090743.126 8                  20090748.786 7  20090746.950 8 105577561.394 8                  82268255.042 7  78840404.856 8
G04  20559865.116 7                  20559869.104 8  20559870.286 8 108042816.226 7                  84189227.875 8  80681345.688 8
G06  23432213.443 7                  23432220.474 7  23432219.295 8 123137112.585 7                  95951023.978 7  91953059.652 8
G09  22717801.906 7                  22717808.350 7  22717807.666 8 119382851.951 7                  93025905.646 7  89149559.290 8
G17  22971405.318 7                  22971410.036 7                 120715543.881 7                  94063945.315 7
G19  22203276.778 7  22203279.183 5                                 116679001.077 7  90918714.770 5                
G28  23706427.249 7                  23706431.797 7  23706433.847 8 124578101.864 7                  97073873.410 7  93029140.319 8
G31  22229701.652 6                  22229707.221 7                 116817874.701 6                  91026934.445 7
R03  20458276.915 8  20458280.021 7 109514753.972 8  85177997.477 7
R04  19318717.151 8  19318718.590 7 103450844.361 8  80461868.419 7
R05  22252625.491 7  22252629.711 7 118953036.844 7  92519049.060 7
R12  22992484.897 6  22992488.224 6 122821799.196 6  95528041.657 6
R13  23054858.057 6                 123111655.105 6
R18  21950577.931 7  21950582.494 7 117173667.880 7  91135086.048 7
R19  19447826.862 8  19447827.202 7 104032759.986 8  80914345.456 7
R20  21458910.921 6  21458914.980 7 114750444.449 6  89250361.620 7
> 2025 06 15 14 42  0.0000000  0 37
C05  39187823.363 6  39187820.935 6 204061251.521 6 157793119.291 6
C06  38284120.685 6  38284116.654 7 199355469.431 6 154154272.069 7
C09  38623331.592 7  38623329.648 7 201121816.621 7 155520148.335 7
C11  23355429.722 7  23355426.917 8 121617818.718 7  94042720.708 8
C12  22897244.022 7  22897241.620 8 119231933.842 7  92197537.404 8
C16  38872421.312 7  38872421.586 7 202418878.248 7 156523118.406 7
C21  22231236.848 8                 115763866.224 8
C22  22296618.450 8                 116104328.269 8
C34  22534977.102 8                 117345523.591 8
C36  25301061.257 7                 131749260.477 7
C39  38932805.061 7                 202733332.533 7
C42  25672689.450 7                 133684434.218 7
C43  24815054.523 7                 129218474.437 7
C44  24096706.916 7                 125477866.781 7
E03  24459517.319 8  24459520.023 9 128535628.755 8  97236381.835 9
E05  22143854.885 8  22143856.505 9 116366749.320 8  88030655.179 9
E09  27328239.803 7  27328244.568 8 143610874.671 7 108640663.184 8
E15  24064217.680 8  24064220.442 9 126458313.985 8  95664907.488 9
E34  23865153.669 8  23865156.305 9 125412226.614 8  94873544.894 9
G01  21655668.439 7                  21655671.607 7  21655674.354 8 113801296.631 7                  88676357.092 7  84981510.494 8
G02  24292845.416 5                                                 127659749.104 5                                
G03  20093357.747 8                  20093363.464 8  20093361.784 8 105591301.649 8                  82278961.744 8  78850665.446 8
G04  20555037.083 7                  20555041.029 8  20555042.217 8 108017444.985 7                  84169458.097 8  80662399.676 8
G06  23423022.020 7                  23423028.955 7  23423027.819 8 123088811.662 7                  95913386.917 7  91916990.846 8
G09  22708148.861 7                  22708155.178 7  22708154.652 8 119332125.270 7                  92986378.416 7  89111679.033 8
G17  22976769.006 7                  22976773.755 7                 120743730.453 7                  94085908.848 7
G19  22204182.813 7  22204185.320 6                                 116683761.130 7  90922423.905 6                
G28  23711656.148 6                  23711660.592 7  23711662.789 8 124605580.279 6                  97095285.127 7  93049659.902 8
G31  22229918.579 7                  22229922.919 7                 116819010.758 7                  91027819.707 7
R03  20465464.349 8  20465467.300 7 109553228.407 8  85207922.013 7
R04  19316592.049 8  19316593.900 7 103439466.415 8  80453018.930 7
R05  22242948.339 7  22242951.967 7 118901305.329 7  92478813.446 7
R12  22992893.118 6  22992898.054 6 122823986.141 6  95529742.712 6
R13  23047322.078 6                 123071415.273 6
R18  21962314.914 8  21962318.677 7 117236319.234 8  91183814.834 7
R19  19450327.216 8  19450328.168 8 104046135.319 8  80924748.474 8
R20  21449455.076 6  21449459.460 7 114699880.128 6  89211033.807 7
> 2025 06 15 14 42 15.0000000  0 37
C05  39187747.870 6  39187745.421 6 204060859.504 6 157792816.172 6
C06  38283215.979 6  38283211.880 7 199350757.619 6 154150628.603 7
C09  38620910.189 7  38620907.865 7 201109205.665 7 155510396.753 7
C11  23352070.619 7  23352067.552 8 121600326.946 7  94029194.974 8
C12  22903213.536 7  22903211.353 8 119263019.767 7  92221575.014 8
C16  38871963.439 7  38871963.925 7 202416495.896 7 156521276.225 7
C21  22227801.475 8                 115745977.987 8
C22  22301452.721 8                 116129500.286 8
C34  22536600.983 7                 117353978.951 7
C36  25295373.542 7                 131719645.858 7
C39  38933691.859 7                 202737951.179 7
C42  25664298.604 7                 133640741.042 7
C43  24808623.538 7                 129184986.612 7
C44  24105699.270 7                 125524692.248 7
E03  24453553.264 8  24453555.616 8 128504285.628 8  97212670.993 8
E05  22145735.832 8  22145737.610 9 116376634.704 8  88038133.387 9
E09  27335948.624 7  27335952.900 8 143651382.541 7 108671307.074 8
E15  24060203.525 8  24060206.594 9 126437220.934 8  95648950.742 9
E34  23869341.849 8  23869344.042 9 125434233.511 8  94890192.948 9
G01  21663530.613 7                  21663534.127 7  21663536.763 8 113842613.083 7                  88708551.709 7  85012363.663 8
G02  24302460.527 5                                                 127710274.63815                                
G03  20095987.597 8                  20095993.364 8  20095991.564 8 105605120.782 8                  82289729.882 8  78860984.932 8
G04  20550228.490 7                  20550232.486 8  20550233.348 8 107992174.842 7                  84149767.086 8  80643529.130 8
G06  23413839.340 7                  23413846.171 7  23413844.676 8 123040554.011 7                  95875783.575 7  91880954.315 8
G09  22698503.742 7                  22698510.373 7  22698509.717 8 119281441.302 7                  92946884.456 7  89073830.665 8
G17  22982148.859 7                  22982153.855 7                 120772003.580 7                  94107939.841 7
G19  22205115.973 7  22205118.088 6                                 116688665.123 7  90926245.160 6                
G28  23716906.597 6                  23716911.053 7  23716912.998 8 124633170.471 6                  97116783.959 7  93070262.940 8
G31  22230163.066 7                  22230166.408 7                 116820295.300 7                  91028820.625 7
R03  20472663.273 8  20472665.765 7 109591763.268 8  85237893.541 7
R04  19314489.523 8  19314490.465 7 103428204.555 8  80444259.695 7
R05  22233279.989 7  22233283.231 7 118849623.169 7  92438616.262 7
R12  22993336.140 6  22993341.686 6 122826350.473 6  95531581.607 6
R13  23039808.717 6                 123031294.554 6
R18  21974062.890 8  21974067.737 7 117299031.647 8  91232591.113 7
R19  19452862.650 8  19452863.373 8 104059695.673 8  80935295.404 8
R20  21440018.873 6  21440022.861 7 114649421.220 6  89171788.031 7
> 2025 06 15 14 42 30.0000000  0 36
C05  39187670.559 6  39187668.386 6 204060457.906 6 157792505.638 6
C06  38282316.855 6  38282312.723 7 199346075.686 6 154147008.260 7
C09  38618493.231 7  38618490.841 7 201096620.905 7 155500665.438 7
C11  23348732.643 7  23348729.565 8 121582946.003 7  94015754.943 8
C12  22909201.230 7  22909198.808 8 119294197.957 7  92245683.953 8
C16  38871511.897 7  38871511.733 7 202414142.033 7 156519456.061 7
C21  22224378.862 8                 115728155.579 8
C22  22306296.015 8                 116154720.505 8
C34  22538247.131 7                 117362551.323 7
C36  25289700.534 7                 131690105.139 7
C39  38934583.843 7                 202742596.175 7
C42  25655910.916 7                 133597064.963 7
C43  24802208.030 7                 129151581.004 7
C44  24114698.726 7                 125571554.736 7
E03  24447599.837 8  24447602.592 9 128473002.253 8  97189005.338 9
E05  22147631.039 8  22147632.850 9 116386594.330 8  88045667.786 9
E09  27343659.357 7  27343663.748 8 143691902.922 7 108701960.472 8
E15  24056202.125 8  24056205.278 9 126416193.721 8  95633043.784 9
E34  23873543.614 8  23873545.649 9 125456313.359 8  94906896.204 9
G01  21671407.892 7                  21671412.025 7  21671414.106 8 113884009.656 7                  88740808.753 7  85043276.661 8
G02  24312079.412 5                                                                                                
G03  20098633.352 8                  20098638.794 8  20098637.086 8 105619023.825 8                  82300563.436 8  78871367.050 8
G04  20545440.026 7                  20545444.343 8  20545444.769 8 107967010.923 7                  84130158.874 8  80624737.904 8
G06  23404665.334 7                  23404672.424 7  23404670.775 8 122992344.982 7                  95838218.138 7  91844954.107 8
G09  22688868.234 7                  22688874.753 7  22688873.955 8 119230805.301 7                  92907427.882 7  89036018.111 8
G17  22987547.053 7                  22987551.094 7                 120800368.203 7                  94130042.074 7
G19  22206077.526 7  22206079.675 6                                 116693718.118 7  90930182.569 6                
G28  23722178.630 7                  23722183.094 7  23722185.701 8 124660877.285 7                  97138373.685 7  93090953.087 8
G31  22230437.000 8                  22230439.907 6                 116821733.482 8                  91029941.260 6
R03  20479874.187 8  20479876.576 7 109630363.642 8  85267916.052 7
R04  19312408.880 8  19312410.124 7 103417063.688 8  80435594.563 7
R05  22223621.547 7  22223625.430 7 118797995.891 7  92398461.777 7
R13  23032318.481 6                 122991298.448 6
R18  21985823.434 8  21985828.258 7 117361809.936 8  91281418.611 7
R19  19455432.734 8  19455433.368 7 104073446.227 8  80945990.270 7
R20  21430603.531 6  21430608.474 7 114599073.493 6  89132628.727 7
> 2025 06 15 14 42 45.0000000  0 37
C05  39187592.390 6  39187589.758 6 204060049.474 6 157792189.821 6
C06  38281423.724 6  38281419.850 7 199341426.542 6 154143413.251 7
C09  38616082.016 7  38616079.592 7 201084065.241 7 155490956.591 7
C11  23345416.763 7  23345413.770 8 121565678.897 7  94002402.919 8
C12  22915206.801 7  22915204.767 8 119325470.951 7  92269866.200 8
C16  38871065.722 7  38871065.959 6 202411819.456 7 156517660.110 6
C21  22220969.287 8                 115710401.846 8
C22  22311149.061 8                 116179991.714 8
C34  22539916.163 7                 117371243.551 7
C36  25284042.597 7                 131660641.475 7
C39  38935481.509 7                 202747270.356 7
C42  25647527.294 7                 133553408.918 7
C43  24795809.264 7                 129118260.745 7
C44  24123705.647 7                 125618456.786 7
E03  24441658.490 8  24441661.450 9 128441781.538 8  97165387.107 9
E05  22149540.971 8  22149542.762 9 116396631.011 8  88053260.479 9
E09  27351372.808 7  27351377.353 8 143732438.613 7 108732625.418 8
E15  24052214.245 8  24052217.021 9 126395235.382 8  95617188.962 9
E34  23877759.624 8  23877761.673 9 125478469.056 8  94923656.837 9
G01  21679301.286 7                  21679305.165 7  21679307.583 8 113925489.021 7                  88773130.324 7  85074251.504 8
G02  24321702.622 5                                                                                                
G03  20101295.383 8                  20101300.891 8  20101299.193 8 105633013.594 8                  82311464.531 8  78881813.972 8
G04  20540672.304 7                  20540676.487 8  20540676.987 8 107941956.250 7                  84110635.749 8  80606028.255 8
G06  23395500.992 7                  23395508.210 7  23395506.912 8 122944187.805 7                  95800693.107 7  91808992.620 8
G09  22679242.062 7                  22679248.620 7  22679248.116 8 119180220.408 7                  92868011.119 7  88998243.732 8
G17  22992962.217 7                  22992966.919 7                 120828826.805 7                  94152217.563 7
G19  22207067.930 7  22207070.479 6                                 116698922.933 7  90934238.244 6                
G28  23727473.946 6                  23727478.281 7  23727480.610 8 124688703.373 6                  97160056.367 7  93111732.305 8
G31  22230740.801 7                  22230743.766 7                 116823328.279 7                  91031183.881 7
R03  20487097.591 8  20487100.755 7 109669032.135 8  85297991.552 7
R04  19310351.778 8  19310352.543 8 103406046.870 8  80427025.951 8
R05  22213974.434 7  22213978.119 7 118746426.793 7  92358352.534 7
R12  22994323.452 6  22994328.276 6 122831638.87016  95535687.750 6
R13  23024852.707 6                 122951430.671 6
R18  21997597.073 8  21997601.218 7 117424656.503 8  91330299.212 7
R19  19458038.865 8  19458039.230 7 104087389.906 8  80956835.339 7
R20  21421209.775 6  21421214.175 7 114548840.564 6  89093558.686 7
> 2025 06 15 14 43  0.0000000  0 37
C05  39187512.312 6  39187509.445 6 204059631.632 6 157791866.719 6
C06  38280537.077 6  38280532.746 7 199336807.544 6 154139841.534 7
C09  38613675.737 7  38613673.711 7 201071536.011 7 155481268.190 7
C11  23342122.432 7  23342119.296 8 121548523.234 7  93989137.092 8
C12  22921229.478 7  22921228.157 8 119356835.902 7  92294119.551 8
C16  38870624.926 7  38870625.510 6 202409525.541 7 156515886.318 6
C21  22217572.837 8                 115692714.174 8
C22  22316011.227 8                 116205311.140 8
C34  22541608.174 7                 117380052.912 7
C36  25278398.704 7                 131631252.490 7
C39  38936384.259 7                 202751971.091 7
C42  25639146.387 7                 133509770.307 7
C43  24789426.529 7                 129085023.437 7
C44  24132720.278 7                 125665395.531 7
E03  24435729.019 8  24435731.707 9 128410620.932 8  97141814.348 9
E05  22151464.811 8  22151466.811 9 116406742.009 8  88060909.378 9
E09  27359088.390 7  27359093.321 8 143772986.732 7 108763299.789 8
E15  24048238.367 8  24048241.443 9 126374343.438 8  95601384.355 9
E34  23881989.463 8  23881991.629 8 125500697.912 8  94940472.821 8
G01  21687209.789 7                  21687213.557 7  21687216.136 8 113967048.320 7                  88805514.185 7  85105286.027 8
G02  24331329.003 5                                                                                                
G03  20103973.575 8                  20103979.355 7  20103977.254 8 105647087.420 8                  82322431.146 7  78892323.627 8
G04  20535924.836 7                  20535928.642 8  20535929.305 8 107917008.219 7                  84091195.749 8  80587398.253 8
G06  23386345.882 7                  23386353.837 7  23386352.290 8 122896080.126 7                  95763206.650 7  91773068.102 8
G09  22669625.505 7                  22669631.710 7  22669631.368 8 119129684.117 7                  92828632.215 7  88960505.637 8
G17  22998394.933 7                  22998399.345 7                 120857376.414 7                  94174464.009 7
G19  22208086.625 7  22208089.160 6                                 116704276.868 7  90938410.146 6                
G28  23732791.017 7                  23732795.709 7  23732797.973 8 124716645.917 7                  97181829.734 7  93132598.444 8
G31  22231073.239 7                  22231076.894 7                 116825076.897 7                  91032546.416 7
R03  20494333.219 8  20494336.226 7 109707765.770 8  85328117.679 7
R04  19308316.876 8  19308318.051 7 103395151.357 8  80418551.680 7
R05  22204337.818 7  22204341.740 7 118694913.103 7  92318286.372 7
R12  22994870.298 6  22994873.873 6 122834554.058 6  95537955.122 6
R13  23017410.177 6                 122911688.936 6
R18  22009382.365 8  22009386.577 7 117487568.026 8  91379230.350 7
R19  19460682.021 8  19460681.498 7 104101523.782 8  80967828.332 7
R20  21411836.539 6  21411841.456 7 114498720.081 6  89054576.093 7
> 2025 06 15 14 43 15.0000000  0 37
C05  39187429.774 6  39187427.463 6 204059202.242 6 157791534.690 6
C06  38279655.211 7  38279651.064 7 199332216.456 7 154136291.430 7
C09  38611274.658 7  38611272.187 7 201059031.048 7 155471598.564 7
C11  23338848.721 7  23338845.688 8 121531476.893 7  93975955.786 8
C12  22927270.324 7  22927268.644 8 119388290.504 7  92318442.214 8
C16  38870189.048 7  38870190.104 7 202407258.084 7 156514132.993 7
C21  22214188.287 8                 115675090.379 8
C22  22320882.384 8                 116230676.496 8
C34  22543322.247 7                 117388977.200 7
C36  25272768.902 7                 131601936.307 7
C39  38937291.721 7                 202756696.115 7
C42  25630769.378 7                 133466147.028 7
C43  24783059.089 7                 129051867.120 7
C44  24141740.707 7                 125712368.534 7
E03  24429810.258 7  24429813.019 9 128379518.372 7  97118285.476 9
E05  22153402.662 8  22153404.564 9 116416924.951 8  88068612.690 9
E09  27366806.126 7  27366811.194 8 143813544.983 7 108793981.797 8
E15  24044275.231 8  24044278.101 9 126353515.872 8  95585628.451 9
E34  23886233.016 8  23886235.163 9 125522997.688 8  94957342.444 9
G01  21695133.056 7                  21695137.138 7  21695139.256 8 114008685.205 7                  88837958.455 7  85136378.450 8
G02  24340959.268 5                                                 127912583.35515                                
G03  20106667.651 8                  20106673.047 8  20106671.034 8 105661243.037 8                  82333461.493 8  78902894.384 8
G04  20531197.284 7                  20531200.805 8  20531202.213 8 107892164.726 7                  84071837.198 8  80568846.317 8
G06  23377200.784 7                  23377207.657 7  23377206.570 8 122848020.054 7                  95725757.256 7  91737179.131 8
G09  22660017.363 7                  22660024.134 7  22660023.432 8 119079194.469 7                  92789289.646 7  88922802.369 8
G17  23003844.830 7                  23003849.414 7                 120886014.542 7                  94196779.434 7
G19  22209133.190 7  22209135.885 5                                 116709777.591 7  90942696.439 5                
G28  23738130.151 6                  23738134.582 7  23738137.297 8 124744702.392 6                  97203691.882 7  93153549.688 8
G31  22231434.311 6                  22231438.823 7                 116826977.010 6                  91034027.050 7
R03  20501580.541 8  20501583.373 7 109746562.257 8  85358292.712 7
R04  19306304.743 8  19306305.750 7 103384374.804 8  80410169.897 7
R05  22194710.352 7  22194714.638 7 118643452.868 7  92278261.832 7
R12  22995448.939 6  22995454.630 6 122837649.729 6  95540362.890 6
R13  23009990.935 6                 122872071.680 6
R18  22021179.742 8  22021184.222 7 117550542.141 8  91428210.129 7
R19  19463359.369 8  19463359.558 8 104115845.581 8  80978967.547 8
R20  21402484.566 6  21402489.072 7 114448710.041 6  89015679.444 7
> 2025 06 15 14 43 30.0000000  0 37
C05  39187345.169 6  39187342.352 6 204058761.155 6 157791193.618 6
C06  38278778.598 6  38278774.697 7 199327653.165 6 154132762.820 7
C09  38608878.178 7  38608875.390 7 201046550.283 7 155461947.655 7
C11  23335595.712 7  23335593.428 8 121514539.899 7  93962859.022 8
C12  22933327.930 7  22933326.320 8 119419834.334 7  92342833.872 8
C16  38869758.192 7  38869759.612 7 202405016.949 7 156512400.023 7
C21  22210815.790 8                 115657530.365 8
C22  22325762.381 8                 116256087.513 8
C34  22545057.968 7                 117398016.162 7
C36  25267152.794 7                 131572693.063 7
C39  38938203.668 6                 202761445.270 6
C42  25622394.810 7                 133422539.067 7
C43  24776707.394 7                 129018791.931 7
C44  24150767.583 7                 125759375.393 7
E03  24423902.273 7  24423905.353 9 128348473.752 7  97094800.449 9
E05  22155353.864 8  22155355.980 9 116427179.609 8  88076370.286 9
E09  27374526.021 7  27374530.934 8 143854113.018 7 108824671.226 8
E15  24040323.932 8  24040327.003 9 126332752.720 8  95569921.258 9
E34  23890490.019 8  23890492.155 9 125545368.182 8  94974265.566 9
G01  21703071.342 7                  21703075.197 7  21703077.294 8 114050399.249 7                  88870462.901 7  85167528.526 8
G02  24350593.253 5                                                                                                
G03  20109376.719 8                  20109382.413 8  20109380.540 8 105675480.275 8                  82344555.445 8  78913526.087 8
G04  20526489.329 7                  20526493.080 8  20526494.588 8 107867425.772 7                  84052560.105 8  80550372.463 8
G06  23368064.171 7                  23368071.397 7  23368070.125 7 122800007.773 7                  95688345.129 7  91701325.847 7
G09  22650418.864 6                  22650425.151 7  22650424.220 8 119028751.513 6                  92749983.509 7  88885133.982 8
G17  23009311.567 7                  23009316.021 7                 120914741.085 7                  94219163.731 7
G19  22210208.202 7  22210210.607 6                                 116715424.886 7  90947096.926 6                
G28  23743490.560 7                  23743495.292 7  23743498.166 8 124772872.435 7                  97225642.580 7  93174585.754 8
G31  22231824.797 7                  22231828.987 7                 116829028.498 7                  91035625.729 7
R03  20508839.795 8  20508842.579 7 109785420.732 8  85388515.964 7
R04  19304314.246 8  19304315.389 7 103373716.871 8  80401880.408 7
R05  22185094.224 7  22185097.991 7 118592046.191 7  92238278.939 7
R12  22996061.901 6  22996068.890 6 122840925.980 6  95542911.059 6
R13  23002595.104 6                 122832578.857 6
R18  22032988.385 7  22032992.973 7 117613578.106 7  91477238.028 7
R19  19466071.511 8  19466072.324 8 104130354.965 8  80990252.617 8
R20  21393152.868 6  21393157.326 7 114398810.682 6  88976868.857 7
> 2025 06 15 14 43 45.0000000  0 37
C05  39187258.813 6  39187256.192 6 204058312.290 6 157790846.532 6
C06  38277908.677 6  38277904.620 7 199323121.553 6 154129258.686 7
C09  38606486.767 7  38606483.821 7 201034097.578 7 155452318.427 7
C11  23332365.261 7  23332362.323 8 121497716.424 7  93949850.057 8
C12  22939403.742 7  22939401.823 8 119451471.135 7  92367297.438 8
C16  38869334.567 7  38869335.037 7 202402806.019 7 156510690.402 7
C21  22207456.596 8                 115640038.039 8
C22  22330651.870 8                 116281547.956 8
C34  22546816.567 8                 117407173.732 8
C36  25261551.764 7                 131543526.943 7
C39  38939121.145 7                 202766222.485 7
C42  25614023.825 7                 133378950.412 7
C43  24770371.734 7                 128985801.990 7
C44  24159802.186 7                 125806419.760 7
E03  24418006.717 7  24418009.494 8 128317491.121 7  97071362.299 8
E05  22157319.724 8  22157321.784 9 116437509.863 8  88084185.051 9
E09  27382248.552 7  27382253.188 8 143894694.700 7 108855370.958 8
E15  24036385.839 8  24036388.961 9 126312058.068 8  95554265.899 9
E34  23894761.238 8  23894763.356 9 125567813.346 8  94991245.176 9
G01  21711024.423 7                  21711028.461 7  21711030.750 8 114092194.204 7                  88903030.413 7  85198739.044 8
G02  24360232.822 4                                                                                                
G03  20112102.290 8                  20112107.820 8  20112106.103 8 105689803.040 8                  82355716.044 8  78924221.657 8
G04  20521802.203 7                  20521806.427 8  20521807.503 8 107842795.419 7                  84033367.606 8  80531979.673 8
G06  23358937.508 7                  23358944.727 7  23358943.175 8 122752047.536 7                  95650973.549 7  91665511.421 8
G09  22640829.332 7                  22640835.693 7  22640834.601 8 118978359.410 7                  92710716.988 7  88847503.573 8
G17  23014795.386 7                  23014800.082 7                 120943559.320 7                  94241619.469 7
G19  22211311.342 7  22211314.290 6                                 116721222.581 7  90951614.597 6                
G28  23748873.401 6                  23748878.052 7  23748880.996 8 124801159.783 6                  97247684.660 7  93195709.411 8
G31  22232244.598 7                  22232249.021 7                 116831235.591 7                  91037345.538 7
R03  20516111.462 8  20516113.824 7 109824345.034 8  85418790.417 7
R04  19302346.803 8  19302348.128 7 103363181.766 8  80393686.446 7
R05  22175488.511 7  22175492.991 7 118540697.148 7  92198340.836 7
R12  22996710.301 6  22996716.062 6 122844386.571 6  95545602.623 6
R13  22995223.546 6                 122793215.105 6
R18  22044809.400 7  22044813.634 7 117676679.612 7  91526316.902 7
R19  19468819.653 8  19468820.471 7 104145056.050 8  81001686.751 7
R20  21383843.141 6  21383847.640 7 114349027.428 6  88938148.557 7
> 2025 06 15 14 44  0.0000000  0 36
C05  39187171.380 6  39187169.042 6 204057858.469 6 157790495.615 6
C06  38277044.748 6  38277040.789 7 199318624.471 6 154125781.248 7
C09  38604101.590 7  38604098.642 7 201021675.831 7 155442713.137 7
C11  23329156.738 7  23329154.132 8 121481009.372 7  93936931.121 8
C12  22945498.113 7  22945495.334 8 119483203.563 7  92391834.929 8
C16  38868916.334 7  38868916.681 7 202400628.124 7 156509006.330 7
C21  22204111.001 8                 115622616.245 8
C22  22335551.228 8                 116307060.526 8
C34  22548598.529 7                 117416452.634 7
C36  25255965.926 7                 131514441.037 7
C39  38940044.221 7                 202771030.449 7
C42  25605657.267 7                 133335383.918 7
C43  24764053.525 7                 128952900.400 7
C44  24168844.340 7                 125853504.181 7
E03  24412122.795 7  24412126.048 9 128286573.410 7  97047973.277 9
E05  22159300.498 8  22159302.491 9 116447918.408 8  88092059.061 9
E09  27389974.652 7  27389978.829 8 143935292.590 7 108886082.977 8
E15  24032461.525 8  24032464.526 9 126291434.962 8  95538664.669 9
E34  23899047.229 8  23899049.305 9 125590335.968 8  95008283.380 9
G01  21718993.928 7                  21718997.830 7  21718999.817 8 114134072.798 7                  88935663.008 7  85230011.955 8
G03  20114844.602 8                  20114850.063 8  20114848.171 8 105704214.153 8                  82366945.456 8  78934983.196 8
G04  20517136.275 7                  20517140.979 8  20517141.436 8 107818276.579 7                  84014262.033 8  80513670.156 8
G06  23349821.882 7                  23349828.946 7  23349827.110 7 122704142.505 7                  95613644.988 7  91629738.209 7
G09  22631250.055 7                  22631256.617 7  22631255.407 8 118928021.243 7                  92671492.464 7  88809913.436 8
G17  23020297.334 7                  23020302.456 7                 120972472.007 7                  94264148.787 7
G19  22212443.813 7  22212446.562 6                                 116727173.390 7  90956251.574 6                
G28  23754279.139 7                  23754284.254 7  23754286.767 8 124829567.049 7                  97269820.170 7  93216922.605 8
G31  22232694.771 7                  22232699.399 7                 116833601.061 7                  91039188.768 7
R03  20523395.475 8  20523398.428 7 109863337.972 8  85449118.246 7
R04  19300402.491 8  19300404.177 7 103352772.027 8  80385590.022 7
R05  22165893.752 7  22165898.093 7 118489408.704 7  92158449.835 7
R12  22997394.684 6  22997398.597 6 122848034.535 6  95548439.880 6
R13  22987876.600 6                 122753984.033 6
R18  22056643.174 7  22056647.224 7 117739848.978 7  91575448.582 7
R19  19471604.097 8  19471603.890 7 104159951.446 8  81013272.021 7
R20  21374556.142 6  21374560.434 7 114299362.916 6  88899520.618 7
> 2025 06 15 14 44 15.0000000  0 37
C05  39187083.384 6  39187081.241 6 204057400.006 6 157790141.101 6
C06  38276187.876 6  38276183.691 7 199314162.150 6 154122330.698 7
C09  38601721.976 7  38601718.998 7 201009285.286 7 155433131.987 7
C11  23325970.795 7  23325967.936 8 121464419.167 7  93924102.542 8
C12  22951609.881 7  22951607.998 8 119515031.663 7  92416446.424 8
C16  38868503.870 7  38868505.108 7 202398483.489 7 156507347.962 7
C21  22200779.000 8                 115605265.273 8
C22  22340460.545 8                 116332625.403 8
C34  22550403.446 7                 117425853.059 7
C36  25250395.853 7                 131485435.839 7
C39  38940973.466 7                 202775869.474 7
C42  25597295.417 7                 133291839.983 7
C43  24757752.514 7                 128920087.634 7
C44  24177893.771 7                 125900628.652 7
E03  24406252.182 7  24406255.032 9 128255720.996 7  97024633.640 9
E05  22161296.548 8  22161298.118 9 116458405.425 8  88099992.416 9
E09  27397703.509 7  27397707.624 8 143975906.898 7 108916807.407 8
E15  24028550.475 8  24028553.777 9 126270883.816 8  95523117.877 9
E34  23903347.612 8  23903350.045 9 125612936.275 8  95025380.358 9
G01  21726979.006 7                  21726983.015 7  21726985.315 8 114176034.995 7                  88968360.813 7  85261347.355 8
G02  24379520.105 5                                                 128115214.85815                                
G03  20117603.504 8                  20117609.196 7  20117607.389 8 105718713.797 8                  82378243.868 7  78945810.836 8
G04  20512492.165 7                  20512496.556 8  20512496.560 8 107793869.564 7                  83995243.640 8  80495444.170 8
G06  23340716.295 7                  23340723.320 7  23340721.471 7 122656293.264 7                  95576359.899 7  91594006.676 7
G09  22621681.062 7                  22621688.012 7  22621686.575 8 118877737.489 7                  92632310.340 7  88772363.896 8
G17  23025817.083 7                  23025821.863 7                 121001479.142 7                  94286751.692 7
G19  22213605.430 7  22213608.028 6                                 116733277.482 7  90961007.997 6                
G28  23759707.748 7                  23759712.799 7  23759715.317 8 124858094.253 7                  97292049.121 7  93238225.368 8
G31  22233175.328 8                  22233179.241 7                 116836125.094 8                  91041155.531 7
R03  20530692.191 8  20530695.125 7 109902399.326 8  85479499.257 7
R04  19298482.459 8  19298484.045 7 103342488.252 8  80377591.538 7
R05  22156310.654 7  22156315.009 7 118438181.388 7  92118606.424 7
R12  22998113.367 6  22998116.887 6 122851870.060 6  95551423.058 6
R13  22980554.989 6                 122714886.333 6
R18  22068489.582 7  22068493.604 7 117803086.155 7  91624633.003 7
R19  19474425.452 8  19474425.058 7 104175041.412 8  81025008.693 7
R20  21365290.122 6  21365295.651 7 114249817.854 6  88860985.613 7
> 2025 06 15 14 44 30.0000000  0 37
C05  39186994.706 6  39186991.941 6 204056937.708 6 157789783.636 6
C06  38275337.635 6  38275333.535 7 199309735.370 6 154118907.627 7
C09  38599348.407 7  38599345.666 7 200996926.794 7 155423575.626 7
C11  23322807.335 7  23322804.686 8 121447946.774 7  93911365.064 8
C12  22957740.469 7  22957738.477 8 119546956.017 7  92441132.330 8
C16  38868098.713 7  38868099.412 7 202396372.919 7 156505715.933 7
C21  22197460.692 8                 115587985.932 8
C22  22345380.325 8                 116358243.256 8
C34  22552232.354 7                 117435375.769 7
C36  25244841.212 7                 131456512.508 7
C39  38941909.083 7                 202780740.298 7
C42  25588937.777 7                 133248319.476 7
C43  24751468.009 7                 128887364.765 7
C44  24186951.626 7                 125947793.734 7
E03  24400393.482 7  24400396.627 9 128224934.753 7  97001344.072 9
E05  22163306.995 8  22163308.767 9 116468971.626 8  88107985.673 9
E09  27405435.730 7  27405439.645 8 144016538.270 7 108947544.759 8
E15  24024653.833 8  24024656.921 9 126250405.672 8  95507626.284 9
E34  23907663.619 8  23907665.704 9 125635615.072 8  95042536.706 9
G01  21734980.258 7                  21734984.153 8  21734986.406 8 114218081.490 7                  89001124.295 8  85292745.661 8
G02  24389171.253 4                                                                                                
G03  20120379.973 8                  20120385.596 7  20120383.678 8 105733302.761 8                  82389611.897 7  78956705.193 8
G04  20507869.125 7                  20507873.143 8  20507873.781 8 107769575.366 7                  83976313.104 8  80477302.411 8
G06  23331621.769 7                  23331628.522 7  23331626.580 8 122608500.962 7                  95539119.185 7  91558317.628 8
G09  22612123.328 7                  22612129.990 7  22612128.535 8 118827509.081 7                  92593171.388 7  88734855.727 8
G17  23031354.886 7                  23031359.767 7                 121030581.148 7                  94309428.545 7
G19  22214796.256 7  22214798.817 6                                 116739535.727 7  90965884.526 6                
G28  23765159.115 6                  23765164.068 7  23765166.565 8 124886741.953 6                  97314372.020 7  93259618.126 8
G31  22233685.989 7                  22233689.553 7                 116838808.549 7                  91043246.481 7
R03  20538002.611 8  20538005.154 7 109941530.067 8  85509934.276 7
R04  19296585.363 8  19296587.118 7 103332330.934 8  80369691.392 7
R05  22146739.020 7  22146743.406 7 118387016.519 7  92078811.557 7
R12  22998863.562 6  22998867.871 6 122855893.911 6  95554552.783 6
R13  22973258.072 6                 122675923.081 6
R18  22080348.864 7  22080352.808 7 117866391.306 7  91673870.281 7
R19  19477282.884 8  19477283.186 8 104190326.666 8  81036897.258 8
R20  21356048.022 6  21356052.667 7 114200394.271 6  88822545.074 7
> 2025 06 15 14 44 45.0000000  0 36
C05  39186904.865 6  39186902.395 6 204056469.960 6 157789421.938 6
C06  38274494.376 6  38274490.270 7 199305342.632 6 154115510.894 7
C09  38596980.477 7  38596978.176 7 200984598.759 7 155414042.853 7
C11  23319666.315 7  23319663.691 8 121431590.819 7  93898717.613 8
C12  22963889.884 7  22963887.338 8 119578974.826 7  92465891.275 8
C16  38867700.078 7  38867700.609 7 202394294.803 7 156504109.019 7
C21  22194155.704 8                 115570776.641 8
C22  22350309.735 8                 116383912.392 8
C34  22554084.344 8                 117445019.159 8
C36  25239302.444 7                 131427669.629 7
C39  38942849.878 7                 202785641.296 7
C42  25580583.949 6                 133204820.935 6
C43  24745201.327 7                 128854730.472 7
C44  24196017.442 7                 125994997.544 7
E03  24394547.247 8  24394550.514 9 128194213.201 8  96978103.433 9
E05  22165332.100 8  22165334.184 9 116479615.267 8  88116037.516 9
E09  27413170.596 7  27413174.571 8 144057184.938 7 108978293.688 8
E15  24020770.749 8  24020773.700 9 126229999.067 8  95492188.834 9
E34  23911993.585 8  23911996.019 9 125658370.721 8  95059751.192 9
G01  21742997.225 7                  21743001.134 7  21743003.036 8 114260210.401 7                  89033952.012 7  85324205.558 8
G03  20123172.912 8                  20123178.624 8  20123176.407 8 105747979.428 8                  82401048.272 8  78967665.044 8
G04  20503267.264 7                  20503270.865 8  20503272.221 8 107745392.466 7                  83957469.308 8  80459243.765 8
G06  23322537.649 7                  23322544.349 7  23322542.716 7 122560764.285 7                  95501921.814 7  91522670.164 7
G09  22602575.498 7                  22602581.786 7  22602580.803 8 118777334.731 7                  92554074.528 7  88697387.915 8
G17  23036910.820 7                  23036914.997 7                 121059776.221 7                  94332177.947 7
G19  22216016.121 7  22216018.172 5                                 116745946.324 7  90970879.788 5                
G28  23770633.582 6                  23770638.170 7  23770640.477 8 124915508.381 6                  97336787.362 7  93281099.515 8
G31  22234226.624 7                  22234230.141 7                 116841649.813 7                  91045460.420 7
R03  20545324.779 8  20545328.003 7 109980727.754 8  85540421.339 7
R04  19294711.992 8  19294713.607 7 103322298.532 8  80361888.414 7
R05  22137178.526 7  22137182.954 7 118335912.078 7  92039063.735 7
R12  22999653.837 6  22999656.184 6 122860104.441 6  95557827.604 6
R13  22965986.646 6                 122637093.319 6
R18  22092220.395 7  22092225.321 7 117929762.637 7  91723159.052 7
R19  19480175.812 8  19480176.923 8 104205805.598 8  81048936.381 8
R20  21346828.312 6  21346832.356 7 114151090.287 6  88784197.539 7
> 2025 06 15 14 45  0.0000000  0 36
C05  39186814.120 6  39186811.601 6 204055998.036 6 157789057.038 6
C06  38273657.218 6  38273653.152 7 199300985.081 6 154112141.361 7
C09  38594619.716 7  38594616.748 7 200972302.441 7 155404534.578 7
C11  23316547.646 7  23316545.316 8 121415352.637 7  93886161.241 8
C12  22970056.752 7  22970054.410 8 119611089.119 7  92490724.085 8
C16  38867307.341 7  38867308.070 7 202392250.370 7 156502528.145 7
C21  22190864.524 8                 115553638.688 8
C22  22355249.216 8                 116409633.932 8
C34  22555959.825 7                 117454784.343 7
C36  25233778.929 7                 131398908.782 7
C39  38943797.215 7                 202790573.722 7
C42  25572234.396 6                 133161345.549 6
C43  24738951.420 7                 128822186.178 7
C44  24205089.248 7                 126042241.129 7
E03  24388714.366 7  24388716.976 8 128163557.669 7  96954912.754 8
E05  22167372.575 8  22167374.566 8 116490337.541 8  88124148.850 8
E09  27420908.461 7  27420912.615 8 144097848.063 7 109009055.043 8
E15  24016901.320 8  24016904.331 9 126209665.409 8  95476806.576 9
E34  23916338.632 8  23916341.130 9 125681204.423 8  95077024.718 9
G01  21751029.977 7                  21751034.105 7  21751035.928 8 114302422.841 7                  89066844.791 7  85355727.803 8
G03  20125982.545 8                  20125988.224 8  20125986.068 8 105762745.010 8                  82412553.915 8  78978691.278 8
G04  20498686.637 7                  20498690.362 8  20498691.922 8 107721322.219 7                  83938713.265 8  80441269.228 8
G06  23313464.594 7                  23313471.723 7  23313469.278 8 122513084.815 7                  95464769.039 7  91487065.423 8
G09  22593038.008 7                  22593044.509 7  22593043.667 8 118727215.872 7                  92515020.908 7  88659961.530 8
G17  23042484.435 7                  23042488.576 7                 121089065.396 7                  94355000.631 7
G19  22217265.335 7  22217266.919 5                                 116752510.451 7  90975994.704 5                
G28  23776130.400 7                  23776134.926 7  23776137.419 8 124944394.477 7                  97359296.011 7  93302670.300 8
G31  22234797.521 7                  22234801.267 7                 116844650.142 7                  91047798.350 7
R03  20552660.575 8  20552663.287 7 110019994.081 8  85570961.800 7
R04  19292862.022 8  19292863.578 7 103312391.986 8  80354183.337 7
R05  22127630.619 7  22127633.960 7 118284869.743 7  91999364.172 7
R12  23000477.243 7  23000481.563 6 122864503.016 7  95561248.766 6
R13  22958740.478 7                 122598398.934 7
R18  22104104.848 7  22104109.374 7 117993200.862 7  91772499.822 7
R19  19483106.560 8  19483106.620 8 104221479.360 8  81061127.040 8
R20  21337630.847 6  21337635.486 7 114101908.148 6  88745944.829 7
> 2025 06 15 14 45 15.0000000  0 36
C05  39186722.524 6  39186720.162 6 204055520.181 6 157788687.532 6
C06  38272826.750 6  38272822.767 7 199296660.858 6 154108797.616 7
C09  38592263.996 7  38592261.044 7 200960036.039 7 155395049.450 7
C11  23313451.736 7  23313449.160 8 121399230.608 7  93873694.680 8
C12  22976241.784 7  22976239.802 8 119643296.896 7  92515629.152 8
C16  38866920.780 7  38866921.715 7 202390237.812 7 156500971.917 7
C21  22187586.662 8                 115536570.241 8
C22  22360198.334 8                 116435405.899 8
C34  22557857.918 7                 117464669.515 7
C36  25228271.046 7                 131370228.404 7
C39  38944750.262 7                 202795535.711 7
C42  25563889.849 7                 133117891.757 7
C43  24732718.502 7                 128789730.350 7
C44  24214168.936 7                 126089522.342 7
E03  24382893.003 8  24382895.630 9 128132966.410 8  96931770.697 9
E05  22169427.578 8  22169429.555 9 116501136.490 8  88132318.163 9
E09  27428649.041 7  27428653.307 8 144138525.576 7 109039827.300 8
E15  24013045.432 8  24013048.523 9 126189403.070 8  95461478.257 9
E34  23920698.451 8  23920700.817 9 125704114.319 8  95094355.908 9
G01  21759078.164 7                  21759081.856 8  21759084.233 8 114344716.759 7                  89099801.063 8  85387310.895 8
G03  20128808.718 8                  20128814.535 8  20128812.402 8 105777597.637 8                  82424127.379 8  78989782.511 8
G04  20494127.239 7                  20494131.237 8  20494132.704 8 107697362.827 7                  83920043.610 8  80423377.511 8
G06  23304401.750 7                  23304408.812 7  23304406.522 7 122465461.055 7                  95427659.660 7  91451502.266 7
G09  22583511.332 7                  22583517.246 7  22583516.527 8 118677150.839 7                  92476009.224 7  88622575.357 8
G17  23048075.779 7                  23048079.744 7                 121118446.423 7                  94377894.920 7
G19  22218543.149 7  22218545.315 6                                 116759226.106 7  90981227.667 6                
G28  23781649.858 7                  23781654.364 7  23781656.517 8 124973398.234 7                  97381896.291 7  93324328.916 8
G31  22235398.224 6                  22235402.187 7                 116847807.558 6                  91050258.699 7
R03  20560008.096 8  20560010.414 7 110059326.316 8  85601553.520 7
R04  19291035.285 8  19291037.084 7 103302609.852 8  80346575.012 7
R05  22118093.216 7  22118096.223 7 118233887.990 7  91959711.734 7
R12  23001336.119 7  23001338.795 6 122869087.720 7  95564814.568 6
R13  22951519.175 7                 122559838.625 7
R18  22116001.323 7  22116006.463 7 118056703.845 7  91821890.917 7
R19  19486072.702 8  19486072.395 7 104237345.804 8  81073467.637 7
R20  21328455.998 6  21328460.130 7 114052846.479 6  88707785.729 7
> 2025 06 15 14 45 30.0000000  0 36
C05  39186630.519 6  39186628.305 6 204055041.124 6 157788317.096 6
C06  38272003.873 7  38271999.665 7 199292374.826 7 154105483.391 7
C09  38589914.937 7  38589912.135 7 200947804.362 7 155385591.177 7
C11  23310379.105 7  23310376.288 8 121383229.595 7  93861321.688 8
C12  22982446.086 7  22982443.807 8 119675602.698 7  92540610.016 8
C16  38866541.132 7  38866542.135 7 202388261.858 7 156499443.979 7
C21  22184323.306 8                 115519576.077 8
C22  22365158.305 8                 116461232.954 8
C34  22559780.315 7                 117474679.329 7
C36  25222779.813 7                 131341633.540 7
C39  38945710.200 7                 202800532.002 7
C42  25555550.510 7                 133074464.275 7
C43  24726503.462 7                 128757368.023 7
C44  24223257.383 7                 126136845.711 7
E03  24377084.703 8  24377087.426 9 128102444.322 8  96908680.948 9
E05  22171497.975 8  22171500.034 9 116512016.748 8  88140549.020 9
E09  27436392.472 6  27436397.567 8 144179222.223 6 109070613.988 8
E15  24009204.448 8  24009207.236 9 126169217.003 8  95446207.635 9
E34  23925073.434 8  23925075.822 9 125727105.174 8  95111748.335 9
G01  21767143.098 7                  21767146.745 7  21767148.490 8 114387096.711 7                  89132824.383 7  85418958.244 8
G03  20131652.649 8                  20131658.453 8  20131656.406 8 105792542.019 8                  82435772.361 8  79000942.288 8
G04  20489590.204 7                  20489594.500 8  20489595.040 8 107673519.234 7                  83901464.190 8  80405572.244 8
G06  23295351.043 7                  23295358.003 7  23295355.836 8 122417898.079 7                  95390597.630 7  91415984.510 8
G09  22573994.956 7                  22574001.525 7  22574000.621 8 118627144.694 7                  92437043.458 7  88585233.141 8
G17  23053685.186 7                  23053689.116 7                 121147923.894 7                  94400864.396 7
G19  22219850.698 7  22219853.311 6                                 116766098.106 7  90986582.475 6                
G28  23787192.417 7                  23787196.592 7  23787198.987 8 125002524.123 7                  97404591.777 7  93346078.757 8
G31  22236029.984 7                  22236033.903 7                 116851126.984 7                  91052845.311 7
R03  20567368.989 8  20567371.210 7 110098729.123 8  85632200.136 7
R04  19289232.747 8  19289233.517 7 103292956.463 8  80339066.830 7
R05  22108568.347 7  22108571.932 7 118182971.728 7  91920110.296 7
R12  23002227.989 6  23002233.653 6 122873863.278 6  95568528.910 6
R13  22944324.129 6                 122521417.396 6
R18  22127910.275 7  22127915.025 7 118120275.806 7  91871335.748 7
R19  19489075.342 8  19489075.213 7 104253409.827 8  81085961.900 7
R20  21319304.586 6  21319308.544 7 114003910.229 6  88669724.223 7
> 2025 06 15 14 45 45.0000000  0 37
C05  39186537.570 6  39186535.000 6 204054557.195 6 157787942.904 6
C06  38271187.142 7  38271183.333 7 199288123.276 7 154102195.823 7
C09  38587571.933 7  38587569.128 7 200935603.763 7 155376156.922 7
C11  23307328.597 7  23307325.930 8 121367346.102 7  93849039.569 8
C12  22988668.326 7  22988665.935 8 119708002.678 7  92565663.729 8
C16  38866167.845 7  38866168.823 7 202386318.828 7 156497941.529 7
C21  22181073.473 8                 115502652.567 8
C22  22370127.742 8                 116487111.339 8
C34  22561725.989 7                 117484810.069 7
C36  25217304.334 7                 131313120.754 7
C39  38946674.976 7                 202805558.856 7
C42  25547214.636 7                 133031059.550 7
C43  24720306.027 7                 128725095.742 7
C44  24232352.384 7                 126184207.314 7
E03  24371289.289 7  24371291.677 9 128071987.780 7  96885640.807 9
E05  22173583.220 8  22173585.257 9 116522974.579 8  88148838.556 9
E09  27444139.898 6  27444144.820 8 144219934.110 6 109101412.202 8
E15  24005376.931 8  24005379.785 9 126149103.677 8  95430992.047 9
E34  23929463.154 8  23929465.577 9 125750173.265 8  95129199.180 9
G01  21775222.903 7                  21775227.026 7  21775229.284 8 114429558.839 7                  89165911.749 7  85450666.959 8
G02  24437490.056 5                                                 128419875.69215                                
G03  20134513.148 8                  20134518.881 7  20134516.974 8 105807574.451 8                  82447485.944 7  79012167.805 8
G04  20485074.272 7                  20485078.849 8  20485078.677 8 107649787.810 7                  83882972.204 8  80387850.751 8
G06  23286310.730 7                  23286318.254 7  23286315.983 8 122370392.594 7                  95353580.409 7  91380509.662 8
G09  22564489.744 7                  22564496.119 7  22564495.324 8 118577193.935 7                  92398120.822 7  88547932.282 8
G17  23059311.899 7                  23059316.373 7                 121177493.824 7                  94423905.854 7
G19  22221187.459 7  22221190.025 6                                 116773122.626 7  90992056.097 6                
G28  23792757.050 7                  23792761.482 7  23792763.798 8 125031768.318 7                  97427379.425 7  93367916.913 8
G31  22236691.690 7                  22236696.200 7                 116854604.807 7                  91055555.320 7
R03  20574741.820 8  20574744.617 7 110138198.472 8  85662898.512 7
R04  19287453.714 8  19287454.725 7 103283428.398 8  80331656.108 7
R05  22099054.988 7  22099058.127 7 118132117.206 7  91880556.807 7
R12  23003159.622 7  23003162.277 6 122878826.126 7  95572388.957 6
R13  22937154.734 6                 122483132.099 6
R18  22139831.950 7  22139836.604 7 118183912.641 7  91920830.990 7
R19  19492114.177 8  19492115.160 8 104269667.758 8  81098606.971 8
R20  21310175.852 6  21310180.479 7 113955096.123 6  88631757.749 7
> 2025 06 15 14 46  0.0000000  0 37
C05  39186445.332 6  39186442.694 6 204054076.077 6 157787570.881 6
C06  38270378.837 6  38270375.004 7 199283913.852 6 154098940.829 7
C09  38585236.355 7  38585233.404 7 200923441.876 7 155366752.590 7
C11  23304302.575 7  23304299.628 8 121351587.956 7  93836854.375 8
C12  22994909.432 7  22994907.925 8 119740504.235 7  92590795.967 8
C16  38865802.134 7  38865803.584 7 202384416.389 7 156496470.454 7
C21  22177838.240 8                 115485807.405 8
C22  22375108.924 8                 116513048.602 8
C34  22563696.030 8                 117495069.319 8
C36  25211845.878 7                 131284698.037 7
C39  38947647.504 7                 202810623.917 7
C42  25538884.621 7                 132987685.375 7
C43  24714126.860 7                 128692921.396 7
C44  24241456.614 7                 126231614.573 7
E03  24365507.295 8  24365509.910 9 128041604.635 8  96862656.186 9
E05  22175684.840 8  22175686.675 9 116534017.600 8  88157192.533 9
E09  27451891.159 6  27451896.326 8 144260668.822 6 109132227.665 8
E15  24001565.079 8  24001567.662 9 126129071.029 8  95415837.488 9
E34  23933868.893 8  23933871.517 9 125773326.281 8  95146714.275 9
G01  21783320.400 7                  21783324.541 8  21783326.841 8 114472110.692 7                  89199068.983 8  85482442.656 8
G02  24447170.289 5                                                                                                
G03  20137392.145 8                  20137397.826 8  20137395.738 8 105822702.616 8                  82459274.134 8  79023464.815 8
G04  20480581.050 7                  20480585.629 8  20480585.246 8 107626176.429 7                  83864573.760 8  80370218.882 8
G06  23277282.271 7                  23277290.524 7  23277288.518 8 122322952.609 7                  95316614.230 7  91345083.739 8
G09  22554996.655 7                  22555002.922 7  22555002.163 8 118527306.473 7                  92359247.514 7  88510678.712 8
G17  23064957.966 7                  23064962.668 7                 121207163.695 7                  94447025.211 7
G19  22222554.979 7  22222557.194 6                                 116780307.267 7  90997654.520 6                
G28  23798345.927 7                  23798350.471 7  23798352.905 8 125061138.188 7                  97450265.047 7  93389848.976 8
G31  22237384.756 7                  22237389.641 7                 116858248.700 7                  91058394.749 7
R03  20582128.780 8  20582131.830 7 110177741.908 8  85693654.494 7
R04  19285698.499 8  19285699.998 7 103274033.152 8  80324348.712 7
R05  22089554.272 7  22089558.188 7 118081332.523 7  91841057.690 7
R12  23004123.499 6  23004127.707 6 122883984.037 6  95576400.565 6
R13  22930011.840 7                 122444991.280 7
R18  22151766.822 7  22151771.069 7 118247621.717 7  91970382.421 7
R19  19495191.515 8  19495192.083 8 104286127.311 8  81111408.777 8
R20  21301072.433 6  21301076.995 7 113906413.545 6  88593893.542 7
> 2025 06 15 14 46 15.0000000  0 37
C05  39186352.344 6  39186349.833 6 204053593.732 6 157787197.910 6
C06  38269578.480 7  38269573.635 6 199279742.440 7 154095715.243 6
C09  38582907.547 7  38582904.372 7 200911314.636 7 155357375.049 7
C11  23301299.643 7  23301296.939 8 121335951.185 7  93824763.035 8
C12  23001170.107 7  23001167.937 8 119773103.138 7  92616003.481 8
C16  38865444.032 7  38865445.224 7 202382550.437 7 156495027.580 7
C21  22174617.272 8                 115469036.445 8
C22  22380100.579 8                 116539040.485 8
C34  22565689.977 7                 117505452.897 7
C36  25206403.881 7                 131256361.514 7
C39  38948627.152 7                 202815723.086 7
C42  25530560.435 7                 132944337.688 7
C43  24707966.198 7                 128660841.127 7
C44  24250568.351 7                 126279063.078 7
E03  24359738.753 8  24359741.328 9 128011290.825 8  96839724.013 9
E05  22177801.567 8  22177803.481 9 116545141.525 8  88165607.716 9
E09  27459646.950 7  27459651.437 8 144301422.002 7 109163057.148 8
E15  23997767.538 8  23997770.138 9 126109115.063 8  95400740.935 9
E34  23938289.711 8  23938292.783 9 125796560.051 8  95164290.453 9
G01  21791433.901 7                  21791438.263 7  21791440.288 8 114514747.880 7                  89232292.745 7  85514282.085 8
G02  24456853.895 5                                                 128521624.24115                                
G03  20140288.172 8                  20140293.884 7  20140292.273 8 105837922.370 8                  82471133.679 7  79034830.215 8
G04  20476109.979 7                  20476114.276 8  20476114.451 8 107602680.994 7                  83846265.661 8  80352673.603 8
G06  23268267.049 7                  23268274.616 7  23268272.648 8 122275574.298 7                  95279696.105 7  91309703.864 8
G09  22545514.229 7                  22545520.664 7  22545520.348 8 118477478.411 7                  92320420.469 7  88473469.481 8
G17  23070622.264 7                  23070626.635 7                 121236929.082 7                  94470218.977 7
G19  22223951.799 7  22223953.465 5                                 116787647.772 7  91003374.383 5                
G28  23803957.998 7                  23803962.355 7  23803965.195 8 125090629.488 7                  97473245.254 7  93411871.642 8
G31  22238109.051 7                  22238114.077 7                 116862054.486 7                  91061360.269 7
R03  20589529.160 8  20589532.396 7 110217355.298 8  85724464.904 7
R04  19283968.737 8  19283969.696 7 103264766.672 8  80317141.446 7
R05  22080065.777 7  22080070.402 7 118030613.665 7  91801609.718 7
R12  23005122.925 6  23005128.372 6 122889332.562 6  95580560.608 6
R13  22922895.123 7                 122406990.992 7
R18  22163713.985 7  22163718.592 7 118311398.483 7  92019986.546 7
R19  19498305.391 8  19498305.806 7 104302783.905 8  81124363.888 7
R20  21291992.058 6  21291996.284 7 113857857.906 6  88556128.018 7
> 2025 06 15 14 46 30.0000000  0 36
C05  39186259.443 6  39186256.822 6 204053108.350 6 157786822.577 6
C06  38268783.684 7  38268779.360 7 199275607.268 7 154092517.656 7
C09  38580585.339 7  38580581.830 7 200899220.334 7 155348022.976 7
C11  23298319.589 7  23298316.887 8 121320434.240 7  93812764.358 8
C12  23007448.415 7  23007446.619 8 119805797.401 7  92641284.720 8
C16  38865092.323 7  38865093.413 7 202380719.120 7 156493611.520 7
C21  22171410.745 8                 115452337.958 8
C22  22385102.040 8                 116565085.139 8
C34  22567707.613 8                 117515959.014 8
C36  25200978.715 7                 131228109.709 7
C39  38949612.139 7                 202820854.530 7
C42  25522240.713 7                 132901014.756 7
C43  24701823.400 7                 128628853.398 7
C44  24259687.883 7                 126326550.797 7
E03  24353982.754 7  24353985.630 8 127981044.609 7  96816842.965 8
E05  22179933.796 8  22179935.332 9 116556344.494 8  88174082.675 9
E09  27467404.991 7  27467409.550 8 144342191.768 7 109193899.188 8
E15  23993984.293 8  23993986.916 9 126089234.180 8  95385701.176 9
E34  23942726.132 8  23942729.070 9 125819872.737 8  95181926.343 9
G01  21799563.394 7                  21799567.735 8  21799569.854 8 114557468.408 7                  89265581.445 8  85546183.758 8
G03  20143201.648 8                  20143207.094 7  20143205.539 8 105853231.846 8                  82483063.140 7  79046262.617 8
G04  20471660.609 7                  20471664.356 8  20471665.444 8 107579299.852 7                  83828046.574 8  80335213.671 8
G06  23259262.839 6                  23259270.686 7  23259268.523 8 122228256.202 6                  95242824.885 7  91274368.946 8
G09  22536043.404 7                  22536049.888 7  22536049.132 8 118427708.147 7                  92281638.486 7  88436303.409 8
G17  23076304.384 7                  23076308.829 7                 121266787.921 7                  94493485.584 7
G19  22225377.942 7  22225379.370 5                                 116795142.242 7  91009214.220 5                
G28  23809592.672 7                  23809596.860 7  23809600.357 8 125120240.065 7                  97496318.444 7  93433983.450 8
G31  22238864.314 7                  22238868.566 7                 116866020.340 7                  91064450.508 7
R03  20596941.960 8  20596944.821 7 110257036.474 8  85755328.041 7
R04  19282261.805 8  19282262.619 7 103255626.843 8  80310032.702 7
R05  22070590.212 7  22070594.186 7 117979959.211 7  91762211.827 7
R12  23006162.637 7  23006165.323 6 122894870.028 7  95584867.581 6
R13  22915805.258 7                 122369130.174 7
R18  22175674.208 7  22175678.700 7 118375240.634 7  92069641.460 7
R19  19501455.255 8  19501455.792 7 104319635.853 8  81137470.976 7
R20  21282935.376 6  21282939.859 7 113809427.886 6  88518460.282 7
> 2025 06 15 14 46 45.0000000  0 36
C05  39186165.357 6  39186162.346 6 204052618.456 6 157786443.767 6
C06  38267996.541 6  38267991.859 7 199271506.823 6 154089346.936 7
C09  38578268.443 7  38578265.188 7 200887157.479 7 155338695.197 7
C11  23295362.377 7  23295359.985 8 121305035.668 7  93800857.227 8
C12  23013745.134 7  23013743.152 8 119838585.216 7  92666638.344 8
C16  38864747.204 7  38864748.405 7 202378921.019 7 156492221.119 7
C21  22168217.684 8                 115435710.483 8
C22  22390113.674 8                 116591180.929 8
C34  22569748.426 7                 117526586.101 7
C36  25195569.472 7                 131199941.421 7
C39  38950602.699 7                 202826016.746 7
C42  25513925.333 7                 132857715.244 7
C43  24695697.679 7                 128596956.994 7
C44  24268814.971 7                 126374076.026 7
E03  24348239.562 7  24348242.568 9 127950864.631 7  96794012.026 9
E05  22182080.057 8  22182081.929 9 116567624.895 8  88182616.226 9
E09  27475166.544 7  27475170.624 8 144382976.457 7 109224752.528 8
E15  23990215.242 8  23990217.722 9 126069427.028 8  95370717.216 9
E34  23947177.365 8  23947180.079 9 125843262.811 8  95199620.764 9
G01  21807708.691 7                  21807712.711 7  21807714.982 8 114600270.592 7                  89298933.761 7  85578146.376 8
G03  20146132.140 8                  20146137.325 8  20146135.448 8 105868629.548 8                  82495061.338 8  79057760.883 8
G04  20467232.829 7                  20467236.630 8  20467237.957 8 107556031.584 7                  83809915.456 8  80317838.033 8
G06  23250269.664 6                  23250276.986 7  23250275.360 8 122180997.117 6                  95205999.684 7  91239078.120 8
G09  22526582.899 7                  22526589.378 7  22526588.684 8 118377994.379 7                  92242900.528 7  88399179.559 8
G17  23082003.642 7                  23082008.397 7                 121296738.462 7                  94516823.629 7
G19  22226833.291 7  22226835.373 5                                 116802789.086 7  91015172.787 5                
G28  23815249.782 7                  23815253.687 7  23815257.634 8 125149968.300 7                  97519483.261 7  93456183.082 8
G31  22239649.325 7                  22239653.075 7                 116870144.780 7                  91067664.349 7
R03  20604366.713 8  20604369.891 7 110296783.348 8  85786242.229 7
R04  19280577.813 8  19280579.433 8 103246612.236 8  80303021.347 8
R05  22061126.164 7  22061129.615 7 117929367.534 7  91722862.779 7
R12  23007233.053 7  23007238.657 7 122900594.928 7  95589320.298 7
R13  22908740.791 7                 122331407.361 7
R18  22187645.436 7  22187650.835 7 118439146.155 7  92119345.695 7
R19  19504641.875 8  19504642.253 7 104336681.324 8  81150728.556 7
R20  21273902.008 6  21273906.703 7 113761123.073 6  88480889.912 7
> 2025 06 15 14 47  0.0000000  0 36
C05  39186069.984 6  39186067.281 6 204052121.988 6 157786059.876 6
C06  38267215.328 6  38267210.913 6 199267439.086 6 154086201.510 6
C09  38575957.962 7  38575954.142 7 200875123.960 7 155329390.106 7
C11  23292427.811 7  23292424.967 8 121289753.637 7  93789040.194 8
C12  23020059.711 7  23020056.828 8 119871464.474 7  92692062.632 8
C16  38864407.987 7  38864408.788 7 202377154.017 7 156490854.755 7
C21  22165037.923 8                 115419151.941 8
C22  22395134.265 8                 116617325.687 8
C34  22571812.132 7                 117537331.995 7
C36  25190175.303 7                 131171854.805 7
C39  38951600.120 7                 202831207.610 7
C42  25505614.001 6                 132814437.137 6
C43  24689589.567 6                 128565150.044 6
C44  24277948.039 7                 126421636.382 7
E03  24342509.047 7  24342511.744 8 127920748.846 7  96771229.646 8
E05  22184240.681 8  22184242.847 8 116578980.491 8  88191206.648 8
E09  27482929.679 7  27482934.269 7 144423773.856 7 109255615.503 7
E15  23986459.684 8  23986462.203 9 126049691.726 8  95355787.586 9
E34  23951642.792 8  23951645.387 9 125866728.133 8  95217372.119 9
G01  21815868.640 7                  21815872.477 7  21815874.290 8 114643152.108 7                  89332347.916 7  85610168.257 8
G03  20149078.408 8                  20149083.692 7  20149081.784 8 105884113.276 8                  82507126.571 7  79069323.401 8
G04  20462826.198 7                  20462830.130 8  20462831.368 8 107532874.175 7                  83791870.713 8  80300545.173 8
G06  23241287.384 6                  23241294.957 7  23241293.044 8 122133795.288 6                  95169219.070 7  91203830.043 8
G09  22517132.995 6                  22517139.425 7  22517138.781 8 118328335.248 6                  92204205.125 7  88362096.479 8
G17  23087720.011 7                  23087724.509 7                 121326778.310 7                  94540231.240 7
G19  22228316.646 7  22228319.540 6                                 116810586.140 7  91021248.414 6                
G28  23820928.691 7                  23820932.639 7  23820936.314 8 125179811.741 7                  97542737.906 7  93478468.762 8
G31  22240463.497 7                  22240467.619 7                 116874425.622 7                  91071000.091 7
R03  20611803.828 8  20611806.630 7 110336593.634 8  85817205.748 7
R04  19278917.583 8  19278919.347 8 103237720.565 8  80296105.620 8
R05  22051673.335 7  22051675.685 6 117878836.788 7  91683561.089 6
R12  23008341.077 7  23008344.520 7 122906504.943 7  95593916.992 7
R13  22901702.253 7                 122293821.333 7
R18  22199628.380 7  22199632.535 6 118503112.633 7  92169097.327 6
R19  19507864.461 8  19507864.625 7 104353918.271 8  81164135.057 7
R20  21264891.871 6  21264896.009 7 113712941.320 6  88443415.237 7
> 2025 06 15 14 47 15.0000000  0 36
C05  39185973.331 6  39185970.894 6 204051618.771 6 157785670.761 6
C06  38266440.452 6  38266435.524 7 199263403.736 6 154083081.133 7
C09  38573652.641 7  38573649.031 7 200863119.594 7 155320107.592 7
C11  23289515.456 7  23289512.751 8 121274587.995 7  93777313.182 8
C12  23026390.884 7  23026388.707 8 119904434.587 7  92717557.197 8
C16  38864074.651 7  38864075.650 7 202375417.883 7 156489512.276 7
C21  22161871.139 8                 115402662.116 8
C22  22400164.591 8                 116643519.019 8
C34  22573898.577 7                 117548196.420 7
C36  25184797.566 7                 131143849.890 7
C39  38952602.741 7                 202836426.854 7
C42  25497307.159 7                 132771180.255 7
C43  24683498.443 7                 128533432.610 7
C44  24287088.374 7                 126469231.366 7
E03  24336789.938 8  24336793.106 9 127890697.065 8  96748495.707 9
E05  22186415.812 8  22186418.005 9 116590410.922 8  88199853.710 9
E09  27490695.362 7  27490699.973 8 144464583.573 7 109286487.754 8
E15  23982717.736 8  23982720.325 9 126030028.149 8  95340912.214 9
E34  23956122.492 8  23956125.036 9 125890268.415 8  95235180.176 9
G01  21824043.811 7                  21824048.034 8  21824049.324 8 114686112.512 7                  89365823.537 8  85642249.063 8
G03  20152041.017 8                  20152046.488 8  20152044.739 8 105899682.752 8                  82519258.629 8  79080949.967 8
G04  20458440.367 7                  20458444.870 8  20458445.460 8 107509827.422 7                  83773912.239 8  80283334.970 8
G06  23232316.380 6                  23232323.452 7  23232321.932 8 122086650.780 6                  95132483.122 7  91168624.765 8
G09  22507693.510 7                  22507699.745 7  22507699.508 8 118278730.706 7                  92165552.271 7  88325054.189 8
G17  23093453.271 7                  23093458.187 7                 121356906.919 7                  94563708.062 7
G19  22229829.148 7  22229831.660 6                                 116818533.080 7  91027440.805 6                
G28  23826629.840 7                  23826633.552 7  23826637.115 8 125209769.963 7                  97566081.937 7  93500840.144 8
G31  22241307.541 7                  22241311.431 7                 116878862.581 7                  91074457.473 7
R03  20619252.263 8  20619255.176 7 110376466.817 8  85848218.231 7
R04  19277280.201 8  19277281.409 7 103228951.747 8  80289285.420 7
R05  22042232.326 7  22042235.414 7 117828366.636 7  91644306.575 7
R12  23009480.875 7  23009485.683 7 122912599.885 7  95598657.456 7
R13  22894689.327 7                 122256372.158 7
R18  22211623.215 7  22211626.995 6 118567139.164 7  92218895.743 6
R19  19511122.194 8  19511122.973 7 104371345.868 8  81177689.847 7
R20  21255904.487 6  21255909.416 7 113664883.037 6  88406036.609 7
> 2025 06 15 14 47 30.0000000  0 36
C05  39185875.699 6  39185872.920 6 204051110.009 6 157785277.361 6
C06  38265672.022 6  38265666.963 6 199259402.079 6 154079986.803 6
C09  38571353.344 7  38571349.224 7 200851145.656 7 155310848.575 7
C11  23286625.354 7  23286622.953 8 121259540.184 7  93765677.258 8
C12  23032740.240 7  23032737.782 8 119937496.616 7  92743122.826 8
C16  38863747.071 7  38863748.313 7 202373713.793 7 156488194.572 7
C21  22158717.529 8                 115386242.272 8
C22  22405204.036 8                 116669762.114 8
C34  22576007.988 8                 117559180.514 8
C36  25179435.104 7                 131115928.218 7
C39  38953610.499 7                 202841675.733 7
C42  25489004.407 7                 132727945.931 7
C43  24677424.424 7                 128501806.125 7
C44  24296235.467 7                 126516862.030 7
E03  24331083.914 7  24331086.873 9 127860710.720 7  96725811.240 9
E05  22188605.687 8  22188607.606 9 116601917.397 8  88208558.279 9
E09  27498463.517 6  27498468.618 8 144505406.698 6 109317370.137 8
E15  23978989.698 8  23978992.367 9 126010437.750 8  95326092.215 9
E34  23960616.452 8  23960619.181 9 125913884.909 8  95253045.889 9
G01  21832233.992 7                  21832238.564 8  21832239.864 8 114729152.859 7                  89399361.430 8  85674389.548 8
G03  20155020.602 8                  20155025.819 7  20155024.015 8 105915339.268 8                  82531458.493 7  79092641.500 8
G04  20454076.273 7                  20454080.477 8  20454080.733 8 107486892.719 7                  83756041.066 8  80266208.406 8
G06  23223356.093 6                  23223363.004 7  23223361.698 8 122039565.180 6                  95095793.089 7  91133463.497 8
G09  22498265.154 7                  22498271.055 7  22498270.569 8 118229182.229 7                  92126943.104 7  88288053.746 8
G17  23099203.851 7                  23099208.040 7                 121387125.353 7                  94587254.890 7
G19  22231369.943 7  22231372.523 6                                 116826630.996 7  91033750.860 6                
G28  23832352.771 7                  23832356.717 7  23832360.063 8 125239843.963 7                  97589516.188 7  93523297.975 8
G31  22242181.753 7                  22242185.563 7                 116883457.050 7                  91078037.600 7
R03  20626713.196 8  20626715.768 7 110416403.979 8  85879280.447 7
R04  19275665.687 8  19275667.495 7 103220306.810 8  80282561.576 7
R05  22032801.668 7  22032805.753 7 117777958.788 7  91605100.525 7
R12  23010657.943 7  23010660.141 6 122918880.979 7  95603542.717 6
R13  22887702.348 7                 122219061.706 7
R18  22223629.197 7  22223632.987 6 118631226.826 7  92268741.647 6
R19  19514415.970 8  19514416.396 7 104388965.807 8  81191394.238 7
R20  21246940.613 6  21246945.788 7 113616950.425 6  88368755.709 7
> 2025 06 15 14 47 45.0000000  0 36
C05  39185777.628 6  39185775.107 6 204050599.571 6 157784882.658 6
C06  38264910.657 6  38264905.839 6 199255437.897 6 154076921.442 6
C09  38569060.167 7  38569056.585 7 200839205.946 7 155301616.031 7
C11  23283759.255 7  23283756.489 8 121244614.188 7  93754135.541 8
C12  23039107.455 7  23039105.192 8 119970654.207 7  92768762.343 8
C16  38863426.765 7  38863428.171 7 202372045.593 7 156486904.613 7
C21  22155578.733 8                 115369896.229 8
C22  22410254.318 8                 116696058.629 8
C34  22578141.148 8                 117570288.030 8
C36  25174089.859 7                 131088093.841 7
C39  38954625.141 7                 202846957.979 7
C42  25480706.555 7                 132684738.099 7
C43  24671369.875 7                 128470274.593 7
C44  24305390.114 7                 126564531.865 7
E03  24325391.252 8  24325393.781 9 127830793.690 8  96703179.232 9
E05  22190810.607 8  22190812.377 9 116613503.591 8  88217323.156 9
E09  27506235.047 6  27506240.488 8 144546247.021 6 109348265.470 8
E15  23975276.481 8  23975279.090 9 125990924.542 8  95311330.609 9
E34  23965125.570 8  23965128.500 9 125937581.392 8  95270972.112 9
G01  21840440.324 7                  21840444.586 8  21840445.919 8 114772276.810 7                  89432964.485 8  85706592.455 8
G03  20158017.210 8                  20158022.431 7  20158020.598 8 105931086.545 8                  82543729.115 7  79104400.826 8
G04  20449734.080 7                  20449737.984 8  20449738.563 8 107464074.013 7                  83738260.275 8  80249168.463 8
G06  23214407.930 6                  23214414.872 7  23214413.749 8 121992542.679 6                  95059152.208 7  91098349.333 8
G09  22488847.682 7                  22488853.700 7  22488853.146 8 118179693.857 7                  92088380.769 7  88251098.185 8
G17  23104972.225 7                  23104976.400 7                 121417437.005 7                  94610874.338 7
G19  22232940.427 7  22232942.565 5                                 116834883.577 7  91040181.454 5                
G28  23838098.466 7                  23838102.509 7  23838105.804 8 125270037.383 7                  97613043.510 7  93545844.975 8
G31  22243086.636 7                  22243090.607 7                 116888212.733 7                  91081743.317 7
R03  20634186.538 8  20634189.070 7 110456408.822 8  85910395.317 7
R04  19274075.108 8  19274076.780 7 103211789.540 8  80275937.050 7
R05  22023384.509 7  22023388.220 7 117727617.341 7  91565946.134 7
R12  23011869.631 7  23011872.317 7 122925352.095 7  95608575.822 7
R13  22880741.903 7                 122181894.231 7
R18  22235646.921 7  22235651.754 6 118695379.088 7  92318637.734 6
R19  19517746.231 8  19517746.639 7 104406781.796 8  81205251.105 7
R20  21238001.923 6  21238006.325 7 113569147.515 6  88331575.669 7
> 2025 06 15 14 48  0.0000000  0 36
C05  39185678.390 6  39185675.602 6 204050083.464 6 157784483.566 6
C06  38264155.588 6  38264151.235 6 199251507.154 6 154073881.957 6
C09  38566772.662 7  38566769.481 7 200827296.500 7 155292406.874 7
C11  23280915.211 7  23280913.223 8 121229806.095 7  93742684.970 8
C12  23045492.838 7  23045490.760 8 120003903.107 7  92794472.492 8
C16  38863112.121 7  38863113.713 7 202370409.273 7 156485639.301 7
C21  22152453.024 8                 115353620.005 8
C22  22415313.903 8                 116722404.445 8
C34  22580296.945 7                 117581514.926 7
C36  25168760.666 7                 131060343.049 7
C39  38955644.942 7                 202852269.608 7
C42  25472413.375 7                 132641552.806 7
C43  24665331.922 7                 128438834.406 7
C44  24314551.219 7                 126612236.633 7
E03  24319710.842 8  24319713.114 9 127800942.036 8  96680596.682 9
E05  22193029.839 8  22193031.563 9 116625165.406 8  88226145.247 9
E09  27514009.286 6  27514014.503 8 144587100.183 6 109379170.600 8
E15  23971577.060 8  23971579.804 9 125971484.693 8  95296624.497 9
E34  23969649.152 8  23969652.265 9 125961353.833 8  95288955.794 9
G01  21848661.598 7                  21848665.656 8  21848667.142 8 114815480.102 7                  89466629.353 8  85738854.669 8
G03  20161029.981 8                  20161035.563 7  20161033.636 8 105946920.569 8                  82556067.293 7  79116224.941 8
G04  20445412.741 7                  20445416.780 8  20445417.676 8 107441367.356 7                  83720566.789 8  80232212.190 8
G06  23205471.133 6                  23205478.465 7  23205476.773 8 121945579.618 6                  95022557.610 7  91063279.515 8
G09  22479441.148 7                  22479447.324 7  22479446.467 8 118130261.776 7                  92049862.307 7  88214184.663 8
G17  23110756.864 7                  23110761.189 7                 121447837.663 7                  94634563.137 7
G19  22234539.489 7  22234541.316 6                                 116843286.703 7  91046729.318 6                
G28  23843865.784 7                  23843870.203 7  23843873.408 8 125300345.871 7                  97636660.517 7  93568477.925 8
G31  22244022.006 7                  22244026.186 7                 116893125.632 7                  91085571.540 7
R03  20641671.192 8  20641674.114 7 110496476.727 8  85941559.241 7
R04  19272507.490 8  19272508.933 7 103203395.813 8  80269408.618 7
R05  22013978.767 7  22013982.061 7 117677338.093 7  91526840.137 7
R12  23013115.521 7  23013118.506 7 122932008.999 7  95613753.393 7
R13  22873808.009 7                 122144866.124 7
R18  22247675.843 7  22247680.374 6 118759591.289 7  92368580.477 6
R19  19521113.066 8  19521112.765 7 104424789.459 8  81219257.044 7
R20  21229085.480 6  21229090.597 7 113521470.464 6  88294493.565 7
> 2025 06 15 14 48 15.0000000  0 36
C05  39185577.815 6  39185575.133 6 204049559.095 6 157784078.106 6
C06  38263406.751 6  38263402.037 6 199247607.315 6 154070866.350 6
C09  38564489.417 7  38564487.857 7 200815414.733 7 155283219.152 7
C11  23278093.923 7  23278091.309 8 121215113.521 7  93731323.738 8
C12  23051894.753 7  23051892.241 8 120037240.538 7  92820251.087 8
C16  38862804.022 7  38862805.144 7 202368802.235 7 156484396.631 7
C21  22149340.335 8                 115337411.052 8
C22  22420381.944 8                 116748796.895 8
C34  22582475.334 7                 117592858.533 7
C36  25163447.159 7                 131032673.495 7
C39  38956670.224 7                 202857607.993 7
C42  25464123.978 7                 132598387.576 7
C43  24659311.484 7                 128407483.104 7
C44  24323718.446 7                 126659973.479 7
E03  24314041.868 8  24314044.430 9 127771153.261 8  96658061.673 9
E05  22195262.590 8  22195264.625 9 116636900.111 8  88235022.472 9
E09  27521785.781 6  27521790.555 8 144627963.638 6 109410083.455 8
E15  23967891.250 8  23967894.036 9 125952115.754 8  95281972.030 9
E34  23974186.675 8  23974189.991 9 125985199.544 8  95306994.916 9
G01  21856897.462 7                  21856901.594 7  21856903.260 8 114858759.942 7                  89500353.884 7  85771173.982 8
G03  20164059.498 8                  20164064.727 7  20164062.772 8 105962838.658 8                  82568471.020 7  79128111.829 8
G04  20441112.729 7                  20441116.535 8  20441118.023 8 107418770.275 7                  83702958.644 8  80215337.739 8
G06  23196545.467 6                  23196552.551 7  23196550.974 8 121898673.572 6                  94986007.518 7  91028252.335 8
G09  22470044.902 7                  22470050.997 7  22470050.076 8 118080883.595 7                  92011385.819 7  88177311.389 8
G17  23116558.183 7                  23116563.064 7                 121478324.543 7                  94658319.054 7
G19  22236166.768 7  22236168.522 5                                 116851837.618 7  91053392.361 5                
G28  23849654.861 7                  23849659.136 7  23849662.880 8 125330766.605 7                  97660364.976 7  93591194.697 8
G31  22244986.564 7                  22244990.572 7                 116898193.106 7                  91089520.218 7
R03  20649167.542 8  20649170.427 7 110536605.063 8  85972770.148 7
R04  19270962.745 8  19270964.248 7 103195122.937 8  80262974.148 7
R05  22004583.938 7  22004587.929 7 117627118.726 7  91487780.671 7
R12  23014395.110 7  23014399.127 7 122938849.137 7  95619073.469 7
R13  22866898.952 7                 122107975.314 7
R18  22259716.273 7  22259720.082 7 118823860.379 7  92418567.463 7
R19  19524514.964 8  19524514.783 7 104442986.022 8  81233409.938 7
R20  21220193.354 6  21220197.902 7 113473917.344 6  88257507.843 7
> 2025 06 15 14 48 30.0000000  0 36
C05  39185476.097 6  39185473.251 6 204049029.017 6 157783668.217 6
C06  38262663.546 6  38262659.592 6 199243740.915 6 154067876.610 6
C09  38562212.849 6  38562211.807 7 200803563.179 6 155274054.818 7
C11  23275294.261 7  23275292.401 8 121200539.055 7  93720053.853 8
C12  23058314.606 7  23058312.059 8 120070668.853 7  92846099.965 8
C16  38862501.273 7  38862502.707 7 202367227.004 7 156483178.563 7
C21  22146240.915 8                 115321271.887 8
C22  22425459.991 8                 116775238.397 8
C34  22584676.825 7                 117604321.300 7
C36  25158149.173 7                 131005088.013 7
C39  38957701.006 7                 202862975.630 7
C42  25455838.854 7                 132555245.004 7
C43  24653307.643 7                 128376223.471 7
C44  24332892.902 7                 126707744.675 7
E03  24308385.745 8  24308388.244 9 127741429.974 8  96635576.226 9
E05  22197510.142 8  22197512.013 9 116648710.170 8  88243956.707 9
E09  27529564.920 7  27529569.055 8 144668839.597 7 109441005.826 8
E15  23964219.776 8  23964222.289 9 125932820.465 8  95267375.274 9
E34  23978739.073 8  23978742.094 9 126009121.079 8  95325091.377 9
G01  21865148.106 7                  21865152.622 7  21865154.310 8 114902118.643 7                  89534139.857 7  85803552.199 8
G03  20167104.784 8                  20167110.234 8  20167108.555 8 105978843.345 8                  82580942.182 8  79140063.372 8
G04  20436834.275 7                  20436837.854 8  20436839.329 9 107396285.283 7                  83685437.871 8  80198547.042 9
G06  23187630.137 6                  23187638.009 7  23187636.473 8 121851827.547 6                  94949504.151 7  90993269.946 8
G09  22460658.771 7                  22460665.356 7  22460664.621 8 118031562.063 7                  91972953.512 7  88140480.417 8
G17  23122376.721 7                  23122381.343 7                 121508899.853 7                  94682143.999 7
G19  22237822.796 7  22237824.409 5                                 116860538.791 7  91060172.494 5                
G28  23855464.940 7                  23855469.647 7  23855473.332 8 125361301.940 7                  97684158.718 7  93613997.047 8
G31  22245980.773 7                  22245984.894 7                 116903417.708 7                  91093591.321 7
R03  20656675.774 8  20656678.494 7 110576795.753 8  86004029.537 7
R04  19269440.729 8  19269441.689 7 103186973.405 8  80256635.607 7
R05  21995201.335 7  21995204.867 7 117576962.039 7  91448769.923 7
R12  23015710.069 7  23015714.548 7 122945875.077 7  95624538.096 7
R13  22860017.070 7                 122071224.947 7
R18  22271766.876 7  22271770.956 7 118888188.483 7  92468600.391 7
R19  19527952.199 8  19527952.823 8 104461373.793 8  81247711.537 8
R20  21211323.791 6  21211328.823 7 113426491.856 6  88220621.385 7
> 2025 06 15 14 48 45.0000000  0 36
C05  39185373.769 6  39185371.565 6 204048498.566 6 157783258.047 6
C06  38261928.128 6  38261924.435 7 199239913.147 6 154064916.751 7
C09  38559944.790 7  38559943.366 7 200791747.148 7 155264917.917 7
C11  23272519.500 7  23272517.137 8 121186088.115 7  93708879.485 8
C12  23064752.535 7  23064750.164 8 120104193.041 7  92872022.980 8
C16  38862205.738 7  38862207.269 7 202365688.810 7 156481989.142 7
C21  22143155.967 8                 115305207.792 8
C22  22430548.361 8                 116801734.063 8
C34  22586901.797 7                 117615908.451 7
C36  25152868.556 7                 130977592.164 7
C39  38958738.389 7                 202868377.718 7
C42  25447558.856 7                 132512130.389 7
C43  24647323.235 7                 128345061.007 7
C44  24342074.419 7                 126755555.243 7
E03  24302742.805 8  24302745.539 9 127711777.560 8  96613144.400 9
E05  22199772.750 8  22199774.731 9 116660600.708 8  88252951.821 9
E09  27537346.564 7  27537350.592 8 144709733.272 7 109471941.607 8
E15  23960562.579 8  23960565.593 9 125913604.272 8  95252838.353 9
E34  23983306.737 8  23983309.615 9 126033123.658 8  95343249.164 9
G01  21873415.107 7                  21873419.157 7  21873421.356 8 114945561.327 7                  89567991.247 7  85835993.131 8
G03  20170167.579 8                  20170173.357 7  20170171.498 8 105994939.876 8                  82593484.937 7  79152083.507 8
G04  20432578.129 7                  20432581.818 8  20432582.917 8 107373917.814 7                  83668008.740 8  80181844.119 8
G06  23178728.508 6                  23178735.904 7  23178734.205 8 121805047.116 6                  94913051.902 7  90958336.546 8
G09  22451285.057 7                  22451291.611 7  22451290.652 8 117982302.739 7                  91934569.655 7  88103695.869 8
G17  23128212.879 7                  23128217.830 7                 121539568.656 7                  94706041.678 7
G19  22239508.146 7  22239509.983 5                                 116869395.491 7  91067073.805 5                
G28  23861299.063 7                  23861302.911 7  23861307.009 8 125391956.890 7                  97708045.663 7  93636888.698 8
G31  22247005.643 7                  22247009.780 7                 116908804.670 7                  91097788.956 7
R03  20664196.252 8  20664199.484 7 110617054.130 8  86035341.593 7
R04  19267942.778 8  19267944.739 7 103178952.827 8  80250397.413 7
R05  21985831.387 7  21985834.610 7 117526873.629 7  91409812.349 7
R12  23017060.775 7  23017065.560 7 122953091.979 7  95630151.212 7
R13  22853162.168 7                 122034620.656 7
R18  22283830.201 7  22283833.786 7 118952580.706 7  92518683.122 7
R19  19531426.112 8  19531426.542 8 104479958.349 8  81262166.165 8
R20  21202479.735 6  21202484.967 7 113379199.176 6  88183838.208 7
> 2025 06 15 14 49  0.0000000  0 36
C05  39185271.930 6  39185269.748 6 204047967.692 6 157782847.535 6
C06  38261200.760 6  38261196.692 6 199236124.048 6 154061986.781 6
C09  38557683.173 7  38557680.878 7 200779966.694 7 155255808.539 7
C11  23269768.326 7  23269765.517 8 121171760.929 7  93697800.797 8
C12  23071209.241 7  23071206.542 8 120137812.890 7  92898019.950 8
C16  38861917.257 7  38861919.234 7 202364187.628 7 156480828.339 7
C21  22140085.368 8                 115289218.785 8
C22  22435646.973 8                 116828283.792 8
C34  22589150.782 7                 117627619.869 7
C36  25147605.857 7                 130950186.116 7
C39  38959782.171 7                 202873814.263 7
C42  25439284.593 7                 132469043.888 7
C43  24641357.709 7                 128313995.972 7
C44  24351263.232 7                 126803404.900 7
E03  24297114.033 8  24297116.351 9 127682196.108 8  96590766.249 9
E05  22202050.587 8  22202052.698 9 116672571.684 8  88262007.776 9
E09  27545132.115 7  27545135.619 7 144750644.606 7 109502890.732 7
E15  23956921.167 8  23956923.956 9 125894467.371 8  95238361.420 9
E34  23987889.616 8  23987892.623 9 126057207.258 8  95361468.236 9
G01  21881697.987 7                  21881701.808 7  21881704.052 8 114989087.743 7                  89601907.928 7  85868496.604 8
G03  20173248.268 8                  20173253.773 7  20173252.196 8 106011128.185 8                  82606099.203 7  79164172.186 8
G04  20428343.914 7                  20428348.151 8  20428348.621 8 107351668.014 7                  83650671.237 8  80165229.031 8
G06  23169838.699 6                  23169846.124 7  23169844.918 8 121758332.621 6                  94876651.020 7  90923452.370 8
G09  22441923.510 6                  22441929.707 7  22441928.656 8 117933105.711 6                  91896234.352 7  88066957.877 8
G17  23134066.230 7                  23134071.791 7                 121570330.399 7                  94730011.866 7
G19  22241222.766 7  22241225.439 5                                 116878407.601 7  91074096.200 5                
G28  23867155.268 7                  23867158.998 6  23867162.439 7 125422731.170 7                  97732025.647 6  93659869.485 7
G31  22248061.225 6                  22248065.434 7                 116914354.005 6                  91102113.152 7
R03  20671729.643 8  20671732.139 7 110657380.168 8  86066706.250 7
R04  19266468.786 8  19266470.649 7 103171060.668 8  80244259.085 7
R05  21976473.604 8  21976477.713 7 117476853.673 8  91370907.983 7
R12  23018447.988 7  23018452.003 7 122960499.923 7  95635912.900 7
R13  22846334.885 7                 121998163.055 7
R18  22295904.748 7  22295909.225 7 119017036.418 7  92568815.284 7
R19  19534936.816 8  19534937.077 7 104498739.419 8  81276773.641 7
R20  21193661.062 6  21193665.678 7 113332040.056 6  88147158.928 7
> 2025 06 15 14 49 15.0000000  0 36
C05  39185170.218 6  39185167.752 6 204047436.385 6 157782436.715 6
C06  38260480.906 6  38260476.582 7 199232373.543 6 154059086.659 7
C09  38555428.133 7  38555425.377 7 200768221.706 7 155246726.570 7
C11  23267040.355 7  23267037.971 8 121157557.503 7  93686817.817 8
C12  23077683.443 7  23077681.300 8 120171528.198 7  92924090.739 8
C16  38861636.493 7  38861637.989 7 202362723.418 7 156479696.102 7
C21  22137029.398 8                 115273304.816 8
C22  22440755.730 8                 116854887.407 8
C34  22591423.455 7                 117639455.418 7
C36  25142360.210 7                 130922870.128 7
C39  38960833.082 7                 202879285.172 7
C42  25431015.707 7                 132425985.506 7
C43  24635411.015 7                 128283028.510 7
C44  24360459.429 7                 126851293.339 7
E03  24291498.188 8  24291500.746 9 127652685.673 8  96568441.816 9
E05  22204343.988 8  22204345.986 9 116684622.893 8  88271124.454 9
E09  27552920.161 7  27552924.006 7 144791573.323 7 109533853.031 7
E15  23953294.559 8  23953297.448 9 125875409.826 8  95223944.535 9
E34  23992488.092 8  23992490.994 9 126081371.797 8  95379748.541 9
G01  21889997.096 7                  21890000.646 7  21890003.125 8 115032697.680 7                  89635889.673 7  85901062.416 8
G03  20176346.056 8                  20176351.697 7  20176350.140 8 106027408.237 8                  82618784.941 7  79176329.365 8
G04  20424131.760 7                  20424136.436 8  20424136.740 8 107329535.910 7                  83633425.450 8  80148701.778 8
G06  23160962.242 6                  23160969.376 7  23160968.287 8 121711684.308 6                  94840301.706 7  90888617.644 8
G09  22432573.463 7                  22432579.638 7  22432578.957 8 117883971.209 7                  91857947.768 7  88030266.576 8
G17  23139938.486 7                  23139943.209 7                 121601185.003 7                  94754054.406 7
G19  22242967.059 7  22242969.959 5                                 116887574.866 7  91081239.523 5                
G28  23873033.780 7                  23873037.387 6  23873041.154 7 125453624.520 7                  97756098.332 6  93682939.191 7
G31  22249148.583 7                  22249151.868 6                 116920065.564 7                  91106563.712 6
R03  20679275.228 8  20679278.246 7 110697773.281 8  86098123.106 7
R04  19265019.567 8  19265021.179 7 103163297.157 8  80238220.794 7
R05  21967129.607 7  21967133.193 7 117426902.147 7  91332056.801 7
R12  23019870.365 7  23019873.571 6 122968098.720 7  95641823.085 6
R13  22839535.359 7                 121961852.546 7
R18  22307991.342 7  22307996.203 7 119081555.224 7  92618996.518 7
R19  19538484.758 8  19538484.716 7 104517716.673 8  81291533.739 7
R20  21184867.037 6  21184871.448 7 113285014.704 6  88110583.711 7
> 2025 06 15 14 49 30.0000000  0 36
C05  39185067.830 6  39185064.928 6 204046903.185 6 157782024.413 6
C06  38259767.878 7  38259763.444 7 199228660.170 7 154056215.243 7
C09  38553178.897 7  38553176.712 7 200756510.812 7 155237670.963 7
C11  23264336.358 7  23264333.724 8 121143476.591 7  93675929.562 8
C12  23084176.692 7  23084174.078 8 120205337.281 7  92950234.059 8
C16  38861361.374 7  38861363.451 7 202361294.709 7 156478591.342 7
C21  22133987.222 8                 115257464.502 8
C22  22445874.889 8                 116881543.398 8
C34  22593720.303 7                 117651413.589 7
C36  25137131.057 7                 130895643.076 7
C39  38961890.036 7                 202884788.967 7
C42  25422751.933 7                 132382953.903 7
C43  24629482.215 7                 128252157.485 7
C44  24369663.607 7                 126899218.857 7
E03  24285896.116 7  24285898.350 9 127623244.900 7  96546170.081 9
E05  22206652.245 8  22206654.207 9 116696752.779 8  88280300.646 9
E09  27560711.775 7  27560715.544 7 144832517.915 7 109564827.325 7
E15  23949682.879 8  23949685.746 9 125856430.445 8  95209586.760 9
E34  23997101.481 8  23997104.528 9 126105615.771 8  95398088.938 9
G01  21898311.145 7                  21898314.907 7  21898317.202 8 115076389.450 7                  89669935.182 7  85933689.346 8
G03  20179461.486 8                  20179467.118 7  20179465.135 8 106043778.539 8                  82631541.014 7  79188553.921 8
G04  20419942.846 7                  20419946.285 8  20419947.362 8 107307520.102 7                  83616270.262 8  80132261.392 8
G06  23152098.105 6                  23152104.668 7  23152103.763 8 121665101.105 6                  94804003.105 7  90853831.503 8
G09  22423235.017 7                  22423241.046 7  22423240.499 8 117834898.004 7                  91819708.946 7  87993621.046 8
G17  23145827.152 7                  23145831.864 7                 121632130.603 7                  94778167.818 7
G19  22244741.051 7  22244743.009 5                                 116896895.656 7  91088502.458 5                
G28  23878934.927 7                  23878938.270 6  23878941.992 7 125484635.253 7                  97780262.549 6  93706096.543 7
G31  22250266.076 7                  22250269.325 7                 116925937.948 7                  91111139.668 7
R03  20686833.502 8  20686836.207 7 110738231.932 8  86129590.946 7
R04  19263593.336 8  19263595.074 7 103155660.629 8  80232281.244 7
R05  21957797.664 7  21957800.446 7 117377017.859 7  91293257.975 7
R12  23021328.649 7  23021331.840 7 122975886.858 7  95647880.528 7
R13  22832762.797 7                 121925687.981 7
R18  22320089.238 7  22320093.907 7 119146135.239 7  92669225.367 7
R19  19542068.623 8  19542069.072 7 104536888.646 8  81306445.299 7
R20  21176097.920 6  21176103.226 7 113238122.417 6  88074111.922 7
> 2025 06 15 14 49 45.0000000  0 36
C05  39184964.843 6  39184962.140 6 204046367.432 6 157781610.123 6
C06  38259062.053 6  38259057.310 7 199224983.253 6 154053372.028 7
C09  38550936.404 7  38550934.049 7 200744833.317 7 155228641.193 7
C11  23261655.809 7  23261653.432 8 121129517.615 7  93665135.597 8
C12  23090687.173 7  23090684.621 8 120239239.185 7  92976449.130 8
C16  38861093.209 6  38861095.689 7 202359900.824 6 156477513.523 7
C21  22130959.348 8                 115241697.122 8
C22  22451003.727 8                 116908250.930 8
C34  22596040.229 7                 117663493.646 7
C36  25131919.675 7                 130868504.459 7
C39  38962953.449 7                 202890324.971 7
C42  25414493.112 7                 132339948.466 7
C43  24623572.267 7                 128221382.386 7
C44  24378873.699 7                 126947180.501 7
E03  24280306.434 8  24280309.093 9 127593873.139 8  96523950.550 9
E05  22208975.178 8  22208977.281 9 116708960.572 8  88289535.766 9
E09  27568505.710 7  27568510.182 7 144873477.455 7 109595812.951 7
E15  23946086.081 8  23946088.874 9 125837528.652 8  95195287.691 9
E34  24001729.981 8  24001733.031 9 126129938.457 8  95416488.872 9
G01  21906641.057 7                  21906644.447 7  21906646.648 8 115120162.160 7                  89704043.767 7  85966376.742 8
G03  20182593.548 8                  20182599.286 7  20182597.323 8 106060238.293 8                  82644366.815 7  79200845.300 8
G04  20415774.993 7                  20415778.646 8  20415780.001 8 107285619.942 7                  83599205.213 8  80115907.402 8
G06  23143246.198 7                  23143252.821 7  23143251.620 8 121618582.586 7                  94767754.960 7  90819093.697 8
G09  22413907.969 7                  22413914.585 7  22413913.815 8 117785885.598 7                  91781517.492 7  87957020.919 8
G17  23151732.523 7                  23151737.202 7                 121663166.291 7                  94802351.460 7
G19  22246543.837 7  22246545.650 5                                 116906369.159 7  91095884.422 5                
G28  23884858.121 7                  23884861.610 6  23884865.636 7 125515762.383 7                  97804517.442 6  93729340.815 7
G31  22251413.709 7                  22251417.643 7                 116931970.482 7                  91115840.335 7
R03  20694403.518 8  20694406.037 7 110778755.027 8  86161108.884 7
R04  19262190.919 8  19262192.555 7 103148150.209 8  80226439.803 7
R05  21948477.595 7  21948480.991 7 117327200.047 7  91254510.842 7
R12  23022821.299 7  23022824.456 6 122983863.707 7  95654084.732 6
R13  22826017.623 7                 121889669.342 7
R18  22332198.713 7  22332203.098 6 119210775.188 7  92719500.775 6
R19  19545688.555 8  19545689.373 7 104556254.511 8  81321507.616 7
R20  21167353.568 6  21167358.619 7 113191363.356 6  88037743.772 7
> 2025 06 15 14 50  0.0000000  0 37
C05  39184861.693 6  39184859.142 6 204045830.386 6 157781194.854 6
C06  38258362.682 6  38258358.784 7 199221344.044 6 154050557.968 7
C09  38548700.817 7  38548698.175 7 200733190.483 7 155219638.224 7
C11  23258998.875 7  23258996.493 8 121115681.982 7  93654437.017 8
C12  23097215.811 7  23097213.051 8 120273234.989 7  93002736.818 8
C16  38860833.270 7  38860834.815 7 202358542.985 7 156476463.563 7
C21  22127945.694 8                 115226003.949 8
C22  22456142.961 8                 116935011.131 8
C34  22598383.647 7                 117675696.722 7
C36  25126724.902 6                 130841455.741 6
C39  38964022.868 7                 202895894.368 7
C42  25406239.235 7                 132296970.479 7
C43  24617680.913 7                 128190704.725 7
C44  24388091.276 7                 126995179.250 7
E03  24274730.435 7  24274733.204 9 127564571.726 7  96501784.252 9
E05  22211313.406 8  22211315.371 9 116721247.386 8  88298830.640 9
E09  27576303.188 7  27576307.707 8 144914453.109 7 109626810.735 8
E15  23942504.187 8  23942507.046 9 125818705.879 8  95181048.398 9
E34  24006373.705 8  24006376.687 9 126154341.061 8  95434949.264 9
G01  21914986.400 7                  21914990.315 8  21914992.147 8 115164016.867 7                  89738216.239 8  85999125.351 8
G02  24602583.917 5                                                 129287248.21115                                
G03  20185743.232 8                  20185748.495 7  20185746.674 8 106076788.720 8                  82657263.257 7  79213204.397 8
G04  20411630.342 7                  20411633.576 8  20411635.151 9 107263836.779 7                  83582231.364 8  80099640.802 9
G06  23134405.848 7                  23134412.969 7  23134412.014 8 121572130.379 7                  94731558.430 7  90784405.369 8
G09  22404592.807 6                  22404599.354 7  22404598.833 8 117736935.404 6                  91743374.523 7  87920467.264 8
G17  23157656.027 7                  23157660.186 7                 121694293.073 7                  94826606.051 7
G19  22248376.029 7  22248378.239 6                                 116915996.571 7  91103386.295 6                
G28  23890803.630 7                  23890807.680 6  23890811.097 7 125547006.942 7                  97828863.845 6  93752672.755 7
G31  22252592.620 7                  22252596.742 7                 116938164.268 7                  91120666.662 7
R03  20701985.872 8  20701988.425 7 110819343.377 8  86192677.582 7
R04  19260812.031 8  19260813.617 7 103140767.247 8  80220697.521 7
R05  21939171.152 7  21939174.492 7 117277450.273 7  91215816.632 7
R12  23024350.075 7  23024354.208 7 122992030.149 7  95660436.442 7
R13  22819299.704 7                 121853798.323 7
R18  22344319.551 7  22344324.422 7 119275476.045 7  92769823.606 7
R19  19549345.172 8  19549346.384 7 104575815.576 8  81336721.724 7
R20  21158634.970 6  21158639.167 7 113144738.674 6  88001480.153 7
> 2025 06 15 14 50 15.0000000  0 36
C05  39184758.327 6  39184755.587 6 204045292.173 6 157780778.671 6
C06  38257671.260 6  38257666.942 7 199217742.654 6 154047773.150 7
C09  38546471.758 7  38546468.788 7 200721582.414 7 155210662.129 7
C11  23256366.174 7  23256363.318 8 121101969.887 7  93643833.965 8
C12  23103762.227 7  23103759.675 8 120307324.584 7  93029097.049 8
C16  38860578.874 7  38860581.195 7 202357221.326 7 156475441.556 7
C21  22124946.211 8                 115210385.097 8
C22  22461291.819 8                 116961824.007 8
C34  22600750.676 7                 117688022.870 7
C36  25121547.846 7                 130814497.372 7
C39  38965098.910 7                 202901497.196 7
C42  25397991.234 7                 132254020.156 7
C43  24611808.256 7                 128160124.829 7
C44  24397316.429 7                 127043214.966 7
E03  24269167.994 7  24269170.726 9 127535340.900 7  96479671.331 9
E05  22213666.146 8  22213668.526 8 116733613.213 8  88308185.313 8
E09  27584104.082 7  27584108.397 7 144955444.828 7 109657820.637 7
E15  23938937.560 8  23938940.306 9 125799962.425 8  95166869.090 9
E34  24011032.831 8  24011035.534 9 126178823.662 8  95453470.166 9
G01  21923347.120 7                  21923351.249 8  21923353.000 8 115207953.446 7                  89772452.480 8  86031935.075 8
G03  20188909.768 8                  20188915.222 7  20188913.453 8 106093429.926 8                  82670230.412 7  79225631.272 8
G04  20407506.698 7                  20407511.195 8  20407512.136 9 107242170.866 7                  83565348.824 8  80083461.729 9
G06  23125579.341 7                  23125586.170 7  23125584.994 8 121525744.841 7                  94695413.907 7  90749766.859 8
G09  22395290.109 7                  22395296.471 7  22395295.581 8 117688047.791 7                  91705280.323 7  87883960.348 8
G17  23163596.430 7                  23163600.681 7                 121725510.759 7                  94850931.479 7
G19  22250237.151 7  22250239.495 5                                 116925777.897 7  91111008.114 5                
G28  23896772.080 6                  23896775.418 6  23896779.548 7 125578368.732 6                  97853301.630 6  93776092.277 7
G31  22253802.039 7                  22253806.021 7                 116944519.396 7                  91125618.647 7
R03  20709580.231 8  20709583.303 7 110859997.410 8  86224297.398 7
R04  19259457.122 8  19259458.529 7 103133511.559 8  80215054.210 7
R05  21929877.177 7  21929880.723 7 117227768.815 7  91177175.544 7
R12  23025914.958 7  23025918.865 7 123000386.556 7  95666935.869 7
R13  22812610.241 7                 121818075.545 7
R18  22356451.393 6  22356456.480 7 119340237.352 6  92820193.497 7
R19  19553039.027 8  19553038.832 7 104595571.531 8  81352087.431 7
R20  21149940.774 6  21149945.613 7 113098249.071 6  87965321.581 7
> 2025 06 15 14 50 30.0000000  0 36
C05  39184655.128 6  39184652.419 6 204044754.094 6 157780362.593 6
C06  38256987.136 7  38256982.708 7 199214180.320 7 154045018.530 7
C09  38544249.183 7  38544246.509 7 200710010.509 7 155201713.996 7
C11  23253756.270 7  23253753.711 8 121088382.847 7  93633327.604 8
C12  23110326.881 7  23110324.385 8 120341509.030 7  93055530.603 8
C16  38860332.503 7  38860334.501 7 202355937.024 7 156474448.473 7
C21  22121961.451 8                 115194841.895 8
C22  22466451.321 8                 116988690.767 8
C34  22603141.611 7                 117700473.302 7
C36  25116388.746 7                 130787631.000 7
C39  38966181.435 7                 202907134.796 7
C42  25389748.760 7                 132211098.861 7
C43  24605954.751 7                 128129644.254 7
C44  24406548.481 7                 127091288.683 7
E03  24263619.123 7  24263621.892 9 127506182.001 7  96457612.836 9
E05  22216034.766 8  22216036.941 8 116746059.290 8  88317600.676 8
E09  27591908.035 7  27591912.309 8 144996453.727 7 109688843.566 8
E15  23935386.145 8  23935388.921 9 125781299.739 8  95152750.911 9
E34  24015706.806 8  24015709.826 9 126203387.497 8  95472052.536 9
G01  21931723.651 7                  21931727.634 7  21931729.369 8 115251972.987 7                  89806753.402 7  86064806.788 8
G03  20192094.258 8                  20192099.679 7  20192097.829 8 106110163.175 8                  82683269.302 7  79238126.865 8
G04  20403406.698 8                  20403411.343 8  20403411.832 8 107220623.581 8                  83548558.730 8  80067371.223 8
G06  23116764.696 7                  23116772.465 7  23116771.062 8 121479427.715 7                  94659322.619 7  90715179.407 8
G09  22385999.149 7                  22386005.392 7  22386004.641 8 117639224.246 7                  91667236.030 7  87847501.258 8
G17  23169554.536 7                  23169558.526 6                 121756820.246 7                  94875328.466 6
G19  22252128.049 7  22252130.730 5                                 116935714.349 7  91118750.776 5                
G28  23902762.135 6                  23902766.038 6  23902770.345 7 125609848.899 6                  97877831.611 6  93799600.195 7
G31  22255042.012 7                  22255046.227 7                 116951037.137 7                  91130697.375 7
R03  20717187.241 8  20717189.844 7 110900717.410 8  86255968.476 7
R04  19258126.415 8  19258127.896 7 103126384.638 8  80209511.066 7
R05  21920596.201 7  21920600.177 7 117178157.058 7  91138588.684 7
R12  23027515.021 7  23027519.386 7 123008933.927 7  95673583.814 7
R13  22805948.244 6                 121782502.646 6
R18  22368595.370 6  22368600.460 7 119405060.264 6  92870611.269 7
R19  19556768.453 8  19556768.821 7 104615523.492 8  81367605.657 7
R20  21141272.747 6  21141277.557 7 113051896.693 6  87929269.805 7
> 2025 06 15 14 50 45.0000000  0 36
C05  39184550.828 6  39184548.229 6 204044210.774 6 157779942.467 6
C06  38256309.552 6  38256305.128 7 199210651.641 6 154042289.943 7
C09  38542032.786 7  38542029.940 7 200698469.271 7 155192789.577 7
C11  23251169.888 7  23251167.597 8 121074915.528 7  93622913.797 8
C12  23116909.233 7  23116906.360 8 120375782.667 7  93082033.145 8
C16  38860092.197 7  38860093.773 7 202354684.716 7 156473480.104 7
C21  22118989.712 8                 115179368.901 8
C22  22471620.171 8                 117015605.794 8
C34  22605555.503 7                 117713042.500 7
C36  25111245.435 6                 130760851.276 6
C39  38967269.931 7                 202912801.662 7
C42  25381510.483 7                 132168201.294 7
C43  24600119.208 7                 128099257.739 7
C44  24415786.696 7                 127139394.695 7
E03  24258083.259 8  24258085.724 9 127477089.647 8  96435604.662 9
E05  22218417.253 8  22218419.552 9 116758579.955 8  88327072.477 9
E09  27599714.013 7  27599718.371 8 145037474.212 7 109719875.260 8
E15  23931849.022 8  23931851.886 9 125762712.524 8  95138689.814 9
E34  24020395.604 8  24020398.565 9 126228027.050 8  95490692.181 9
G01  21940115.369 7                  21940118.981 8  21940120.759 8 115296069.791 7                  89841114.532 8  86097736.222 8
G03  20195294.809 8                  20195300.262 7  20195298.496 8 106126982.925 8                  82696375.603 7  79250687.060 8
G04  20399327.576 7                  20399332.482 8  20399332.804 8 107199189.455 7                  83531856.829 8  80051365.220 8
G06  23107962.976 7                  23107970.088 7  23107969.083 8 121433173.747 7                  94623280.595 7  90680639.133 8
G09  22376719.465 7                  22376725.687 7  22376724.876 8 117590459.507 7                  91629237.571 7  87811086.079 8
G17  23175528.683 7                  23175533.703 6                 121788215.788 7                  94899792.492 6
G19  22254047.631 7  22254049.989 5                                 116945800.139 7  91126609.820 5                
G28  23908774.219 6                  23908778.120 6  23908781.957 7 125641441.668 6                  97902449.346 6  93823192.187 7
G31  22256312.417 7                  22256316.358 7                 116957711.929 7                  91135898.541 7
R03  20724805.476 8  20724808.479 7 110941498.252 8  86287686.916 7
R04  19256818.258 8  19256820.255 7 103119380.771 8  80204063.614 7
R05  21911327.067 7  21911331.129 7 117128609.852 7  91100052.002 7
R12  23029149.442 7  23029154.115 7 123017666.673 7  95680375.964 7
R13  22799314.000 6                 121747074.816 6
R18  22380748.392 6  22380753.812 7 119469938.552 6  92921072.035 7
R19  19560533.766 8  19560533.853 7 104635666.004 8  81383272.061 7
R20  21132629.148 6  21132633.950 7 113005676.318 6  87893320.624 7
> 2025 06 15 14 51  0.0000000  0 36
C05  39184445.471 6  39184443.036 6 204043661.581 6 157779517.799 6
C06  38255638.388 7  38255633.985 7 199207155.980 7 154039586.901 7
C09  38539822.304 7  38539819.224 7 200686958.104 7 155183888.413 7
C11  23248606.598 7  23248604.378 8 121061567.438 7  93612592.210 8
C12  23123507.669 7  23123505.331 8 120410144.690 7  93108604.022 8
C16  38859857.668 7  38859859.683 7 202353463.745 7 156472535.979 7
C21  22116031.736 8                 115163965.537 8
C22  22476798.097 8                 117042568.413 8
C34  22607991.872 7                 117725729.721 7
C36  25106118.637 6                 130734157.905 6
C39  38968363.737 7                 202918497.153 7
C42  25373276.835 7                 132125326.855 7
C43  24594301.809 7                 128068964.976 7
C44  24425030.950 7                 127187532.155 7
E03  24252559.908 8  24252562.189 9 127448063.259 8  96413646.434 9
E05  22220814.046 8  22220816.245 9 116771174.494 8  88336600.168 9
E09  27607521.826 7  27607526.311 8 145078505.492 7 109750915.134 8
E15  23928326.397 8  23928329.119 9 125744200.307 8  95124685.465 9
E34  24025098.857 8  24025101.572 9 126252741.661 8  95509388.607 9
G01  21948521.043 7                  21948525.308 8  21948526.922 8 115340243.059 7                  89875535.215 8  86130722.706 8
G03  20198511.836 8                  20198517.368 8  20198515.340 8 106143888.514 8                  82709548.795 8  79263311.354 8
G04  20395270.362 7                  20395274.799 8  20395275.420 8 107177867.909 7                  83515242.702 8  80035443.327 8
G06  23099173.399 7                  23099180.695 7  23099179.114 8 121386982.729 7                  94587287.580 7  90646145.864 8
G09  22367450.961 7                  22367457.274 7  22367456.578 8 117541753.151 7                  91591284.588 7  87774714.490 8
G17  23181519.404 7                  23181524.130 7                 121819696.338 7                  94924322.734 7
G19  22255995.226 7  22255997.437 5                                 116956034.487 7  91134584.647 5                
G28  23914807.458 6                  23914811.362 6  23914814.738 7 125673146.186 6                  97927154.145 6  93846867.587 7
G31  22257612.329 7                  22257616.524 7                 116964543.099 7                  91141221.575 7
R03  20732434.075 8  20732437.545 7 110982338.758 8  86319451.743 7
R04  19255533.196 8  19255534.923 7 103112499.200 8  80198711.296 7
R05  21902070.345 7  21902073.968 7 117079126.490 7  91061564.973 7
R12  23030818.557 7  23030823.825 7 123026584.249 7  95687311.860 7
R13  22792706.651 6                 121711791.694 6
R18  22392913.022 6  22392918.657 7 119534871.087 6  92971575.067 7
R19  19564334.797 8  19564335.873 7 104655998.166 8  81399085.947 7
R20  21124010.485 6  21124015.735 7 112959587.788 6  87857474.001 7
> 2025 06 15 14 51 15.0000000  0 36
C05  39184339.679 6  39184337.238 6 204043112.647 6 157779093.332 6
C06  38254974.270 7  38254970.199 7 199203699.371 7 154036914.045 7
C09  38537618.468 7  38537615.126 7 200675483.125 7 155175015.218 7
C11  23246067.804 7  23246065.075 8 121048344.792 7  93602367.614 8
C12  23130124.006 7  23130122.178 8 120444600.907 7  93135247.732 8
C16  38859630.019 7  38859632.241 7 202352280.189 7 156471620.791 7
C21  22113088.232 8                 115148637.858 8
C22  22481986.327 8                 117069584.563 8
C34  22610452.074 7                 117738541.006 7
C36  25101011.251 6                 130707557.242 6
C39  38969463.895 7                 202924227.305 7
C42  25365048.773 7                 132082481.703 7
C43  24588503.746 7                 128038772.208 7
C44  24434282.420 7                 127235706.827 7
E03  24247050.080 8  24247052.406 9 127419109.122 8  96391742.841 9
E05  22223226.090 8  22223228.141 8 116783848.925 8  88346188.295 8
E09  27615333.153 7  27615337.455 8 145119553.633 7 109781967.740 8
E15  23924819.278 8  23924821.821 9 125725769.409 8  95110742.616 9
E34  24029817.414 8  24029820.026 9 126277537.396 8  95528146.412 9
G01  21956942.547 7                  21956946.685 7  21956948.630 8 115384498.645 7                  89910020.081 7  86163770.684 8
G03  20201746.459 8                  20201751.929 7  20201749.841 8 106160885.997 8                  82722793.588 7  79276004.290 8
G04  20391236.327 7                  20391239.790 8  20391240.740 8 107156665.221 7                  83498721.136 8  80019610.164 8
G06  23090396.503 7                  23090404.056 7  23090402.478 8 121340861.024 7                  94551348.646 7  90611704.366 8
G09  22358195.225 7                  22358200.980 7  22358200.332 8 117493111.507 7                  91553382.057 7  87738391.207 8
G17  23187527.209 7                  23187532.070 7                 121851267.938 7                  94948923.956 7
G19  22257971.598 7  22257973.712 5                                 116966423.595 7  91142680.040 5                
G28  23920863.205 6                  23920866.969 6  23920870.180 7 125704968.200 6                  97951950.554 6  93870630.777 7
G31  22258943.199 7                  22258947.375 7                 116971536.785 7                  91146671.250 7
R03  20740076.237 8  20740078.912 7 111023244.546 8  86351267.331 7
R04  19254271.722 8  19254273.602 7 103105746.154 8  80193458.914 7
R05  21892826.250 7  21892829.682 7 117029713.386 7  91023132.604 7
R12  23032523.277 7  23032528.350 7 123035692.727 7  95694396.235 7
R13  22786127.137 6                 121676659.998 6
R18  22405087.866 6  22405093.722 7 119599863.938 6  93022124.948 7
R19  19568172.246 8  19568173.174 8 104676525.845 8  81415051.892 8
R20  21115418.221 6  21115422.426 7 112913637.623 6  87821735.022 7
> 2025 06 15 14 51 30.0000000  0 36
C05  39184233.912 6  39184231.159 6 204042560.223 6 157778666.165 6
C06  38254317.620 7  38254313.340 7 199200278.231 7 154034268.612 7
C09  38535420.234 7  38535417.547 7 200664040.658 7 155166167.198 7
C11  23243551.574 7  23243549.146 8 121035244.035 7  93592237.295 8
C12  23136759.257 7  23136756.644 8 120479147.479 7  93161961.318 8
C16  38859409.340 7  38859411.095 7 202351130.400 7 156470731.681 7
C21  22110158.698 8                 115133382.191 8
C22  22487183.983 8                 117096650.486 8
C34  22612935.628 7                 117751472.584 7
C36  25095919.561 6                 130681045.837 6
C39  38970570.247 7                 202929988.413 7
C42  25356825.924 7                 132039662.276 7
C43  24582724.695 7                 128008676.043 7
C44  24443540.329 7                 127283914.821 7
E03  24241553.449 8  24241555.673 9 127390223.556 8  96369891.125 9
E05  22225651.923 8  22225654.490 9 116796599.470 8  88355834.002 9
E09  27623147.059 7  27623151.312 8 145160614.716 7 109813030.174 8
E15  23921326.715 8  23921329.316 9 125707416.280 8  95096858.604 9
E34  24034550.612 8  24034553.268 9 126302410.519 8  95546962.759 9
G01  21965379.073 7                  21965383.050 7  21965385.154 8 115428832.724 7                  89944566.063 7  86196877.263 8
G03  20204997.474 8                  20205003.173 8  20205001.361 8 106177971.674 8                  82736107.083 8  79288763.065 8
G04  20387223.050 7                  20387226.742 8  20387227.828 8 107135577.809 7                  83482289.363 8  80003863.062 8
G06  23081632.447 7                  23081639.887 7  23081638.342 8 121294805.310 7                  94515461.095 7  90577312.139 8
G09  22348950.471 7                  22348956.621 7  22348955.752 8 117444531.063 7                  91515527.218 7  87702113.642 8
G17  23193551.556 7                  23193556.658 7                 121882926.627 7                  94973593.030 7
G19  22259977.484 6  22259979.162 5                                 116976963.451 6  91150892.918 5                
G28  23926940.573 6                  23926944.884 6  23926947.374 7 125736903.874 6                  97976835.467 6  93894478.841 7
G31  22260304.192 7                  22260308.213 7                 116978689.423 7                  91152244.712 7
R03  20747728.770 8  20747732.156 7 111064212.039 8  86383130.938 7
R04  19253034.213 8  19253035.850 7 103099117.675 8  80188303.428 7
R05  21883595.301 7  21883598.459 7 116980367.003 7  90984752.146 7
R12  23034263.494 6  23034268.969 7 123044988.278 6  95701626.056 7
R13  22779575.764 6                 121641676.285 6
R18  22417274.062 7  22417279.249 7 119664912.722 7  93072718.392 7
R19  19572045.645 8  19572046.728 7 104697245.377 8  81431167.074 7
R20  21106850.345 6  21106854.770 7 112867823.094 6  87786101.508 7
> 2025 06 15 14 51 45.0000000  0 37
C05  39184127.272 6  39184124.300 6 204042004.962 6 157778236.801 6
C06  38253667.539 7  38253663.292 7 199196892.969 7 154031650.919 7
C09  38533229.285 6  38533226.402 7 200652631.200 6 155157344.712 7
C11  23241059.078 7  23241056.791 8 121022265.805 7  93582201.710 8
C12  23143410.578 7  23143408.052 8 120513784.646 7  93188744.948 8
C16  38859195.555 7  38859196.961 7 202350014.766 7 156469869.012 7
C21  22107242.938 8                 115118199.105 8
C22  22492391.391 8                 117123766.582 8
C34  22615442.101 7                 117764524.856 7
C36  25090845.602 7                 130654624.560 7
C39  38971682.580 7                 202935780.985 7
C42  25348607.719 7                 131996869.188 7
C43  24576963.180 7                 127978677.209 7
C44  24452804.368 7                 127332156.368 7
E03  24236069.933 8  24236072.115 9 127361407.198 8  96348091.759 9
E05  22228092.995 8  22228095.414 9 116809426.488 8  88365537.561 9
E09  27630962.952 7  27630967.498 8 145201689.150 7 109844102.702 8
E13  27770491.730 6  27770495.374 7 145934909.57716 110398832.69117
E15  23917849.308 8  23917851.779 9 125689141.640 8  95083033.971 9
E34  24039298.530 8  24039301.355 9 126327361.529 8  95565838.025 9
G01  21973830.779 7                  21973834.496 7  21973836.676 8 115473245.549 7                  89979173.421 7  86230042.635 8
G03  20208265.892 8                  20208271.473 7  20208269.603 8 106195146.014 8                  82749489.682 7  79301588.041 8
G04  20383232.175 7                  20383236.496 8  20383237.290 8 107114606.238 7                  83465947.861 8  79988202.477 8
G06  23072881.603 7                  23072888.309 7  23072886.575 8 121248816.397 7                  94479625.613 7  90542969.798 8
G09  22339717.758 7                  22339723.693 7  22339722.699 8 117396012.545 7                  91477720.623 7  87665882.323 8
G17  23199593.233 7                  23199597.793 7                 121914672.653 7                  94998330.180 7
G19  22262011.982 6  22262013.957 5                                 116987654.561 6  91159223.657 5                
G28  23933039.015 6                  23933043.867 6  23933046.058 7 125768953.496 6                  98001809.078 6  93918411.937 7
G31  22261695.382 7                  22261699.577 7                 116986001.325 7                  91157942.274 7
R03  20755393.792 8  20755396.116 7 111105241.156 8  86415042.414 7
R04  19251820.038 8  19251821.288 7 103092614.319 8  80183245.273 7
R05  21874376.396 8  21874379.421 7 116931088.009 8  90946424.071 7
R12  23036039.526 7  23036044.062 7 123054471.267 7  95709001.740 7
R13  22773052.423 6                 121606841.757 6
R18  22429470.475 7  22429475.948 7 119730017.585 7  93123355.428 7
R19  19575954.580 8  19575955.162 7 104718156.960 8  81447431.639 7
R20  21098307.616 6  21098312.906 7 112822144.795 6  87750573.993 7
> 2025 06 15 14 52  0.0000000  0 37
C05  39184019.715 6  39184017.159 6 204041446.716 6 157777805.137 6
C06  38253024.494 7  38253020.174 7 199193543.609 7 154029060.972 7
C09  38531043.663 6  38531041.677 7 200641254.851 6 155148547.795 7
C11  23238590.533 7  23238587.976 8 121009410.227 7  93572260.970 8
C12  23150079.762 7  23150077.057 8 120548512.228 7  93215598.485 8
C16  38858987.354 7  38858989.146 7 202348933.337 7 156469032.794 7
C21  22104340.769 8                 115103088.580 8
C22  22497608.510 8                 117150932.674 8
C34  22617971.899 7                 117777697.732 7
C36  25085788.895 7                 130628293.531 7
C39  38972801.132 7                 202941604.932 7
C42  25340394.972 7                 131954102.444 7
C43  24571220.807 7                 127948775.938 7
C44  24462075.549 7                 127380431.153 7
E03  24230599.099 8  24230601.747 9 127332660.071 8  96326344.761 9
E05  22230548.516 8  22230550.856 9 116822329.846 8  88375298.862 9
E09  27638781.449 7  27638786.063 8 145242776.780 7 109875185.187 8
E13  27761945.385 6  27761949.833 7 145890002.257 6 110364860.623 7
E15  23914386.312 8  23914389.192 9 125670945.571 8  95069268.770 9
E34  24044061.400 8  24044064.191 9 126352390.294 8  95584772.113 9
G01  21982296.994 7                  21982300.836 7  21982303.109 8 115517736.835 7                  90013841.954 7  86263266.614 8
G03  20211550.891 8                  20211556.507 7  20211554.536 8 106212408.923 8                  82762941.279 7  79314479.161 8
G04  20379263.604 7                  20379267.703 8  20379268.408 8 107093750.479 7                  83449696.639 8  79972628.377 8
G06  23064142.856 7                  23064149.975 7  23064147.862 8 121202894.632 7                  94443842.444 7  90508677.579 8
G09  22330496.367 7                  22330502.711 7  22330501.750 8 117347556.103 7                  91439962.405 7  87629697.371 8
G17  23205650.691 7                  23205655.358 7                 121946505.792 7                  95023135.217 7
G19  22264075.064 7  22264077.759 5                                 116998496.788 7  91167672.116 5                
G28  23939159.580 6                  23939164.352 6  23939166.863 7 125801116.667 6                  98026871.311 6  93942429.881 7
G31  22263117.249 7                  22263120.981 7                 116993472.262 7                  91163763.804 7
R03  20763069.807 8  20763072.625 7 111146332.054 8  86447002.007 7
R04  19250628.456 8  19250630.274 7 103086235.876 8  80178284.255 7
R05  21865170.499 8  21865174.029 7 116881876.416 8  90908148.445 7
R12  23037849.567 7  23037854.217 7 123064141.596 7  95716523.066 7
R13  22766556.784 6                 121572156.741 6
R18  22441677.549 7  22441682.204 7 119795177.981 7  93174035.683 7
R19  19579899.778 8  19579900.253 7 104739260.650 8  81463845.596 7
R20  21089792.156 6  21089796.358 7 112776603.162 6  87715152.718 7
> 2025 06 15 14 52 15.0000000  0 37
C05  39183911.432 6  39183908.555 6 204040882.044 6 157777368.494 6
C06  38252386.809 7  38252383.188 7 199190226.638 7 154026496.059 7
C09  38528866.176 7  38528862.815 7 200629907.970 7 155139773.693 7
C11  23236144.747 7  23236142.156 8 120996673.928 7  93562412.446 8
C12  23156766.010 7  23156762.886 8 120583326.467 7  93242519.047 8
C16  38858785.755 7  38858787.280 7 202347882.581 7 156468220.276 7
C21  22101452.406 8                 115088047.096 8
C22  22502834.219 8                 117178145.170 8
C34  22620523.834 7                 117790987.626 7
C36  25080749.049 7                 130602049.487 7
C39  38973924.887 7                 202947456.737 7
C42  25332185.942 7                 131911358.681 7
C43  24565497.010 7                 127918968.876 7
C44  24471351.729 7                 127428735.473 7
E03  24225141.322 8  24225143.859 9 127303978.727 8  96304647.534 9
E05  22233017.861 8  22233020.131 9 116835305.891 8  88385115.158 9
E09  27646601.963 7  27646606.522 8 145283873.901 7 109906274.860 8
E13  27753400.642 6  27753405.573 7 145845101.626 6 110330893.616 7
E15  23910937.987 8  23910940.912 9 125652824.745 8  95055560.477 9
E34  24048838.191 8  24048841.149 9 126377493.280 8  95603762.338 9
G01  21990777.407 7                  21990781.647 7  21990783.773 8 115562302.896 7                  90048568.722 7  86296546.440 8
G03  20214851.852 8                  20214857.754 7  20214855.776 8 106229756.784 8                  82776459.113 7  79327433.753 8
G04  20375316.341 7                  20375320.564 8  20375320.901 8 107073007.060 7                  83433532.997 8  79957138.216 8
G06  23055416.092 7                  23055423.078 7  23055421.517 8 121157036.778 7                  94408109.054 7  90474433.097 8
G09  22321286.619 7                  22321292.823 7  22321292.385 8 117299158.429 7                  91402249.995 7  87593556.310 8
G17  23211724.039 7                  23211728.317 7                 121978422.068 7                  95048005.046 7
G19  22266166.144 6  22266169.114 5                                 117009486.432 6  91176235.482 5                
G28  23945300.218 6                  23945305.486 6  23945308.146 7 125833389.677 6                  98052019.060 6  93966529.811 7
G31  22264568.554 7                  22264572.351 7                 117001098.796 7                  91169706.537 7
R03  20770756.667 8  20770759.432 7 111187480.544 8  86479006.362 7
R04  19249459.983 8  19249462.122 7 103079978.843 8  80173417.676 7
R05  21855976.573 7  21855979.926 7 116832728.904 7  90869922.679 7
R12  23039693.802 7  23039698.682 7 123073995.673 7  95724187.326 7
R13  22760088.985 6                 121537618.177 6
R18  22453893.991 7  22453898.082 6 119860389.974 7  93224756.015 6
R19  19583880.107 8  19583880.788 7 104760552.228 8  81480405.723 7
R20  21081299.789 6  21081304.843 7 112731195.088 6  87679835.392 7
> 2025 06 15 14 52 30.0000000  0 37
C05  39183802.501 6  39183799.475 6 204040313.472 6 157776928.836 6
C06  38251756.476 6  38251752.935 7 199186944.446 6 154023958.071 7
C09  38526693.132 7  38526690.070 7 200618593.215 7 155131024.416 7
C11  23233721.637 7  23233719.708 8 120984059.453 7  93552658.129 8
C12  23163468.558 7  23163465.451 8 120618229.614 7  93269508.347 8
C16  38858590.121 7  38858591.540 7 202346864.921 7 156467433.373 7
C21  22098577.440 8                 115073077.129 8
C22  22508069.463 8                 117205406.417 8
C34  22623099.160 7                 117804396.884 7
C36  25075726.462 7                 130575895.230 7
C39  38975054.365 7                 202953338.798 7
C42  25323982.915 7                 131868640.397 7
C43  24559791.150 7                 127889258.758 7
C44  24480633.984 7                 127477071.462 7
E03  24219696.115 8  24219698.960 9 127275365.695 8  96283001.978 9
E05  22235501.197 8  22235503.660 9 116848357.016 8  88394988.241 9
E09  27654424.470 7  27654429.437 8 145324982.848 7 109937373.487 8
E13  27744857.884 5  27744863.050 7 145800210.446 5 110296933.759 7
E15  23907504.613 8  23907507.422 9 125634781.792 8  95041911.106 9
E34  24053629.438 8  24053632.663 9 126402672.891 8  95622810.524 9
G01  21999272.658 7                  21999276.955 8  21999279.126 8 115606945.950 7                  90083355.493 8  86329883.753 8
G03  20218169.879 8                  20218175.526 8  20218173.843 8 106247192.146 8                  82790045.091 8  79340453.642 8
G04  20371391.090 7                  20371394.522 8  20371395.188 8 107052378.619 7                  83417458.912 8  79941733.887 8
G06  23046702.613 7                  23046709.242 7  23046707.827 8 121111245.616 7                  94372427.638 7  90440238.430 8
G09  22312088.205 7                  22312094.770 7  22312094.293 8 117250822.201 7                  91364585.443 7  87557461.143 8
G17  23217813.672 7                  23217818.184 6                 122010423.674 7                  95072941.299 6
G19  22268286.014 7  22268288.861 5                                 117020625.768 7  91184915.492 5                
G28  23951463.534 6                  23951468.040 6  23951471.167 7 125865774.631 6                  98077254.074 6  93990713.355 7
G31  22266050.158 7                  22266053.707 7                 117008883.368 7                  91175772.444 7
R03  20778454.924 8  20778457.988 7 111228688.996 8  86511057.388 7
R04  19248314.915 8  19248316.503 8 103073845.589 8  80168647.384 8
R05  21846794.505 7  21846798.577 7 116783648.122 7  90831748.769 7
R12  23041573.919 7  23041578.182 7 123084035.834 7  95731996.376 7
R13  22753648.861 6                 121503229.029 6
R18  22466120.667 6  22466124.589 6 119925655.590 6  93275518.043 6
R19  19587896.513 8  19587897.031 7 104782034.572 8  81497114.187 7
R20  21072833.949 6  21072838.292 7 112685924.141 6  87644624.623 7
> 2025 06 15 14 52 45.0000000  0 37
C05  39183692.087 6  39183688.969 6 204039738.921 6 157776484.563 6
C06  38251132.557 6  38251128.793 7 199183695.049 6 154021445.445 7
C09  38524525.823 7  38524522.854 7 200607308.402 7 155122298.280 7
C11  23231322.447 7  23231320.112 8 120971564.942 7  93542996.577 8
C12  23170187.769 7  23170185.137 8 120653219.327 7  93296564.576 8
C16  38858400.813 7  38858402.374 7 202345878.292 7 156466670.453 7
C21  22095716.164 8                 115058176.655 8
C22  22513313.685 8                 117232714.253 8
C34  22625696.735 7                 117817923.386 7
C36  25070720.401 7                 130549828.945 7
C39  38976189.239 7                 202959249.074 7
C42  25315783.991 7                 131825945.590 7
C43  24554104.164 7                 127859643.785 7
C44  24489922.223 7                 127525436.864 7
E03  24214264.127 8  24214266.674 9 127246819.009 8  96261406.621 9
E05  22237998.699 8  22238001.068 9 116861480.984 8  88404916.437 9
E09  27662249.270 7  27662254.123 8 145366101.464 7 109968479.403 8
E13  27736316.498 5  27736321.965 7 145755326.801 5 110262979.559 7
E15  23904085.439 8  23904088.369 9 125616814.815 8  95028319.218 9
E34  24058435.197 8  24058438.400 9 126427927.034 8  95641915.096 9
G01  22007782.266 7                  22007786.788 7  22007788.609 8 115651663.707 7                  90118200.458 7  86363276.854 8
G03  20221503.848 8                  20221509.444 7  20221507.861 8 106264712.765 8                  82803697.533 7  79353537.226 8
G04  20367486.654 8                  20367490.440 8  20367491.172 8 107031863.173 8                  83401472.827 8  79926413.903 8
G06  23038001.100 7                  23038007.830 7  23038006.358 8 121065519.434 7                  94336796.874 7  90406092.303 8
G09  22302901.940 7                  22302908.042 7  22302907.107 8 117202545.551 7                  91326967.327 7  87521410.464 8
G17  23223919.155 7                  23223923.528 6                 122042508.245 7                  95097942.269 6
G19  22270433.628 7  22270436.529 5                                 117031912.500 7  91193710.348 5                
G28  23957647.076 6                  23957651.963 6  23957654.842 7 125898269.283 6                  98102574.573 6  94014978.841 7
G31  22267561.135 7                  22267564.661 7                 117016823.849 7                  91181959.803 7
R03  20786163.448 8  20786166.345 7 111269955.042 8  86543153.191 7
R04  19247191.880 8  19247193.853 7 103067833.715 8  80163971.488 7
R05  21837624.913 7  21837629.477 7 116734632.354 7  90793625.458 7
R12  23043488.174 7  23043492.554 7 123094259.852 7  95739948.356 7
R13  22747236.292 6                 121468987.602 6
R18  22478356.704 6  22478361.222 6 119990972.301 6  93326319.877 6
R19  19591947.282 8  19591947.860 7 104803705.173 8  81513969.082 7
R20  21064393.682 6  21064397.628 7 112640788.697 6  87609519.318 7
> 2025 06 15 14 53  0.0000000  0 37
C05  39183580.654 6  39183577.809 6 204039159.313 6 157776036.372 6
C06  38250515.517 6  38250511.011 7 199180479.316 6 154018958.838 7
C09  38522364.841 7  38522361.858 7 200596054.504 7 155113596.061 7
C11  23228946.355 7  23228943.603 8 120959191.396 7  93533428.590 8
C12  23176923.920 7  23176921.462 8 120688296.353 7  93323688.335 8
C16  38858217.505 7  38858218.762 7 202344923.597 7 156465932.226 7
C21  22092868.190 8                 115043346.589 8
C22  22518567.025 8                 117260069.488 8
C34  22628317.228 7                 117831567.920 7
C36  25065732.461 7                 130523851.771 7
C39  38977329.851 7                 202965188.379 7
C42  25307589.274 7                 131783275.299 7
C43  24548435.374 7                 127830125.073 7
C44  24499215.675 7                 127573832.304 7
E03  24208844.509 8  24208847.221 9 127218339.709 8  96239862.218 9
E05  22240510.462 8  22240512.486 9 116874678.625 8  88414900.361 9
E09  27670076.454 7  27670080.678 8 145407230.474 7 109999593.187 8
E13  27727776.911 5  27727782.439 7 145710451.625 5 110229031.839 7
E15  23900681.136 8  23900684.009 9 125598924.915 8  95014785.618 9
E34  24063255.876 8  24063258.456 9 126453256.550 8  95661076.688 9
G01  22016306.101 7                  22016310.256 7  22016312.542 8 115696456.926 7                  90153104.234 7  86396726.292 8
G03  20224854.016 8                  20224859.693 7  20224858.339 8 106282319.578 8                  82817417.107 7  79366685.161 8
G04  20363604.351 7                  20363608.011 8  20363609.177 8 107011461.654 7                  83385575.506 8  79911178.985 8
G06  23029312.594 7                  23029319.197 7  23029317.534 8 121019859.465 7                  94301217.705 7  90371995.581 8
G09  22293726.762 7                  22293732.910 7  22293731.716 8 117154329.621 7                  91289396.505 7  87485405.114 8
G17  23230040.577 7                  23230044.924 6                 122074676.496 7                  95123008.426 6
G19  22272609.457 7  22272612.050 5                                 117043347.377 7  91202620.629 5                
G28  23963852.237 6                  23963856.193 6  23963859.083 7 125930874.339 6                  98127981.073 6  94039326.751 7
G31  22269101.828 7                  22269105.340 7                 117024921.025 7                  91188269.300 7
R03  20793883.346 8  20793886.158 7 111311279.551 8  86575294.444 7
R04  19246092.002 8  19246093.909 7 103061944.167 8  80159390.747 7
R05  21828467.810 7  21828471.867 7 116685682.101 7  90755553.044 7
R12  23045436.504 7  23045440.267 6 123104668.694 7  95748044.090 6
R13  22740852.818 6                 121434895.240 6
R18  22490602.135 5  22490606.579 6 120056340.618 5  93377161.791 6
R19  19596033.486 8  19596033.773 7 104825564.695 8  81530970.895 7
R20  21055978.460 6  21055982.617 7 112595789.556 6  87574520.050 7
> 2025 06 15 14 53 15.0000000  0 37
C05  39183468.573 6  39183466.066 6 204038576.411 6 157775585.641 6
C06  38249904.608 6  38249900.366 7 199177298.966 6 154016499.582 7
C09  38520209.906 7  38520207.081 7 200584833.313 7 155104919.130 7
C11  23226593.832 7  23226591.049 8 120946940.704 7  93523955.576 8
C12  23183677.526 7  23183674.904 8 120723462.198 7  93350880.767 8
C16  38858040.545 7  38858041.769 7 202344002.607 7 156465220.051 7
C21  22090034.100 8                 115028588.696 8
C22  22523829.641 8                 117287473.720 8
C34  22630960.293 7                 117845332.152 7
C36  25060760.877 7                 130497965.707 7
C39  38978476.415 7                 202971158.512 7
C42  25299400.149 7                 131740631.358 7
C43  24542785.339 7                 127800704.629 7
C44  24508516.046 7                 127622259.253 7
E03  24203438.412 8  24203440.933 9 127189929.572 8  96218370.153 9
E05  22243036.011 8  22243038.239 9 116887951.583 8  88424941.271 9
E09  27677905.366 7  27677909.538 8 145448371.479 7 110030716.067 8
E13  27719238.352 5  27719244.924 7 145665586.980 5 110195092.108 7
E15  23897291.938 8  23897294.684 9 125581113.988 8  95001311.788 9
E34  24068090.359 8  24068093.195 9 126478663.121 8  95680296.614 9
G01  22024844.664 7                  22024848.999 7  22024851.052 8 115741327.091 7                  90188068.003 7  86430233.206 8
G03  20228221.634 8                  20228227.070 7  20228225.645 8 106300014.311 8                  82831205.218 7  79379898.764 8
G04  20359744.150 7                  20359747.871 8  20359749.031 8 106991175.873 7                  83369768.429 8  79896030.515 8
G06  23020636.704 7                  23020643.444 7  23020641.488 8 120974267.768 7                  94265691.753 7  90337949.896 8
G09  22284563.399 7                  22284569.538 7  22284568.599 8 117106176.358 7                  91251874.508 7  87449446.555 8
G17  23236178.675 7                  23236182.677 6                 122106929.542 7                  95148140.571 6
G19  22274813.899 7  22274816.022 5                                 117054932.169 7  91211647.732 5                
G28  23970077.573 6                  23970082.735 6  23970085.320 7 125963591.242 6                  98153474.780 6  94063758.154 7
G31  22270672.688 7                  22270676.168 7                 117033176.689 7                  91194702.281 7
R03  20801614.124 7  20801617.158 7 111352663.681 7  86607482.084 7
R04  19245015.790 8  19245017.146 7 103056178.881 8  80154906.623 7
R05  21819323.578 7  21819326.694 7 116636799.854 7  90717533.568 7
R12  23047420.232 7  23047423.211 7 123115263.949 7  95756284.865 7
R13  22734496.337 6                 121400954.449 6
R18  22502857.236 5  22502862.234 6 120121761.77015  93428044.902 6
R19  19600155.881 8  19600155.814 7 104847614.765 8  81548120.938 7
R20  21047589.203 6  21047594.104 7 112550928.892 6  87539628.430 7
> 2025 06 15 14 53 30.0000000  0 37
C05  39183355.474 6  39183352.611 6 204037986.780 6 157775129.687 6
C06  38249299.846 6  38249295.796 7 199174150.505 6 154014065.008 7
C09  38518060.755 7  38518057.495 7 200573641.188 7 155096264.676 7
C11  23224264.196 7  23224261.450 8 120934809.473 7  93514574.934 8
C12  23190447.113 7  23190444.757 8 120758713.133 7  93378138.996 8
C16  38857869.194 7  38857870.811 7 202343111.720 7 156464531.168 7
C21  22087213.216 8                 115013899.452 8
C22  22529101.311 8                 117314923.346 8
C34  22633626.214 7                 117859212.472 7
C36  25055807.307 7                 130472167.464 7
C39  38979628.247 7                 202977155.873 7
C42  25291214.605 7                 131698010.296 7
C43  24537153.645 7                 127771379.126 7
C44  24517821.398 7                 127670713.929 7
E03  24198044.696 8  24198047.156 9 127161585.120 8  96196927.793 9
E05  22245575.515 8  22245577.664 9 116901296.193 8  88435036.375 9
E09  27685735.729 7  27685740.155 8 145489520.808 7 110061845.252 8
E13  27710703.740 5  27710708.817 7 145620729.576 5 110161157.823 7
E15  23893916.992 8  23893919.751 9 125563378.646 8  94987895.141 9
E34  24072939.165 8  24072941.879 9 126504143.230 8  95699572.136 9
G01  22033397.437 7                  22033401.530 7  22033403.515 8 115786270.449 7                  90223088.770 7  86463794.786 8
G03  20231604.942 8                  20231610.650 7  20231608.739 8 106317793.344 8                  82845059.006 7  79393175.303 8
G04  20355905.713 7                  20355909.216 8  20355910.221 9 106971002.327 7                  83354048.820 8  79880965.894 9
G06  23011973.002 7                  23011979.770 7  23011978.033 8 120928741.183 7                  94230216.513 7  90303952.791 8
G09  22275411.332 7                  22275417.518 7  22275416.607 8 117058082.415 7                  91214398.740 7  87413532.295 8
G17  23242331.251 7                  23242335.970 7                 122139263.644 7                  95173335.935 7
G19  22277046.337 7  22277048.647 5                                 117066663.010 7  91220788.646 5                
G28  23976324.099 6                  23976329.703 7  23976331.429 7 125996416.140 6                  98179052.539 7  94088270.209 7
G31  22272273.341 7                  22272277.282 7                 117041587.196 7                  91201255.949 7
R03  20809355.678 8  20809358.538 7 111394103.778 8  86639713.228 7
R04  19243961.674 8  19243963.183 7 103050533.973 8  80150516.123 7
R05  21810191.418 7  21810194.874 7 116587981.973 7  90679564.151 7
R12  23049438.175 7  23049441.358 7 123126041.979 7  95764667.783 7
R13  22728168.306 5                 121367161.656 5
R18  22515122.699 5  22515126.652 6 120187231.973 5  93478966.048 6
R19  19604312.824 8  19604313.075 7 104869851.729 8  81565416.379 7
R20  21039225.224 6  21039229.792 7 112506204.066 6  87504842.466 7
> 2025 06 15 14 53 45.0000000  0 37
C05  39183241.447 6  39183238.859 6 204037394.396 6 157774671.625 6
C06  38248701.643 6  38248698.106 7 199171037.983 6 154011658.232 7
C09  38515917.977 7  38515914.655 7 200562482.403 7 155087636.001 7
C11  23221958.534 7  23221955.672 8 120922801.904 7  93505289.920 8
C12  23197233.432 7  23197231.344 8 120794052.987 7  93405465.988 8
C16  38857705.660 7  38857706.183 7 202342255.029 7 156463868.720 7
C21  22084406.005 8                 114999282.951 8
C22  22534382.061 8                 117342422.326 8
C34  22636314.607 7                 117873212.863 7
C36  25050869.447 7                 130446461.444 7
C39  38980786.052 7                 202983184.545 7
C42  25283035.235 7                 131655416.298 7
C43  24531541.026 7                 127742152.864 7
C44  24527132.590 7                 127719200.198 7
E03  24192664.525 8  24192666.737 9 127133310.607 8  96175538.319 9
E05  22248129.097 8  22248131.481 9 116914716.466 8  88445188.727 9
E09  27693568.369 8  27693573.030 8 145530682.473 8 110092983.756 8
E13  27702170.499 5  27702174.862 7 145575883.728 5 110127232.247 7
E15  23890557.342 8  23890560.009 9 125545723.242 8  94974538.946 9
E34  24077802.252 8  24077805.356 9 126529700.900 8  95718906.342 9
G01  22041964.561 7                  22041968.934 7  22041970.654 8 115831290.951 7                  90258169.610 7  86497413.929 8
G03  20235004.791 8                  20235010.392 7  20235008.934 9 106335660.742 8                  82858981.658 7  79406517.847 9
G04  20352088.792 7                  20352092.738 8  20352093.762 9 106950945.301 7                  83338419.989 8  79865988.244 9
G06  23003322.376 7                  23003329.694 7  23003328.206 8 120883284.136 7                  94194795.450 7  90270007.630 8
G09  22266271.540 7                  22266277.579 7  22266276.745 8 117010052.117 7                  91176972.568 7  87377665.544 8
G17  23248500.519 6                  23248505.108 6                 122171682.709 6                  95198597.524 6
G19  22279307.594 7  22279310.222 5                                 117078544.027 7  91230046.571 5                
G28  23982591.359 6                  23982597.495 7  23982598.801 7 126029352.947 6                  98204717.589 7  94112865.859 7
G31  22273903.893 7                  22273908.063 7                 117050156.541 7                  91207933.407 7
R03  20817108.078 8  20817111.237 7 111435603.734 8  86671990.981 7
R04  19242930.831 8  19242932.314 7 103045013.602 8  80146222.493 7
R05  21801071.699 8  21801074.928 7 116539232.935 8  90641648.267 7
R12  23051490.487 7  23051494.161 7 123137006.813 7  95773195.949 7
R13  22721868.164 6                 121333521.755 6
R18  22527396.683 5  22527401.744 6 120252754.834 5  93529928.172 6
R19  19608504.976 8  19608506.134 7 104892279.549 8  81582860.242 7
R20  21030888.229 6  21030892.505 7 112461619.691 6  87470165.748 7
> 2025 06 15 14 54  0.0000000  0 37
C05  39183126.713 6  39183123.822 6 204036795.317 6 157774208.384 6
C06  38248110.202 6  38248106.325 7 199167957.427 6 154009276.164 7
C09  38513780.886 7  38513777.614 7 200551352.915 7 155079029.954 7
C11  23219675.148 7  23219672.980 8 120910914.072 7  93496097.492 8
C12  23204036.112 7  23204034.466 8 120829477.469 7  93432858.430 8
C16  38857546.025 7  38857547.691 6 202341428.567 7 156463229.658 6
C21  22081612.101 8                 114984735.173 8
C22  22539671.674 8                 117369966.569 8
C34  22639025.510 7                 117887329.205 7
C36  25045950.078 7                 130420843.821 7
C39  38981949.020 7                 202989240.422 7
C42  25274859.855 7                 131612845.398 7
C43  24525946.756 7                 127713022.077 7
C44  24536449.105 6                 127767713.737 6
E03  24187296.475 8  24187298.830 9 127105102.014 8  96154198.710 9
E05  22250696.572 8  22250698.887 9 116928208.225 8  88455395.162 9
E09  27701402.665 7  27701407.286 8 145571852.261 7 110124128.399 8
E13  27693637.432 6  27693642.315 7 145531045.479 6 110093312.423 7
E15  23887211.529 8  23887214.727 9 125528143.830 8  94961240.235 9
E34  24082679.597 8  24082682.819 9 126555332.055 8  95738296.118 9
G01  22050545.507 7                  22050549.652 8  22050551.741 8 115876384.250 7                  90293307.208 8  86531087.465 8
G03  20238421.069 8                  20238426.370 7  20238424.996 9 106353612.458 8                  82872969.997 7  79419923.332 9
G04  20348293.231 7                  20348297.298 8  20348298.429 9 106931000.764 7                  83322878.777 8  79851094.607 9
G06  22994685.180 7                  22994691.637 7  22994690.574 8 120837892.901 7                  94159425.683 7  90236111.616 8
G09  22257143.201 7                  22257148.902 7  22257148.105 8 116962081.550 7                  91139592.933 7  87341843.412 8
G17  23254685.272 6                  23254689.709 7                 122204182.407 6                  95223921.920 7
G19  22281596.249 7  22281599.466 5                                 117090570.907 7  91239418.178 5                
G28  23988879.860 6                  23988884.467 6  23988887.237 7 126062397.271 6                  98230466.425 6  94137541.837 7
G31  22275563.514 7                  22275568.291 7                 117058880.700 7                  91214731.413 7
R03  20824871.133 8  20824874.225 7 111477158.973 8  86704311.673 7
R04  19241921.944 8  19241923.781 7 103039613.445 8  80142022.410 7
R05  21791964.121 7  21791967.011 7 116490548.589 7  90603782.684 7
R12  23053576.994 7  23053581.544 7 123148154.147 7  95781866.131 7
R13  22715596.392 6                 121300030.964 6
R18  22539680.304 5  22539685.944 6 120318325.639 5  93580927.723 6
R19  19612732.741 8  19612733.889 8 104914893.821 8  81600449.080 8
R20  21022575.970 6  21022580.295 7 112417172.393 6  87435595.642 7
> 2025 06 15 14 54 15.0000000  0 37
C05  39183010.495 6  39183007.815 6 204036190.347 6 157773740.582 6
C06  38247524.958 6  38247521.132 6 199164909.578 6 154006919.360 6
C09  38511649.294 7  38511646.090 7 200540253.481 7 155070447.160 7
C11  23217415.552 7  23217413.289 8 120899146.907 7  93486998.367 8
C12  23210855.488 7  23210853.469 8 120864987.221 7  93460316.797 8
C16  38857393.485 7  38857394.933 7 202340632.993 7 156462614.470 7
C21  22078832.126 8                 114970256.918 8
C22  22544970.159 8                 117397556.685 8
C34  22641758.775 7                 117901562.195 7
C36  25041047.980 7                 130395315.644 7
C39  38983117.087 7                 202995324.320 7
C42  25266689.321 7                 131570298.471 7
C43  24520371.152 7                 127683987.753 7
C44  24545770.727 6                 127816255.086 6
E03  24181941.339 8  24181943.645 9 127076960.172 8  96132909.611 9
E05  22253277.879 8  22253280.026 9 116941772.144 8  88465656.162 9
E09  27709238.824 8  27709243.284 8 145613030.772 8 110155279.659 8
E13  27685106.965 6  27685111.570 7 145486215.766 6 110059399.111 7
E15  23883881.366 8  23883884.111 9 125510641.364 8  94947999.734 9
E34  24087571.263 8  24087574.402 9 126581037.396 8  95757742.023 9
G01  22059140.564 7                  22059144.714 7  22059146.927 8 115921550.920 7                  90328502.006 7  86564815.778 8
G03  20241853.635 8                  20241858.714 8  20241857.333 9 106371649.193 8                  82887024.584 8  79433392.313 9
G04  20344519.549 7                  20344523.593 8  20344524.353 9 106911169.564 7                  83307425.893 8  79836285.609 9
G06  22986060.234 7                  22986066.857 7  22986065.568 8 120792568.548 7                  94124108.072 7  90202265.548 8
G09  22248025.869 7                  22248031.868 7  22248031.093 8 116914171.737 7                  91102260.681 7  87306066.668 8
G17  23260884.661 7                  23260889.485 7                 122236763.165 7                  95249309.508 7
G19  22283912.710 7  22283915.371 5                                 117102744.280 7  91248903.917 5                
G28  23995188.826 6                  23995192.976 6  23995195.836 7 126095549.756 6                  98256299.545 6  94162298.532 7
G31  22277253.718 7                  22277258.025 7                 117067760.401 7                  91221650.651 7
R03  20832644.407 8  20832647.311 7 111518770.583 8  86736676.257 7
R04  19240936.448 8  19240938.152 7 103034334.360 8  80137916.454 7
R05  21782868.520 7  21782871.954 7 116441929.684 7  90565968.031 7
R12  23055697.708 7  23055703.163 7 123159484.957 7  95790678.881 7
R13  22709352.548 6                 121266690.690 6
R18  22551974.944 6  22551979.119 6 120383945.000 6  93631964.892 6
R19  19616994.872 8  19616996.169 7 104937695.353 8  81618183.572 7
R20  21014290.417 6  21014294.713 7 112372863.229 6  87401132.996 7
> 2025 06 15 14 54 30.0000000  0 37
C05  39182893.599 6  39182890.527 6 204035580.496 6 157773269.004 6
C06  38246946.363 6  38246942.177 7 199161895.383 6 154004588.590 7
C09  38509523.305 7  38509520.335 7 200529185.095 7 155061888.410 7
C11  23215179.236 7  23215176.947 8 120887501.538 7  93477993.422 8
C12  23217691.181 7  23217689.327 8 120900582.994 7  93487841.682 8
C16  38857247.094 7  38857248.470 7 202339869.354 7 156462023.971 7
C21  22076065.327 8                 114955849.223 8
C22  22550277.390 8                 117425193.599 8
C34  22644514.687 7                 117915912.749 7
C36  25036163.190 7                 130369878.200 7
C39  38984291.118 7                 203001437.154 7
C42  25258523.080 7                 131527776.624 7
C43  24514814.297 7                 127655051.136 7
C44  24555098.307 6                 127864824.941 6
E03  24176598.911 8  24176601.362 9 127048886.226 8  96111671.870 9
E05  22255872.738 8  22255875.032 9 116955409.120 8  88475972.442 9
E09  27717076.386 7  27717081.181 8 145654218.961 7 110186438.220 8
E13  27676577.374 5  27676582.739 7 145441395.956 5 110025493.189 7
E15  23880565.558 8  23880568.344 9 125493217.046 8  94934818.358 9
E34  24092477.458 8  24092480.303 9 126606817.904 8  95777244.788 9
G01  22067749.289 7                  22067753.814 7  22067755.615 8 115966791.798 7                  90363754.607 7  86598599.501 8
G03  20245301.942 8                  20245307.216 7  20245305.897 8 106389771.893 8                  82901146.169 7  79446925.494 8
G04  20340767.729 7                  20340771.465 8  20340772.193 8 106891452.755 7                  83292062.163 8  79821562.031 8
G06  22977448.245 7                  22977454.965 7  22977453.761 8 120747312.481 7                  94088843.624 7  90168470.446 8
G09  22238920.909 6                  22238926.618 7  22238926.006 8 116866323.909 6                  91064976.717 7  87270336.197 8
G17  23267100.192 7                  23267105.581 7                 122269425.878 7                  95274760.918 7
G19  22286257.164 7  22286258.991 5                                 117115065.042 7  91258504.491 5                
G28  24001517.912 5                  24001522.051 6  24001525.176 7 126128811.011 5                  98282217.426 6  94187136.467 7
G31  22278973.223 7                  22278977.217 7                 117076796.666 7                  91228691.866 7
R03  20840428.263 8  20840431.230 7 111560438.848 8  86769084.873 7
R04  19239973.437 8  19239975.476 7 103029177.229 8  80133905.349 7
R05  21773785.937 7  21773789.516 7 116393377.948 7  90528205.620 7
R12  23057853.975 7  23057857.423 7 123170999.886 7  95799634.974 7
R13  22703136.901 6                 121233502.192 6
R18  22564277.624 6  22564281.275 6 120449613.416 6  93683040.223 6
R19  19621293.027 8  19621293.051 7 104960684.785 8  81636064.244 7
R20  21006030.078 6  21006034.052 7 112328693.696 6  87366778.941 7
> 2025 06 15 14 54 45.0000000  0 37
C05  39182775.596 6  39182772.402 6 204034965.295 6 157772793.299 6
C06  38246373.965 6  38246369.465 7 199158914.432 6 154002283.522 7
C09  38507403.208 7  38507400.671 7 200518147.309 7 155053353.307 7
C11  23212966.050 7  23212963.476 8 120875977.593 7  93469082.390 8
C12  23224543.594 7  23224541.747 8 120936264.085 7  93515432.564 8
C16  38857105.840 7  38857108.008 7 202339137.140 7 156461457.791 7
C21  22073311.785 8                 114941511.579 8
C22  22555593.543 8                 117452876.692 8
C34  22647293.244 7                 117930380.243 7
C36  25031295.487 7                 130344531.159 7
C39  38985470.333 7                 203007578.413 7
C42  25250361.751 7                 131485279.419 7
C43  24509275.917 7                 127626211.949 7
C44  24564431.074 6                 127913422.620 6
E03  24171269.275 8  24171271.879 9 127020879.743 8  96090485.164 9
E05  22258481.893 8  22258483.811 9 116969118.519 8  88486343.507 9
E09  27724916.169 7  27724920.865 8 145695416.190 7 110217603.636 8
E13  27668050.454 6  27668055.539 8 145396585.581 6 109991594.437 8
E15  23877264.356 8  23877267.397 9 125475870.510 8  94921695.834 9
E34  24097397.871 8  24097400.400 9 126632672.997 8  95796803.987 9
G01  22076372.865 7                  22076376.818 7  22076378.855 8 116012106.122 7                  90399064.429 7  86632438.087 8
G03  20248767.158 8                  20248772.182 7  20248770.790 8 106407980.042 8                  82915334.338 7  79460522.481 8
G04  20337037.228 7                  20337040.849 8  20337041.639 8 106871849.908 7                  83276787.227 8  79806923.547 8
G06  22968849.176 7                  22968856.079 7  22968854.621 8 120702124.443 7                  94053632.206 7  90134726.185 8
G09  22229827.437 6                  22229833.441 7  22229832.910 8 116818537.758 6                  91027740.812 7  87234651.771 8
G17  23273331.261 7                  23273336.206 7                 122302169.587 7                  95300275.473 7
G19  22288629.656 7  22288631.225 5                                 117127532.530 7  91268219.414 5                
G28  24007867.445 5                  24007871.997 6  24007876.064 7 126162180.417 5                  98308219.489 6  94212055.130 7
G31  22280722.255 7                  22280726.302 7                 117085988.669 7                  91235854.461 7
R03  20848223.141 8  20848226.282 7 111602162.804 8  86801536.851 7
R04  19239032.712 8  19239034.640 7 103024141.572 8  80129988.719 7
R05  21764716.067 7  21764719.787 7 116344892.751 7  90490494.943 7
R12  23060043.429 7  23060047.688 7 123182698.396 7  95808733.809 7
R13  22696950.265 6                 121200465.691 6
R18  22576585.884 5  22576593.009 6 120515329.962 5  93734152.987 6
R19  19625625.598 8  19625625.685 7 104983861.491 8  81654090.575 7
R20  20997796.064 6  20997800.354 7 112284663.809 6  87332533.458 7
> 2025 06 15 14 55  0.0000000  0 37
C05  39182656.058 6  39182653.426 6 204034345.596 6 157772314.105 6
C06  38245808.123 6  38245803.564 7 199155967.456 6 154000004.748 7
C09  38505287.583 6  38505286.779 7 200507140.947 6 155044842.515 7
C11  23210776.750 7  23210773.909 8 120864575.987 7  93460265.973 8
C12  23231412.446 7  23231410.079 8 120972031.104 7  93543089.844 8
C16  38856971.603 7  38856973.431 7 202338437.157 7 156460916.533 7
C21  22070572.009 8                 114927244.846 8
C22  22560918.849 8                 117480606.715 8
C34  22650093.907 7                 117944965.415 7
C36  25026445.745 7                 130319275.732 7
C39  38986655.181 7                 203013748.917 7
C42  25242205.280 7                 131442807.751 7
C43  24503756.557 7                 127597471.273 7
C44  24573769.452 6                 127962048.663 6
E03  24165953.015 8  24165955.382 9 126992941.621 8  96069350.181 9
E05  22261104.395 8  22261106.537 9 116982901.089 8  88496769.923 9
E09  27732757.657 7  27732762.218 8 145736623.117 7 110248776.368 8
E13  27659525.493 5  27659530.350 7 145351785.662 5 109957703.647 7
E15  23873978.428 8  23873981.438 9 125458602.801 8  94908632.926 9
E34  24102332.443 8  24102334.838 9 126658603.490 8  95816420.228 9
G01  22085009.712 7                  22085014.078 7  22085015.978 8 116057494.539 7                  90434431.991 7  86666332.012 8
G03  20252248.333 8                  20252253.429 7  20252252.049 9 106426274.439 8                  82929589.719 7  79474183.872 9
G04  20333328.945 7                  20333331.972 8  20333333.222 8 106852361.967 7                  83261601.818 8  79792370.863 8
G06  22960263.626 7                  22960270.241 7  22960268.681 8 120657005.756 7                  94018474.762 7  90101033.665 8
G09  22220745.764 7                  22220752.201 7  22220751.467 8 116770814.312 7                  90990553.758 7  87199014.174 8
G17  23279577.734 7                  23279582.626 7                 122334994.941 7                  95325853.646 7
G19  22291030.283 7  22291032.156 5                                 117140147.459 7  91278049.257 5                
G28  24014237.601 5                  24014242.799 6  24014246.566 7                                  98334306.186 6  94237054.901 7
G31  22282501.211 7                  22282505.010 7                 117095337.270 7                  91243139.090 7
R03  20856027.965 8  20856030.557 7 111643943.513 8  86834032.951 7
R04  19238115.140 8  19238117.005 7 103019227.971 8  80126167.061 7
R05  21755658.198 8  21755662.183 7 116296475.003 8  90452836.695 7
R12  23062268.506 7  23062273.158 7 123194581.307 7  95817976.051 7
R13  22690792.349 6                 121167582.348 6
R18  22588904.951 6  22588912.904 6 120581094.983 6  93785303.561 6
R19  19629993.074 8  19629994.220 7 105007226.093 8  81672263.061 7
R20  20989588.634 6  20989593.200 7 112240774.701 6  87298397.528 7
> 2025 06 15 14 55 15.0000000  0 37
C05  39182536.249 6  39182533.476 6 204033720.739 6 157771830.929 6
C06  38245248.715 7  38245244.219 7 199153053.858 7 153997751.775 7
C09  38503179.963 6  38503179.025 7 200496165.365 6 155036355.528 7
C11  23208610.254 7  23208607.896 8 120853296.225 7  93451543.740 8
C12  23238297.587 7  23238295.243 8 121007883.109 7  93570812.887 8
C16  38856843.589 7  38856845.080 7 202337768.766 7 156460399.685 7
C21  22067845.741 8                 114913048.376 8
C22  22566253.095 8                 117508382.922 8
C34  22652917.290 8                 117959667.509 8
C36  25021613.811 7                 130294111.413 7
C39  38987845.789 7                 203019947.993 7
C42  25234053.940 7                 131400361.097 7
C43  24498255.908 7                 127568828.684 7
C44  24583112.393 6                 128010702.171 6
E03  24160649.165 8  24160651.788 9 126965071.302 8  96048266.487 9
E05  22263741.044 8  22263743.047 9 116996756.034 8  88507251.107 9
E09  27740600.895 7  27740605.325 8 145777838.994 7 110279955.888 8
E13  27651002.051 5  27651007.182 8 145306995.781 5 109923820.429 8
E15  23870707.418 8  23870710.383 9 125441413.404 8  94895629.269 9
E34  24107280.721 8  24107283.509 9 126684608.671 8  95836092.958 9
G01  22093660.857 7                  22093664.829 7  22093666.558 8 116102956.201 7                  90469856.651 7  86700280.616 8
G03  20255745.574 8                  20255750.921 7  20255749.696 9 106444654.371 8                  82943911.716 7  79487909.145 9
G04  20329642.246 7                  20329645.718 8  20329646.871 8 106832988.315 7                  83246505.467 8  79777903.541 8
G06  22951690.659 7                  22951697.144 7  22951695.770 8 120611955.910 7                  93983371.059 7  90067392.609 8
G09  22211676.147 7                  22211682.367 7  22211681.587 8 116723153.154 7                  90953415.231 7  87163423.093 8
G17  23285839.665 7                  23285844.612 7                 122367900.996 7                  95351494.728 7
G19  22293458.388 7  22293461.050 5                                 117152908.878 7  91287993.190 5                
G28  24020630.143 5                  24020633.713 6  24020637.430 7 126229244.32915                  98360476.839 6  94262135.156 7
G31  22284310.242 7                  22284313.294 7                 117104841.742 7                  91250545.185 7
R03  20863843.453 7  20863846.553 7 111685780.056 7  86866572.451 7
R04  19237220.900 8  19237221.949 7 103014435.760 8  80122439.770 7
R05  21746613.604 7  21746616.775 7 116248124.249 7  90415230.614 7
R12  23064527.018 7  23064531.228 7 123206647.794 7  95827361.109 7
R13  22684663.318 6                 121134851.872 6
R18  22601235.739 6  22601241.246 6 120646907.518 6  93836490.952 6
R19  19634396.081 8  19634396.955 7 105030777.915 8  81690581.086 7
R20  20981407.372 6  20981411.785 7 112197026.611 6  87264371.248 7
> 2025 06 15 14 55 30.0000000  0 37
C05  39182416.129 6  39182412.834 6 204033093.901 6 157771346.222 6
C06  38244696.639 7  38244691.481 7 199150176.777 7 153995527.041 7
C09  38501080.813 6  38501078.358 7 200485223.841 6 155027894.872 7
C11  23206468.009 7  23206465.638 8 120842141.605 7  93442918.289 8
C12  23245199.399 7  23245197.314 8 121043823.106 7  93598603.940 8
C16  38856721.893 7  38856723.902 7 202337135.102 7 156459909.709 7
C21  22065133.419 8                 114898925.336 8
C22  22571596.445 8                 117536208.327 8
C34  22655763.762 7                 117974489.634 7
C36  25016798.195 7                 130269041.622 7
C39  38989042.424 7                 203026178.740 7
C42  25225908.268 7                 131357942.658 7
C43  24492775.177 7                 127540287.533 7
C44  24592461.610 6                 128059385.996 6
E03  24155359.621 8  24155361.747 9 126937272.058 8  96027236.551 9
E05  22266391.773 8  22266393.906 9 117010686.448 8  88517789.364 9
E09  27748446.141 7  27748450.818 8 145819066.903 7 110311144.490 8
E13  27642481.379 6  27642486.659 8 145262219.307 6 109889947.379 8
E15  23867452.010 8  23867454.891 9 125424305.668 8  94882687.384 9
E34  24112243.927 8  24112246.978 9 126710691.688 8  95855824.578 9
G01  22102326.613 7                  22102330.660 7  22102332.421 8 116148494.074 7                  90505340.657 7  86734286.129 8
G03  20259260.100 8                  20259265.365 7  20259264.284 9 106463123.000 8                  82958302.869 7  79501700.651 9
G04  20325977.814 7                  20325981.665 8  20325982.828 9 106813732.213 7                  83231500.727 8  79763524.009 9
G06  22943131.551 7                  22943138.446 7  22943136.609 8 120566978.521 7                  93948323.760 7  90033805.637 8
G09  22202619.247 7                  22202625.276 7  22202624.040 8 116675557.630 7                  90916327.859 7  87127881.050 8
G17  23292117.476 7                  23292121.997 7                 122400890.623 7                  95377200.913 7
G19  22295915.490 7  22295918.174 5                                 117165819.808 7  91298053.646 5                
G28  24027042.039 5                  24027046.309 6  24027049.440 7 126262940.71115                  98386733.778 6  94287298.029 7
G31  22286149.162 7                  22286152.624 7                 117114505.332 7                  91258075.301 7
R03  20871669.308 8  20871673.571 7 111727675.524 8  86899157.810 7
R04  19236348.927 8  19236350.657 7 103009768.100 8  80118809.375 7
R05  21737581.289 7  21737585.171 7 116199843.854 7  90377679.228 7
R12  23066820.699 7  23066824.585 7 123218900.854 7  95836891.282 7
R13  22678563.145 6                 121102277.996 6
R18  22613574.095 6  22613578.497 6 120712770.249 6  93887717.375 6
R19  19638834.589 8  19638835.297 8 105054519.895 8  81709047.026 8
R20  20973253.401 6  20973258.025 7 112153422.995 6  87230457.390 7
> 2025 06 15 14 55 45.0000000  0 37
C05  39182294.929 6  39182292.071 6 204032464.247 6 157770859.332 6
C06  38244151.600 7  38244145.843 7 199147335.361 7 153993329.888 7
C09  38498986.242 7  38498983.210 7 200474315.478 7 155019459.838 7
C11  23204350.048 7  23204347.475 8 120831111.359 7  93434389.008 8
C12  23252118.115 7  23252115.358 8 121079849.984 7  93626462.176 8
C16  38856606.615 7  38856608.927 7 202336535.307 7 156459445.901 7
C21  22062435.097 8                 114884874.911 8
C22  22576949.596 8                 117564082.004 8
C34  22658633.126 7                 117989430.797 7
C36  25012001.891 7                 130244065.807 7
C39  38990245.590 7                 203032440.319 7
C42  25217767.453 7                 131315551.701 7
C43  24487313.450 7                 127511847.212 7
C44  24601816.612 6                 128108099.089 6
E03  24150082.450 8  24150085.063 9 126909543.089 8  96006259.777 9
E05  22269056.881 8  22269058.943 9 117024691.357 8  88528383.983 9
E09  27756293.728 7  27756298.413 8 145860305.757 7 110342341.385 8
E13  27633962.337 5  27633968.354 7 145217455.586 5 109856083.986 7
E15  23864211.920 7  23864214.870 9 125407278.963 7  94869806.787 9
E34  24117221.712 8  24117225.016 9 126736851.640 8  95875614.397 9
G01  22111006.461 7                  22111011.082 7  22111012.632 8 116194107.021 7                  90540883.199 7  86768347.729 8
G03  20262791.188 8                  20262796.601 7  20262795.254 9 106481679.405 8                  82972762.403 7  79515557.702 9
G04  20322335.809 7                  20322339.805 8  20322340.642 9 106794592.854 7                  83216586.959 8  79749231.656 9
G06  22934586.282 7                  22934593.152 7  22934591.542 8 120522073.070 7                  93913332.561 7  90000272.374 8
G09  22193574.543 6                  22193580.573 7  22193579.357 8 116628027.145 6                  90879291.120 7  87092387.524 8
G17  23298410.791 7                  23298415.266 6                 122433962.587 7                  95402971.214 6
G19  22298400.415 7  22298403.810 5                                 117178879.365 7  91308229.896 5                
G28  24033475.149 5                  24033479.660 6  24033482.721 7 126296746.647 5                  98413076.029 6  94312542.683 7
G31  22288018.170 7                  22288021.608 7                 117124327.075 7                  91265728.637 7
R03  20879507.038 8  20879510.454 7 111769628.289 8  86931787.722 7
R04  19235500.335 8  19235502.092 7 103005224.053 8  80115275.100 7
R05  21728562.641 7  21728565.828 7 116151633.261 7  90340182.134 7
R12  23069149.856 7  23069153.320 7 123231339.705 7  95846565.943 7
R13  22672492.095 6                 121069860.220 6
R18  22625921.521 6  22625926.521 6 120778681.897 6  93938981.915 6
R19  19643308.497 8  19643308.168 7 105078450.780 8  81727659.950 7
R20  20965126.400 6  20965130.661 7 112109963.809 6  87196655.783 7
> 2025 06 15 14 56  0.0000000  0 37
C05  39182173.101 6  39182170.272 6 204031829.771 6 157770368.710 6
C06  38243611.777 7  38243606.588 7 199144527.451 7 153991158.626 7
C09  38496897.157 7  38496894.073 7 200463438.161 7 155011048.818 7
C11  23202255.279 7  23202252.706 8 120820203.513 7  93425954.366 8
C12  23259053.028 7  23259050.274 8 121115961.367 7  93654385.769 8
C16  38856498.142 7  38856499.763 7 202335967.245 7 156459006.656 7
C21  22059750.647 8                 114870894.971 8
C22  22582311.176 8                 117592001.724 8
C34  22661524.787 7                 118004488.805 7
C36  25007223.183 7                 130219182.104 7
C39  38991453.251 7                 203038730.554 7
C42  25209631.522 7                 131273186.185 7
C43  24481870.418 7                 127483505.791 7
C44  24611176.857 7                 128156839.040 7
E03  24144818.542 8  24144821.352 9 126881882.336 8  95985334.605 9
E05  22271735.591 8  22271737.717 9 117038768.522 8  88539033.274 9
E09  27764142.851 7  27764147.537 8 145901553.343 7 110373544.857 8
E13  27625446.597 6  27625452.296 7 145172702.769 6 109822228.781 7
E15  23860986.953 8  23860989.845 9 125390331.275 8  94856985.960 9
E34  24122214.255 8  24122217.295 9 126763086.357 8  95895460.768 9
G01  22119699.752 7                  22119704.722 8  22119706.379 8 116239792.752 7                  90576482.426 8  86802463.646 8
G03  20266338.781 8                  20266343.936 7  20266342.695 8 106500321.433 8                  82987288.628 7  79529478.687 8
G04  20318715.480 7                  20318719.647 8  20318720.053 9 106775568.181 7                  83201762.568 8  79735024.942 9
G06  22926054.321 7                  22926061.344 7  22926059.396 8 120477237.728 7                  93878395.944 7  89966791.476 8
G09  22184541.947 6                  22184547.291 7  22184546.683 8 116580559.751 6                  90842303.552 7  87056941.125 8
G17  23304719.735 6                  23304723.754 7                 122467114.422 6                  95428803.799 7
G19  22300914.125 7  22300916.898 5                                 117192085.307 7  91318520.217 5                
G28  24039928.139 5                  24039932.938 6  24039936.434 7 126330659.638 5                  98439501.765 6  94337867.305 7
G31  22289916.821 7                  22289920.294 7                 117134304.674 7                  91273503.376 7
R03  20887354.042 8  20887358.074 7 111811636.090 8  86964460.453 7
R04  19234674.112 8  19234675.838 7 103000801.339 8  80111835.242 7
R05  21719556.456 7  21719560.051 7 116103490.208 7  90302737.575 7
R12  23071512.353 7  23071517.330 7 123243961.905 7  95856383.205 7
R13  22666450.070 6                 121037597.023 6
R18  22638277.645 6  22638283.557 6 120844639.934 6  93990282.537 6
R19  19647816.684 8  19647816.968 7 105102568.503 8  81746418.163 7
R20  20957025.784 6  20957030.077 7 112066647.050 6  87162965.011 7
> 2025 06 15 14 56 15.0000000  0 37
C05  39182051.007 6  39182048.000 6 204031193.144 6 157769876.435 6
C06  38243079.564 7  38243074.413 7 199141755.838 7 153989015.430 7
C09  38494815.474 7  38494811.920 7 200452594.590 7 155002663.875 7
C11  23200184.907 7  23200181.980 8 120809420.793 7  93417616.476 8
C12  23266004.350 7  23266002.205 8 121152159.781 7  93682376.647 8
C16  38856395.788 7  38856396.794 7 202335433.574 7 156458593.996 7
C21  22057080.189 8                 114856988.223 8
C22  22587681.883 8                 117619970.034 8
C34  22664439.606 7                 118019666.218 7
C36  25002463.212 7                 130194393.448 7
C39  38992666.842 7                 203045052.117 7
C42  25201500.741 7                 131230848.904 7
C43  24476447.597 7                 127455266.275 7
C44  24620542.480 7                 128205608.297 7
E03  24139568.322 8  24139571.170 9 126854292.573 8  95964463.154 9
E05  22274428.696 8  22274430.749 9 117052920.515 8  88549739.153 9
E09  27771994.327 7  27771998.796 8 145942812.186 7 110404756.907 8
E13  27616933.330 6  27616938.714 8 145127963.605 6 109788383.947 8
E15  23857777.562 8  23857780.414 9 125373465.481 8  94844227.092 9
E34  24127221.415 8  24127224.333 9 126789398.465 8  95915365.684 9
G01  22128407.949 7                  22128412.323 7  22128414.327 8 116285553.771 7                  90612140.293 7  86836635.781 8
G03  20269902.914 8                  20269908.260 7  20269907.014 9 106519051.696 8                  83001883.650 7  79543465.563 9
G04  20315117.431 7                  20315121.452 8  20315121.964 8 106756660.967 7                  83187029.679 8  79720905.913 8
G06  22917536.689 7                  22917543.336 7  22917541.491 8 120432475.545 7                  93843516.352 7  89933365.200 8
G09  22175521.639 6                  22175527.252 7  22175526.616 8 116533158.247 6                  90805367.359 7  87021543.953 8
G17  23311043.631 7                  23311048.267 7                 122500348.692 7                  95454700.535 7
G19  22303454.962 7  22303457.450 5                                 117205440.084 7  91328926.552 5                
G28  24046402.411 5                  24046407.098 6  24046410.998 7 126364682.329 5                  98466012.879 6  94363273.781 7
G31  22291845.508 7                  22291849.170 7                 117144440.940 7                  91281401.702 7
R03  20895212.374 8  20895216.140 7 111853701.813 8  86997178.201 7
R04  19233871.736 8  19233873.086 7 102996502.564 8  80108491.744 7
R05  21710563.814 7  21710566.803 7 116055417.965 7  90265348.067 7
R12  23073909.862 7  23073914.581 7 123256770.141 7  95866345.160 7
R13  22660438.121 6                 121005491.335 6
R18  22650643.415 6  22650648.420 6 120910646.627 6  94041620.975 6
R19  19652360.512 8  19652360.891 7 105126875.634 8  81765323.710 7
R20  20948952.917 6  20948956.676 7 112023476.089 6  87129387.584 7
> 2025 06 15 14 56 30.0000000  0 37
C05  39181928.612 6  39181925.537 6 204030555.763 6 157769383.577 6
C06  38242554.267 7  38242549.507 7 199139021.899 7 153986901.382 7
C09  38492739.445 7  38492736.149 7 200441786.400 7 154994306.298 7
C11  23198138.365 7  23198135.744 8 120798764.965 7  93409376.723 8
C12  23272973.115 7  23272970.577 8 121188446.507 7  93710435.805 8
C16  38856299.838 7  38856301.419 7 202334935.846 7 156458209.111 7
C21  22054423.441 8                 114843156.237 8
C22  22593063.106 8                 117647988.423 8
C34  22667377.471 7                 118034964.451 7
C36  24997721.457 7                 130169701.560 7
C39  38993887.513 7                 203051406.478 7
C42  25193376.172 7                 131188541.448 7
C43  24471044.323 7                 127427130.334 7
C44  24629913.649 7                 128254408.104 7
E03  24134332.036 8  24134334.866 9 126826775.457 8  95943646.658 9
E05  22277136.340 8  22277138.296 9 117067148.792 8  88560502.737 9
E09  27779847.678 7  27779852.534 8 145984083.792 7 110435978.566 8
E13  27608422.779 6  27608428.054 8 145083239.992 6 109754550.826 8
E15  23854584.063 8  23854586.880 9 125356683.284 8  94831531.486 9
E34  24132243.787 8  24132246.272 9 126815789.440 8  95935330.272 9
G01  22137130.509 7                  22137135.033 7  22137137.084 8 116331391.297 7                  90647857.852 7  86870865.079 8
G03  20273484.191 8                  20273489.672 7  20273488.555 9 106537871.763 8                  83016548.613 7  79557519.503 9
G04  20311542.142 7                  20311545.876 8  20311546.801 9 106737872.776 7                  83172389.542 8  79706875.776 9
G06  22909033.106 7                  22909039.548 7  22909037.933 8 120387788.420 7                  93808695.238 7  89899994.983 8
G09  22166514.320 6                  22166519.552 7  22166519.129 8 116485824.509 6                  90768483.932 7  86986197.346 8
G17  23317383.643 7                  23317389.267 7                 122533666.502 7                  95480662.416 7
G19  22306024.925 7  22306026.791 5                                 117218945.124 7  91339449.976 5                
G28  24052898.425 5                  24052902.407 6  24052906.598 7 126398815.78715                  98492610.368 6  94388763.024 7
G31  22293804.885 7                  22293808.867 7                 117154737.122 7                  91289424.673 7
R03  20903081.431 8  20903085.017 7 111895826.327 8  87029941.681 7
R04  19233092.202 8  19233093.741 7 102992329.237 8  80105245.803 7
R05  21701583.739 7  21701587.665 7 116007417.821 7  90228014.687 7
R12  23076342.645 7  23076347.265 7 123269765.921 7  95876452.968 7
R13  22654455.548 6                 120973545.230 6
R18  22663017.751 6  22663023.118 6 120976703.092 6  94092998.168 6
R19  19656940.394 8  19656941.415 7 105151373.409 8  81784377.508 7
R20  20940906.838 6  20940911.384 7 111980452.515 6  87095924.828 7
> 2025 06 15 14 56 45.0000000  0 37
C05  39181805.259 6  39181802.426 6 204029915.707 6 157768888.648 6
C06  38242035.839 7  38242031.220 7 199136323.532 7 153984814.862 7
C09  38490669.989 7  38490667.164 7 200431011.380 7 154985974.379 7
C11  23196115.827 7  23196113.478 8 120788233.938 7  93401233.486 8
C12  23279957.515 7  23279956.011 8 121224819.117 7  93738561.396 8
C16  38856211.909 7  38856212.309 7 202334471.876 7 156457850.334 7
C21  22051781.101 8                 114829396.797 8
C22  22598452.437 8                 117676054.563 8
C34  22670337.913 8                 118050381.269 8
C36  24992997.411 7                 130145104.572 7
C39  38995113.741 7                 203057791.483 7
C42  25185256.988 7                 131146261.709 7
C43  24465660.613 7                 127399096.105 7
C44  24639290.912 7                 128303236.100 7
E03  24129109.387 8  24129111.962 9 126799328.854 8  95922883.491 9
E05  22279858.044 8  22279859.938 9 117081451.032 8  88571322.291 9
E09  27787703.319 7  27787708.230 8 146025365.754 7 110467208.072 8
E13  27599914.739 6  27599919.965 8 145038529.775 6 109720727.889 8
E15  23851406.002 8  23851408.878 9 125339982.707 8  94818897.594 9
E34  24137280.542 8  24137282.898 9 126842257.070 8  95955352.849 9
G01  22145867.055 7                  22145872.200 8  22145873.853 8 116377303.063 7                  90683633.202 8  86905149.793 8
G03  20277082.265 8                  20277087.561 7  20277086.495 9 106556779.357 8                  83031281.814 7  79571638.806 9
G04  20307989.163 7                  20307992.943 8  20307994.271 9 106719201.538 7                  83157840.524 8  79692932.982 9
G06  22900542.835 7                  22900549.408 7  22900548.421 8 120343174.452 7                  93773931.137 7  89866679.396 8
G09  22157519.238 6                  22157524.896 7  22157524.158 8 116438556.429 6                  90731651.744 7  86950899.854 8
G17  23323739.474 7                  23323745.299 7                 122567065.385 7                  95506687.512 7
G19  22308623.122 7  22308624.993 5                                 117232598.045 7  91350088.600 5                
G28  24059414.503 5                  24059418.339 6  24059422.246 7 126433057.601 5                  98519292.342 6  94414333.204 7
G31  22295794.432 7                  22295797.927 7                 117165190.909 7                  91297570.499 7
R03  20910961.387 8  20910964.681 7 111938007.555 8  87062749.288 7
R04  19232336.225 8  19232337.495 7 102988279.134 8  80102095.737 7
R05  21692618.195 8  21692621.618 7 115959488.178 8  90190736.096 7
R12  23078810.176 7  23078814.535 7 123282946.739 7  95886704.733 7
R13  22648502.671 6                 120941757.073 6
R18  22675401.634 6  22675407.033 6 121042806.763 6  94144411.979 6
R19  19661555.381 8  19661555.837 8 105176059.223 8  81803577.575 8
R20  20932888.961 6  20932893.316 7 111937575.274 6  87062575.911 7
> 2025 06 15 14 57  0.0000000  0 37
C05  39181682.952 6  39181680.488 6 204029278.377 6 157768395.828 6
C06  38241525.898 7  38241520.667 7 199133666.304 7 153982760.113 7
C09  38488609.087 7  38488605.585 7 200420274.962 7 154977672.279 7
C11  23194118.470 7  23194116.276 8 120777833.257 7  93393191.046 8
C12  23286960.388 7  23286958.357 8 121261282.965 7  93766757.539 8
C16  38856130.397 7  38856130.784 7 202334047.177 7 156457521.939 7
C21  22049154.013 8                 114815715.479 8
C22  22603852.716 8                 117704173.894 8
C34  22673322.220 7                 118065922.066 7
C36  24988293.453 7                 130120608.205 7
C39  38996346.843 7                 203064212.606 7
C42  25177143.700 6                 131104015.314 6
C43  24460297.334 7                 127371169.284 7
C44  24648674.662 7                 128352097.473 7
E03  24123901.170 8  24123903.534 9 126771958.385 8  95902177.936 9
E05  22282594.769 8  22282596.657 9 117095832.656 8  88582201.907 9
E09  27795561.814 7  27795566.920 8 146066663.570 7 110498449.572 8
E13  27591410.491 6  27591415.469 8 144993838.788 6 109686919.487 8
E15  23848244.555 8  23848247.478 9 125323369.439 8  94806329.763 9
E34  24142332.969 8  24142335.127 8 126868806.848 8  95975437.573 8
G01  22154618.936 7                  22154623.935 8  22154625.841 8 116423294.304 7                  90719470.511 8  86939493.859 8
G03  20280698.209 8                  20280703.339 7  20280702.018 9 106575780.041 8                  83046087.504 7  79585827.601 9
G04  20304459.114 7                  20304463.892 8  20304464.813 9 106700652.898 7                  83143387.024 8  79679081.713 9
G06  22892068.559 7                  22892075.262 7  22892073.647 8 120298639.576 7                  93739228.653 7  89833422.870 8
G09  22148538.028 6                  22148543.483 7  22148542.795 8 116391359.936 6                  90694875.253 7  86915655.729 8
G17  23330111.608 7                  23330117.285 7                 122600550.727 7                  95532779.953 7
G19  22311250.501 7  22311252.632 5                                 117246404.150 7  91360846.585 5                
G28  24065952.305 5                  24065956.075 6  24065960.112 7 126467413.119 5                  98546062.864 6  94439988.276 7
G31  22297814.631 7                  22297818.556 7                 117175807.907 7                  91305843.485 7
R03  20918852.748 8  20918855.714 7 111980250.377 8  87095604.818 7
R04  19231603.668 8  19231605.518 8 102984357.749 8  80099045.777 8
R05  21683665.759 8  21683670.018 7 115911634.405 8  90153516.526 7
R12  23081312.968 7  23081318.085 7 123296318.165 7  95897104.732 7
R13  22642580.560 6                 120910132.875 6
R18  22687794.797 5  22687801.144 6 121108962.813 5  94195866.596 6
R19  19666206.163 8  19666206.968 7 105200938.650 8  81822928.229 7
R20  20924899.331 6  20924903.585 7 111894850.797 6  87029345.766 7
> 2025 06 15 14 57 15.0000000  0 37
C05  39181560.548 6  39181557.594 6 204028640.170 6 157767902.337 6
C06  38241022.616 7  38241017.993 7 199131046.519 7 153980734.323 7
C09  38486554.617 7  38486550.447 7 200409573.703 7 154969397.373 7
C11  23192145.567 7  23192143.015 8 120767559.546 7  93385246.738 8
C12  23293979.251 6  23293977.792 8 121297834.098 6  93795021.170 8
C16  38856054.560 7  38856056.201 7 202333658.092 7 156457221.090 7
C21  22046541.209 8                 114802108.659 8
C22  22609262.070 8                 117732342.674 8
C34  22676329.971 7                 118081583.116 7
C36  24983607.379 7                 130096209.146 7
C39  38997585.991 7                 203070666.195 7
C42  25169036.384 6                 131061798.719 6
C43  24454954.729 7                 127343346.416 7
C44  24658063.636 7                 128400988.405 7
E03  24118706.716 8  24118708.893 9 126744660.521 8  95881527.285 9
E05  22285345.838 8  22285347.759 9 117110289.952 8  88593138.762 9
E09  27803423.208 6  27803427.946 8 146107973.421 6 110529700.171 8
E13  27582909.068 6  27582914.009 8 144949163.551 6 109653123.001 8
E15  23845098.785 8  23845102.024 9 125306839.987 8  94793825.354 9
E34  24147399.926 8  24147402.274 9 126895435.080 8  95995581.635 9
G01  22163385.344 7                  22163390.013 7  22163392.060 8 116469361.141 7                  90755366.743 7  86973894.386 8
G03  20284330.763 8                  20284335.857 7  20284334.793 8 106594870.063 8                  83060962.854 7  79600083.145 8
G04  20300952.388 7                  20300957.177 8  20300957.725 9 106682223.200 7                  83129026.239 8  79665319.299 9
G06  22883608.037 7                  22883614.635 7  22883613.313 8 120254180.462 7                  93704585.207 7  89800222.914 8
G09  22139569.430 7                  22139575.237 7  22139574.693 8 116344231.442 7                  90658151.816 7  86880462.418 8
G17  23336499.526 6                  23336504.734 7                 122634118.478 6                  95558936.578 7
G19  22313905.806 7  22313908.466 5                                 117260359.923 7  91371721.173 5                
G28  24072510.400 5                  24072514.272 6  24072518.448 7 126501878.48115                  98572918.861 6  94465725.299 7
G31  22299865.329 7                  22299869.377 7                 117186584.523 7                  91314240.870 7
R03  20926755.277 8  20926757.716 7 112022551.477 8  87128505.627 7
R04  19230894.567 8  19230896.356 7 102980561.382 8  80096093.054 7
R05  21674727.136 7  21674731.456 7 115863853.303 7  90116353.473 7
R12  23083851.127 7  23083855.340 7 123309876.471 7  95907650.061 7
R13  22636688.059 6                 120878669.248 6
R18  22700196.957 5  22700204.217 6 121175167.009 5  94247358.646 6
R19  19670892.497 8  19670892.571 7 105226007.750 8  81842426.401 7
R20  20916937.124 6  20916942.033 7 111852275.014 6  86996231.325 7
> 2025 06 15 14 57 30.0000000  0 37
C05  39181437.992 6  39181435.288 6 204028001.947 6 157767408.824 6
C06  38240527.210 7  38240522.394 7 199128464.937 7 153978738.091 7
C09  38484505.903 7  38484502.180 7 200398908.318 7 154961150.229 7
C11  23190197.351 7  23190194.356 8 120757413.658 7  93377401.302 8
C12  23301015.612 6  23301014.237 8 121334473.179 6  93823352.794 8
C16  38855986.440 7  38855988.664 7 202333305.404 7 156456948.359 7
C21  22043942.360 8                 114788577.117 8
C22  22614681.399 8                 117760561.563 8
C34  22679360.839 7                 118097365.114 7
C36  24978940.917 7                 130071908.313 7
C39  38998831.943 7                 203077152.974 7
C42  25160935.534 7                 131019612.743 7
C43  24449631.513 7                 127315628.579 7
C44  24667457.638 7                 128449909.385 7
E03  24113525.873 8  24113528.243 9 126717436.075 8  95860932.190 9
E05  22288111.383 8  22288113.403 9 117124823.563 8  88604133.335 9
E09  27811286.194 6  27811291.449 8 146149295.952 6 110560960.372 8
E13  27574410.137 6  27574415.689 8 144904505.021 6 109619339.150 8
E15  23841969.999 8  23841972.687 9 125290395.318 8  94781385.081 9
E34  24152481.945 8  24152484.534 9 126922142.499 8  96015785.618 9
G01  22172166.311 7                  22172170.609 7  22172172.597 8 116515504.245 7                  90791322.358 7  87008351.837 8
G03  20287980.735 8                  20287985.930 7  20287984.543 9 106614050.179 8                  83075908.397 7  79614405.946 9
G04  20297468.052 7                  20297472.529 8  20297472.984 9 106663913.261 7                  83114758.788 8  79651646.329 9
G06  22875162.076 7                  22875169.073 7  22875167.462 8 120209798.201 7                  93670001.656 7  89767080.349 8
G09  22130614.251 7                  22130620.206 7  22130619.829 8 116297171.983 7                  90621482.144 7  86845320.658 8
G17  23342902.474 7                  23342908.272 7                 122667769.149 7                  95585157.868 7
G19  22316590.147 7  22316592.614 5                                 117274465.536 7  91382712.532 5                
G28  24079090.182 5                  24079094.824 6  24079097.711 7 126536453.988 5                  98599860.804 6  94491544.660 7
G31  22301946.229 7                  22301950.593 7                 117197521.326 7                  91322763.073 7
R03  20934668.388 8  20934671.010 7 112064910.894 8  87161451.854 7
R04  19230209.492 8  19230211.151 7 102976890.700 8  80093238.095 7
R05  21665802.443 8  21665805.862 7 115816145.374 8  90079247.359 7
R12  23086424.485 7  23086428.597 7 123323622.303 7  95918341.234 7
R13  22630826.342 7                 120847367.426 7
R18  22712608.085 5  22712615.272 6 121241419.914 5  94298888.479 6
R19  19675614.423 8  19675614.974 7 105251267.204 8  81862072.646 7
R20  20909003.301 6  20909007.675 7 111809849.715 6  86963233.891 7
> 2025 06 15 14 57 45.0000000  0 37
C05  39181315.798 6  39181312.957 6 204027365.898 6 157766917.002 6
C06  38240038.789 7  38240034.209 7 199125923.795 7 153976773.129 7
C09  38482464.401 7  38482461.383 7 200388280.978 7 154952932.499 7
C11  23188273.965 7  23188270.760 8 120747397.796 7  93369656.407 8
C12  23308069.048 7  23308067.264 8 121371202.106 7  93851753.920 8
C16  38855926.002 7  38855928.078 7 202332991.258 7 156456705.444 7
C21  22041358.671 8                 114775123.089 8
C22  22620110.316 8                 117788832.741 8
C34  22682415.315 7                 118113270.083 7
C36  24974293.778 7                 130047708.263 7
C39  39000084.455 7                 203083675.174 7
C42  25152839.875 7                 130977459.734 7
C43  24444328.785 7                 127288018.159 7
C44  24676858.678 7                 128498862.331 7
E03  24108359.144 8  24108361.969 9 126690287.357 8  95840394.368 9
E05  22290892.226 8  22290893.971 9 117139435.595 8  88615187.237 9
E09  27819152.830 6  27819157.639 8 146190633.309 6 110592231.750 8
E13  27565915.376 6  27565921.071 7 144859865.694 6 109585569.828 7
E15  23838857.125 8  23838859.938 9 125274037.834 8  94769010.754 9
E34  24157579.635 8  24157582.291 9 126948931.291 8  96036051.149 9
G01  22180961.779 7                  22180966.519 8  22180967.859 8 116561725.520 7                  90827338.894 8  87042867.683 8
G03  20291648.230 8                  20291653.594 7  20291652.045 9 106633322.584 8                  83090925.847 7  79628797.673 9
G04  20294007.529 7                  20294010.761 8  20294011.362 8 106645725.381 7                  83100586.466 8  79638064.510 8
G06  22866731.647 7                  22866738.573 7  22866736.993 8 120165495.378 7                  93635480.012 7  89733997.103 8
G09  22121672.863 7                  22121678.883 7  22121678.448 8 116250183.976 7                  90584868.154 7  86810232.237 8
G17  23349322.733 7                  23349327.704 7                 122701504.635 7                  95611445.202 7
G19  22319303.516 7  22319305.799 5                                 117288723.114 7  91393822.349 5                
G28  24085690.352 6                  24085695.418 6  24085698.534 7 126571141.855 6                  98626890.189 6  94517447.829 7
G31  22304058.414 7                  22304062.717 7                 117208620.441 7                  91331411.769 7
R03  20942592.611 8  20942595.458 7 112107330.883 8  87194445.175 7
R04  19229547.560 8  19229549.263 8 102973347.716 8  80090482.428 8
R05  21656892.163 8  21656895.694 7 115768513.442 8  90042200.310 7
R12  23089033.363 7  23089038.019 7 123337557.586 7  95929179.773 7
R13  22624995.115 6                 120816230.417 6
R18  22725031.571 4  22725035.694 5 121307723.313 4  94350457.554 5
R19  19680372.198 8  19680373.040 7 105276719.140 8  81881868.568 7
R20  20901098.347 6  20901102.236 7 111767577.200 6  86930355.299 7
> 2025 06 15 14 58  0.0000000  0 36
C05  39181194.197 6  39181191.077 6 204026731.834 6 157766426.716 6
C06  38239558.612 6  38239553.757 7 199123422.900 6 153974839.272 7
C09  38480430.604 7  38480427.844 7 200377691.604 7 154944744.124 7
C11  23186375.022 7  23186372.438 8 120737512.027 7  93362012.117 8
C12  23315140.063 7  23315137.841 8 121408020.463 7  93880224.172 8
C16  38855873.394 7  38855874.959 7 202332715.525 7 156456492.214 7
C21  22038789.772 8                 114761746.398 8
C22  22625549.609 8                 117817155.835 8
C34  22685493.305 8                 118129297.783 8
C36  24969665.701 7                 130023609.016 7
C39  39001343.577 7                 203090232.481 7
C42  25144751.224 7                 130935339.601 7
C43  24439047.588 7                 127260515.222 7
C44  24686266.166 7                 128547846.865 7
E03  24103207.278 8  24103210.105 9 126663214.244 8  95819913.771 9
E05  22293687.647 8  22293689.440 9 117154125.758 8  88626300.252 9
E09  27827021.418 6  27827026.617 8 146231985.112 6 110623514.087 8
E13  27557424.538 6  27557430.016 7 144815245.466 6 109551814.982 7
E15  23835761.109 8  23835763.783 9 125257767.503 8  94756702.359 9
E34  24162692.733 8  24162695.458 9 126975801.211 8  96056378.036 9
G01  22189772.296 7                  22189776.705 8  22189778.084 8 116608024.609 7                  90863416.062 8  87077441.663 8
G03  20295333.323 8                  20295338.333 7  20295337.116 9 106652687.057 8                  83106015.037 7  79643258.131 9
G04  20290568.993 8                  20290572.352 8  20290573.413 8 106627659.531 8                  83086509.154 8  79624573.752 8
G06  22858315.934 7                  22858323.216 7  22858321.304 8 120121272.111 7                  93601020.337 7  89700973.266 8
G09  22112744.898 7                  22112751.238 7  22112750.536 8 116203267.448 7                  90548309.851 7  86775197.192 8
G17  23355758.021 7                  23355763.263 7                 122735324.521 7                  95637798.316 7
G19  22322045.321 7  22322047.489 5                                 117303132.463 7  91405050.389 5                
G28  24092312.416 5                  24092318.083 6  24092321.001 7 126605941.320 5                  98654006.688 6  94543434.467 7
G31  22306201.927 7                  22306205.457 7                 117219881.559 7                  91340186.604 7
R03  20950528.116 8  20950531.894 7 112149811.057 8  87227485.315 7
R04  19228909.769 8  19228911.193 8 102969932.249 8  80087825.963 8
R05  21647995.249 7  21647998.882 7 115720957.341 7  90005212.239 7
R12  23091677.551 7  23091681.655 7 123351682.195 7  95940165.592 7
R13  22619195.611 6                 120785258.134 6
R19  19685166.397 8  19685167.002 8 105302363.073 8  81901813.842 8
R20  20893221.549 6  20893225.998 7 111725458.219 6  86897596.081 7
> 2025 06 15 14 58 15.0000000  0 36
C05  39181072.348 6  39181069.477 6 204026096.114 6 157765935.132 6
C06  38239085.195 7  38239080.376 7 199120958.550 7 153972933.697 7
C09  38478402.130 7  38478400.688 7 200367136.495 7 154936582.267 7
C11  23184501.067 7  23184498.261 8 120727752.712 7  93354465.612 8
C12  23322226.869 7  23322224.961 8 121444924.336 7  93908760.563 8
C16  38855826.978 7  38855828.768 7 202332474.478 7 156456305.813 7
C21  22036235.366 8                 114748443.351 8
C22  22630998.079 8                 117845527.082 8
C34  22688593.742 7                 118145444.443 7
C36  24965056.387 7                 129999607.189 7
C39  39002609.270 7                 203096821.326 7
C42  25136668.120 7                 130893248.677 7
C43  24433785.733 7                 127233116.298 7
C44  24695678.432 7                 128596858.966 7
E03  24098069.170 8  24098071.964 9 126636213.142 8  95799487.637 9
E05  22296496.902 8  22296499.006 9 117168890.217 8  88637469.461 9
E09  27834892.673 6  27834897.712 8 146273347.564 6 110654804.464 8
E13  27548935.694 6  27548942.005 7 144770640.928 6 109518071.960 7
E15  23832680.853 8  23832683.522 9 125241580.773 8  94744457.212 9
E34  24167820.572 8  24167823.243 8 127002748.473 8  96076763.437 8
G01  22198596.778 7                  22198601.284 7  22198602.673 8 116654397.575 7                  90899550.818 7  87112070.788 8
G03  20299034.676 8                  20299039.961 7  20299038.817 8 106672139.811 8                  83121173.033 7  79657784.526 8
G04  20287153.896 8                  20287157.360 8  20287158.480 8 106609712.005 8                  83072524.021 8  79611171.350 8
G06  22849915.348 7                  22849921.956 7  22849920.410 8 120077125.050 7                  93566620.087 7  89668006.353 8
G09  22103830.296 7                  22103836.189 7  22103835.267 8 116156418.888 7                  90511804.470 7  86740212.898 8
G17  23362209.438 7                  23362214.231 7                 122769224.730 7                  95664214.016 7
G19  22324815.475 7  22324817.390 5                                 117317689.678 7  91416393.665 5                
G28  24098955.367 5                  24098959.918 6  24098963.462 7 126640848.703 5                  98681207.187 6  94569501.583 7
G31  22308374.610 7                  22308378.524 7                 117231300.930 7                  91349084.824 7
R03  20958474.427 8  20958477.419 7 112192347.237 8  87260568.990 7
R04  19228295.051 8  19228296.146 7 102966640.419 8  80085265.646 7
R05  21639112.667 7  21639116.846 7 115673473.388 7  89968280.368 7
R12  23094356.807 7  23094361.108 7 123365992.128 7  95951295.549 7
R13  22613425.565 6                 120754447.330 6
R19  19689995.313 8  19689996.217 8 105328194.979 8  81921905.298 8
R20  20885373.462 6  20885377.988 7 111683489.173 6  86864953.519 7
> 2025 06 15 14 58 30.0000000  0 36
C05  39180950.229 6  39180947.048 6 204025460.818 6 157765443.890 6
C06  38238620.158 7  38238614.129 7 199118532.788 7 153971057.949 7
C09  38476381.622 7  38476380.632 7 200356617.702 7 154928448.497 7
C11  23182651.710 7  23182649.083 8 120718122.054 7  93347018.577 8
C12  23329330.388 7  23329328.728 8 121481915.565 7  93937364.489 8
C16  38855788.061 7  38855789.563 7 202332270.197 7 156456147.857 7
C21  22033695.028 8                 114735216.037 8
C22  22636455.923 8                 117873948.445 8
C34  22691717.783 7                 118161711.983 7
C36  24960466.094 7                 129975704.898 7
C39  39003880.820 7                 203103443.639 7
C42  25128590.896 7                 130851189.144 7
C43  24428544.681 7                 127205823.627 7
C44  24705096.024 7                 128645900.465 7
E03  24092945.533 8  24092947.909 9 126609286.153 8  95779117.561 9
E05  22299321.094 8  22299323.095 9 117183730.908 8  88648696.349 9
E09  27842766.304 6  27842771.109 8 146314722.584 6 110686104.369 8
E13  27540451.451 6  27540457.358 7 144726054.286 6 109484342.498 7
E15  23829616.684 8  23829619.626 9 125225479.892 8  94732277.002 9
E34  24172963.753 8  24172966.251 9 127029775.086 8  96097208.889 9
G01  22207435.581 7                  22207440.256 7  22207441.543 8 116700846.207 7                  90935744.515 7  87146756.410 8
G03  20302753.575 8                  20302758.987 7  20302757.686 8 106691682.881 8                  83136401.406 7  79672378.378 8
G04  20283761.679 7                  20283765.567 8  20283766.647 9 106591884.881 7                  83058632.763 8  79597858.891 9
G06  22841529.473 7                  22841535.836 7  22841534.320 8 120033056.571 7                  93532281.029 7  89635098.116 8
G09  22094928.196 7                  22094934.708 7  22094933.455 8 116109640.499 7                  90475353.820 7  86705281.042 8
G17  23368675.865 7                  23368681.008 7                 122803207.017 7                  95690693.683 7
G19  22327614.207 7  22327616.391 5                                 117332396.705 7  91427853.664 5                
G28  24105619.256 6                  24105623.864 6  24105626.482 7 126675865.584 6                  98708493.109 6  94595650.545 7
G31  22310577.929 7                  22310582.154 7                 117242880.556 7                  91358107.870 7
R03  20966431.610 8  20966434.962 7 112234941.488 8  87293697.823 7
R04  19227703.952 8  19227705.508 7 102963474.316 8  80082803.121 7
R05  21630244.043 8  21630247.892 7 115626063.927 8  89931406.330 7
R12  23097069.964 7  23097075.250 7 123380489.499 7  95962571.251 7
R13  22607686.193 6                 120723800.527 6
R19  19694859.660 8  19694860.345 7 105354216.792 8  81942144.453 7
R20  20877553.368 6  20877557.776 7 111641672.619 6  86832429.561 7
> 2025 06 15 14 58 45.0000000  0 37
C05  39180828.123 6  39180824.999 6 204024826.403 6 157764953.329 6
C06  38238161.286 7  38238156.402 6 199116146.090 7 153969212.419 6
C09  38474369.483 7  38474367.592 7 200346135.736 7 154920343.196 7
C11  23180827.354 7  23180824.622 8 120708620.528 7  93339671.379 8
C12  23336450.925 7  23336449.452 8 121518994.356 7  93966036.160 8
C16  38855755.828 7  38855757.367 7 202332103.043 7 156456018.595 7
C21  22031169.408 8                 114722064.922 8
C22  22641923.689 8                 117902420.255 8
C34  22694865.316 7                 118178100.711 7
C36  24955894.710 7                 129951902.983 7
C39  39005159.409 7                 203110099.876 7
C42  25120520.028 7                 130809161.568 7
C43  24423323.654 7                 127178637.913 7
C44  24714520.026 7                 128694971.599 7
E03  24087835.549 8  24087838.084 9 126582433.823 8  95758803.961 9
E05  22302159.975 8  22302161.765 9 117198648.179 8  88659981.167 9
E09  27850642.125 6  27850646.903 8 146356110.507 6 110717414.020 8
E13  27531970.651 6  27531976.301 7 144681486.189 6 109450627.059 7
E15  23826569.285 8  23826572.168 9 125209465.457 8  94720162.196 9
E34  24178122.057 8  24178124.364 8 127056881.458 8  96117714.672 8
G01  22216289.108 7                  22216293.782 7  22216294.338 8 116747370.822 7                  90971997.396 7  87181498.734 8
G03  20306489.890 8                  20306495.193 7  20306493.769 8 106711316.690 8                  83151700.450 7  79687039.972 8
G04  20280392.207 7                  20280396.810 8  20280397.626 9 106574178.597 7                  83044835.742 8  79584636.748 9
G06  22833158.296 7                  22833165.409 7  22833163.239 8 119989067.502 7                  93498003.834 7  89602249.146 8
G09  22086040.165 7                  22086046.113 7  22086045.473 8 116062933.009 7                  90438958.397 7  86670402.109 8
G17  23375158.577 7                  23375163.481 7                 122837271.516 7                  95717237.396 7
G19  22330441.511 7  22330443.902 5                                 117347253.628 7  91439430.477 5                
G28  24112303.444 6                  24112307.854 6  24112310.828 7 126710992.299 6                  98735864.496 6  94621881.477 7
G31  22312812.030 7                  22312815.996 7                 117254620.796 7                  91367256.104 7
R03  20974399.381 8  20974402.544 7 112277593.972 8  87326871.933 7
R04  19227136.234 8  19227137.750 8 102960434.295 8  80080438.656 8
R05  21621389.070 8  21621391.944 7 115578729.522 8  89894590.721 7
R12  23099819.286 7  23099824.536 7 123395174.384 7  95973992.776 7
R13  22601978.086 7                 120693318.514 7
R18  22774807.644 5  22774809.917 5 121573531.87515  94557105.33915
R19  19699759.735 8  19699760.263 7 105380428.550 8  81962531.375 7
R20  20869762.469 6  20869766.862 7 111600009.764 6  86800025.118 7
> 2025 06 15 14 59  0.0000000  0 37
C05  39180706.025 6  39180703.207 6 204024189.960 6 157764461.194 6
C06  38237709.790 7  38237705.195 7 199113795.479 7 153967394.776 7
C09  38472363.190 6  38472360.850 7 200335687.670 6 154912264.106 7
C11  23179026.278 7  23179024.044 8 120699245.389 7  93332421.920 8
C12  23343587.866 7  23343586.007 8 121556157.591 7  93994773.115 8
C16  38855729.519 7  38855731.606 7 202331970.154 7 156455915.841 7
C21  22028657.864 8                 114708987.060 8
C22  22647400.579 8                 117930939.529 8
C34  22698035.012 7                 118194607.612 7
C36  24951343.425 7                 129928198.775 7
C39  39006443.420 7                 203116787.076 7
C42  25112454.749 7                 130767163.015 7
C43  24418122.962 7                 127151556.423 7
C44  24723948.716 7                 128744069.143 7
E03  24082739.260 8  24082741.908 9 126555653.261 8  95738544.653 9
E05  22305012.539 8  22305014.437 9 117213638.958 8  88671321.585 9
E09  27858519.613 6  27858524.646 8 146397508.216 6 110748731.107 8
E13  27523492.297 7  27523498.241 7 144636933.946 7 109416923.593 7
E15  23823537.690 8  23823540.628 9 125193534.686 8  94708110.675 9
E34  24183294.957 8  24183297.114 9 127084064.578 8  96138278.517 9
G01  22225156.494 7                  22225160.827 7  22225161.629 8 116793968.184 7                  91008306.972 7  87216295.459 8
G03  20310242.838 8                  20310248.320 7  20310246.686 8 106731038.194 8                  83167067.853 7  79701767.071 8
G04  20277045.901 7                  20277050.014 8  20277050.651 9 106556590.397 7                  83031130.690 8  79571502.746 9
G06  22824802.064 7                  22824809.228 7  22824806.944 8 119945155.166 7                  93463786.478 7  89569457.523 8
G09  22077164.925 7                  22077170.706 7  22077170.256 8 116016293.633 7                  90402616.047 7  86635574.035 8
G17  23381655.433 7                  23381660.799 7                 122871414.983 7                  95743842.668 7
G19  22333296.490 7  22333299.201 5                                 117362257.384 7  91451121.711 5                
G28  24119008.924 6                  24119011.773 6  24119015.478 7 126746225.482 6                  98763318.898 6  94648191.964 7
G31  22315076.520 7                  22315080.101 7                 117266518.513 7                  91376527.107 7
R03  20982377.727 8  20982380.404 7 112320301.256 8  87360088.675 7
R04  19226591.340 8  19226592.932 7 102957517.127 8  80078169.772 7
R05  21612547.840 8  21612550.834 7 115531467.286 8  89857831.252 7
R12  23102603.035 7  23102607.491 7 123410043.792 7  95985557.916 7
R13  22596300.087 7                 120662998.816 7
R18  22787273.800 6  22787279.342 5 121640068.932 6  94608856.139 5
R19  19704694.599 8  19704695.234 7 105406827.250 8  81983063.688 7
R20  20861999.422 6  20862003.586 7 111558498.140 6  86767738.320 7
> 2025 06 15 14 59 15.0000000  0 37
C05  39180584.112 6  39180580.775 6 204023554.517 6 157763969.849 6
C06  38237266.026 7  38237260.897 7 199111483.949 7 153965607.346 7
C09  38470363.958 7  38470361.202 7 200325276.493 7 154904213.545 7
C11  23177250.722 7  23177248.504 8 120689999.644 7  93325272.525 8
C12  23350741.339 7  23350739.554 8 121593407.887 7  94023577.361 8
C16  38855711.414 7  38855713.111 7 202331874.413 7 156455841.810 7
C21  22026161.306 8                 114695985.444 8
C22  22652886.917 8                 117959509.067 8
C34  22701228.279 7                 118211235.509 7
C36  24946810.269 7                 129904595.436 7
C39  39007734.244 7                 203123508.124 7
C42  25104395.383 7                 130725196.593 7
C43  24412942.730 7                 127124582.328 7
C44  24733382.839 7                 128793195.827 7
E03  24077657.350 8  24077659.963 9 126528947.519 8  95718341.950 9
E05  22307879.658 8  22307881.629 9 117228706.142 8  88682719.822 9
E09  27866400.124 6  27866404.877 8 146438918.613 6 110780057.776 8
E13  27515017.825 7  27515023.849 7 144592400.665 7 109383234.491 7
E15  23820522.735 8  23820525.603 9 125177690.743 8  94696124.839 9
E34  24188482.866 8  24188485.080 8 127111327.386 8  96158902.634 8
G01  22234037.913 7                  22234042.429 7  22234043.698 8 116840641.050 7                  91044675.424 7  87251148.551 8
G03  20314012.532 8                  20314018.401 7  20314016.951 8 106750850.371 8                  83182505.930 7  79716561.880 8
G04  20273721.424 8                  20273725.418 8  20273725.955 9 106539123.314 8                  83017519.971 8  79558459.142 9
G06  22816460.856 7                  22816468.321 7  22816466.050 8 119901322.932 7                  93429631.538 7  89536725.669 8
G09  22068303.356 7                  22068308.836 7  22068308.547 8 115969725.531 7                  90366329.258 7  86600799.215 8
G17  23388168.545 7                  23388173.580 7                 122905640.101 7                  95770511.545 7
G19  22336179.958 7  22336182.770 5                                 117377410.770 7  91462929.508 5                
G28  24125733.409 6                  24125738.122 6  24125740.839 7 126781567.938 6                  98790858.462 6  94674584.030 7
G31  22317371.006 7                  22317374.566 7                 117278576.737 7                  91385923.136 7
R03  20990366.610 8  20990369.397 7 112363066.586 8  87393350.597 7
R04  19226070.070 8  19226071.782 7 102954725.913 8  80075998.872 7
R05  21603720.060 7  21603723.766 7 115484280.538 7  89821130.452 7
R12  23105421.716 7  23105425.895 7 123425100.642 7  95997268.717 7
R13  22590653.104 7                 120632845.115 7
R18  22799745.805 5  22799754.224 4 121706652.387 5
R19  19709665.215 8  19709666.060 8 105433415.565 8  82003743.481 8
R20  20854264.957 6  20854269.736 7 111517141.443 6  86735572.028 7
> 2025 06 15 14 59 30.0000000  0 37
C05  39180461.949 6  39180458.775 6 204022919.155 6 157763478.541 6
C06  38236829.360 6  38236824.072 7 199109210.521 6 153963849.376 7
C09  38468372.319 7  38468368.894 7 200314901.271 7 154896190.781 7
C11  23175499.905 7  23175497.309 8 120680882.559 7  93318222.636 8
C12  23357911.823 7  23357909.781 8 121630744.240 7  94052448.171 8
C16  38855700.063 7  38855702.032 7 202331814.897 7 156455795.785 7
C21  22023678.889 8                 114683059.170 8
C22  22658382.931 8                 117988127.844 8
C34  22704444.672 7                 118227983.419 7
C36  24942296.598 7                 129881092.256 7
C39  39009030.890 7                 203130262.134 7
C42  25096341.682 7                 130683261.465 7
C43  24407783.520 7                 127097714.975 7
C44  24742822.691 7                 128842350.433 7
E03  24072589.297 8  24072592.086 9 126502315.748 8  95698195.202 9
E05  22310761.219 8  22310763.172 9 117243848.641 8  88694175.013 9
E09  27874282.742 6  27874287.273 8 146480340.652 6 110811393.236 8
E13  27506547.414 7  27506552.948 7 144547885.646 7 109349559.180 7
E15  23817524.022 8  23817526.953 9 125161932.854 8  94684204.098 9
E34  24193685.344 8  24193688.032 8 127138668.891 8  96179586.295 8
G01  22242933.495 7                  22242938.023 7  22242939.898 8 116887388.346 7                  91081101.841 7  87286057.189 8
G03  20317800.045 8                  20317805.583 7  20317803.946 9 106770752.246 8                  83198013.871 7  79731423.656 9
G04  20270419.832 7                  20270423.652 8  20270424.510 8 106521776.411 7                  83004002.860 8  79545505.250 8
G06  22808134.975 7                  22808142.386 7  22808140.321 8 119857570.215 7                  93395538.518 7  89504053.197 8
G09  22059454.876 7                  22059460.543 7  22059460.238 8 115923228.012 7                  90330097.428 7  86566077.072 8
G17  23394696.850 7                  23394701.911 7                 122939945.754 7                  95797243.200 7
G19  22339091.796 7  22339094.214 5                                 117392712.744 7  91474853.112 5                
G28  24132480.059 6                  24132484.361 6  24132487.586 7 126817018.415 6                  98818482.191 6  94701056.771 7
G31  22319695.648 7                  22319699.723 7                 117290794.414 7                  91395443.398 7
R03  20998365.922 8  20998369.015 7 112405888.154 8  87426656.238 7
R04  19225572.169 8  19225573.774 7 102952059.428 8  80073924.916 7
R05  21594907.028 7  21594910.790 7 115437168.163 7  89784487.532 7
R12  23108275.218 7  23108279.726 7 123440343.618 7  96009124.404 7
R13  22585036.932 7                 120602856.534 7
R18  22812224.722 5  22812234.171 4 121773280.919 5
R19  19714670.738 8  19714671.780 8 105460192.698 8  82024570.115 8
R20  20846560.547 6  20846564.647 7 111475938.907 6  86703525.646 7
> 2025 06 15 14 59 45.0000000  0 37
C05  39180340.262 6  39180336.638 6 204022283.948 6 157762987.375 6
C06  38236400.186 6  38236394.830 7 199106975.419 6 153962121.059 7
C09  38466386.645 7  38466383.252 7 200304562.201 7 154888195.959 7
C11  23173774.076 7  23173771.200 8 120671894.288 7  93311272.371 8
C12  23365098.249 7  23365096.194 8 121668166.458 7  94081385.381 8
C16  38855696.160 7  38855697.553 7 202331791.808 7 156455777.938 7
C21  22021211.033 8                 114670208.356 8
C22  22663888.225 8                 118016795.966 8
C34  22707683.700 7                 118244851.354 7
C36  24937802.607 7                 129857689.686 7
C39  39010334.309 7                 203137049.179 7
C42  25088294.533 7                 130641357.845 7
C43  24402644.268 7                 127070954.679 7
C44  24752267.911 7                 128891532.871 7
E03  24067535.768 8  24067538.320 9 126475758.164 8  95678104.587 9
E05  22313657.170 8  22313659.013 8 117259066.513 8  88705687.235 8
E09  27882167.013 6  27882171.836 8 146521774.294 6 110842737.501 8
E13  27498080.236 7  27498085.474 7 144503389.255 7 109315897.951 7
E15  23814541.778 8  23814544.773 9 125146261.342 8  94672348.707 9
E34  24198903.487 8  24198905.907 8 127166089.186 8  96200329.562 8
G01  22251843.595 7                  22251847.931 7  22251849.993 8 116934209.924 7                  91117586.137 7  87321021.304 8
G03  20321604.286 8                  20321609.962 7  20321608.375 8 106790743.952 8                  83213591.813 7  79746352.502 8
G04  20267141.701 7                  20267145.672 8  20267146.603 8 106504549.841 7                  82990579.538 8  79532641.242 8
G06  22799824.428 6                  22799831.622 7  22799829.723 8 119813897.418 6                  93361507.805 7  89471440.442 8
G09  22050620.292 7                  22050625.688 7  22050625.487 8 115876801.385 7                  90293920.876 7  86531407.887 8
G17  23401240.131 7                  23401245.537 7                 122974331.707 7                  95824037.392 7
G19  22342032.305 7  22342033.802 5                                 117408163.253 7  91486892.442 5                
G28  24139247.310 6                  24139251.504 6  24139254.267 7 126852576.779 6                  98846189.951 6  94727610.098 7
G31  22322050.912 7                  22322054.985 7                 117303171.575 7                  91405087.965 7
R03  21006375.572 7  21006379.102 7 112448765.942 7  87460005.563 7
R04  19225097.913 8  19225099.014 7 102949517.925 8  80071948.176 7
R05  21586107.573 7  21586110.470 7 115390130.784 7  89747902.912 7
R12  23111164.341 7  23111168.012 7 123455772.957 7  96021124.994 7
R13  22579451.810 6                 120573033.670 6
R18  22824716.000 5  22824722.485 4 121839954.202 5
R19  19719711.485 8  19719712.663 8 105487158.132 8  82045543.211 8
R20  20838884.299 6  20838888.326 7 111434890.771 6  86671599.338 7
> 2025 06 15 15 00  0.0000000  0 37
C05  39180217.723 6  39180215.081 6 204021648.870 6 157762496.313 6
C06  38235978.194 6  38235973.152 7 199104778.443 6 153960422.224 7
C09  38464407.981 7  38464404.713 7 200294259.064 7 154880228.919 7
C11  23172072.750 7  23172069.949 8 120663034.793 7  93304421.668 8
C12  23372300.848 7  23372299.449 8 121705674.188 7  94110388.706 8
C16  38855698.597 7  38855700.305 7 202331804.906 7 156455788.075 7
C21  22018757.735 8                 114657432.900 8
C22  22669403.146 8                 118045513.120 8
C34  22710946.223 7                 118261839.028 7
C36  24933327.499 7                 129834387.807 7
C39  39011644.170 7                 203143869.111 7
C42  25080253.649 7                 130599485.634 7
C43  24397525.453 7                 127044301.496 7
C44  24761718.027 7                 128940742.715 7
E03  24062495.938 8  24062498.607 9 126449274.668 8  95658070.019 9
E05  22316567.072 8  22316569.180 9 117274359.465 8  88717256.250 9
E09  27890053.483 6  27890058.484 8 146563219.329 6 110874090.360 8
E13  27489616.113 7  27489621.595 8 144458911.466 7 109282250.833 8
E15  23811575.988 8  23811579.015 9 125130676.174 8  94660558.631 9
E34  24204136.257 8  24204138.752 8 127193588.027 8  96221132.245 8
G01  22260767.633 7                  22260771.767 7  22260773.865 8 116981105.407 7                  91154128.041 7  87356040.588 8
G03  20325425.630 8                  20325431.200 7  20325429.659 8 106810825.170 8                  83229239.528 7  79761348.224 8
G04  20263887.198 7                  20263891.202 8  20263892.207 9 106487443.493 7                  82977249.988 8  79519867.074 9
G06  22791528.946 7                  22791536.448 7  22791534.357 8 119770304.777 7                  93327539.558 7  89438887.522 8
G09  22041799.076 7                  22041804.745 7  22041804.027 8 115830445.709 7                  90257799.627 7  86496791.656 8
G17  23407798.631 6                  23407804.219 7                 123008797.389 6                  95850893.747 7
G19  22345000.412 7  22345001.895 5                                 117423761.952 7  91499047.277 5                
G28  24146033.940 6                  24146038.063 6  24146040.799 7 126888242.653 6                  98873981.506 6  94754243.657 7
G31  22324436.594 7                  22324440.424 7                 117315707.881 7                  91414856.480 7
R03  21014396.629 8  21014398.912 7 112491700.028 8  87493398.749 7
R04  19224646.148 8  19224647.942 7 102947100.959 8  80070068.336 7
R05  21577322.548 8  21577325.391 7 115343168.331 8  89711376.594 7
R12  23114087.053 7  23114090.764 7 123471388.190 7  96033270.212 7
R13  22573898.711 7                 120543376.970 7
R18  22837213.341 5                 121906671.738 5
R19  19724787.947 8  19724788.534 7 105514311.483 8  82066662.464 7
R20  20831236.951 6  20831241.169 7 111393997.844 6  86639793.707 7
> 2025 06 15 15 00 15.0000000  0 37
C05  39180095.913 6  39180092.716 6 204021011.356 6 157762003.345 6
C06  38235563.372 6  38235558.131 7 199102617.011 6 153958750.888 7
C09  38462435.936 7  38462432.472 7 200283989.499 7 154872287.837 7
C11  23170395.498 7  23170392.788 8 120654301.717 7  93297668.688 8
C12  23379519.853 7  23379518.192 8 121743264.669 7  94139456.005 8
C16  38855707.532 7  38855709.348 7 202331851.718 7 156455824.269 7
C21  22016318.166 8                 114644730.280 8
C22  22674927.123 8                 118074276.738 8
C34  22714231.103 7                 118278943.770 7
C36  24928871.632 7                 129811184.288 7
C39  39012959.832 7                 203150719.376 7
C42  25072217.953 6                 130557642.430 6
C43  24392428.207 7                 127017753.186 7
C44  24771173.369 7                 128989977.213 7
E03  24057470.526 8  24057472.543 9 126422862.829 8  95638089.653 9
E05  22319491.192 8  22319493.082 9 117289724.873 8  88728880.086 9
E09  27897942.042 6  27897946.854 8 146604673.042 6 110905449.789 8
E13  27481155.036 7  27481160.742 8 144414449.972 7 109248616.054 8
E15  23808626.275 8  23808629.251 9 125115174.997 8  94648832.108 9
E34  24209383.794 8  24209386.138 8 127221162.872 8  96241992.422 8
G01  22269705.122 7                  22269709.462 7  22269711.274 8 117028072.063 7                  91190725.388 7  87391113.054 8
G03  20329263.777 8                  20329269.363 7  20329267.422 8 106830993.453 8                  83244955.043 7  79776408.951 8
G04  20260654.302 7                  20260658.711 8  20260659.540 9 106470455.043 7                  82964012.230 8  79507180.904 9
G06  22783248.644 7                  22783255.572 7  22783253.694 8 119726790.100 7                  93293632.036 7  89406392.820 8
G09  22032991.011 7                  22032996.638 7  22032996.063 8 115784158.686 7                  90221731.840 7  86462226.699 8
G17  23414371.941 6                  23414377.572 7                 123043340.038 6                  95877810.049 7
G19  22347996.958 7  22347998.192 5                                 117439506.075 7  91511315.428 5                
G28  24152839.799 6                  24152845.358 6  24152847.129 7 126924013.182 6                  98901854.576 6  94780955.396 7
G31  22326852.305 7                  22326855.963 7                 117328400.804 7                  91424747.038 7
R03  21022426.261 8  21022429.622 7 112534687.163 8  87526833.189 7
R04  19224217.714 8  19224219.007 7 102944806.048 8  80068283.401 7
R05  21568550.782 8  21568553.355 7 115296278.423 8  89674906.713 7
R12  23117044.671 7  23117048.253 7 123487186.670 7  96045557.902 7
R13  22568375.692 7                 120513884.187 7
R18  22849719.405 5                 121973430.664 5
R19  19729898.732 8  19729898.936 7 105541649.856 8  82087925.610 7
R20  20823618.576 6  20823622.509 7 111353258.049 6  86608107.218 7
> 2025 06 15 15 00 30.0000000  0 37
C05  39179971.920 6  39179968.923 6 204020368.178 6 157761506.017 6
C06  38235154.032 7  38235149.251 7 199100487.870 7 153957104.497 7
C09  38460469.768 7  38460465.990 7 200273750.050 7 154864370.037 7
C11  23168742.352 7  23168739.426 8 120645691.846 7  93291010.970 8
C12  23386753.848 7  23386752.093 8 121780934.349 7  94168584.555 8
C16  38855722.197 7  38855723.902 7 202331928.854 7 156455883.907 7
C21  22013891.980 8                 114632097.184 8
C22  22680458.823 8                 118103083.376 8
C34  22717537.673 7                 118296162.193 7
C36  24924433.915 7                 129788076.050 7
C39  39014280.532 7                 203157596.610 7
C42  25064187.422 7                 130515825.020 7
C43  24387348.663 7                 126991306.615 7
C44  24780632.205 7                 129039232.826 7
E03  24052457.333 8  24052459.481 9 126396519.349 8  95618161.003 9
E05  22322427.982 8  22322430.169 9 117305159.245 8  88740556.089 9
E09  27905831.531 6  27905836.343 8 146646131.969 6 110936813.167 8
E13  27472696.865 6  27472702.376 8 144370001.658 6 109214991.221 8
E15  23805691.965 8  23805694.851 9 125099754.645 8  94637166.723 9
E34  24214644.707 8  24214647.264 8 127248810.267 8  96262907.473 8
G01  22278655.436 7                  22278659.524 7  22278661.942 8 117075106.282 7                  91227375.419 7  87426235.987 8
G03  20333117.570 8                  20333123.139 7  20333121.343 8 106851245.356 8                  83260735.742 7  79791532.108 8
G04  20257443.036 7                  20257447.698 8  20257448.156 9 106453581.124 7                  82950863.729 8  79494580.245 9
G06  22774981.962 7                  22774989.430 7  22774987.396 8 119683350.323 7                  93259782.896 7  89373954.059 8
G09  22024195.710 7                  22024201.333 7  22024200.487 8 115737937.094 7                  90185715.032 7  86427710.601 8
G17  23420959.079 6                  23420964.631 7                 123077956.095 6                  95904783.563 7
G19  22351019.757 7  22351022.076 5                                 117455392.138 7  91523694.146 5                
G28  24159666.354 6                  24159670.821 6  24159673.502 7 126959884.798 6                  98929806.459 6  94807742.568 7
G31  22329296.635 7                  22329300.345 7                 117341246.871 7                  91434756.979 7
R03  21030466.106 8  21030470.251 7 112577724.246 8  87560306.455 7
R04  19223811.532 8  19223813.158 7 102942629.750 8  80066590.711 7
R05  21559791.576 7  21559796.088 7 115249457.620 7  89638490.604 7
R12  23120035.452 7  23120039.779 7 123503164.843 7  96057985.351 7
R13  22562882.717 6                 120484552.343 6
R18  22862230.405 5                 122040226.824 5
R19  19735043.361 8  19735043.685 7 105569169.986 8  82109330.167 7
R20  20816027.720 6  20816032.295 7 111312668.377 6  86576537.511 7
> 2025 06 15 15 00 45.0000000  0 37
C05  39179847.134 6  39179844.039 6 204019716.590 6 157761002.186 6
C06  38234751.093 6  38234745.989 7 199098388.279 6 153955480.979 7
C09  38458508.201 7  38458504.769 7 200263538.137 7 154856473.546 7
C11  23167111.610 7  23167109.212 8 120637202.463 7  93284446.456 8
C12  23394002.658 7  23394000.857 8 121818680.315 7  94197772.104 8
C16  38855742.378 7  38855744.231 7 202332033.617 7 156455964.915 7
C21  22011478.883 8                 114619530.904 8
C22  22685998.885 8                 118131930.184 8
C34  22720865.536 7                 118313491.452 7
C36  24920013.924 7                 129765060.648 7
C39  39015605.872 7                 203164498.082 7
C42  25056161.289 7                 130474030.720 7
C43  24382289.116 7                 126964959.206 7
C44  24790095.258 7                 129088506.499 7
E03  24047456.712 8  24047458.984 9 126370241.563 8  95598282.028 9
E05  22325377.769 8  22325379.812 9 117320659.746 8  88752282.103 9
E09  27913721.594 6  27913726.190 8 146687593.217 6 110968178.311 8
E13  27464240.986 6  27464246.086 7 144325563.947 6 109181374.428 7
E15  23802772.668 8  23802775.324 9 125084412.488 8  94625560.499 9
E34  24219919.706 8  24219921.638 8 127276527.410 8  96283875.313 8
G01  22287618.034 7                  22287622.362 7  22287624.518 8 117122205.171 7                  91264075.779 7  87461407.152 8
G03  20336986.724 8                  20336992.152 7  20336990.636 8 106871578.060 8                  83276579.407 7  79806715.613 8
G04  20254253.118 7                  20254257.165 8  20254257.841 9 106436818.978 7                  82937802.326 8  79482063.062 9
G06  22766729.656 7                  22766736.795 7  22766735.177 8 119639983.054 7                  93225990.247 7  89341569.446 8
G09  22015411.951 7                  22015417.745 7  22015416.578 8 115691778.416 7                  90149747.228 7  86393241.453 8
G17  23427559.669 7                  23427564.853 7                 123112642.426 7                  95931811.809 7
G19  22354069.079 7  22354072.262 5                                 117471417.130 7  91536181.140 5                
G28  24166510.971 6                  24166515.637 5  24166518.368 7 126995854.365 6                  98957834.739 5  94834602.924 7
G31  22331770.080 7                  22331773.473 7                 117354243.146 7                  91444883.931 7
R03  21038514.823 8  21038517.678 7 112620807.820 8  87593815.863 7
R04  19223426.515 8  19223428.004 7 102940568.964 8  80064987.860 7
R05  21551045.452 7  21551048.543 7 115202703.485 7  89602126.314 7
R12  23123059.979 7  23123063.714 6 123519319.653 7  96070550.213 6
R13  22557419.057 6                 120455378.955 6
R18  22874749.869 5                 122107057.202 5
R19  19740221.072 8  19740221.525 8 105596868.631 8  82130873.541 8
R20  20808464.549 6  20808469.429 7 111272226.666 6  86545082.848 7
