     3.04           OBSERVATION DATA    Mixed(MIXED)        RINEX VERSION / TYPE
cnvtToRINEX 3.14.0  convertToRINEX OPR  20250615 162110 UTC PGM / RUN BY / DATE 
----------------------------------------------------------- COMMENT             
1006                                                        MARKER NAME         
1006                                                        MARKER NUMBER       
GEODETIC                                                    MARKER TYPE         
GNSS Observer       Trimble                                 OBSERVER / AGENCY   
6337S22116          Unknown             6.26                REC # / TYPE / VERS 
                    UNKNOWN EXT     NONE                    ANT # / TYPE        
  3915590.3423  1192600.1010  4875838.3440                  APPROX POSITION XYZ 
        1.4250        0.0000        0.0000                  ANTENNA: DELTA H/E/N
R    4 C1C C2C L1C L2C                                      SYS / # / OBS TYPES 
G    8 C1C C2W C2X C5X L1C L2W L2X L5X                      SYS / # / OBS TYPES 
C    4 C2I C7I L2I L7I                                      SYS / # / OBS TYPES 
E    4 C1X C8X L1X L8X                                      SYS / # / OBS TYPES 
    15.000                                                  INTERVAL            
  2025     6    15    12    53   45.0000000     GPS         TIME OF FIRST OBS   
  2025     6    15    13    23   15.0000000     GPS         TIME OF LAST OBS    
     0                                                      RCV CLOCK OFFS APPL 
  7 R02 -4 R03  5 R04  6 R11  0 R17  4 R18 -3 R19  3        GLONASS SLOT / FRQ #
R L2C -0.25000                                              SYS / PHASE SHIFT   
G L2X -0.25000                                              SYS / PHASE SHIFT   
    18                                                      LEAP SECONDS        
    40                                                      # OF SATELLITES     
   C05   119   119   119   119                              PRN / # OF OBS      
   C06   119   119   119   119                              PRN / # OF OBS      
   C09   119   119   119   119                              PRN / # OF OBS      
   C11    71    68    68    65                              PRN / # OF OBS      
   C12   119   119   119   119                              PRN / # OF OBS      
   C13    16    15    16    15                              PRN / # OF OBS      
   C16   119   119   119   119                              PRN / # OF OBS      
   C19   119     0   119     0                              PRN / # OF OBS      
   C21   119     0   119     0                              PRN / # OF OBS      
   C22   119     0   119     0                              PRN / # OF OBS      
   C34   119     0   119     0                              PRN / # OF OBS      
   C35   119     0   119     0                              PRN / # OF OBS      
   C39   119     0   119     0                              PRN / # OF OBS      
   C44   119     0   119     0                              PRN / # OF OBS      
   E03    87    87    87    87                              PRN / # OF OBS      
   E05   119   119   119   119                              PRN / # OF OBS      
   E06   119   119   119   119                              PRN / # OF OBS      
   E09   119   119   119   119                              PRN / # OF OBS      
   E15   119   119   119   119                              PRN / # OF OBS      
   E27    72    76    71    76                              PRN / # OF OBS      
   E34   119   119   119   119                              PRN / # OF OBS      
   E36   119   119   119   119                              PRN / # OF OBS      
   G01   119     0   119   119   119     0   119   119      PRN / # OF OBS      
   G02   119   119     0     0   119   119     0     0      PRN / # OF OBS      
   G03   119     0   119   119   119     0   119   119      PRN / # OF OBS      
   G04   119     0   119   119   119     0   119   119      PRN / # OF OBS      
   G08    61     0    61    61    61     0    61    61      PRN / # OF OBS      
   G17   119     0   119     0   119     0   119     0      PRN / # OF OBS      
   G19    83    10     0     0    76    10     0     0      PRN / # OF OBS      
   G22     5     2     0     0     5     2     0     0      PRN / # OF OBS      
   G28   119     0   119   119   119     0   119   119      PRN / # OF OBS      
   G31   115     0   115     0   115     0   115     0      PRN / # OF OBS      
   G32   119     0   119   119   119     0   119   119      PRN / # OF OBS      
   R02   119   119   119   119                              PRN / # OF OBS      
   R03   119   119   119   119                              PRN / # OF OBS      
   R04   119   119   119   119                              PRN / # OF OBS      
   R11    66    66    66    66                              PRN / # OF OBS      
   R17   119   119   119   119                              PRN / # OF OBS      
   R18   119   119   119   119                              PRN / # OF OBS      
   R19   119   119   119   119                              PRN / # OF OBS      
DBHZ                                                        SIGNAL STRENGTH UNIT
                                                            END OF HEADER       
>                              2  1
              *** Start of Kinematic Data ***               COMMENT             
> 2025 06 15 12 53 45.0000000  0 34
C05  39056369.541 6  39056367.623 7 203376764.63716 157263810.52017
C06  39229232.879 6  39229229.291 7 204276911.59816 157959866.98317
C09  40102092.178 6  40102091.235 7 208822122.68316 161474516.59217
C12  22271194.734 7  22271191.359 8 115971957.15217  89676971.89618
C13  40392286.778 5  40392287.720 4 210333220.15015 162643009.34114
C16  39616744.210 7  39616745.703 7 206294781.08617 159520212.53217
C19  23320105.856 8                 121433908.87718
C21  24820879.927 7                 129248829.26817
C22  21428168.141 8                 111582090.39218
C34  23813504.806 7                 124003168.35317
C35  23542012.880 7                 122589437.79417
C39  39110817.712 7                 203660287.54217
C44  21493030.713 8                 111919851.30318
E05  22831696.162 8  22831699.333 9 119981371.45518  90765141.60119
E06  25923770.125 7  25923773.924 8 136230331.81317 103057374.73818
E09  24699477.977 7  24699480.475 9 129796631.47217  98190318.24319
E15  26561298.028 7  26561302.689 7 139580559.94417 105591806.38217
E34  23339671.893 8  23339674.329 9 122650804.11618  92784544.91619
E36  24529070.937 8  24529074.152 9 128901142.42418  97512845.87119
G01  20035437.267 8                  20035440.003 8  20035441.967 9 105286925.99618                  82041777.44418  78623374.97019
G02  20996363.255 7  20996364.419 6                                 110336628.81317  85976497.36216                
G03  20525918.931 8                  20525924.774 7  20525923.088 8 107864421.86518                  84050375.12517  80548304.40118
G04  24103868.282 6                  24103875.718 5  24103880.082 7 126666676.14116                  98701337.07715  94588796.49717
G08  24053050.852 6                  24053060.548 6  24053058.502 7 126399625.05116                  98493258.73216  94389360.35417
G17  22712914.803 7                  22712918.506 6                 119357167.34317                  93005762.39616
G22  24937756.636 5                                                 131048695.08715                                
G28  23786350.432 7                  23786356.321 7  23786359.061 8 124998110.34617                  97401324.75117  93342945.34718
G32  22935221.444 7                  22935227.883 7  22935224.542 7 120525398.92217                  93915720.21817  90002613.29117
R02  20480489.576 8  20480492.139 8 109287813.15818  85001464.33918
R03  19245313.140 8  19245315.351 8 103021664.33318  80128094.28218
R04  22251784.706 7  22251787.330 7 119157286.34417  92677911.99017
R17  20868359.140 8  20868362.504 7 111670802.47318  86855081.32617
R18  18979437.503 8  18979438.453 7 101313521.54918  78799436.97117
R19  21312057.350 8  21312059.025 7 114005134.87118  88670662.84217
> 2025 06 15 12 54  0.0000000  0 35
C05  39056103.260 6  39056101.692 7 203375378.488 6 157262738.657 7
C06  39224910.590 6  39224906.856 7 204254404.793 6 157942463.303 7
C09  40096937.673 6  40096936.694 7 208795282.473 6 161453762.080 7
C12  22267177.473 7  22267174.042 8 115951039.116 7  89660796.739 8
C13  40394395.705 4  40394401.807 5 210344220.47814 162651515.44515
C16  39612855.876 7  39612858.308 7 206274537.779 7 159504559.132 7
C19  23326482.751 7                 121467114.307 7
C21  24811839.071 7                 129201749.773 7
C22  21425730.005 8                 111569395.438 8
C34  23805918.706 7                 123963663.708 7
C35  23550158.179 7                 122631851.080 7
C39  39108073.286 7                 203645993.786 7
C44  21494099.786 8                 111925416.659 8
E05  22825715.135 8  22825718.401 9 119949941.729 8  90741365.252 9
E06  25929383.514 7  25929387.632 8 136259831.235 7 103079690.819 8
E09  24701871.627 7  24701874.084 9 129809209.979 7  98199833.797 9
E15  26553730.984 7  26553735.556 7 139540794.242 7 105561723.905 7
E34  23337287.940 8  23337290.354 9 122638276.399 8  92775067.785 9
E36  24533930.600 8  24533933.740 9 128926679.633 8  97532164.586 9
G01  20033861.803 8                  20033864.626 8  20033866.641 9 105278647.206 8                  82035326.476 8  78617192.773 9
G02  21000169.481 7  21000170.324 6                                 110356630.213 7  85992082.869 6                
G03  20520390.167 7                  20520396.157 8  20520394.435 8 107835368.959 7                  84027736.523 8  80526609.089 8
G04  24092718.360 5                  24092726.557 6  24092730.002 7 126608081.306 5                  98655678.935 6  94545040.823 7
G08  24063392.613 6                  24063402.049 6  24063400.386 7 126453973.261 6                  98535607.850 6  94429944.956 7
G17  22707647.356 7                  22707650.592 7                 119329485.614 7                  92984192.256 7
G19  24238320.568 6                                                 127373169.78816                                
G22  24941916.584 5                                                 131070558.755 5                                
G28  23780184.695 7                  23780190.403 7  23780193.188 8 124965708.644 7                  97376076.669 7  93318749.289 8
G32  22942231.800 7                  22942238.181 7  22942235.269 7 120562239.171 7                  93944426.887 7  90030123.849 7
R02  20488387.420 8  20488390.274 7 109329956.984 8  85034242.845 7
R03  19241471.261 8  19241473.570 7 103001098.035 8  80112098.291 7
R04  22240275.606 7  22240278.961 7 119095655.805 7  92629977.242 7
R17  20877587.297 8  20877590.373 7 111720184.038 8  86893489.146 7
R18  18979182.037 8  18979183.595 7 101312157.852 8  78798376.313 7
R19  21301892.848 8  21301894.560 7 113950762.894 8  88628373.549 7
>                              3  5
              *** Start of Occupation ***                   COMMENT             
1006                                                        MARKER NAME         
1006                                                        MARKER NUMBER       
  3915590.3423  1192600.1010  4875838.3440                  APPROX POSITION XYZ 
        1.4250        0.0000        0.0000                  ANTENNA: DELTA H/E/N
> 2025 06 15 12 54 15.0000000  0 35
C05  39055836.602 5  39055834.844 7 203373990.621 5 157261665.459 7
C06  39220594.644 6  39220590.716 7 204231929.755 6 157925084.215 7
C09  40091786.908 6  40091786.053 7 208768462.188 6 161433022.964 7
C12  22263179.886 7  22263176.687 8 115930222.754 7  89644700.229 8
C13  40396511.187 5  40396513.286 5 210355212.223 5 162660014.792 5
C16  39608974.468 6  39608977.415 7 206254328.063 6 159488931.724 7
C19  23332871.084 8                 121500379.831 8
C21  24802805.982 7                 129154713.248 7
C22  21423311.706 8                 111556802.682 8
C34  23798344.758 7                 123924224.864 7
C35  23558314.750 7                 122674325.424 7
C39  39105335.818 7                 203631740.494 7
C44  21495190.902 8                 111931098.632 8
E05  22819749.678 8  22819752.876 9 119918592.957 8  90717650.120 9
E06  25935011.128 7  25935014.617 8 136289400.644 7 103102059.843 8
E09  24704283.661 8  24704286.298 9 129821886.003 8  98209423.126 9
E15  26546165.767 7  26546170.479 8 139501038.022 7 105531648.642 8
E27  27632574.437 6  27632579.965 7 145210158.71216 109850563.18817
E34  23334915.369 8  23334917.750 9 122625808.496 8  92765635.921 9
E36  24538799.799 7  24538803.472 9 128952269.211 7  97551522.913 9
G01  20032306.692 8                  20032309.780 8  20032311.732 9 105270476.232 8                  82028959.482 8  78611091.071 9
G02  21003992.663 7  21003993.617 6                                 110376722.034 7  86007738.807 6                
G03  20514878.633 7                  20514884.357 7  20514882.686 8 107806404.915 7                  84005167.167 7  80504980.107 8
G04  24081571.634 6                  24081579.536 6  24081582.970 7 126549504.413 6                  98610034.773 6  94501298.485 7
G08  24073737.095 6                  24073746.332 6  24073744.847 7 126508331.742 6                  98577964.999 6  94470537.217 7
G17  22702401.094 7                  22702404.322 7                 119301916.399 7                  92962709.751 7
G22  24946095.607 5                                                 131092515.854 5                                
G28  23774038.282 7                  23774043.214 7  23774046.356 8 124933406.768 7                  97350906.427 7  93294627.803 8
G32  22949258.446 7                  22949265.361 7  22949262.151 8 120599165.307 7                  93973200.481 7  90057698.535 8
R02  20496305.160 8  20496307.766 7 109372207.398 8  85067104.252 7
R03  19237660.402 8  19237662.682 7 102980697.205 8  80096230.986 7
R04  22228778.604 7  22228782.843 7 119034091.637 7  92582094.104 7
R17  20886835.330 8  20886838.657 7 111769672.302 8  86931979.990 7
R18  18978958.304 8  18978959.951 7 101310962.885 8  78797446.904 7
R19  21291741.774 8  21291743.294 7 113896460.781 8  88586138.621 7
> 2025 06 15 12 54 30.0000000  0 36
C05  39055568.722 6  39055567.542 7 203372597.854 6 157260588.483 7
C06  39216283.667 6  39216280.208 7 204209483.360 6 157907727.271 7
C09  40086639.312 6  40086638.756 7 208741658.646 6 161412296.804 7
C12  22259201.434 8  22259198.261 8 115909505.016 8  89628679.970 8
C13  40398615.713 5  40398622.034 4 210366191.626 5 162668504.775 4
C16  39605099.288 6  39605101.962 7 206234148.655 6 159473327.729 7
C19  23339270.433 7                 121533702.023 7
C21  24793781.378 7                 129107716.637 7
C22  21420912.209 8                 111544308.929 8
C34  23790783.387 7                 123884848.870 7
C35  23566482.577 7                 122716857.397 7
C39  39102605.781 7                 203617524.479 7
C44  21496303.957 8                 111936894.030 8
E05  22813798.894 8  22813802.178 9 119887321.993 8  90693993.868 9
E06  25940650.670 7  25940654.072 8 136319036.517 7 103124479.211 8
E09  24706714.212 7  24706716.350 9 129834656.214 7  98219083.710 9
E15  26538600.708 7  26538606.480 8 139461288.254 7 105501578.222 8
E27  27635538.585 6  27635543.689 7 145225735.087 6 109862346.576 7
E34  23332553.405 8  23332555.939 9 122613397.316 8  92756246.935 9
E36  24543678.806 8  24543682.214 9 128977907.869 8  97570918.358 9
G01  20030771.913 8                  20030774.766 8  20030776.434 9 105262409.968 8                  82022674.079 8  78605067.550 9
G02  21007832.520 7  21007833.429 6                                 110396900.824 7  86023462.515 6                
G03  20509383.364 7                  20509389.242 7  20509387.031 8 107777526.628 7                  83982664.628 7  80483415.172 8
G04  24070427.196 6                  24070435.872 6  24070438.345 6 126490942.458 6                  98564402.181 6  94457567.282 6
G08  24084082.220 6                  24084091.669 6  24084090.384 7 126562696.935 6                  98620327.423 6  94511134.498 7
G17  22697175.755 7                  22697179.051 7                 119274456.485 7                  92941312.438 7
G19  24218457.603 5                                                 127268800.69415                                
G22  24950291.274 6  24950296.991 2                                 131114563.123 6 102167293.73512                
G28  23767909.588 7                  23767915.002 7  23767918.067 8 124901201.943 7                  97325811.786 7  93270578.772 8
G32  22956301.061 7                  22956307.748 7  22956304.463 7 120636173.799 7                  94002038.229 7  90085334.692 7
R02  20504242.313 8  20504244.546 7 109414560.564 8  85100045.581 7
R03  19233879.151 8  19233881.610 7 102960458.719 8  80080489.938 7
R04  22217293.641 7  22217297.337 7 118972590.893 7  92534260.239 7
R17  20896102.651 8  20896105.932 7 111819263.897 8  86970551.202 7
R18  18978765.907 8  18978767.341 7 101309933.563 8  78796646.313 7
R19  21281603.214 8  21281605.439 7 113842225.863 8  88543955.945 7
> 2025 06 15 12 54 45.0000000  0 37
C05  39055301.390 6  39055299.718 7 203371204.164 6 157259510.793 7
C06  39211979.462 6  39211975.952 7 204187069.707 6 157890395.628 7
C09  40081495.977 6  40081495.358 7 208714875.870 6 161391586.725 7
C12  22255242.647 8  22255239.313 8 115888890.164 8  89612739.274 8
C13  40400722.192 5  40400726.728 4 210377163.177 5 162676988.629 4
C16  39601230.732 6  39601232.924 7 206214003.702 6 159457750.354 7
C19  23345680.937 8                 121567084.708 8
C21  24784764.405 7                 129060764.108 7
C22  21418532.855 8                 111531918.150 8
C34  23783234.205 7                 123845540.009 7
C35  23574662.378 7                 122759450.876 7
C39  39099883.650 7                 203603349.792 7
C44  21497439.242 8                 111942806.813 8
E05  22807863.903 8  22807867.085 9 119856133.036 8  90670399.657 9
E06  25946303.420 7  25946306.874 8 136348742.861 7 103146951.826 8
E09  24709162.423 7  24709165.084 9 129847524.481 7  98228818.470 9
E15  26531039.030 7  26531044.249 8 139421548.947 7 105471515.730 8
E27  27638522.200 6  27638525.246 7 145241405.715 6 109874201.319 7
E34  23330203.435 8  23330205.753 9 122601046.951 8  92746903.972 9
E36  24548567.768 8  24548571.218 9 129003599.620 8  97590353.985 9
G01  20029257.878 8                  20029260.376 8  20029262.197 9 105254452.551 8                  82016473.479 8  78599125.328 9
G02  21011689.744 7  21011690.842 6                                 110417170.797 7  86039257.271 6                
G03  20503905.169 7                  20503911.057 7  20503909.116 8 107748738.149 7                  83960232.059 7  80461917.307 8
G04  24059286.683 6                  24059295.408 6  24059297.866 6 126432399.651 6                  98518784.608 6  94413850.415 6
G08  24094430.032 6                  24094439.089 6  24094437.853 7 126617072.632 6                  98662697.993 6  94551739.606 7
G17  22691971.965 7                  22691975.381 7                 119247110.218 7                  92920003.641 7
G19  24208547.441 5                                                 127216715.83415                                
G22  24954504.355 6  24954510.527 3                                 131136703.996 6 102184546.375 3                
G28  23761799.696 6                  23761805.886 7  23761809.053 8 124869098.433 6                  97300796.136 7  93246605.443 8
G31  24382276.532 5                  24382285.510 6                 128129916.30015                  99841376.93816
G32  22963359.727 7                  22963366.852 7  22963363.362 7 120673268.365 7                  94030943.087 7  90113035.175 7
R02  20512199.263 8  20512201.847 8 109457020.250 8  85133069.746 8
R03  19230129.852 8  19230131.811 7 102940386.585 8  80064878.281 7
R04  22205820.882 7  22205824.429 7 118911158.054 7  92486479.203 7
R17  20905389.824 8  20905393.035 7 111868962.438 8  87009205.593 7
R18  18978604.315 8  18978605.903 7 101309074.270 8  78795977.993 7
R19  21271478.048 8  21271479.671 7 113788062.467 8  88501828.858 7
> 2025 06 15 12 55  0.0000000  0 36
C05  39055033.273 6  39055031.750 7 203369807.111 6 157258430.507 7
C06  39207680.729 6  39207677.661 7 204164686.298 6 157873087.375 7
C09  40076356.264 6  40076355.474 7 208688111.467 6 161370890.825 7
C12  22251303.129 8  22251299.734 8 115868375.896 8  89596876.349 8
C13  40402828.164 5  40402833.492 5 210388124.237 5 162685464.364 5
C16  39597368.071 6  39597370.756 7 206193890.711 6 159442197.744 7
C19  23352103.167 8                 121600525.155 8
C21  24775755.486 7                 129013853.364 7
C22  21416172.850 8                 111519627.927 8
C34  23775697.631 7                 123806295.981 7
C35  23582853.418 7                 122802103.161 7
C39  39097168.860 7                 203589213.980 7
C44  21498597.161 8                 111948834.611 8
E05  22801944.514 8  22801947.167 9 119825023.766 8  90646865.706 9
E06  25951969.382 7  25951972.807 8 136378516.915 7 103169475.715 8
E09  24711629.675 7  24711632.015 9 129860488.255 7  98238625.476 9
E15  26523478.778 7  26523483.393 8 139381817.829 7 105441459.421 8
E27  27641520.432 6  27641524.819 7 145257168.057 6 109886125.420 7
E34  23327864.329 8  23327866.663 9 122588755.070 8  92737605.247 9
E36  24553465.971 8  24553469.867 9 129029342.027 8  97609827.918 9
G01  20027763.712 8                  20027766.638 8  20027768.023 9 105246601.641 8                  82010355.881 8  78593262.634 9
G02  21015564.351 7  21015565.107 6                                 110437529.445 7  86055121.161 6                
G03  20498443.141 8                  20498449.182 7  20498447.391 8 107720037.134 8                  83937867.616 7  80440484.723 8
G04  24048149.372 6                  24048158.043 6  24048160.861 6 126373873.920 6                  98473180.240 6  94370146.262 6
G08  24104778.364 6                  24104788.061 6  24104786.566 7 126671455.985 6                  98705074.539 6  94592350.455 7
G17  22686789.162 7                  22686793.136 7                 119219875.312 7                  92898781.645 7
G19  24198647.018 5                                                                                                
G28  23755709.461 7                  23755715.607 7  23755718.392 8 124837094.155 7                  97275857.813 7  93222706.223 8
G31  24372857.219 5                  24372865.781 6                 128080420.143 5                  99802808.562 6
G32  22970434.719 7                  22970441.464 7  22970438.385 7 120710446.342 7                  94059912.889 7  90140797.889 7
R02  20520175.381 8  20520178.333 8 109499583.513 8  85166174.475 8
R03  19226410.720 8  19226412.597 7 102920478.494 8  80049394.226 7
R04  22194361.040 7  22194364.283 7 118849790.787 7  92438749.144 7
R17  20914697.275 8  20914700.446 7 111918765.273 8  87047941.061 7
R18  18978474.819 8  18978476.236 7 101308382.509 8  78795439.931 7
R19  21261366.622 8  21261367.210 7 113733968.687 8  88459755.966 7
> 2025 06 15 12 55 15.0000000  0 36
C05  39054764.750 6  39054762.766 7 203368407.783 6 157257348.456 7
C06  39203389.141 6  39203384.955 7 204142334.316 6 157855803.431 7
C09  40071219.744 6  40071219.380 7 208661366.659 6 161350210.060 7
C12  22247383.259 8  22247379.735 8 115847963.455 8  89581092.168 8
C13  40404931.887 5  40404937.902 5 210399076.026 5 162693933.014 5
C16  39593512.052 7  39593514.651 7 206173810.798 7 159426670.684 7
C19  23358536.335 7                 121634024.267 7
C21  24766755.236 7                 128966985.561 7
C22  21413831.800 8                 111507439.297 8
C34  23768174.131 7                 123767118.170 7
C35  23591055.908 7                 122844815.106 7
C39  39094462.010 7                 203575118.172 7
C44  21499776.830 8                 111954978.438 8
E05  22796039.717 8  22796042.651 9 119793995.367 8  90623392.953 9
E06  25957648.206 7  25957651.753 8 136408359.583 7 103192051.485 8
E09  24714114.689 7  24714117.289 9 129873548.442 7  98248505.437 9
E15  26515919.377 7  26515924.559 8 139342096.026 7 105411410.183 8
E27  27644537.683 5  27644542.385 7 145273023.081 5 109898119.621 7
E34  23325536.538 8  23325538.981 9 122576522.855 8  92728351.656 9
E36  24558374.676 8  24558378.319 9 129055136.090 8  97629340.948 9
G01  20026290.490 8                  20026293.238 8  20026295.013 9 105238858.412 8                  82004322.204 8  78587480.356 9
G02  21019455.292 7  21019456.406 6                                 110457977.836 7  86071054.968 6                
G03  20492998.720 8                  20493004.528 8  20493002.581 8 107691424.661 8                  83915572.189 8  80419118.271 8
G04  24037016.054 6                  24037023.883 6  24037026.753 6 126315366.587 6                  98427590.276 6  94326455.899 6
G08  24115128.978 6                  24115138.509 6  24115136.878 7 126725847.764 6                  98747457.700 6  94632967.581 7
G17  22681627.772 7                  22681631.929 7                 119192752.805 7                  92877647.269 7
G19  24188760.192 5                                                 127112734.28715                                
G28  23749638.478 7                  23749644.406 7  23749647.582 8 124805190.558 7                  97250997.901 7  93198882.141 8
G31  24363445.618 5                  24363452.808 5                 128030960.246 5                  99764268.425 5
G32  22977525.398 7                  22977532.228 7  22977528.898 7 120747708.402 7                  94088948.255 7  90168623.444 7
R02  20528171.087 8  20528173.972 7 109542250.921 8  85199360.221 7
R03  19222722.752 8  19222724.757 8 102900735.634 8  80034038.681 8
R04  22182913.885 7  22182917.712 7 118788490.368 7  92391071.161 7
R17  20924023.477 8  20924027.057 7 111968673.087 8  87086758.194 7
R18  18978376.705 8  18978378.044 7 101307859.479 8  78795033.130 7
R19  21251267.098 8  21251268.599 7 113679946.134 8  88417738.453 7
> 2025 06 15 12 55 30.0000000  0 35
C05  39054494.877 5  39054492.886 7 203367004.355 5 157256263.241 7
C06  39199101.968 6  39199098.418 7 204120011.913 6 157838542.348 7
C09  40066086.767 6  40066086.817 7 208634639.569 6 161329543.007 7
C12  22243482.467 7  22243478.850 8 115827651.167 7  89565385.422 8
C13  40407033.373 5  40407039.626 5 210410016.741 5 162702393.046 5
C16  39589661.831 6  39589664.372 7 206153762.217 6 159411167.866 7
C19  23364980.365 7                 121667579.981 7
C21  24757762.615 7                 128920159.027 7
C22  21411510.557 8                 111495350.351 8
C34  23760662.818 7                 123728004.991 7
C35  23599269.634 7                 122887584.750 7
C39  39091762.628 7                 203561060.481 7
C44  21500978.558 8                 111961236.474 8
E05  22790150.191 8  22790153.214 9 119763046.151 8  90599980.084 9
E06  25963339.416 7  25963343.380 8 136438268.813 7 103214677.607 8
E09  24716618.104 7  24716620.527 9 129886703.118 7  98258456.841 9
E15  26508361.812 7  26508367.089 8 139302381.783 7 105381366.653 8
E27  27647570.699 5  27647576.892 7 145288968.710 5 109910182.317 7
E34  23323220.088 8  23323222.267 9 122564348.518 8  92719141.854 9
E36  24563292.680 8  24563296.233 9 129080979.967 8  97648891.655 9
G01  20024836.768 8                  20024839.895 8  20024841.722 9 105231221.146 8                  81998371.102 8  78581777.207 9
G02  21023362.992 7  21023364.305 6                                 110478513.965 7  86087057.126 6                
G03  20487570.269 8                  20487576.329 7  20487574.308 8 107662899.025 8                  83893344.427 7  80397816.655 8
G04  24025885.062 6                  24025893.294 6  24025895.914 7 126256876.070 6                  98382013.366 6  94282778.058 7
G08  24125480.849 6                  24125490.287 6  24125488.554 7 126780245.857 6                  98789845.733 6  94673589.413 7
G17  22676487.621 7                  22676492.071 7                 119165741.289 7                  92856599.353 7
G28  23743586.604 7                  23743592.393 7  23743595.323 8 124773386.062 7                  97226215.214 7  93175132.080 8
G31  24354039.551 6                  24354048.451 6                 127981534.931 6                  99725755.287 6
G32  22984631.743 7                  22984638.862 7  22984635.184 7 120785052.455 7                  94118047.486 7  90196510.223 7
R02  20536186.266 8  20536188.784 8 109585020.245 8  85232625.219 8
R03  19219064.641 8  19219066.959 8 102881155.944 8  80018810.034 8
R04  22171478.895 7  22171483.200 7 118727255.595 7  92343444.187 7
R17  20933369.265 8  20933372.919 7 112018683.613 8  87125655.257 7
R18  18978310.055 8  18978311.167 7 101307503.445 8  78794756.217 7
R19  21241181.253 8  21241182.511 7 113625993.163 8  88375775.063 7
> 2025 06 15 12 55 45.0000000  0 35
C05  39054225.079 6  39054223.705 7 203365600.746 6 157255177.882 7
C06  39194821.578 6  39194818.082 7 204097723.125 6 157821307.271 7
C09  40060958.845 6  40060958.221 7 208607934.284 6 161308892.813 7
C12  22239601.556 7  22239597.977 8 115807443.140 7  89549759.289 8
C13  40409133.462 5  40409138.178 5 210420950.338 5 162710847.577 5
C16  39585818.156 6  39585820.530 7 206133748.899 6 159395692.287 7
C19  23371435.817 7                 121701196.030 7
C21  24748778.472 7                 128873377.828 7
C22  21409208.919 8                 111483365.077 8
C34  23753164.652 7                 123688960.603 7
C35  23607494.794 8                 122930415.767 8
C39  39089071.453 7                 203547044.953 7
C44  21502203.295 8                 111967612.659 8
E05  22784276.473 8  22784279.622 9 119732180.212 8  90576630.235 9
E06  25969044.764 7  25969048.354 8 136468248.404 7 103237356.946 8
E09  24719139.910 7  24719142.455 9 129899956.117 7  98268482.636 9
E15  26500806.777 6  26500811.950 8 139262679.232 6 105351331.981 8
E27  27650623.840 6  27650629.368 7 145305008.802 6 109922316.510 7
E34  23320915.054 8  23320917.372 9 122552236.178 8  92709978.941 9
E36  24568220.497 8  24568224.374 9 129106877.581 8  97668483.021 9
G01  20023404.475 8                  20023407.546 8  20023409.280 9 105223693.941 8                  81992505.743 8  78576156.242 9
G02  21027288.570 7  21027289.653 6                                 110499141.824 7  86103130.771 6                
G03  20482159.119 7                  20482165.352 8  20482163.478 8 107634464.226 7                  83871187.447 8  80376582.905 8
G04  24014758.925 5                  24014767.013 6  24014769.320 7 126198406.638 5                  98336452.883 6  94239115.985 7
G08  24135833.618 6                  24135843.984 6  24135842.278 7 126834653.885 6                  98832241.494 6  94714218.668 7
G17  22671369.492 7                  22671373.302 7                 119138845.135 7                  92835641.314 7
G28  23737554.271 7                  23737559.759 7  23737562.697 8 124741684.990 7                  97201513.129 7  93151459.252 8
G31  24344642.589 6                  24344650.701 6                 127932148.799 6                  99687272.719 6
G32  22991754.205 7                  22991761.562 7  22991757.767 7 120822482.270 7                  94147213.497 7  90224460.980 7
R02  20544220.766 8  20544223.709 7 109627895.128 8  85265972.328 7
R03  19215438.453 8  19215440.685 8 102861743.926 8  80003711.797 8
R04  22160056.796 7  22160060.208 7 118666090.396 7  92295871.311 7
R17  20942734.941 8  20942737.882 7 112068800.988 8  87164635.395 7
R18  18978275.896 8  18978276.697 7 101307318.558 8  78794612.419 7
R19  21231108.761 7  21231110.678 7 113572114.466 7  88333869.452 7
> 2025 06 15 12 56  0.0000000  0 35
C05  39053955.243 6  39053953.527 7 203364193.810 6 157254089.956 7
C06  39190547.281 6  39190543.579 7 204075464.887 6 157804095.809 7
C09  40055833.630 6  40055833.371 7 208581247.613 6 161288257.038 7
C12  22235740.370 7  22235736.850 8 115787336.524 7  89534211.598 8
C13  40411227.604 5  40411236.021 5 210431873.394 5 162719293.966 5
C16  39581980.961 6  39581983.596 7 206113767.779 6 159380241.633 7
C19  23377902.521 7                 121734869.080 7
C21  24739803.498 7                 128826639.078 7
C22  21406926.326 8                 111471480.314 8
C34  23745678.908 7                 123649982.120 7
C35  23615730.670 7                 122973304.898 7
C39  39086387.467 7                 203533068.451 7
C44  21503450.329 8                 111974103.891 8
E05  22778417.972 8  22778421.258 9 119701394.563 8  90553341.112 9
E06  25974762.304 7  25974766.064 8 136498294.978 7 103260086.977 8
E09  24721679.652 7  24721682.468 9 129913304.109 7  98278580.330 9
E15  26493253.686 7  26493258.433 8 139222985.292 7 105321303.820 8
E27  27653693.869 6  27653699.039 7 145321140.107 6 109934519.678 7
E34  23318621.281 8  23318623.686 9 122540182.772 8  92700860.623 9
E36  24573158.648 8  24573162.171 9 129132825.812 8  97688112.676 9
G01  20021992.516 8                  20021995.466 8  20021997.338 9 105216273.762 8                  81986723.769 8  78570615.204 9
G02  21031230.727 7  21031231.962 6                                 110519858.204 7  86119273.389 6                
G03  20476765.366 7                  20476770.883 7  20476769.319 8 107606117.195 7                  83849098.893 7  80355414.699 8
G04  24003635.627 6                  24003644.118 6  24003646.019 7 126139955.401 6                  98290906.613 6  94195467.511 7
G08  24146189.173 6                  24146198.314 6  24146196.944 7 126889068.383 6                  98874642.280 6  94754852.756 7
G17  22666272.730 7                  22666276.292 7                 119112061.268 7                  92814770.807 7
G28  23731540.912 7                  23731546.377 7  23731549.504 8 124710084.576 7                  97176889.463 7  93127861.579 8
G31  24335251.611 6                  24335259.596 6                 127882799.166 6                  99648818.512 6
G32  22998892.089 7                  22998899.515 7  22998895.742 7 120859994.239 7                  94176443.597 7  90252473.187 7
R02  20552274.800 8  20552277.102 7 109670871.786 8  85299398.615 7
R03  19211842.883 8  19211845.259 8 102842496.054 8  79988741.245 8
R04  22148646.777 8  22148650.675 7 118604992.230 8  92248350.552 7
R17  20952119.842 8  20952122.896 7 112119021.487 8  87203695.735 7
R18  18978272.451 8  18978273.608 7 101307301.841 8  78794599.401 7
R19  21221050.148 8  21221051.401 7 113518306.954 8  88292019.198 7
> 2025 06 15 12 56 15.0000000  0 35
C05  39053684.356 6  39053682.545 7 203362783.189 6 157252999.169 7
C06  39186278.237 6  39186274.975 7 204053236.807 6 157786907.657 7
C09  40050712.313 6  40050712.107 7 208554579.328 6 161267635.455 7
C12  22231898.054 7  22231895.160 8 115767331.101 7  89518742.139 8
C13  40413324.987 5  40413331.909 5 210442785.902 5 162727732.231 5
C16  39578150.460 6  39578152.774 7 206093818.508 6 159364815.585 7
C19  23384379.384 7                 121768598.533 7
C21  24730835.654 7                 128779942.384 7
C22  21404663.264 8                 111459695.635 8
C34  23738206.666 7                 123611069.429 7
C35  23623978.737 7                 123016251.496 7
C39  39083710.784 7                 203519130.544 7
C44  21504718.388 8                 111980709.817 8
E05  22772574.690 8  22772578.137 9 119670688.938 8  90530112.524 9
E06  25980492.850 7  25980496.419 8 136528407.967 7 103282867.243 8
E09  24724238.001 7  24724240.500 9 129926746.685 7  98288749.530 9
E15  26485701.804 7  26485706.388 8 139183299.681 7 105291281.978 8
E27  27656781.095 6  27656785.944 7 145337361.947 6 109946791.394 7
E34  23316338.676 8  23316341.156 9 122528188.011 8  92691786.683 9
E36  24578105.898 8  24578109.521 9 129158824.240 8  97707780.279 9
G01  20020601.015 8                  20020604.023 8  20020605.730 9 105208960.306 8                  81981024.988 8  78565153.865 9
G02  21035189.927 7  21035190.974 6                                 110540662.792 7  86135484.722 6                
G03  20471387.422 8                  20471393.627 7  20471391.730 8 107577857.672 8                  83827078.489 7  80334311.826 8
G04  23992516.371 6                  23992524.633 6  23992526.838 7 126081522.336 6                  98245374.502 6  94151832.566 7
G08  24156544.188 6                  24156554.595 6  24156552.560 7 126943488.583 6                  98917047.568 6  94795491.121 7
G17  22661197.098 8                  22661200.829 7                 119085389.504 8                  92793987.603 7
G28  23725546.230 7                  23725552.143 7  23725555.039 8 124678584.648 7                  97152344.112 7  93104338.992 8
G31  24325867.658 5                  24325875.225 6                 127833485.910 5                  99610392.681 6
G32  23006045.899 7                  23006053.151 7  23006049.700 7 120897587.847 7                  94205737.274 7  90280546.303 7
R02  20560347.901 8  20560350.346 7 109713949.481 8  85332903.469 7
R03  19208277.860 8  19208280.476 7 102823412.039 8  79973898.112 7
R04  22137249.059 7  22137253.384 7 118543960.896 7  92200881.824 7
R17  20961524.211 8  20961527.415 7 112169344.326 8  87242835.695 7
R18  18978301.042 8  18978301.843 7 101307452.958 8  78794716.953 7
R19  21211004.839 8  21211006.151 7 113464570.906 8  88250224.513 7
> 2025 06 15 12 56 30.0000000  0 35
C05  39053412.426 5  39053410.838 7 203361367.627 5 157251904.582 7
C06  39182014.716 6  39182012.064 7 204031037.688 6 157769741.927 7
C09  40045594.485 6  40045593.798 7 208527928.194 6 161247027.150 7
C12  22228075.745 7  22228072.711 8 115747425.828 7  89503350.120 8
C13  40415420.062 5  40415425.695 5 210453686.557 5 162736161.344 5
C16  39574324.994 7  39574327.540 7 206073899.889 7 159349413.270 7
C19  23390867.507 7                 121802382.953 7
C21  24721875.671 7                 128733286.739 7
C22  21402419.295 8                 111448009.802 8
C34  23730746.126 7                 123572221.540 7
C35  23632236.718 7                 123059254.189 7
C39  39081041.372 7                 203505230.136 7
C44  21506008.640 8                 111987429.148 8
E05  22766746.557 8  22766750.037 9 119640062.224 8  90506943.647 9
E06  25986234.954 7  25986239.158 8 136558585.970 7 103305696.683 8
E09  24726813.613 7  24726816.248 9 129940282.396 7  98298989.221 9
E15  26478151.445 7  26478155.822 8 139143621.290 7 105261265.582 8
E27  27659886.004 6  27659890.016 7 145353673.060 6 109959130.640 7
E34  23314067.179 8  23314069.574 9 122516250.766 8  92682756.234 9
E36  24583062.587 8  24583066.180 9 129184871.608 8  97727484.923 9
G01  20019229.279 8                  20019232.359 8  20019233.954 9 105201752.483 8                  81975408.507 8  78559771.398 9
G02  21039165.152 7  21039166.724 6                                 110561554.097 7  86151763.632 6                
G03  20466026.064 8                  20466032.457 7  20466030.835 8 107549684.448 8                  83805125.363 7  80313273.386 8
G04  23981400.177 6                  23981407.919 6  23981410.344 7 126023106.462 6                  98199855.722 6  94108210.438 7
G08  24166901.769 6                  24166911.467 6  24166909.612 7 126997913.068 6                  98959456.206 6  94836132.671 7
G17  22656142.763 7                  22656146.227 7                 119058828.793 7                  92773290.938 7
G28  23719571.362 7                  23719576.795 7  23719579.585 8 124647184.372 7                  97127876.442 7  93080890.793 8
G31  24316490.102 5                  24316497.872 6                 127784208.287 5                  99571994.566 6
G32  23013215.351 7                  23013222.333 7  23013219.285 7 120935261.477 7                  94235093.331 7  90308679.177 7
R02  20568439.052 8  20568441.595 7 109757126.582 8  85366485.645 7
R03  19204743.192 8  19204745.180 7 102804490.519 8  79959181.395 7
R04  22125864.399 8  22125867.963 7 118482995.347 8  92153464.193 7
R17  20970946.909 8  20970949.870 7 112219768.173 8  87282054.205 7
R18  18978360.261 8  18978361.768 7 101307770.783 8  78794964.160 7
R19  21200972.766 8  21200973.917 7 113410905.328 8  88208484.632 7
> 2025 06 15 12 56 45.0000000  0 35
C05  39053139.083 5  39053137.493 7 203359945.232 5 157250804.689 7
C06  39177757.347 6  39177754.261 7 204008865.646 6 157752597.108 7
C09  40040479.261 6  40040478.606 7 208501292.325 6 161226430.674 7
C12  22224271.532 7  22224269.104 8 115727618.856 7  89488034.133 8
C13  40417510.696 5  40417514.818 5 210464573.322 5 162744579.571 5
C16  39570505.544 7  39570508.052 7 206054009.996 7 159334033.145 7
C19  23397365.598 7                 121836220.098 7
C21  24712923.489 7                 128686670.340 7
C22  21400193.892 8                 111436420.855 8
C34  23723298.091 7                 123533436.690 7
C35  23640505.520 7                 123102310.790 7
C39  39078378.857 7                 203491365.192 7
C44  21507320.635 8                 111994259.912 8
E05  22760933.544 8  22760936.589 9 119609512.578 8  90483833.054 9
E06  25991989.799 7  25991993.751 8 136588826.734 7 103328573.614 8
E09  24729406.619 7  24729409.346 9 129953909.146 7  98309297.763 9
E15  26470601.711 7  26470606.294 8 139103948.240 7 105231253.187 8
E27  27663006.059 6  27663010.190 7 145370071.194 6 109971535.727 7
E34  23311806.282 8  23311808.613 9 122504369.136 8  92673767.854 9
E36  24588028.375 8  24588031.753 9 129210965.851 8  97747225.028 9
G01  20017877.626 8                  20017880.613 8  20017881.950 9 105194648.389 8                  81969872.856 8  78554466.396 9
G02  21043156.447 7  21043158.369 6                                 110582530.257 7  86168108.687 6                
G03  20460681.435 8                  20460687.164 7  20460685.422 8 107521595.610 8                  83783237.952 7  80292297.971 8
G04  23970286.609 6                  23970295.549 7  23970296.896 7 125964706.034 6                  98154348.998 7  94064599.830 7
G08  24177258.505 6                  24177268.494 6  24177266.870 8 127052339.482 6                  99001866.276 6  94876775.640 8
G17  22651109.266 7                  22651112.885 7                 119032377.379 7                  92752679.477 7
G28  23713614.320 7                  23713620.240 7  23713622.855 8 124615882.079 7                  97103485.092 7  93057515.763 8
G31  24307119.205 6                  24307126.580 6                 127734964.711 6                  99533623.027 6
G32  23020399.197 7                  23020406.262 7  23020403.050 7 120973012.885 7                  94264509.969 7  90336870.120 7
R02  20576548.840 8  20576551.331 7 109800400.712 8  85400143.249 7
R03  19201238.234 8  19201240.434 8 102785729.836 8  79944589.758 8
R04  22114491.432 7  22114495.539 7 118422094.084 7  92106096.693 7
R17  20980388.006 8  20980391.372 7 112270290.688 8  87321349.456 7
R18  18978450.844 8  18978452.201 7 101308253.485 8  78795339.591 7
R19  21190952.787 8  21190954.597 7 113357308.503 8  88166798.254 7
> 2025 06 15 12 57  0.0000000  0 35
C05  39052865.491 6  39052864.481 7 203358522.236 6 157249704.347 7
C06  39173505.592 6  39173502.464 7 203986727.062 6 157735478.172 7
C09  40035367.960 6  40035367.272 7 208474678.148 6 161205850.930 7
C12  22220488.350 7  22220485.267 8 115707916.723 7  89472799.193 8
C13  40419598.500 4  40419608.649 4 210475452.714 4 162752992.129 4
C16  39566692.971 7  39566695.133 7 206034155.220 7 159318680.164 7
C19  23403874.713 7                 121870116.191 7
C21  24703980.213 7                 128640099.583 7
C22  21397988.201 8                 111424935.077 8
C34  23715862.919 7                 123494721.544 7
C35  23648785.582 7                 123145427.451 7
C39  39075724.139 7                 203477542.112 7
C44  21508654.951 8                 112001208.533 8
E05  22755135.596 8  22755139.063 9 119579046.539 8  90460785.722 9
E06  25997757.682 7  25997761.548 8 136619136.504 7 103351502.760 8
E09  24732018.088 7  24732020.929 9 129967633.204 7  98319679.914 9
E15  26463054.508 7  26463059.052 8 139064287.048 7 105201249.784 8
E27  27666144.107 6  27666148.252 7 145386562.773 6 109984011.432 7
E34  23309556.851 8  23309559.400 9 122492549.649 8  92664826.489 9
E36  24593004.007 8  24593007.483 9 129237113.427 8  97767005.485 9
G01  20016546.293 8                  20016549.709 8  20016551.330 9 105187654.569 8                  81964423.121 8  78549243.745 9
G02  21047165.821 7  21047167.294 6                                 110603597.647 7  86184524.822 6                
G03  20455353.232 8                  20455359.235 7  20455357.653 8 107493597.685 8                  83761421.391 7  80271390.416 8
G04  23959177.981 6                  23959186.545 7  23959188.064 7 125906327.709 6                  98108859.519 7  94021005.804 7
G08  24187617.514 6                  24187627.624 6  24187625.282 7 127106773.895 6                  99044282.591 6  94917424.581 7
G17  22646097.744 7                  22646101.238 7                 119006041.904 7                  92732158.355 7
G28  23707677.902 7                  23707683.087 7  23707686.195 8 124584684.519 7                  97079175.329 7  93034218.914 8
G31  24297756.016 6                  24297763.453 6                 127685761.974 6                  99495283.354 6
G32  23027599.572 7                  23027605.675 7  23027603.166 7 121010848.153 7                  94293991.992 7  90365123.728 7
R02  20584677.520 8  20584679.961 7 109843777.659 8  85433880.889 7
R03  19197764.840 8  19197767.031 8 102767136.276 8  79930128.128 8
R04  22103131.545 8  22103135.340 7 118361263.825 8  92058784.303 7
R17  20989848.741 8  20989852.778 7 112320918.121 8  87360726.313 7
R18  18978573.310 8  18978574.454 7 101308907.595 8  78795848.331 7
R19  21180947.904 7  21180949.215 7 113303787.702 7  88125170.969 7
> 2025 06 15 12 57 15.0000000  0 34
C05  39052593.268 5  39052591.650 7 203357100.307 5 157248604.827 7
C06  39169260.781 6  39169257.473 7 203964623.505 6 157718386.328 7
C09  40030261.570 6  40030261.151 7 208448087.270 6 161185289.216 7
C12  22216724.935 7  22216722.293 8 115688321.217 7  89457646.721 8
C16  39562887.089 7  39562889.480 7 206014337.154 7 159303355.557 7
C19  23410396.111 7                 121904072.504 7
C21  24695045.642 7                 128593576.229 7
C22  21395802.695 8                 111413554.046 8
C34  23708441.884 7                 123456077.865 7
C35  23657077.225 7                 123188605.512 7
C39  39073077.710 7                 203463762.477 7
C44  21510012.221 8                 112008276.478 8
E05  22749354.546 8  22749357.779 9 119548665.806 8  90437802.929 9
E06  26003539.166 7  26003542.783 8 136649516.685 7 103374485.143 8
E09  24734648.458 7  24734651.348 9 129981456.018 7  98330136.788 9
E15  26455509.644 7  26455514.426 8 139024639.340 7 105171256.568 8
E27  27669299.761 6  27669304.365 7 145403149.131 6 109996558.898 7
E34  23307320.066 8  23307322.351 9 122480793.954 8  92655933.385 9
E36  24597990.419 8  24597993.655 9 129263315.841 8  97786827.424 9
G01  20015236.630 8                  20015240.089 8  20015241.889 9 105180772.697 8                  81959060.607 8  78544104.667 9
G02  21051192.044 7  21051193.946 6                                 110624757.687 7  86201013.159 6                
G03  20450043.201 8                  20450048.776 7  20450047.261 8 107465692.214 8                  83739676.874 7  80250551.942 8
G04  23948073.503 6                  23948081.949 7  23948083.604 7 125847973.406 6                  98063388.788 7  93977429.640 7
G08  24197977.212 6                  24197988.015 6  24197985.961 7 127161217.596 6                  99086706.115 6  94958080.457 7
G17  22641108.611 7                  22641112.498 7                 118979824.120 7                  92711728.922 7
G28  23701761.309 7                  23701766.729 7  23701769.860 8 124553593.554 7                  97054948.638 7  93011001.696 8
G31  24288400.926 6                  24288408.705 6                 127636602.160 6                  99456977.130 6
G32  23034815.395 7                  23034821.756 7  23034819.062 7 121048768.587 7                  94323540.382 7  90393440.911 7
R02  20592825.754 8  20592828.171 7 109887258.780 8  85467699.507 7
R03  19194322.986 8  19194325.481 7 102748711.508 8  79915797.752 7
R04  22091785.248 7  22091790.116 7 118300506.468 7  92011528.689 7
R17  20999330.126 8  20999333.451 7 112371651.583 8  87400185.633 7
R18  18978728.007 8  18978729.808 8 101309734.838 8  78796491.746 8
R19  21170957.263 8  21170958.967 7 113250344.971 8  88083604.411 7
> 2025 06 15 12 57 30.0000000  0 34
C05  39052318.879 6  39052317.792 7 203355675.316 6 157247502.930 7
C06  39165022.334 6  39165018.740 7 203942551.008 6 157701318.489 7
C09  40025158.943 6  40025158.314 7 208421515.656 6 161164742.396 7
C12  22212981.550 7  22212978.712 8 115668828.392 7  89442573.630 8
C16  39559087.573 6  39559089.357 7 205994551.754 6 159288056.238 7
C19  23416927.561 7                 121938084.777 7
C21  24686119.144 7                 128547096.337 7
C22  21393636.232 8                 111402273.601 8
C34  23701033.608 7                 123417501.840 7
C35  23665379.975 7                 123231840.719 7
C39  39070439.475 7                 203450022.136 7
C44  21511391.853 8                 112015459.688 8
E05  22743589.050 8  22743591.967 9 119518366.399 8  90414881.641 9
E06  26009332.809 7  26009336.510 8 136679962.936 7 103397517.528 8
E09  24737297.389 7  24737299.756 9 129995373.328 7  98340665.144 9
E15  26447966.835 7  26447971.779 8 138985001.078 7 105141270.533 8
E27  27672473.080 5  27672477.924 7 145419826.021 5 110009174.784 7
E34  23305094.276 8  23305096.712 9 122469098.046 8  92647085.516 9
E36  24602986.151 8  24602989.462 9 129289568.964 8  97806687.722 9
G01  20013947.753 8                  20013950.809 8  20013952.769 9 105173998.737 8                  81953782.212 8  78539046.189 9
G02  21055235.878 7  21055237.358 6                                 110646006.329 7  86217570.513 6                
G03  20444749.574 8                  20444755.494 7  20444753.751 8 107437875.210 8                  83718001.292 7  80229779.533 8
G04  23936972.487 6                  23936981.380 7  23936983.059 7 125789639.263 6                  98017933.718 7  93933868.595 7
G08  24208338.512 6                  24208349.018 6  24208347.450 8 127215666.102 6                  99129133.457 6  94998739.937 8
G17  22636141.299 7                  22636145.108 6                 118953720.184 7                  92691388.165 6
G28  23695864.327 7                  23695870.131 7  23695872.880 8 124522605.444 7                  97030802.096 7  92987861.266 8
G31  24279053.721 6                  24279061.793 6                 127587481.490 6                  99418701.329 6
G32  23042046.848 7                  23042053.552 7  23042050.373 7 121086769.801 7                  94353151.684 7  90421818.406 7
R02  20600992.735 8  20600995.274 7 109930839.523 8  85501595.627 7
R03  19190912.025 8  19190914.151 7 102730451.366 8  79901595.410 7
R04  22080453.044 8  22080456.902 7 118239818.054 8  91964326.645 7
R17  21008829.776 8  21008833.136 7 112422486.671 8  87439723.988 7
R18  18978914.957 8  18978916.203 7 101310731.245 8  78797266.730 7
R19  21160980.548 8  21160982.231 7 113196976.439 8  88042095.596 7
> 2025 06 15 12 57 45.0000000  0 35
C05  39052044.986 6  39052043.090 7 203354245.545 6 157246397.354 7
C06  39160788.710 6  39160785.367 7 203920507.858 6 157684273.328 7
C09  40020059.628 6  40020058.536 7 208394961.573 6 161144209.119 7
C12  22209257.807 8  22209254.449 8 115649436.742 8  89427578.789 8
C13  40425863.781 5                 210508033.73915
C16  39555293.240 6  39555295.931 7 205974797.286 6 159272780.866 7
C19  23423469.563 7                 121972151.068 7
C21  24677201.251 7                 128500658.284 7
C22  21391488.984 8                 111391092.030 8
C34  23693637.968 7                 123378991.942 7
C35  23673693.809 7                 123275131.123 7
C39  39067807.898 7                 203436319.517 7
C44  21512793.059 8                 112022756.461 8
E05  22737838.490 8  22737841.358 9 119488146.720 8  90392020.672 9
E06  26015138.471 7  26015142.536 8 136710473.330 7 103420598.429 8
E09  24739963.216 7  24739965.776 9 130009383.288 7  98351263.580 9
E15  26440425.171 7  26440430.261 8 138945370.722 7 105111290.445 8
E27  27675665.075 6  27675668.354 7 145436591.567 6 110021857.712 7
E34  23302879.889 8  23302882.091 9 122457460.296 8  92638281.636 9
E36  24607991.122 8  24607994.593 9 129315871.040 8  97826585.061 9
G01  20012678.933 8                  20012681.877 8  20012683.645 9 105167331.089 8                  81948586.628 8  78534067.098 9
G02  21059296.326 7  21059297.394 6                                 110667341.703 7  86234195.456 6                
G03  20439472.470 8                  20439478.722 7  20439476.657 8 107410145.028 8                  83696393.374 7  80209071.908 8
G04  23925875.449 6                  23925883.923 7  23925885.093 7 125731323.856 6                  97972493.245 7  93890321.474 7
G08  24218699.562 6                  24218710.639 6  24218709.549 8 127270117.480 6                  99171562.949 6  95039401.506 8
G17  22631195.192 7                  22631198.768 7                 118927728.544 7                  92671134.944 7
G28  23689986.842 7                  23689992.174 7  23689995.098 8 124491718.681 7                  97006734.541 7  92964796.534 8
G31  24269713.829 6                  24269721.245 6                 127538398.709 6                  99380455.072 6
G32  23049293.180 7                  23049299.698 7  23049296.782 7 121124849.736 7                  94382824.335 7  90450254.719 7
R02  20609178.107 8  20609180.634 7 109974517.569 8  85535567.422 7
R03  19187531.382 8  19187533.336 8 102712354.393 8  79887519.987 8
R04  22069131.654 7  22069136.295 7 118179197.293 7  91917177.236 7
R17  21018347.682 8  21018351.203 7 112473421.463 8  87479339.889 7
R18  18979132.924 8  18979134.357 8 101311895.104 8  78798171.950 8
R19  21151017.681 8  21151018.494 7 113143680.566 8  88000643.302 7
> 2025 06 15 12 58  0.0000000  0 35
C05  39051769.202 6  39051767.642 7 203352810.645 6 157245287.801 7
C06  39156561.519 6  39156558.039 7 203898493.731 6 157667250.627 7
C09  40014963.648 6  40014962.151 7 208368424.859 6 161123689.282 7
C12  22205553.154 7  22205550.132 8 115630146.091 7  89412662.036 8
C13  40427941.626 5  40427945.695 4 210518873.559 5 162786586.05414
C16  39551505.234 6  39551508.335 7 205955073.488 6 159257529.157 7
C19  23430022.160 8                 122006270.816 8
C21  24668291.637 7                 128454261.876 7
C22  21389360.466 8                 111380008.972 8
C34  23686255.581 7                 123340548.081 7
C35  23682017.468 7                 123318476.188 7
C39  39065183.644 7                 203422654.212 7
C44  21514215.865 8                 112030166.403 8
E05  22732102.802 8  22732105.849 9 119458006.543 8  90369219.849 9
E06  26020956.850 7  26020960.621 8 136741047.315 7 103443727.431 8
E09  24742646.972 7  24742649.397 9 130023485.410 7  98361931.734 9
E15  26432885.624 7  26432890.163 8 138905747.959 7 105081316.129 8
E27  27678870.221 6  27678875.850 7 145453445.112 6 110034607.299 7
E34  23300675.927 8  23300678.535 9 122445880.447 8  92629521.557 9
E36  24613005.801 8  24613008.969 9 129342221.716 8  97846519.149 9
G01  20011430.433 8                  20011433.483 8  20011434.979 9 105160769.517 8                  81943473.702 8  78529167.221 9
G02  21063372.060 7  21063373.766 6                                 110688763.445 7  86250887.709 6                
G03  20434212.260 8                  20434218.021 7  20434216.276 8 107382501.333 8                  83674852.870 7  80188428.923 8
G04  23914782.511 6                  23914789.874 7  23914791.726 7 125673027.075 6                  97927067.305 7  93846788.289 7
G08  24229062.862 6                  24229073.228 6  24229071.346 8 127324570.875 6                  99213994.067 6  95080064.652 8
G17  22626270.975 7                  22626273.867 6                 118901849.025 7                  92650969.162 6
G28  23684128.783 7                  23684134.100 7  23684137.054 8 124460933.307 7                  96982745.970 7  92941807.514 8
G31  24260380.882 6                  24260387.735 6                 127489353.904 6                  99342238.468 6
G32  23056554.863 7                  23056560.909 7  23056558.002 7 121163007.756 7                  94412557.843 7  90478749.338 7
R02  20617381.307 8  20617383.789 7 110018292.042 8  85569614.208 7
R03  19184181.007 8  19184182.901 7 102694420.077 8  79873571.081 7
R04  22057823.477 7  22057828.279 7 118118644.065 7  91870080.337 7
R17  21027885.220 8  21027887.952 7 112524455.280 8  87519032.830 7
R18  18979381.916 8  18979383.604 8 101313226.157 8  78799207.200 8
R19  21141068.048 8  21141069.127 7 113090457.529 8  87959247.579 7
> 2025 06 15 12 58 15.0000000  0 34
C05  39051492.133 6  39051490.447 7 203351368.156 6 157244172.374 7
C06  39152338.406 6  39152335.467 7 203876506.208 6 157650248.485 7
C09  40009869.956 6  40009868.892 7 208341903.068 6 161103180.996 7
C12  22201867.762 7  22201864.456 8 115610954.066 7  89397821.565 8
C16  39547722.904 6  39547725.916 7 205935377.982 6 159242299.334 7
C19  23436583.989 7                 122040441.325 7
C21  24659389.213 7                 128407904.780 7
C22  21387250.421 8                 111369021.899 8
C34  23678884.903 7                 123302168.047 7
C35  23690351.793 7                 123361873.251 7
C39  39062566.218 7                 203409023.774 7
C44  21515660.128 8                 112037687.102 8
E05  22726382.072 8  22726385.042 9 119427943.492 8  90346477.385 9
E06  26026786.316 7  26026790.178 8 136771682.186 7 103466902.502 8
E09  24745347.655 7  24745350.002 9 130037677.063 7  98372667.629 9
E15  26425346.405 7  26425351.161 8 138866130.453 7 105051345.765 8
E27  27682095.203 5  27682099.146 7 145470384.091 5 110047421.564 7
E34  23298483.038 8  23298485.536 9 122434356.126 8  92620803.479 9
E36  24618028.783 8  24618032.083 9 129368618.444 8  97866488.099 9
G01  20010201.726 7                  20010204.237 8  20010206.029 9 105154311.632 7                  81938441.585 8  78524344.770 9
G02  21067464.838 7  21067466.127 6                                 110710268.923 7  86267645.214 6                
G03  20428967.781 8                  20428973.603 7  20428972.023 8 107354941.778 8                  83653377.886 7  80167848.732 8
G04  23903692.322 6                  23903699.321 6  23903701.128 7 125614746.754 6                  97881654.145 6  93803267.409 7
G08  24239424.969 6                  24239435.533 6  24239433.217 8 127379023.620 6                  99256424.661 6  95120727.289 8
G17  22621366.582 7                  22621370.128 7                 118876079.424 7                  92630888.944 7
G28  23678289.293 7                  23678294.517 7  23678297.782 8 124430247.113 7                  96958834.718 7  92918892.561 8
G31  24251054.688 6                  24251061.751 6                 127440344.919 6                  99304049.705 6
G32  23063830.253 7                  23063836.472 7  23063833.976 7 121201241.133 7                  94442350.058 7  90507300.195 7
R02  20625602.254 8  20625604.653 7 110062159.967 8  85603733.688 7
R03  19180860.108 8  19180862.761 7 102676645.678 8  79859746.555 7
R04  22046528.418 7  22046533.248 7 118058155.983 7  91823034.134 7
R17  21037439.722 8  21037443.663 7 112575585.232 8  87558800.528 7
R18  18979662.624 8  18979663.688 7 101314721.965 8  78800370.614 7
R19  21131132.077 8  21131133.141 7 113037305.200 8  87917906.940 7
> 2025 06 15 12 58 30.0000000  0 34
C05  39051215.307 5  39051213.358 7 203349925.917 5 157243057.153 7
C06  39148122.657 6  39148119.609 7 203854553.131 6 157633273.006 7
C09  40004781.187 6  40004780.209 7 208315403.944 6 161082690.225 7
C12  22198202.774 7  22198199.367 8 115591868.741 7  89383063.582 8
C16  39543948.051 6  39543950.621 7 205915718.523 6 159227097.408 7
C19  23443157.291 8                 122074670.231 8
C21  24650495.805 7                 128361594.960 7
C22  21385160.530 8                 111358138.643 8
C34  23671528.095 7                 123263859.909 7
C35  23698697.196 7                 123405329.956 7
C39  39059957.098 7                 203395436.022 7
C44  21517127.393 8                 112045326.312 8
E05  22720677.442 8  22720680.422 9 119397965.625 8  90323799.328 9
E06  26032628.810 7  26032632.745 8 136802385.686 7 103490129.479 8
E09  24748066.728 7  24748069.108 9 130051966.012 7  98383477.132 9
E15  26417809.698 7  26417814.655 8 138826526.184 7 105021385.420 8
E27  27685335.596 6  27685340.318 7 145487416.372 6 110060306.363 7
E34  23296302.321 8  23296304.601 9 122422895.313 8  92612133.449 9
E36  24623062.236 8  24623065.509 9 129395069.130 8  97886497.858 9
G01  20008994.227 8                  20008996.735 8  20008998.447 9 105147965.404 8                  81933496.491 8  78519605.713 9
G02  21071574.642 7  21071576.088 6                                 110731866.088 7  86284474.177 6                
G03  20423741.001 8                  20423746.960 7  20423745.253 8 107327474.289 8                  83631974.631 7  80147337.303 8
G04  23892606.276 6                  23892613.292 6  23892614.757 7 125556491.075 6                  97836260.215 6  93759764.930 7
G08  24249788.645 6                  24249799.000 7  24249796.789 8 127433483.257 6                  99298860.654 7  95161395.099 8
G17  22616485.113 7                  22616489.197 7                 118850427.706 7                  92610900.620 7
G28  23672470.406 7                  23672475.598 7  23672478.615 8 124399668.328 7                  96935007.153 7  92896057.816 8
G31  24241737.444 6                  24241744.227 6                 127391380.297 6                  99265895.555 6
G32  23071121.638 7                  23071127.920 7  23071125.404 7 121239557.374 7                  94472206.870 7  90535912.958 7
R02  20633842.037 8  20633844.413 7 110106129.233 8  85637932.010 7
R03  19177571.264 8  19177573.850 7 102659039.529 8  79846052.896 7
R04  22035246.224 7  22035250.716 7 117997741.603 7  91776045.258 7
R17  21047013.673 8  21047017.602 7 112626819.097 8  87598649.035 7
R18  18979975.223 8  18979976.186 8 101316390.770 8  78801668.571 8
R19  21121210.092 8  21121211.771 7 112984232.276 8  87876628.027 7
> 2025 06 15 12 58 45.0000000  0 35
C05  39050937.286 5  39050935.773 7 203348478.762 5 157241938.112 7
C06  39143912.811 6  39143909.451 7 203832629.526 6 157616320.285 7
C09  39999695.735 6  39999694.803 7 208288922.536 6 161062213.150 7
C12  22194556.846 7  22194553.728 8 115572885.226 7  89368384.322 8
C16  39540178.408 6  39540180.790 7 205896090.063 6 159211919.432 7
C19  23449740.942 8                 122108952.176 8
C21  24641610.524 7                 128315327.375 7
C22  21383089.499 8                 111347353.995 8
C34  23664184.809 7                 123225618.803 7
C35  23707053.001 7                 123448840.948 7
C39  39057354.822 7                 203381885.896 7
C44  21518616.266 8                 112053078.941 8
E05  22714988.292 8  22714991.059 9 119368067.871 8  90301181.898 9
E06  26038483.979 7  26038487.494 8 136833152.425 7 103513404.292 8
E09  24750803.163 7  24750805.724 9 130066346.937 7  98394356.212 9
E15  26410274.686 7  26410279.862 8 138786930.085 7 104991431.259 8
E27  27688594.470 6  27688598.239 7 145504536.409 6 110073257.594 7
E34  23294132.553 8  23294134.784 9 122411492.939 8  92603507.622 9
E36  24628104.736 8  24628108.224 9 129421568.553 8  97906544.483 9
G01  20007806.478 8                  20007809.511 8  20007811.033 9 105141725.832 8                  81928634.464 8  78514946.289 9
G02  21075701.091 7  21075702.415 6                                 110753549.657 7  86301370.441 6                
G03  20418530.445 8                  20418536.547 8  20418534.683 8 107300093.697 8                  83610639.151 8  80126890.797 8
G04  23881523.941 6                  23881531.426 6  23881533.617 7 125498255.149 6                  97790881.730 6  93716277.152 7
G08  24260151.945 6                  24260162.812 7  24260160.891 8 127487944.370 6                  99341297.771 7  95202063.974 8
G17  22611625.139 7                  22611629.287 7                 118824888.945 7                  92591000.294 7
G19  24051683.076 5                                                                                                
G28  23666670.799 7                  23666676.350 7  23666679.383 8 124369192.171 7                  96911259.531 7  92873299.679 8
G31  24232426.939 6                  24232434.013 6                 127342454.820 6                  99227771.945 6
G32  23078427.377 7                  23078433.576 7  23078431.335 7 121277951.060 7                  94502124.038 7  90564583.583 7
R02  20642099.761 8  20642102.293 7 110150194.197 8  85672204.727 7
R03  19174313.043 8  19174315.172 7 102641596.301 8  79832485.961 7
R04  22023976.734 7  22023980.731 7 117937395.832 7  91729109.684 7
R17  21056607.039 8  21056610.408 7 112678151.331 8  87638574.053 7
R18  18980319.401 8  18980320.400 8 101318227.343 8  78803097.008 8
R19  21111302.772 8  21111303.927 7 112931233.623 8  87835406.850 7
> 2025 06 15 12 59  0.0000000  0 35
C05  39050658.606 6  39050656.788 7 203347027.603 6 157240816.017 7
C06  39139707.877 6  39139705.309 7 203810736.136 6 157599390.909 7
C09  39994614.553 6  39994613.042 7 208262459.828 6 161041750.535 7
C12  22190931.145 7  22190927.894 8 115554004.433 7  89353784.497 8
C16  39536415.406 6  39536417.183 7 205876493.578 6 159196766.174 7
C19  23456334.707 8                 122143287.845 8
C21  24632733.462 7                 128269103.083 7
C22  21381037.573 8                 111336668.872 8
C34  23656853.922 7                 123187445.808 7
C35  23715419.134 7                 123492406.859 7
C39  39054759.619 7                 203368374.272 7
C44  21520126.666 8                 112060945.817 8
E05  22709314.012 8  22709317.107 9 119338251.259 8  90278625.853 9
E06  26044351.009 7  26044354.428 8 136863983.052 7 103536727.455 8
E09  24753557.475 7  24753560.044 9 130080820.618 7  98405305.458 9
E15  26402741.349 7  26402746.669 8 138747343.118 7 104961484.019 8
E27  27691868.545 6  27691872.988 7 145521745.114 6 110086275.878 7
E34  23291974.029 8  23291976.292 9 122400149.984 8  92594926.754 9
E36  24633157.012 8  24633160.402 9 129448117.579 8  97926628.634 9
G01  20006639.710 8                  20006642.418 8  20006644.174 9 105135593.851 8                  81923856.307 8  78510367.226 9
G02  21079843.736 7  21079845.288 6                                 110775320.673 7  86318334.849 6                
G03  20413336.920 8                  20413342.823 7  20413340.899 8 107272801.088 8                  83589372.196 7  80106509.947 8
G04  23870446.165 6                  23870453.523 6  23870455.852 7 125440040.059 6                  97745519.439 6  93672805.010 7
G08  24270516.431 6                  24270526.926 7  24270524.862 8 127542407.442 6                  99383736.414 7  95242734.301 8
G17  22606787.239 7                  22606790.965 7                 118799464.294 7                  92571188.911 7
G19  24041989.282 4                                                 126341457.72114                                
G28  23660891.281 7                  23660896.312 7  23660899.551 8 124338819.778 7                  96887592.747 7  92850619.023 8
G31  24223123.858 6                  24223131.456 6                 127293570.088 6                  99189680.009 6
G32  23085748.542 7                  23085754.683 7  23085752.533 7 121316422.851 7                  94532102.015 7  90593312.496 7
R02  20650375.392 8  20650377.676 7 110194354.966 8  85706551.964 7
R03  19171084.838 8  19171087.225 7 102624317.013 8  79819046.517 7
R04  22012720.753 7  22012724.821 7 117877120.021 7  91682228.596 7
R17  21066217.618 8  21066221.543 7 112729582.570 8  87678576.103 7
R18  18980694.838 8  18980696.024 7 101320232.705 8  78804656.729 7
R19  21101409.323 8  21101410.814 7 112878310.638 8  87794244.562 7
> 2025 06 15 12 59 15.0000000  0 34
C05  39050379.385 5  39050377.645 7 203345572.405 5 157239690.762 7
C06  39135509.311 6  39135506.283 7 203788873.143 6 157582485.062 7
C09  39989535.824 6  39989534.389 7 208236015.751 6 161021302.319 7
C12  22187325.107 8  22187321.839 8 115535226.688 8  89339264.347 8
C16  39532658.059 6  39532660.390 7 205856929.021 6 159181637.615 7
C19  23462938.596 7                 122177676.963 7
C21  24623865.152 7                 128222922.243 7
C22  21379004.572 8                 111326083.193 8
C34  23649535.998 7                 123149341.203 7
C35  23723796.232 7                 123536027.547 7
C39  39052172.125 7                 203354901.162 7
C44  21521659.577 8                 112068926.912 8
E05  22703655.826 8  22703658.597 9 119308515.894 8  90256131.259 9
E06  26050229.980 7  26050233.399 8 136894877.376 7 103560098.810 8
E09  24756329.513 7  24756331.854 9 130095386.873 7  98416324.729 9
E15  26395210.605 7  26395215.341 8 138707765.387 7 104931543.761 8
E27  27695159.267 6  27695164.664 7 145539042.244 6 110099361.076 7
E34  23289826.994 8  23289829.132 9 122388866.543 8  92586390.899 9
E36  24638218.587 8  24638221.999 9 129474716.172 8  97946750.289 9
G01  20005493.353 8                  20005496.132 8  20005497.628 9 105129569.584 8                  81919162.074 8  78505868.577 9
G02  21084003.245 7  21084004.574 6                                 110797178.958 7  86335367.259 6                
G03  20408160.134 8                  20408165.751 7  20408164.395 8 107245596.442 8                  83568173.786 7  80086194.795 8
G04  23859371.696 6                  23859380.059 7  23859381.581 7 125381846.202 6                  97700173.696 7  93629348.664 7
G08  24280880.768 6                  24280891.431 7  24280889.128 8 127596872.193 6                  99426176.368 7  95283405.906 8
G17  22601970.709 7                  22601974.398 7                 118774153.917 7                  92551466.513 7
G28  23655131.183 7                  23655136.616 7  23655139.638 8 124308551.407 7                  96864007.048 7  92828016.102 8
G31  24213828.774 6                  24213836.633 6                 127244726.514 6                  99151620.160 6
G32  23093084.509 7                  23093090.359 7  23093088.447 7 121354972.346 7                  94562140.572 7  90622099.432 7
R02  20658668.839 8  20658671.331 7 110238611.267 8  85740973.520 7
R03  19167887.934 8  19167889.562 7 102607201.145 8  79805734.168 7
R04  22001477.860 7  22001481.374 7 117816914.341 7  91635402.022 7
R17  21075847.210 8  21075850.855 7 112781112.505 8  87718654.915 7
R18  18981102.440 8  18981103.843 7 101322406.929 8  78806347.786 7
R19  21091530.253 8  21091531.422 7 112825463.646 8  87753141.402 7
> 2025 06 15 12 59 30.0000000  0 34
C05  39050098.919 5  39050097.364 7 203344113.732 5 157238562.817 7
C06  39131317.065 6  39131313.625 7 203767041.067 6 157565603.120 7
C09  39984460.856 6  39984459.904 7 208209590.933 6 161000868.996 7
C12  22183739.082 7  22183735.597 8 115516552.540 7  89324824.318 8
C16  39528906.550 6  39528909.421 7 205837396.938 6 159166534.172 7
C19  23469553.179 7                 122212119.898 7
C21  24615005.000 7                 128176785.474 7
C22  21376990.917 8                 111315597.483 8
C34  23642232.225 7                 123111305.735 7
C35  23732183.238 7                 123579703.290 7
C39  39049592.392 7                 203341467.122 7
C44  21523214.267 8                 112077022.790 8
E05  22698012.948 8  22698015.703 9 119278862.453 8  90233698.653 9
E06  26056120.896 7  26056124.579 8 136925835.748 7 103583518.609 8
E09  24759118.897 7  24759121.393 9 130110046.127 7  98427414.357 9
E15  26387680.971 7  26387685.765 8 138668197.549 7 104901610.990 8
E27  27698466.784 6  27698473.260 7 145556428.249 6 110112513.449 7
E34  23287691.087 8  23287693.438 9 122377643.259 8  92577900.571 9
E36  24643289.111 8  24643293.165 9 129501364.868 8  97966909.829 9
G01  20004367.438 8                  20004370.394 8  20004372.006 9 105123653.679 8                  81914552.271 8  78501450.843 9
G02  21088179.577 7  21088180.757 6                                 110819124.996 7  86352468.063 6                
G03  20403000.009 8                  20403005.896 7  20403004.676 8 107218480.420 8                  83547044.368 7  80065945.813 8
G04  23848302.007 6                  23848309.794 7  23848311.489 7 125323674.310 6                  97654845.050 7  93585908.776 7
G08  24291244.673 6                  24291255.857 7  24291253.789 8 127651338.827 6                  99468617.794 7  95324078.908 8
G17  22597176.160 7                  22597179.927 7                 118748958.433 7                  92531833.669 7
G28  23649391.127 7                  23649396.781 7  23649399.452 8 124278387.992 7                  96840503.130 7  92805491.514 8
G31  24204542.577 6                  24204550.129 6                 127195925.002 6                  99113593.127 6
G32  23100434.836 7                  23100441.177 7  23100438.790 8 121393599.846 7                  94592239.917 7  90650944.614 8
R02  20666980.775 8  20666983.342 7 110282963.098 8  85775469.373 7
R03  19164721.185 8  19164723.661 7 102590249.791 8  79792549.797 7
R04  21990247.447 7  21990252.006 7 117756779.752 7  91588630.801 7
R17  21085495.519 8  21085499.090 7 112832741.303 8  87758810.596 7
R18  18981541.524 8  18981542.843 8 101324750.701 8  78808170.733 8
R19  21081664.842 7  21081666.122 7 112772693.986 7  87712098.339 7
> 2025 06 15 12 59 45.0000000  0 34
C05  39049818.064 5  39049816.067 7 203342648.807 5 157237430.058 7
C06  39127129.000 6  39127126.566 7 203745237.271 6 157548743.034 7
C09  39979389.261 6  39979388.474 7 208183182.739 6 160980448.515 7
C12  22180172.007 8  22180169.006 8 115497979.552 8  89310462.505 8
C16  39525161.595 6  39525164.531 7 205817894.717 6 159151453.825 7
C19  23476177.467 7                 122246613.773 7
C21  24606152.881 7                 128130690.248 7
C22  21374996.200 8                 111305208.962 8
C34  23634941.006 7                 123073336.981 7
C35  23740581.182 7                 123623431.267 7
C39  39047019.494 7                 203328069.449 7
C44  21524790.350 8                 112085230.724 8
E05  22692385.006 8  22692387.909 9 119249288.320 8  90211326.043 9
E06  26062023.572 7  26062027.392 8 136956855.257 7 103606984.653 8
E09  24761925.650 7  24761928.101 9 130124795.508 7  98438572.175 9
E15  26380152.618 7  26380157.450 8 138628637.019 7 104871683.734 8
E27  27701792.886 5  27701798.184 7 145573900.259 5 110125730.856 7
E34  23285566.378 8  23285568.672 9 122366477.512 8  92569453.744 9
E36  24648369.287 7  24648373.290 9 129528060.883 7  97987105.175 9
G01  20003262.272 8                  20003264.866 8  20003266.557 9 105117843.489 8                  81910024.871 8  78497112.084 9
G02  21092372.154 7  21092373.121 6                                 110841156.068 7  86369635.125 6                
G03  20397856.967 8                  20397862.056 7  20397860.699 9 107191450.266 8                  83525981.939 7  80045761.002 9
G04  23837235.845 6                  23837244.134 7  23837245.622 7 125265522.017 6                  97609531.679 7  93542483.446 7
G08  24301609.247 6                  24301620.329 7  24301618.561 8 127705804.331 6                  99511058.318 7  95364751.060 8
G17  22592403.187 7                  22592407.106 7                 118723875.470 7                  92512288.548 7
G28  23643670.302 7                  23643676.250 7  23643679.022 8 124248327.071 7                  96817079.086 7  92783043.471 8
G31  24195263.631 5                  24195270.995 6                 127147163.319 5                  99075597.041 6
G32  23107799.719 7                  23107805.994 7  23107803.856 8 121432302.320 7                  94622397.678 7  90679845.793 8
R02  20675309.545 8  20675311.923 7 110327407.510 8  85810037.214 7
R03  19161584.836 8  19161587.038 7 102573460.125 8  79779491.165 7
R04  21979031.503 7  21979034.875 7 117696713.650 7  91541912.754 7
R17  21095161.436 7  21095165.470 7 112884465.995 7  87799040.854 7
R18  18982011.691 8  18982013.053 8 101327261.321 8  78810123.417 8
R19  21071814.297 8  21071816.006 7 112719999.041 8  87671113.412 7
> 2025 06 15 13 00  0.0000000  0 34
C05  39049535.432 5  39049534.050 7 203341180.564 5 157236294.709 7
C06  39122947.257 6  39122945.317 7 203723464.601 6 157531907.035 7
C09  39974322.031 6  39974320.850 7 208156794.026 6 160960043.136 7
C12  22176625.451 7  22176622.145 8 115479510.688 7  89296181.207 8
C16  39521422.504 6  39521425.392 7 205798425.141 6 159136398.744 7
C19  23482812.408 7                 122281161.088 7
C21  24597309.194 7                 128084639.458 7
C22  21373020.037 8                 111294920.479 8
C34  23627662.707 7                 123035437.944 7
C35  23748988.928 7                 123667214.034 7
C39  39044454.397 7                 203314710.936 7
C44  21526388.693 8                 112093553.473 8
E05  22686772.539 8  22686775.796 9 119219796.496 8  90189015.681 9
E06  26067938.383 7  26067942.360 8 136987938.538 7 103630498.926 8
E09  24764749.992 7  24764752.471 9 130139637.729 7  98449800.207 9
E15  26372626.692 7  26372631.039 8 138589086.697 7 104841764.202 8
E27  27705134.767 6  27705139.699 7 145591460.854 6 110139015.276 7
E34  23283453.026 8  23283455.398 9 122355372.224 8  92561052.664 9
E36  24653458.678 7  24653462.959 9 129554807.043 7  98007338.457 9
G01  20002176.923 7                  20002179.836 8  20002181.493 9 105112141.995 7                  81905582.140 8  78492854.462 9
G02  21096580.920 7  21096582.187 6                                 110863274.922 7  86386870.578 6                
G03  20392729.594 8                  20392735.386 7  20392733.900 8 107164508.944 8                  83504988.732 7  80025642.493 8
G04  23826173.964 7                  23826182.219 7  23826183.872 7 125207392.384 7                  97564235.945 7  93499075.071 7
G08  24311974.622 6                  24311985.050 7  24311983.509 8 127760271.172 6                  99553499.893 7  95405424.240 8
G17  22587651.996 7                  22587656.218 7                 118698908.082 7                  92492833.464 7
G28  23637970.417 7                  23637976.037 7  23637978.934 8 124218371.796 7                  96793737.380 7  92760674.332 8
G31  24185992.092 5                  24186000.013 6                 127098444.621 5                  99037634.525 6
G32  23115179.364 7                  23115185.466 7  23115182.990 8 121471082.329 7                  94652615.830 7  90708804.848 8
R02  20683656.181 8  20683659.025 7 110371946.842 8  85844678.904 7
R03  19158478.666 8  19158481.308 7 102556834.813 8  79766560.379 7
R04  21967826.102 7  21967831.951 7 117636719.280 7  91495250.564 7
R17  21104845.797 8  21104849.230 7 112936289.051 8  87839347.646 7
R18  18982513.975 8  18982515.089 7 101329941.797 8  78812208.240 7
R19  21061978.391 8  21061979.624 7 112667382.326 8  87630189.336 7
> 2025 06 15 13 00 15.0000000  0 34
C05  39049251.814 5  39049250.734 7 203339705.116 5 157235153.821 7
C06  39118772.458 6  39118769.590 7 203701719.225 6 157515092.138 7
C09  39969257.053 6  39969256.317 7 208130420.981 6 160939649.856 7
C12  22173098.027 7  22173094.722 8 115461142.387 7  89281977.674 8
C16  39517688.931 6  39517692.277 7 205778984.507 6 159121366.029 7
C19  23489455.903 7                 122315757.869 7
C21  24588473.035 7                 128038629.416 7
C22  21371062.790 8                 111284728.131 8
C34  23620396.922 7                 122997605.049 7
C35  23757406.647 7                 123711047.506 7
C39  39041895.768 7                 203301387.806 7
C44  21528008.349 8                 112101987.242 8
E05  22681175.591 8  22681178.571 9 119190383.224 8  90166764.751 9
E06  26073864.979 7  26073868.700 8 137019081.530 7 103654058.375 8
E09  24767591.045 7  24767593.743 9 130154568.797 7  98461095.462 9
E15  26365101.639 7  26365105.905 8 138549542.848 7 104811849.560 8
E27  27708493.102 6  27708497.220 7 145609105.985 6 110152363.726 7
E34  23281350.628 8  23281352.936 9 122344323.636 8  92552694.475 9
E36  24658557.283 7  24658561.413 9 129581599.449 7  98027606.729 9
G01  20001111.950 7                  20001114.747 8  20001116.599 9 105106545.399 7                  81901221.163 8  78488675.189 9
G02  21100806.216 7  21100807.095 6                                 110885477.610 7  86404171.350 6                
G03  20387618.945 8                  20387624.759 7  20387623.221 8 107137652.672 8                  83484061.763 7  80005587.487 8
G04  23815116.220 6                  23815124.235 7  23815125.607 7 125149281.818 6                  97518955.093 7  93455680.952 7
G08  24322338.006 6                  24322349.196 7  24322347.708 8 127814735.269 6                  99595939.338 7  95446095.365 8
G17  22582922.194 7                  22582926.424 7                 118674052.514 7                  92473465.493 7
G28  23632289.782 7                  23632294.950 7  23632297.860 8 124188518.710 7                  96770475.237 7  92738381.470 8
G31  24176729.713 6                  24176736.386 6                 127049765.646 6                  98999702.930 6
G32  23122572.828 7                  23122578.981 7  23122576.397 7 121509935.695 7                  94682891.164 7  90737818.719 7
R02  20692020.066 8  20692022.611 7 110416576.678 8  85879390.987 7
R03  19155402.917 8  19155405.626 7 102540370.170 8  79753754.566 7
R04  21956635.861 7  21956640.945 7 117576793.036 7  91448641.333 7
R17  21114548.378 8  21114551.571 7 112988206.342 8  87879727.708 7
R18  18983047.220 8  18983048.571 8 101332788.338 8  78814422.192 8
R19  21052155.911 8  21052157.498 7 112614840.103 8  87589323.202 7
> 2025 06 15 13 00 30.0000000  0 34
C05  39048967.837 5  39048966.131 7 203338223.484 5 157234008.125 7
C06  39114601.673 6  39114599.209 7 203680002.315 6 157498299.271 7
C09  39964195.740 6  39964194.875 7 208104064.789 6 160919269.619 7
C12  22169590.008 7  22169586.759 8 115442875.699 7  89267852.716 8
C16  39513961.226 6  39513964.736 7 205759573.854 6 159106356.486 7
C19  23496109.651 7                 122350404.950 7
C21  24579645.556 7                 127992661.356 7
C22  21369123.965 8                 111274632.975 8
C34  23613144.631 7                 122959839.608 7
C35  23765834.254 7                 123754932.596 7
C39  39039343.536 7                 203288101.161 7
C44  21529649.760 8                 112110533.074 8
E05  22675593.364 8  22675596.604 9 119161049.659 8  90144574.135 9
E06  26079803.046 7  26079806.572 8 137050285.051 7 103677663.636 8
E09  24770449.230 7  24770452.080 9 130169589.604 7  98472458.621 9
E15  26357577.845 7  26357582.413 8 138510006.646 7 104781940.698 8
E27  27711867.652 6  27711871.152 7 145626836.573 6 110165776.832 7
E34  23279259.113 8  23279261.467 9 122333332.936 8  92544380.079 9
E36  24663664.874 7  24663668.849 9 129608439.159 7  98047910.769 9
G01  20000067.253 8                  20000070.049 8  20000071.918 9 105101054.908 8                  81896942.852 8  78484575.146 9
G02  21105047.187 7  21105048.178 6                                 110907765.131 7  86421538.259 6                
G03  20382525.198 8                  20382530.737 7  20382529.033 8 107110882.551 8                  83463201.952 7  79985596.831 8
G04  23804061.660 6                  23804070.200 7  23804070.974 7 125091191.771 6                  97473690.188 7  93412302.129 7
G08  24332702.275 6                  24332713.200 7  24332711.791 8 127869197.284 6                  99638377.212 7  95486764.968 8
G17  22578213.559 7                  22578217.824 7                 118649309.990 7                  92454185.620 7
G28  23626628.350 7                  23626634.020 7  23626636.751 8 124158769.079 7                  96747293.747 7  92716165.877 8
G31  24167474.159 6                  24167481.472 6                 127001127.753 6                  98961803.333 6
G32  23129980.952 7                  23129986.668 7  23129984.314 8 121548863.186 7                  94713224.277 7  90766887.935 8
R02  20700400.362 8  20700402.710 7 110461297.752 8  85914174.038 7
R03  19152357.429 8  19152360.091 7 102524067.018 8  79741074.334 7
R04  21945457.693 7  21945462.573 7 117516936.210 7  91402086.083 7
R17  21124267.716 7  21124271.390 7 113040218.575 7  87920181.620 7
R18  18983611.445 8  18983613.366 8 101335802.044 8  78816766.188 8
R19  21042348.083 8  21042349.387 7 112562374.167 8  87548516.359 7
> 2025 06 15 13 00 45.0000000  0 35
C05  39048682.467 5  39048680.514 7 203336736.353 5 157232858.191 7
C06  39110436.904 6  39110434.136 7 203658314.498 6 157481528.873 7
C09  39959137.508 6  39959136.668 7 208077726.144 6 160898902.946 7
C11  25991178.670 5  25991175.807 4 135342886.11915 104655699.56414
C12  22166101.820 7  22166098.551 8 115424711.543 7  89253807.054 8
C16  39510239.719 6  39510242.703 7 205740193.854 6 159091370.657 7
C19  23502772.885 7                 122385102.770 7
C21  24570826.041 7                 127946736.032 7
C22  21367204.176 8                 111264635.599 8
C34  23605905.618 7                 122922142.541 7
C35  23774271.942 7                 123798869.769 7
C39  39036799.495 7                 203274851.599 7
C44  21531312.485 8                 112119191.567 8
E05  22670026.693 7  22670029.937 9 119131796.645 7  90122444.438 9
E06  26085752.082 7  26085756.080 8 137081549.664 7 103701315.062 8
E09  24773324.868 7  24773327.620 9 130184700.730 7  98483890.075 9
E15  26350055.969 7  26350060.607 8 138470478.798 7 104752038.199 8
E27  27715256.213 6  27715261.237 7 145644653.269 6 110179255.018 7
E34  23277178.818 8  23277181.174 9 122322400.833 8  92536110.019 9
E36  24668781.810 7  24668785.412 9 129635326.828 7  98068251.095 9
G01  19999042.335 8                  19999045.719 8  19999047.453 9 105095671.264 8                  81892747.814 8  78480554.893 9
G02  21109304.795 7  21109305.597 6                                 110930138.189 7  86438971.806 6                
G03  20377446.966 8                  20377453.316 7  20377451.365 8 107084199.342 8                  83442409.867 7  79965671.063 8
G04  23793011.482 6                  23793019.185 7  23793020.446 7 125033123.021 6                  97428441.937 7  93368939.231 7
G08  24343066.159 6                  24343076.899 6  24343075.485 8 127923657.688 6                  99680813.740 6  95527433.287 8
G17  22573527.039 7                  22573531.449 7                 118624681.422 7                  92434994.544 7
G28  23620987.340 7                  23620992.492 7  23620995.448 8 124129123.935 7                  96724193.689 7  92694028.314 8
G31  24158226.835 6                  24158233.347 6                 126952531.914 6                  98923936.556 6
G32  23137402.447 7                  23137408.642 7  23137406.695 8 121587865.215 7                  94743615.413 7  90796012.775 8
R02  20708798.580 8  20708800.622 7 110506110.207 8  85949028.137 7
R03  19149342.345 8  19149344.515 7 102507926.659 8  79728520.725 7
R04  21934292.576 7  21934298.081 7 117457149.942 7  91355585.720 7
R17  21134005.795 7  21134009.450 7 113092326.160 7  87960709.693 7
R18  18984207.736 8  18984209.577 7 101338983.706 8  78819240.808 7
R19  21032554.479 8  21032555.619 7 112509985.074 8  87507769.315 7
> 2025 06 15 13 01  0.0000000  0 36
C05  39048396.757 6  39048395.343 7 203335250.332 6 157231709.139 7
C06  39106279.110 6  39106275.809 7 203636662.432 6 157464786.148 7
C09  39954084.178 6  39954083.528 7 208051411.640 6 160878554.942 7
C11  25981752.244 5  25981751.148 5 135293804.436 5 104617746.562 5
C12  22162634.641 7  22162631.327 8 115406656.748 7  89239845.948 8
C16  39506525.088 6  39506528.142 7 205720851.203 6 159076413.723 7
C19  23509447.272 7                 122419857.689 7
C21  24562016.223 7                 127900860.225 7
C22  21365304.375 8                 111254742.595 8
C34  23598680.551 7                 122884520.698 7
C35  23782720.962 7                 123842865.380 7
C39  39034263.482 7                 203261645.792 7
C44  21532997.999 8                 112127969.373 8
E05  22664477.139 8  22664479.828 9 119102630.952 8  90100380.813 9
E06  26091714.251 7  26091718.443 8 137112881.732 7 103725017.561 8
E09  24776219.323 7  24776221.543 9 130199908.690 7  98495394.792 9
E15  26342536.828 7  26342541.770 8 138430966.184 7 104722147.191 8
E27  27718664.785 6  27718669.777 7 145662562.483 6 110192803.187 7
E34  23275110.847 8  23275113.294 9 122311534.187 8  92527889.461 9
E36  24673908.311 7  24673912.377 9 129662269.071 7  98088632.705 9
G01  19998039.894 7                  19998042.735 8  19998044.728 9 105090401.266 7                  81888641.307 8  78476619.495 9
G02  21113579.995 7  21113580.705 6                                 110952603.406 7  86456477.146 6                
G03  20372387.583 8                  20372393.191 7  20372391.658 8 107057609.764 8                  83421690.717 7  79945815.196 8
G04  23781966.477 6                  23781974.844 7  23781975.314 7 124975082.687 6                  97383215.769 7  93325597.509 7
G08  24353430.671 6                  24353441.288 7  24353439.620 8 127978122.746 6                  99723253.925 7  95568105.112 8
G17  22568863.304 7                  22568867.280 7                 118600173.697 7                  92415897.603 7
G19  23964931.314 5                                                                                                
G28  23615367.231 7                  23615372.458 7  23615375.393 8 124099590.225 7                  96701180.460 7  92671973.982 8
G31  24148988.077 6                  24148995.235 6                 126903985.361 6                  98886108.131 6
G32  23144839.662 7                  23144846.024 7  23144843.864 8 121626948.122 7                  94774069.607 7  90825198.035 8
R02  20717214.489 7  20717216.885 7 110551020.570 7  85983958.396 7
R03  19146358.946 8  19146360.872 8 102491955.202 8  79716098.474 8
R04  21923142.530 7  21923147.521 7 117397441.197 7  91309145.688 7
R17  21143762.007 7  21143765.225 7 113144535.714 7  88001317.094 7
R18  18984836.381 7  18984837.991 8 101342340.250 7  78821851.433 8
R19  21022776.765 8  21022777.837 7 112457680.436 8  87467088.008 7
> 2025 06 15 13 01 15.0000000  0 35
C05  39048110.796 5  39048109.472 7 203333762.316 5 157230558.492 7
C06  39102126.986 6  39102123.999 7 203615043.064 6 157448068.688 7
C09  39949034.764 6  39949033.831 7 208025118.260 6 160858223.261 7
C11  25972331.318 5  25972330.879 5 135244746.387 5 104579811.803 5
C12  22159187.651 7  22159184.432 8 115388708.221 7  89225967.015 8
C16  39502816.465 6  39502819.999 7 205701542.764 6 159061483.229 7
C19  23516132.008 7                 122454666.414 7
C21  24553214.903 8                 127855030.827 8
C22  21363424.048 8                 111244950.788 8
C34  23591469.400 7                 122846971.116 7
C35  23791180.564 7                 123886916.100 7
C39  39031735.097 7                 203248480.599 7
C44  21534705.925 8                 112136863.238 8
E05  22658943.073 8  22658945.820 9 119073549.531 8  90078380.914 9
E06  26097688.798 7  26097692.993 8 137144277.941 7 103748768.573 8
E09  24779130.650 7  24779133.309 9 130215210.116 7  98506970.229 9
E15  26335019.942 7  26335025.244 8 138391465.668 7 104692265.340 8
E27  27722090.459 6  27722095.187 7 145680560.822 6 110206418.821 7
E34  23273054.629 8  23273057.311 9 122300729.837 8  92519716.043 9
E36  24679045.620 8  24679049.086 9 129689262.691 8  98109053.182 9
G01  19997058.342 7                  19997061.048 8  19997062.544 9 105085241.781 7                  81884620.919 8  78472766.634 9
G02  21117871.868 7  21117872.697 6                                 110975157.516 7  86474051.756 6                
G03  20367344.895 8                  20367350.420 7  20367349.132 8 107031110.710 8                  83401042.115 7  79926026.965 8
G04  23770926.722 7                  23770934.372 7  23770935.559 7 124917067.727 7                  97338009.408 7  93282274.773 7
G08  24363795.468 6                  24363806.239 7  24363804.577 8 128032589.010 6                  99765695.035 7  95608777.809 8
G17  22564222.440 7                  22564225.763 7                 118575783.862 7                  92396892.550 7
G28  23609767.378 7                  23609772.972 7  23609775.429 8 124070165.141 7                  96678251.855 7  92650000.728 8
G31  24139758.381 6                  24139766.441 6                 126855485.201 6                  98848315.872 6
G32  23152292.069 7                  23152297.789 7  23152295.475 7 121666108.449 7                  94804584.139 7  90854441.108 7
R02  20725648.282 7  20725650.836 7 110596025.034 7  86018961.841 7
R03  19143406.402 8  19143408.642 8 102476149.584 8  79703805.219 8
R04  21912005.724 7  21912011.544 7 117337807.035 7  91262763.665 7
R17  21153536.985 7  21153540.497 7 113196843.385 7  88042000.794 7
R18  18985497.524 7  18985498.933 8 101345868.432 7  78824595.584 8
R19  21013013.777 8  21013015.881 7 112405457.582 8  87426470.269 7
> 2025 06 15 13 01 30.0000000  0 36
C05  39047824.442 5  39047822.533 7 203332269.487 5 157229404.148 7
C06  39097980.862 6  39097977.830 7 203593453.599 6 157431374.348 7
C09  39943989.034 6  39943988.049 7 207998843.206 6 160837905.765 7
C11  25962913.606 5  25962913.961 5 135195709.431 5 104541893.367 5
C12  22155761.401 7  22155757.720 8 115370863.461 7  89212168.311 8
C16  39499115.044 6  39499118.136 7 205682265.850 6 159046577.107 7
C19  23522826.210 7                 122489525.940 7
C21  24544422.257 8                 127809245.293 8
C22  21361562.329 8                 111235257.346 8
C34  23584272.122 7                 122809491.375 7
C35  23799650.096 7                 123931018.971 7
C39  39029214.411 7                 203235353.264 7
C44  21536435.872 8                 112145870.427 8
E05  22653424.575 8  22653427.311 9 119044549.710 8  90056442.760 9
E06  26103675.348 7  26103679.117 8 137175735.300 7 103772565.841 8
E09  24782059.877 7  24782062.324 9 130230602.119 7  98518614.175 9
E15  26327504.925 7  26327510.444 8 138351974.600 7 104662390.661 8
E27  27725530.947 6  27725536.764 7 145698645.389 6 110220099.627 7
E34  23271010.299 8  23271012.646 9 122289985.129 8  92511587.744 9
E36  24684191.542 8  24684195.076 9 129716304.859 8  98129510.394 9
G01  19996096.401 8                  19996099.881 8  19996101.277 9 105080190.156 8                  81880684.589 8  78468994.327 9
G02  21122180.291 7  21122180.959 6                                 110997797.611 7  86491693.368 6                
G03  20362319.095 8                  20362324.686 7  20362323.349 8 107004699.462 8                  83380461.903 7  79906304.284 8
G04  23759890.684 6                  23759898.933 7  23759899.950 7 124859075.744 6                  97292820.936 7  93238969.163 7
G08  24374158.922 6                  24374170.674 6  24374168.946 8 128087053.312 6                  99808134.669 6  95649449.083 8
G17  22559603.120 7                  22559607.038 7                 118551509.378 7                  92377977.400 7
G19  23945798.106 5                                                                                                
G28  23604188.389 6                  23604193.279 7  23604196.565 8 124040846.121 6                  96655405.928 7  92628106.718 8
G31  24130537.996 6                  24130544.976 6                 126807029.205 6                  98810558.011 6
G32  23159758.078 7                  23159763.983 7  23159761.435 7 121705343.084 7                  94835156.604 7  90883739.692 7
R02  20734098.892 7  20734101.454 7 110641120.357 7  86054035.948 7
R03  19140484.265 8  19140486.495 7 102460507.323 8  79691639.042 7
R04  21900882.969 7  21900888.458 7 117278244.937 7  91216437.643 7
R17  21163329.617 7  21163333.338 7 113249246.280 7  88082758.562 7
R18  18986190.265 7  18986191.459 8 101349565.625 7  78827471.191 8
R19  21003266.177 8  21003267.952 7 112353313.950 8  87385914.139 7
> 2025 06 15 13 01 45.0000000  0 37
C05  39047536.875 6  39047535.210 7 203330772.212 6 157228246.369 7
C06  39093841.079 6  39093837.760 7 203571894.544 6 157414703.528 7
C09  39938946.886 6  39938945.425 7 207972587.013 6 160817602.844 7
C11  25953501.611 5  25953498.803 5 135146694.187 5 104503991.770 5
C12  22152354.041 7  22152350.689 8 115353123.005 7  89198450.268 8
C16  39495419.452 6  39495422.193 7 205663020.751 6 159031695.610 7
C19  23529530.554 7                 122524436.402 7
C21  24535638.018 7                 127763504.067 7
C22  21359719.658 8                 111225662.646 8
C34  23577087.734 7                 122772082.006 7
C35  23808129.577 7                 123975174.136 7
C39  39026700.816 7                 203222264.193 7
C44  21538187.154 8                 112154991.316 8
E03  27504780.843 6  27504787.884 7 144538594.98216 109342541.75117
E05  22647921.596 8  22647924.413 9 119015631.975 8  90034566.690 9
E06  26109672.412 7  26109676.905 8 137207253.938 7 103796409.479 8
E09  24785006.438 7  24785008.608 9 130246084.925 7  98530326.799 9
E15  26319992.683 7  26319997.362 8 138312493.398 7 104632523.464 8
E27  27728988.874 6  27728994.530 7 145716816.388 6 110233845.819 7
E34  23268977.147 8  23268979.424 9 122279300.511 8  92503504.905 9
E36  24689346.595 7  24689350.365 9 129743395.950 7  98150004.607 9
G01  19995156.004 7                  19995159.124 8  19995160.715 9 105075246.857 7                  81876832.668 8  78465302.896 9
G02  21126504.522 7  21126505.760 6                                 111020523.979 7  86509402.223 6                
G03  20357309.781 8                  20357315.841 7  20357314.104 8 106978376.406 8                  83359950.467 7  79886647.481 8
G04  23748859.752 6                  23748867.469 7  23748869.505 7 124801107.313 6                  97247650.825 7  93195681.148 7
G08  24384523.417 6                  24384534.583 6  24384532.962 8 128141515.733 6                  99850572.826 6  95690118.969 8
G17  22555005.675 7                  22555009.609 7                 118527350.832 7                  92359152.564 7
G19  23936256.234 5                                                 125785801.26715                                
G28  23598629.669 6                  23598634.210 7  23598637.540 8 124011633.907 6                  96632643.173 7  92606292.462 8
G31  24121324.792 6                  24121332.547 6                 126758618.047 6                  98772835.133 6
G32  23167238.364 7                  23167244.478 7  23167241.828 8 121744652.169 7                  94865787.023 7  90913093.840 8
R02  20742566.831 7  20742569.405 7 110686306.362 7  86089180.604 7
R03  19137592.433 8  19137594.510 8 102445028.210 8  79679599.743 8
R04  21889774.156 8  21889779.004 7 117218755.867 8  91170168.393 7
R17  21173140.428 7  21173144.174 7 113301744.446 7  88123590.410 7
R18  18986914.468 7  18986915.978 8 101353432.219 7  78830478.525 8
R19  20993533.438 8  20993534.761 7 112301250.152 8  87345420.110 7
> 2025 06 15 13 02  0.0000000  0 37
C05  39047248.061 6  39047246.570 7 203329270.440 6 157227085.107 7
C06  39089706.535 6  39089703.374 7 203550365.785 6 157398056.134 7
C09  39933908.315 6  39933906.849 7 207946349.565 6 160797314.430 7
C11  25944093.258 5  25944090.641 5 135097700.840 5 104466107.051 5
C12  22148966.790 7  22148963.874 8 115335486.854 7  89184812.904 8
C16  39491729.559 6  39491732.107 7 205643807.485 6 159016838.736 7
C19  23536244.368 7                 122559397.524 7
C21  24526862.533 8                 127717807.282 8
C22  21357896.214 8                 111216166.517 8
C34  23569917.256 7                 122734743.205 7
C35  23816619.550 7                 124019381.336 7
C39  39024194.436 7                 203209213.300 7
C44  21539960.666 8                 112164225.769 8
E03  27495249.377 6  27495257.167 7 144488512.868 6 109304655.141 7
E05  22642434.618 8  22642437.147 9 118986796.357 8  90012752.767 9
E06  26115681.340 7  26115686.358 8 137238833.658 7 103820299.305 8
E09  24787969.521 7  24787972.106 9 130261658.289 7  98542107.953 9
E15  26312481.444 7  26312485.989 8 138273022.230 7 104602663.806 8
E27  27732463.657 6  27732468.771 6 145735073.537 6 110247657.225 6
E34  23266955.268 8  23266957.677 9 122268676.042 8  92495467.560 9
E36  24694510.844 8  24694514.936 9 129770535.863 8  98170535.751 9
G01  19994235.860 8                  19994238.960 8  19994240.705 9 105070411.920 8                  81873065.197 8  78461692.396 9
G02  21130845.739 7  21130847.125 6                                 111043336.697 7  86527178.362 6                
G03  20352317.447 8                  20352323.095 7  20352321.773 8 106952141.595 8                  83339507.763 7  79867056.564 8
G04  23737833.084 6                  23737840.673 7  23737842.808 7 124743162.727 6                  97202499.312 7  93152410.971 7
G08  24394887.120 6                  24394897.895 6  24394896.257 7 128195975.965 6                  99893009.241 6  95730787.193 7
G17  22550430.604 7                  22550434.524 7                 118503308.220 7                  92340418.065 7
G19  23926728.243 4                                                 125735728.013 4                                
G28  23593090.617 6                  23593096.002 7  23593098.902 8 123982528.663 6                  96609963.857 7  92584558.113 8
G31  24112121.563 6                  24112128.837 6                 126710252.207 6                  98735147.545 6
G32  23174732.742 7                  23174739.354 7  23174736.094 7 121784035.269 7                  94896475.142 7  90942503.287 7
R02  20751051.376 7  20751054.488 7 110731582.645 7  86124395.519 7
R03  19134731.321 8  19134734.090 7 102429713.123 8  79667687.995 7
R04  21878678.156 7  21878683.345 7 117159339.719 7  91123955.888 7
R17  21182968.713 8  21182972.168 7 113354337.503 8  88164496.078 7
R18  18987670.821 7  18987671.838 8 101357468.266 7  78833617.669 8
R19  20983815.603 8  20983817.165 7 112249266.745 8  87304988.592 7
> 2025 06 15 13 02 15.0000000  0 36
C05  39046960.276 6  39046958.452 7 203327770.522 6 157225925.290 7
C06  39085578.958 6  39085576.285 7 203528873.831 6 157381437.207 7
C09  39928874.455 6  39928873.140 7 207920137.386 6 160777045.549 7
C11  25934691.274 5  25934688.359 5 135048736.138 5 104428244.433 5
C12  22145601.651 7  22145598.356 8 115317961.704 7  89171261.360 8
C16  39488047.189 6  39488050.062 7 205624632.545 6 159002011.506 7
C19  23542968.912 7                 122594415.536 7
C21  24518096.902 7                 127672161.408 7
C22  21356092.785 8                 111206775.426 8
C34  23562761.735 7                 122697481.633 7
C35  23825119.970 7                 124063646.840 7
C39  39021696.557 7                 203196207.043 7
C44  21541757.122 8                 112173580.183 8
E03  27485721.473 6  27485729.184 7 144438444.380 6 109266778.806 7
E05  22636964.009 8  22636966.799 9 118958049.508 8  89991005.977 9
E06  26121703.994 7  26121708.630 8 137270480.743 7 103844240.061 8
E09  24790951.819 7  24790954.100 9 130277328.605 7  98553962.448 9
E15  26304973.773 7  26304977.762 8 138233567.592 7 104572816.653 8
E27  27735955.006 6  27735960.427 6 145753423.246 6 110261538.636 6
E34  23264945.936 8  23264948.627 9 122258118.283 8  92487480.689 9
E36  24699685.756 7  24699689.994 9 129797731.031 7  98191108.707 9
G01  19993337.763 7                  19993340.823 8  19993342.536 9 105065691.938 7                  81869387.284 8  78458167.727 9
G02  21135204.392 7  21135205.944 6                                 111066242.107 7  86545026.713 6                
G03  20347342.961 8                  20347348.709 7  20347347.745 8 106926001.563 8                  83319138.901 7  79847536.429 8
G04  23726812.176 6                  23726820.631 7  23726822.146 8 124685248.737 6                  97157371.622 7  93109163.620 8
G08  24405250.767 6                  24405261.997 7  24405260.528 7 128250440.169 6                  99935448.761 7  95771458.360 7
G17  22545878.505 7                  22545882.533 7                 118479388.135 7                  92321779.098 7
G28  23587573.696 6                  23587578.902 7  23587582.037 8 123953537.375 6                  96587373.248 7  92562908.781 8
G31  24102927.597 6                  24102934.843 6                 126661938.452 6                  98697500.602 6
G32  23182242.415 7                  23182248.879 7  23182245.776 8 121823498.659 7                  94927225.807 7  90971972.677 8
R02  20759554.689 8  20759556.917 7 110776955.531 8  86159685.476 7
R03  19131902.242 8  19131904.783 7 102414567.461 8  79655908.061 7
R04  21867597.415 7  21867603.191 7 117100003.438 7  91077805.517 7
R17  21192815.788 8  21192819.539 7 113407031.857 8  88205480.574 7
R18  18988459.193 8  18988461.036 8 101361680.442 8  78836893.802 8
R19  20974114.393 8  20974115.846 7 112197370.770 8  87264625.089 7
> 2025 06 15 13 02 30.0000000  0 36
C05  39046671.413 6  39046670.138 7 203326268.335 6 157224763.712 7
C06  39081457.727 6  39081455.332 7 203507414.393 6 157364843.427 7
C09  39923844.604 6  39923843.284 7 207893946.242 6 160756792.937 7
C11  25925291.182 5  25925289.293 5 134999795.77015 104390400.64915
C12  22142256.596 7  22142253.223 8 115300543.448 7  89157792.460 8
C16  39484372.046 6  39484374.373 7 205605491.649 6 158987210.588 7
C19  23549704.106 7                 122629485.951 7
C21  24509339.953 7                 127626562.365 7
C22  21354308.545 8                 111197485.029 8
C34  23555619.651 7                 122660293.288 7
C35  23833630.974 7                 124107966.036 7
C39  39019206.849 7                 203183241.138 7
C44  21543575.718 8                 112183050.290 8
E03  27476195.861 6  27476203.190 7 144388385.310 6 109228909.601 7
E05  22631510.018 8  22631512.546 9 118929387.237 8  89969323.168 9
E06  26127738.386 7  26127742.799 8 137302190.617 7 103868228.328 8
E09  24793951.306 7  24793953.702 9 130293091.382 7  98565886.882 9
E15  26297467.728 7  26297471.962 8 138194125.318 7 104542978.840 8
E27  27739462.911 6  27739468.729 6 145771860.984 6 110275486.692 6
E34  23262948.954 8  23262951.479 9 122247623.048 8  92479541.103 9
E36  24704870.844 8  24704874.695 9 129824977.129 8  98211720.188 9
G01  19992460.596 7                  19992463.785 8  19992465.150 9 105061082.679 7                  81865795.640 8  78454725.750 9
G02  21139580.075 7  21139581.459 6                                 111089235.733 7  86562943.810 6                
G03  20342385.982 8                  20342391.787 7  20342390.855 8 106899952.048 8                  83298840.589 7  79828083.885 8
G04  23715796.523 6                  23715804.648 7  23715806.391 7 124627361.297 6                  97112264.611 7  93065936.104 7
G08  24415615.307 6                  24415626.276 6  24415624.442 7 128304903.650 6                  99977887.790 6  95812129.046 7
G17  22541349.003 7                  22541353.030 7                 118455586.508 7                  92303232.368 7
G28  23582077.716 7                  23582083.086 7  23582085.898 8 123924655.804 7                  96564868.160 7  92541341.427 8
G31  24093742.822 6                  24093750.276 6                 126613673.121 6                  98659891.306 6
G32  23189766.511 7                  23189772.828 7  23189770.119 8 121863037.639 7                  94958035.379 7  91001498.524 8
R02  20768074.147 8  20768077.229 7 110822419.912 8  86195046.668 7
R03  19129103.838 8  19129105.799 8 102399587.551 8  79644257.016 8
R04  21856531.435 7  21856536.936 7 117040743.063 7  91031714.175 7
R17  21202680.865 8  21202684.627 7 113459822.630 8  88246540.015 7
R18  18989281.037 8  18989282.301 8 101366064.375 8  78840303.520 8
R19  20964428.553 8  20964429.532 7 112145558.184 8  87224326.421 7
> 2025 06 15 13 02 45.0000000  0 36
C05  39046382.290 6  39046380.868 7 203324761.979 6 157223598.909 7
C06  39077342.066 6  39077339.965 7 203485985.834 6 157348273.525 7
C09  39918818.111 6  39918817.354 7 207867774.493 6 160736555.317 7
C11  25915897.424 5  25915895.794 6 134950878.343 5 104352574.625 6
C12  22138931.672 7  22138928.608 8 115283230.472 7  89144404.984 8
C16  39480702.019 6  39480704.646 7 205586383.133 6 158972434.716 7
C19  23556448.814 7                 122664606.806 7
C21  24500591.742 7                 127581008.542 7
C22  21352543.314 8                 111188293.539 8
C34  23548491.781 7                 122623176.600 7
C35  23842152.439 7                 124152337.056 7
C39  39016724.263 7                 203170313.864 7
C44  21545416.354 8                 112192634.315 8
E03  27466671.381 6  27466678.629 7 144338334.078 6 109191046.312 7
E05  22626071.585 8  22626074.065 9 118900807.872 8  89947703.095 9
E06  26133784.496 7  26133788.565 8 137333961.291 7 103892262.638 8
E09  24796968.201 8  24796970.527 9 130308944.743 8  98577879.842 9
E15  26289964.175 7  26289968.365 8 138154693.714 7 104513149.134 8
E27  27742988.140 6  27742993.102 6 145790384.872 6 110289499.814 6
E34  23260963.538 8  23260965.842 9 122237188.632 8  92471647.554 9
E36  24710065.398 7  24710068.735 9 129852272.396 7  98232368.855 9
G01  19991604.283 7                  19991607.429 8  19991608.824 9 105056582.480 7                  81862289.008 8  78451365.222 9
G02  21143971.881 7  21143973.413 6                                 111112315.942 7  86580928.351 6                
G03  20337445.801 8                  20337451.505 7  20337450.249 8 106873991.390 8                  83278611.538 7  79808697.695 8
G04  23704785.939 6                  23704793.650 7  23704795.761 8 124569498.970 6                  97067177.150 7  93022727.293 8
G08  24425978.686 6                  24425990.057 6  24425988.405 7 128359364.439 6                 100020324.620 6  95852797.655 7
G17  22536842.776 7                  22536845.959 7                 118431901.896 7                  92284776.860 7
G28  23576602.203 6                  23576607.852 7  23576610.654 8 123895882.610 6                  96542447.544 7  92519854.994 8
G31  24084566.820 6                  24084574.612 7                 126565454.710 6                  98622318.557 7
G32  23197304.273 7                  23197310.694 7  23197308.310 8 121902650.244 7                  94988902.317 7  91031079.334 8
R02  20776610.990 8  20776613.904 7 110867973.974 8  86230477.590 7
R03  19126335.912 8  19126337.868 7 102384771.338 8  79632733.303 7
R04  21845478.945 7  21845483.917 7 116981557.107 7  90985680.695 7
R17  21212563.661 8  21212568.082 7 113512707.929 8  88287672.970 7
R18  18990133.898 8  18990134.979 8 101370618.420 8  78843845.544 8
R19  20954758.336 8  20954759.342 7 112093827.747 8  87184091.651 7
> 2025 06 15 13 03  0.0000000  0 36
C05  39046091.751 5  39046090.464 7 203323249.271 5 157222429.192 7
C06  39073232.722 6  39073230.219 7 203464585.895 6 157331725.753 7
C09  39913795.323 6  39913794.819 7 207841619.887 6 160716330.925 7
C11  25906507.346 5  25906506.189 6 134901981.90115 104314764.81316
C12  22135626.640 7  22135623.496 8 115266020.628 7  89131097.236 8
C16  39477038.341 6  39477040.890 7 205567304.711 6 158957682.101 7
C19  23563202.789 7                 122699775.631 7
C21  24491851.958 7                 127535497.786 7
C22  21350796.830 8                 111179198.611 8
C34  23541377.177 7                 122586129.597 7
C35  23850682.320 7                 124196757.436 7
C39  39014248.765 7                 203157422.973 7
C44  21547278.312 8                 112202329.981 8
E03  27457147.743 6  27457155.087 7 144288288.582 6 109153187.382 7
E05  22620648.389 8  22620650.962 9 118872309.239 8  89926144.087 9
E06  26139841.158 7  26139845.468 8 137365790.333 7 103916341.094 8
E09  24800001.810 7  24800004.108 9 130324886.259 7  98589939.481 9
E15  26282461.694 7  26282466.364 8 138115270.620 7 104483325.833 8
E27  27746529.525 6  27746534.118 6 145808992.349 6 110303576.209 6
E34  23258988.883 8  23258991.386 9 122226812.897 8  92463798.365 9
E36  24715267.779 8  24715271.686 9 129879614.461 8  98253052.948 9
G01  19990768.459 7                  19990771.344 8  19990772.968 9 105052189.168 7                  81858865.636 8  78448084.496 9
G02  21148380.047 7  21148381.336 6                                 111135480.313 7  86598978.507 6                
G03  20332522.331 8                  20332528.065 7  20332526.329 8 106848117.313 8                  83258449.945 7  79789376.154 8
G04  23693779.618 6                  23693787.024 7  23693789.277 8 124511659.665 6                  97022107.657 7  92979535.729 8
G08  24436341.272 6                  24436352.701 6  24436351.338 8 128413819.864 6                 100062757.308 6  95893462.280 8
G17  22532356.995 7                  22532360.709 7                 118408332.201 7                  92266410.862 7
G28  23571146.966 6                  23571152.782 7  23571155.388 8 123867215.762 6                  96520109.814 7  92498448.003 8
G31  24075399.971 6                  24075407.389 6                 126517281.240 6                  98584780.919 6
G32  23204855.990 7                  23204862.453 7  23204859.929 8 121942333.842 7                  95019824.579 7  91060713.141 8
R02  20785163.739 8  20785166.806 7 110913614.791 8  86265975.954 7
R03  19123598.643 8  19123600.463 8 102370116.935 8  79621335.419 8
R04  21834438.623 7  21834445.113 7 116922443.295 7  90939703.357 7
R17  21222463.991 7  21222468.226 7 113565684.756 7  88328877.141 7
R18  18991018.721 8  18991019.746 8 101375340.291 8  78847518.103 8
R19  20945102.649 8  20945103.668 7 112042177.546 8  87143919.295 7
> 2025 06 15 13 03 15.0000000  0 36
C05  39045800.956 6  39045799.669 7 203321735.920 6 157221258.976 7
C06  39069130.616 6  39069127.245 7 203443220.273 6 157315204.526 7
C09  39908777.331 6  39908776.023 7 207815488.133 6 160696124.235 7
C11  25897120.995 5  25897121.195 5 134853112.277 5 104276975.771 5
C12  22132342.540 7  22132339.410 8 115248919.819 7  89117873.834 8
C16  39473381.597 6  39473384.017 7 205548262.109 6 158942957.198 7
C19  23569966.567 7                 122734997.943 7
C21  24483121.405 7                 127490035.872 7
C22  21349070.203 8                 111170205.984 8
C34  23534277.226 7                 122549158.210 7
C35  23859223.298 7                 124241232.674 7
C39  39011781.320 7                 203144574.177 7
C44  21549162.720 8                 112212142.911 8
E03  27447626.717 6  27447633.808 7 144238254.800 6 109115337.265 7
E05  22615241.905 8  22615244.357 9 118843897.233 8  89904650.606 9
E06  26145910.052 7  26145914.513 8 137397683.325 7 103940467.916 8
E09  24803053.071 7  24803055.515 9 130340921.483 7  98602070.042 9
E15  26274962.766 7  26274967.028 8 138075861.889 7 104453513.436 8
E27  27750087.857 6  27750092.393 6 145827689.045 6 110317720.102 6
E34  23257026.861 8  23257029.188 9 122216501.665 8  92455997.995 9
E36  24720481.308 8  24720484.697 9 129907009.073 8  98273776.781 9
G01  19989953.668 7                  19989956.698 8  19989958.176 9 105047908.562 7                  81855530.113 8  78444887.937 9
G02  21152805.196 8  21152806.385 6                                 111158734.545 8  86617098.662 6                
G03  20327616.593 8                  20327621.974 7  20327620.253 8 106822335.678 8                  83238360.354 7  79770123.628 8
G04  23682778.408 6                  23682785.750 7  23682787.873 8 124453849.480 6                  96977060.847 7  92936365.881 8
G08  24446703.805 6                  24446715.250 7  24446713.673 7 128468275.344 6                 100105190.056 7  95934126.955 7
G17  22527894.738 7                  22527898.802 7                 118384883.211 7                  92248138.981 7
G28  23565713.155 6                  23565718.846 7  23565721.657 8 123838661.347 6                  96497859.652 7  92477124.938 8
G31  24066242.327 6                  24066249.699 7                 126469159.096 6                  98547283.150 7
G32  23212422.442 7                  23212428.643 7  23212425.871 8 121982093.926 7                  95050806.418 7  91090404.071 8
R02  20793734.898 8  20793737.749 7 110959347.764 8  86301546.021 7
R03  19120891.877 8  19120893.964 7 102355629.244 8  79610067.223 7
R04  21823415.302 7  21823420.078 7 116863407.968 7  90893787.046 7
R17  21232381.981 8  21232386.094 7 113618759.008 8  88370157.064 7
R18  18991935.478 8  18991936.785 7 101380235.961 8  78851325.850 7
R19  20935463.611 8  20935464.790 7 111990613.809 8  87103814.186 7
> 2025 06 15 13 03 30.0000000  0 36
C05  39045509.613 5  39045508.664 7 203320220.367 5 157220087.063 7
C06  39065033.467 6  39065030.456 7 203421887.499 6 157298708.705 7
C09  39903762.944 6  39903761.898 7 207789377.802 6 160675934.114 7
C11  25887741.447 5  25887740.925 5 134804268.230 5 104239206.442 5
C12  22129079.495 8  22129076.248 8 115231926.701 8  89104733.677 8
C16  39469730.664 6  39469733.544 7 205529253.877 6 158928258.821 7
C19  23576740.497 7                 122770271.900 7
C21  24474399.787 7                 127444621.462 7
C22  21347362.330 8                 111161314.022 8
C34  23527191.566 7                 122512261.113 7
C35  23867774.910 7                 124285760.964 7
C39  39009321.575 7                 203131765.962 7
C44  21551069.430 8                 112222071.571 8
E03  27438107.373 6  27438114.468 7 144188231.254 6 109077494.949 7
E05  22609851.190 8  22609853.887 9 118815570.394 8  89883221.549 9
E06  26151991.311 7  26151995.403 8 137429638.463 7 103964641.764 8
E09  24806121.834 7  24806124.464 9 130357048.760 7  98614270.221 9
E15  26267466.375 7  26267470.282 8 138036466.116 7 104423710.808 8
E27  27753662.872 6  27753667.189 6 145846473.212 6 110331930.225 6
E34  23255076.600 8  23255079.047 9 122206253.467 8  92448245.313 9
E36  24725704.261 7  24725707.398 9 129934454.645 7  98294539.172 9
G01  19989160.307 7                  19989163.493 8  19989164.864 9 105043739.216 7                  81852281.272 8  78441774.472 9
G02  21157247.171 7  21157248.263 6                                 111182076.991 7  86635287.570 6                
G03  20322727.223 8                  20322733.058 7  20322731.651 8 106796644.946 8                  83218341.604 7  79750938.999 8
G04  23671782.709 6                  23671789.641 7  23671792.460 8 124396067.099 6                  96932035.699 7  92893216.846 8
G08  24457066.225 6                  24457077.972 7  24457075.973 7 128522729.122 6                 100147621.428 7  95974790.324 7
G17  22523455.215 7                  22523459.074 7                 118361553.689 7                  92229960.122 7
G28  23560301.093 6                  23560306.121 7  23560309.428 8 123810218.098 6                  96475696.118 7  92455884.899 8
G31  24057094.606 6                  24057101.599 6                 126421086.962 6                  98509824.394 6
G32  23220002.517 7                  23220008.637 7  23220005.506 7 122021928.596 7                  95081846.408 7  91120150.735 7
R02  20802321.891 8  20802325.057 7 111005170.643 8  86337186.021 7
R03  19118216.414 8  19118218.787 7 102341307.113 8  79598927.810 7
R04  21812405.117 7  21812409.714 7 116804449.848 7  90847930.800 7
R17  21242318.078 7  21242322.538 7 113671928.655 7  88411511.212 7
R18  18992884.834 8  18992886.621 8 101385303.980 8  78855267.659 8
R19  20925839.852 8  20925841.214 7 111939135.402 8  87063775.439 7
> 2025 06 15 13 03 45.0000000  0 36
C05  39045219.118 6  39045217.546 7 203318705.200 6 157218915.446 7
C06  39060943.825 6  39060940.631 7 203400590.318 6 157282240.392 7
C09  39898752.985 6  39898752.088 7 207763291.541 6 160655762.600 7
C11  25878365.865 5  25878365.936 6 134755452.605 5 104201459.135 6
C12  22125837.199 7  22125833.926 8 115215044.033 7  89091678.914 8
C16  39466088.083 6  39466090.853 7 205510282.584 6 158913589.044 7
C19  23583524.781 7                 122805600.016 7
C21  24465688.682 7                 127399257.240 7
C22  21345674.324 8                 111152525.312 8
C34  23520120.716 7                 122475441.220 7
C35  23876336.453 7                 124330344.793 7
C39  39006870.079 7                 203119000.948 7
C44  21552998.871 8                 112232118.554 8
E03  27428591.599 6  27428597.876 7 144138220.925 6 109039662.594 7
E05  22604477.249 8  22604480.218 9 118787331.500 8  89861859.034 9
E06  26158084.126 7  26158088.503 8 137461658.231 7 103988864.459 8
E09  24809208.722 8  24809211.417 9 130373270.630 8  98626541.937 9
E15  26259972.479 7  26259976.554 8 137997086.044 7 104393920.054 8
E27  27757253.951 6  27757259.210 6 145865347.410 6 110346208.396 6
E34  23253138.910 8  23253141.472 9 122196071.085 8  92440542.398 9
E36  24730936.680 8  24730940.354 9 129961953.819 8  98315342.109 9
G01  19988388.921 7                  19988391.712 8  19988393.370 9 105039683.870 7                  81849121.277 8  78438746.136 9
G02  21161706.413 8  21161707.265 6                                 111205510.223 8  86653547.237 6                
G03  20317856.095 8                  20317862.159 7  20317861.131 9 106771047.854 8                  83198395.831 7  79731824.317 9
G04  23660792.616 6                  23660799.943 7  23660802.463 8 124338315.494 6                  96887034.562 7  92850090.776 8
G08  24467428.539 6                  24467440.475 6  24467438.064 7 128577183.447 6                 100190053.252 6  96015454.129 7
G17  22519038.810 7                  22519042.720 7                 118338346.515 7                  92211876.628 7
G28  23554910.331 6                  23554915.332 7  23554918.508 8 123781889.041 6                  96453621.515 7  92434730.107 8
G31  24047956.806 6                  24047963.964 6                 126373067.909 6                  98472407.084 6
G32  23227597.499 7                  23227603.757 7  23227600.979 8 122061840.250 7                  95112946.389 7  91149954.856 8
R02  20810926.605 8  20810929.669 7 111051086.170 8  86372898.061 7
R03  19115572.676 8  19115574.791 7 102327153.513 8  79587919.450 7
R04  21801410.002 7  21801414.445 7 116745571.803 7  90802136.803 7
R17  21252272.352 8  21252276.569 7 113725196.152 8  88452941.423 7
R18  18993866.930 8  18993868.498 8 101390546.937 8  78859345.511 8
R19  20916233.389 8  20916234.979 7 111887745.466 8  87023805.522 7
> 2025 06 15 13 04  0.0000000  0 37
C05  39044928.005 6  39044926.854 7 203317190.438 6 157217744.134 7
C06  39056860.312 6  39056857.557 7 203379328.588 6 157265799.482 7
C09  39893747.890 6  39893747.357 7 207737229.349 6 160635609.678 7
C11  25868997.693 5  25868996.803 5 134706665.479 5 104163733.928 5
C12  22122615.800 8  22122613.438 8 115198271.885 8  89078709.644 8
C16  39462451.356 6  39462454.441 7 205491348.322 6 158898947.917 7
C19  23590319.516 7                 122840981.987 7
C21  24456986.577 7                 127353943.339 7
C22  21344006.591 8                 111143839.769 8
C34  23513064.223 7                 122438698.692 7
C35  23884909.015 7                 124374983.802 7
C39  39004427.320 7                 203106279.073 7
C44  21554950.783 8                 112242283.769 8
E03  27419076.162 6  27419083.716 7 144088223.822 6 109001840.247 7
E05  22599120.174 8  22599123.270 9 118759180.618 8  89840563.082 9
E06  26164189.949 7  26164193.899 8 137493742.327 7 104013135.853 8
E09  24812313.762 8  24812316.285 9 130389586.822 8  98638885.031 9
E15  26252481.583 7  26252485.837 8 137957721.733 7 104364141.237 8
E27  27760862.842 6  27760868.139 7 145884311.359 6 110360554.492 7
E34  23251213.943 8  23251216.382 9 122185954.533 8  92432889.300 9
E36  24736179.818 8  24736183.485 9 129989506.488 8  98336185.499 9
G01  19987638.414 7                  19987641.617 8  19987643.305 9 105035742.601 7                  81846050.148 8  78435802.968 9
G02  21166182.861 7  21166183.744 6                                 111229034.195 7  86671877.573 6                
G03  20313003.234 8                  20313008.930 7  20313007.780 8 106745544.423 8                  83178523.023 7  79712779.551 8
G04  23649808.413 6                  23649816.098 7  23649818.735 8 124280594.843 6                  96842057.553 7  92806987.842 8
G08  24477791.192 6                  24477802.735 6  24477800.483 7 128631637.955 6                 100232485.229 6  96056118.091 7
G17  22514646.565 7                  22514649.910 7                 118315261.661 7                  92193888.454 7
G19  23851030.120 5                                                 125337877.82715                                
G28  23549540.889 6                  23549546.533 7  23549549.355 8 123753674.283 6                  96431636.031 7  92413660.706 8
G31  24038829.066 6                  24038836.484 6                 126325102.422 6                  98435031.448 6
G32  23235206.780 7                  23235213.202 7  23235210.556 8 122101828.521 7                  95144106.049 7  91179816.193 8
R02  20819548.421 8  20819551.120 7 111097093.331 8  86408681.387 7
R03  19112959.727 8  19112962.244 7 102313168.369 8  79577042.130 7
R04  21790430.078 7  21790434.654 7 116686774.053 7  90756405.289 7
R17  21262245.003 7  21262248.970 7 113778561.192 7  88494447.533 7
R18  18994882.384 8  18994883.380 7 101395964.997 8  78863559.551 7
R19  20906642.942 8  20906643.960 7 111836444.377 8  86983904.702 7
> 2025 06 15 13 04 15.0000000  0 37
C05  39044637.602 6  39044636.305 7 203315678.112 6 157216574.718 7
C06  39052784.795 6  39052781.712 7 203358104.557 6 157249387.743 7
C09  39888747.923 6  39888747.054 7 207711193.415 6 160615477.068 7
C11  25859633.121 5  25859633.852 5 134657909.303 5 104126032.576 5
C12  22119416.611 7  22119413.995 8 115181612.583 7  89065827.629 8
C16  39458822.896 6  39458825.835 7 205472453.168 6 158884337.024 7
C19  23597124.897 7                 122876419.715 7
C21  24448294.370 7                 127308682.036 7
C22  21342358.945 8                 111135259.516 8
C34  23506023.974 7                 122402035.906 7
C35  23893492.762 7                 124419680.001 7
C39  39001992.849 7                 203093602.511 7
C44  21556926.189 8                 112252569.333 8
E03  27409565.593 6  27409572.507 8 144038242.327 6 108964029.729 8
E05  22593780.589 8  22593783.488 9 118731120.004 8  89819335.438 9
E06  26170308.073 7  26170311.975 8 137525892.756 7 104037457.406 8
E09  24815437.463 7  24815439.478 9 130405999.396 7  98651301.035 9
E15  26244994.015 7  26244998.438 8 137918375.447 7 104334376.047 8
E27  27764487.486 6  27764494.423 7 145903367.079 6 110374969.990 7
E34  23249301.483 8  23249304.211 9 122175906.090 8  92425287.717 9
E36  24741433.222 7  24741437.227 9 130017114.788 7  98357070.977 9
G01  19986910.456 8                  19986913.721 8  19986915.471 9 105031917.605 8                  81843069.631 8  78432946.638 9
G02  21170677.400 7  21170677.867 6                                 111252651.024 7  86690280.291 6                
G03  20308168.387 8                  20308174.152 7  20308172.670 9 106720136.844 8                  83158724.937 7  79693806.371 9
G04  23638830.707 6                  23638838.379 7  23638841.175 8 124222907.677 6                  96797106.587 7  92763909.873 8
G08  24488154.161 6                  24488165.420 6  24488163.428 7 128686094.533 6                 100274918.787 6  96096783.591 7
G17  22510277.012 7                  22510280.606 7                 118292301.520 7                  92175997.426 7
G19  23841635.446 5                                                 125288514.72015                                
G28  23544193.957 6                  23544199.717 7  23544202.345 8 123725576.374 6                  96409741.586 7  92392678.533 8
G31  24029712.607 6                  24029719.642 6                 126277193.098 6                  98397699.568 6
G32  23242831.139 7                  23242837.858 7  23242835.164 8 122141895.290 7                  95175326.875 7  91209736.150 8
R02  20828187.765 8  20828190.597 7 111143194.316 8  86444537.677 7
R03  19110378.929 8  19110381.442 7 102299353.656 8  79566297.339 7
R04  21779465.202 8  21779470.785 7 116628059.357 8  90710738.361 7
R17  21272235.963 8  21272240.440 7 113832025.592 8  88536030.896 7
R18  18995930.318 8  18995931.842 7 101401560.314 8  78867911.449 7
R19  20897069.944 8  20897070.942 7 111785234.833 8  86944075.071 7
> 2025 06 15 13 04 30.0000000  0 37
C05  39044347.047 6  39044345.504 7 203314162.961 6 157215403.122 7
C06  39048714.872 6  39048711.820 7 203336912.904 6 157233001.043 7
C09  39883752.409 6  39883751.169 7 207685178.388 6 160595360.619 7
C11  25850278.109 6  25850275.714 5 134609178.988 6 104088351.229 5
C12  22116238.443 8  22116235.197 8 115165060.913 8  89053028.839 8
C16  39455200.766 6  39455203.672 7 205453591.787 6 158869752.262 7
C19  23603939.966 7                 122911907.611 7
C21  24439611.556 7                 127263468.021 7
C22  21340730.208 8                 111126779.065 8
C34  23498997.494 7                 122365447.711 7
C35  23902086.187 7                 124464427.770 7
C39  38999566.065 7                 203080965.894 7
C44  21558923.507 8                 112262969.808 8
E03  27400056.413 6  27400063.221 8 143988271.167 6 108926227.007 8
E05  22588456.702 8  22588459.872 9 118703144.352 8  89798172.056 9
E06  26176437.531 7  26176441.656 8 137558103.847 7 104061824.843 8
E09  24818577.693 7  24818579.966 9 130422502.730 7  98663785.700 9
E15  26237509.253 7  26237513.476 8 137879041.813 7 104304620.451 8
E27  27768129.704 6  27768136.855 7 145922508.953 6 110389450.673 7
E34  23247401.373 8  23247403.975 9 122165920.408 8  92417733.614 9
E36  24746696.434 7  24746700.549 9 130044773.239 7  98377994.417 9
G01  19986203.449 8                  19986207.009 8  19986208.588 9 105028203.570 8                  81840175.572 8  78430173.165 9
G02  21175187.786 7  21175188.891 6                                 111276355.152 7  86708751.025 6                
G03  20303350.533 8                  20303356.476 7  20303355.047 8 106694819.751 8                  83138997.325 7  79674900.766 8
G04  23627858.993 6                  23627866.503 7  23627868.617 7 124165248.757 6                  96752177.694 7  92720853.010 7
G08  24498515.954 6                  24498527.223 6  24498525.607 7 128740547.437 6                 100317349.505 6  96137446.332 7
G17  22505930.647 7                  22505934.537 7                 118269460.849 7                  92158199.500 7
G19  23832258.276 5                                                 125239230.50215                                
G28  23538867.972 6                  23538874.087 7  23538876.591 8 123697590.106 6                  96387934.149 7  92371779.746 8
G31  24020605.496 6                  24020612.293 6                 126229334.862 6                  98360407.487 6
G32  23250469.730 7                  23250476.047 7  23250473.307 8 122182034.839 7                  95206604.397 7  91239710.445 8
R02  20836843.031 8  20836846.273 7 111189382.855 8  86480462.108 7
R03  19107828.770 8  19107831.632 7 102285703.624 8  79555680.668 7
R04  21768515.208 7  21768520.695 7 116569422.340 7  90665131.853 7
R17  21282244.862 8  21282248.838 7 113885583.312 8  88577686.830 7
R18  18997010.830 8  18997012.427 7 101407327.533 8  78872397.076 7
R19  20887513.032 8  20887514.105 7 111734111.799 8  86904312.766 7
> 2025 06 15 13 04 45.0000000  0 37
C05  39044055.023 5  39044053.801 7 203312644.186 5 157214228.712 7
C06  39044651.904 6  39044648.246 7 203315752.950 6 157216638.843 7
C09  39878760.101 6  39878759.156 7 207659183.676 6 160575259.882 7
C11  25840924.317 6  25840921.899 5 134560474.104 6 104050689.561 5
C12  22113080.592 7  22113077.236 8 115148616.340 7  89040312.851 8
C16  39451585.646 7  39451587.383 7 205434763.531 7 158855193.104 7
C19  23610764.665 7                 122947444.796 7
C21  24430937.625 7                 127218300.710 7
C22  21339120.795 8                 111118397.737 8
C34  23491985.262 7                 122328933.668 7
C35  23910689.136 7                 124509226.194 7
C39  38997146.507 7                 203068368.531 7
C44  21560942.893 8                 112273484.508 8
E03  27390548.968 6  27390555.755 8 143938309.900 6 108888431.741 8
E05  22583149.392 8  22583152.292 9 118675253.102 8  89777072.519 9
E06  26182578.797 7  26182582.679 8 137590374.655 7 104086237.496 8
E09  24821735.280 7  24821737.557 9 130439096.003 7  98676338.388 9
E15  26230026.531 7  26230030.817 8 137839720.298 7 104274874.015 8
E27  27771789.760 6  27771795.420 7 145941736.065 6 110403995.835 7
E34  23245513.019 8  23245515.592 9 122155996.879 8  92410226.533 9
E36  24751968.970 7  24751973.281 9 130072481.135 7  98398955.232 9
G01  19985518.131 7                  19985521.211 8  19985522.681 9 105024599.864 7                  81837367.506 8  78427482.102 9
G02  21179714.999 7  21179716.241 6                                 111300145.735 7  86727289.128 6                
G03  20298549.952 8                  20298555.919 7  20298554.765 8 106669592.484 8                  83119339.720 7  79656062.232 8
G04  23616892.068 7                  23616899.466 7  23616901.577 7 124107617.711 7                  96707270.471 7  92677816.940 7
G08  24508877.535 6                  24508888.386 6  24508887.085 7 128794995.659 6                 100359776.605 6  96178105.590 7
G17  22501606.783 7                  22501610.820 7                 118246739.159 7                  92140494.281 7
G19  23822893.175 5                                                 125190025.024 5                                
G28  23533563.638 6                  23533569.463 7  23533572.239 8 123669715.193 6                  96366213.464 7  92350964.082 8
G31  24011508.221 6                  24011514.513 6                 126181527.377 6                  98323154.977 6
G32  23258121.371 7                  23258127.735 7  23258125.556 8 122222246.166 7                  95237937.840 7  91269738.317 8
R02  20845514.980 8  20845518.978 7 111235658.036 8  86516453.909 7
R03  19105309.842 8  19105312.371 7 102272217.932 8  79545191.810 7
R04  21757579.404 7  21757583.984 7 116510862.275 7  90619585.196 7
R17  21292270.864 7  21292274.942 7 113939233.551 7  88619414.735 7
R18  18998123.011 8  18998124.807 7 101413265.894 8  78877015.785 7
R19  20877971.752 8  20877973.494 7 111683074.729 8  86864617.284 7
> 2025 06 15 13 05  0.0000000  0 37
C05  39043763.174 5  39043761.454 7 203311123.187 5 157213052.590 7
C06  39040594.104 6  39040591.199 7 203294626.053 6 157200302.197 7
C09  39873772.046 6  39873771.370 7 207633210.659 6 160555175.943 7
C11  25831575.648 5  25831574.973 5 134511796.063 5 104013048.643 5
C12  22109943.453 7  22109940.198 8 115132280.474 7  89027680.922 8
C16  39447976.102 6  39447978.164 7 205415969.804 6 158840660.622 7
C19  23617599.132 7                 122983032.438 7
C21  24422272.991 7                 127173181.685 7
C22  21337530.460 8                 111110116.813 8
C34  23484987.548 7                 122292495.386 7
C35  23919302.334 7                 124554076.482 7
C39  38994735.290 7                 203055811.799 7
C44  21562984.301 8                 112284114.736 8
E03  27381043.357 6  27381050.529 7 143888359.922 6 108850645.097 7
E05  22577858.234 8  22577861.044 9 118647447.712 8  89756037.939 9
E06  26188731.322 7  26188735.168 8 137622706.474 7 104110696.285 8
E09  24824910.385 7  24824912.468 9 130455780.472 7  98688960.087 9
E15  26222546.985 7  26222550.665 8 137800412.430 7 104245137.881 8
E27  27775466.500 6  27775470.623 7 145961049.627 6 110418606.484 7
E34  23243636.654 8  23243639.330 9 122146137.005 8  92402767.611 9
E36  24757251.497 7  24757255.655 9 130100239.851 7  98419954.506 9
G01  19984853.932 7                  19984856.640 8  19984858.468 9 105021108.037 7                  81834646.582 8  78424874.547 9
G02  21184258.884 7  21184260.032 6                                 111324024.258 7  86745895.738 6                
G03  20293767.037 8                  20293772.781 7  20293771.446 9 106644456.538 8                  83099753.282 7  79637291.894 9
G04  23605931.021 7                  23605938.257 7  23605940.572 7 124050016.237 7                  96662386.281 7  92634802.925 7
G08  24519237.885 6                  24519249.310 6  24519247.611 7 128849440.278 6                 100402200.872 6  96218762.150 7
G17  22497305.600 7                  22497309.702 7                 118224138.053 7                  92122883.040 7
G19  23813544.665 5                                                 125140900.038 5                                
G28  23528280.787 6                  23528286.372 7  23528289.282 8 123641953.253 6                  96344580.791 7  92330232.777 8
G31  24002420.578 6                  24002427.188 6                 126133772.637 6                  98285943.582 6
G32  23265787.271 7                  23265793.652 7  23265791.590 8 122262530.335 7                  95269328.104 7  91299820.623 8
R02  20854203.482 8  20854206.370 7 111282021.006 8  86552513.964 7
R03  19102821.686 8  19102823.786 7 102258897.552 8  79534831.519 7
R04  21746658.429 7  21746663.260 7 116452381.330 7  90574100.051 7
R17  21302313.641 7  21302318.024 7 113992977.362 7  88661215.447 7
R18  18999267.978 8  18999269.375 7 101419376.971 8  78881768.842 7
R19  20868447.514 8  20868448.990 7 111632125.600 8  86824990.213 7
> 2025 06 15 13 05 15.0000000  0 37
C05  39043470.999 6  39043469.603 7 203309603.141 6 157211877.206 7
C06  39036543.405 6  39036540.642 7 203273535.402 6 157183993.603 7
C09  39868789.223 6  39868788.560 7 207607262.572 6 160535111.259 7
C11  25822233.999 5  25822231.682 5 134463148.392 5 103975431.172 5
C12  22106827.452 7  22106824.488 8 115116056.469 7  89015135.502 8
C16  39444374.180 6  39444376.390 7 205397213.730 6 158826157.265 7
C19  23624443.542 7                 123018673.401 7
C21  24413618.271 7                 127128114.162 7
C22  21335959.925 8                 111101939.401 8
C34  23478005.062 7                 122256136.195 7
C35  23927925.556 7                 124598981.488 7
C39  38992332.415 7                 203043298.829 7
C44  21565048.366 8                 112294863.557 8
E03  27371540.794 6  27371548.030 8 143838424.763 6 108812869.574 8
E05  22572584.053 8  22572586.780 9 118619731.458 8  89735070.784 9
E06  26194896.004 7  26194899.741 8 137655102.176 7 104135203.396 8
E09  24828103.179 7  24828105.304 9 130472559.089 7  98701652.980 9
E15  26215070.087 7  26215073.692 8 137761121.433 7 104215414.510 8
E27  27779157.261 6  27779162.590 6 145980452.754 6 110433284.804 6
E34  23241773.218 8  23241775.794 9 122136344.008 8  92395359.277 9
E36  24762544.013 7  24762548.247 9 130128052.459 7  98440994.521 9
G01  19984211.389 8                  19984214.207 8  19984216.111 9 105017731.245 8                  81832015.319 8  78422352.911 9
G02  21188820.102 7  21188821.084 6                                 111347993.826 7  86764573.314 6                
G03  20289002.087 8                  20289007.368 7  20289006.110 9 106619415.081 8                  83080240.479 7  79618592.119 9
G04  23594975.801 7                  23594983.239 7  23594985.670 7 123992447.687 7                  96617527.759 7  92591813.537 7
G08  24529598.511 6                  24529609.833 6  24529608.079 7 128903884.137 6                 100444624.522 6  96259418.117 7
G17  22493028.863 7                  22493032.477 7                 118201660.896 7                  92105368.390 7
G19  23804212.555 5                                                 125091858.97315                                
G28  23523019.732 6                  23523025.905 7  23523028.353 8 123614307.656 6                  96323038.845 7  92309588.377 8
G31  23993343.401 6                  23993350.545 6                 126086074.051 6                  98248775.926 6
G32  23273467.699 7                  23273473.949 7  23273471.832 8 122302890.188 7                  95300777.316 7  91329959.453 8
R02  20862908.800 8  20862912.003 7 111328474.210 8  86588644.211 7
R03  19100364.711 8  19100366.913 7 102245745.927 8  79524602.475 7
R04  21735752.344 7  21735757.596 7 116393982.790 7  90528679.030 7
R17  21312375.271 8  21312379.612 7 114046817.630 8  88703091.166 7
R18  19000445.756 8  19000447.277 7 101425663.902 8  78886658.676 7
R19  20858940.413 8  20858941.094 7 111581268.349 8  86785434.586 7
> 2025 06 15 13 05 30.0000000  0 37
C05  39043178.325 5  39043177.057 7 203308079.230 5 157210698.835 7
C06  39032499.320 6  39032496.323 7 203252476.261 6 157167709.372 7
C09  39863809.752 6  39863809.286 7 207581334.628 6 160515062.163 7
C11  25812895.932 5  25812891.992 5 134414526.528 5 103937833.734 5
C12  22103732.192 7  22103729.366 8 115099939.776 7  89002673.074 8
C16  39440778.530 6  39440780.661 7 205378490.602 6 158811679.386 7
C19  23631297.050 7                 123054362.761 7
C21  24404972.051 7                 127083093.469 7
C22  21334408.692 8                 111093860.664 8
C34  23471036.890 7                 122219851.624 7
C35  23936558.772 7                 124643936.256 7
C39  38989936.909 7                 203030824.879 7
C44  21567134.275 8                 112305726.206 8
E03  27362040.146 6  27362047.444 8 143788499.669 6 108775101.690 8
E05  22567326.049 8  22567328.594 9 118592099.640 8  89714167.516 9
E06  26201071.557 7  26201075.599 8 137687556.772 7 104159755.062 8
E09  24831312.837 8  24831315.157 9 130489426.938 8  98714413.398 9
E15  26207595.600 7  26207599.131 8 137721842.617 7 104185700.356 8
E27  27782866.761 6  27782870.709 6 145999940.353 6 110448026.994 6
E34  23239921.479 8  23239924.075 9 122126613.178 8  92387997.985 9
E36  24767845.999 7  24767850.129 9 130155914.134 7  98462071.687 9
G01  19983589.874 8                  19983592.541 8  19983594.385 9 105014464.790 8                  81829470.021 8  78419913.677 9
G02  21193398.102 7  21193398.750 6                                 111372049.568 7  86783318.029 6                
G03  20284253.410 8                  20284259.367 7  20284257.891 8 106594463.402 8                  83060797.599 7  79599959.364 8
G04  23584026.343 7                  23584033.974 7  23584036.169 8 123934907.571 7                  96572691.421 7  92548845.376 8
G08  24539957.659 6                  24539969.650 6  24539967.217 7 128958322.114 6                 100487043.587 6  96300069.689 7
G17  22488774.137 7                  22488777.709 7                 118179302.984 7                  92087946.660 7
G19  23794895.469 6                                                 125042897.234 6                                
G28  23517779.988 6                  23517786.010 7  23517789.113 8 123586773.973 6                  96301584.044 7  92289027.553 8
G31  23984276.642 6                  23984283.628 7                 126038427.173 6                  98211648.543 7
G32  23281161.252 7                  23281167.865 7  23281165.416 8 122343320.654 7                  95332281.562 7  91360151.005 8
R02  20871630.281 8  20871633.779 7 111375012.411 8  86624840.581 7
R03  19097938.387 8  19097940.686 7 102232758.253 8  79514500.963 7
R04  21724862.563 8  21724866.789 7 116335662.108 8  90483318.586 7
R17  21322453.558 7  21322458.348 7 114100749.210 7  88745037.865 7
R18  19001655.535 8  19001657.280 7 101432121.995 8  78891681.622 7
R19  20849449.261 8  20849449.959 7 111530498.004 8  86745946.544 7
> 2025 06 15 13 05 45.0000000  0 37
C05  39042885.338 6  39042883.932 7 203306553.492 6 157209519.047 7
C06  39028461.127 6  39028458.632 7 203231450.689 6 157151451.105 7
C09  39858834.833 6  39858834.279 7 207555428.999 6 160495030.312 7
C11  25803563.691 5  25803556.520 5 134365932.605 5 103900257.846 5
C12  22100658.361 7  22100655.391 8 115083932.559 7  88990295.291 8
C16  39437190.129 6  39437191.909 7 205359802.498 6 158797228.592 7
C19  23638161.799 7                 123090102.352 7
C21  24396335.571 7                 127038121.783 7
C22  21332876.695 8                 111085882.584 8
C34  23464083.477 7                 122183643.945 7
C35  23945201.984 7                 124688942.675 7
C39  38987549.280 7                 203018392.033 7
C44  21569242.778 8                 112316704.718 8
E03  27352541.840 6  27352549.153 7 143738586.929 6 108737343.142 7
E05  22562084.141 8  22562086.877 9 118564554.456 8  89693329.777 9
E06  26207258.830 7  26207263.114 8 137720072.139 7 104184352.691 8
E09  24834540.013 8  24834542.348 9 130506385.904 8  98727242.744 9
E15  26200123.644 7  26200127.326 8 137682578.170 7 104155997.066 8
E27  27786591.049 6  27786595.120 6 146019514.249 6 110462834.507 6
E34  23238081.992 8  23238084.579 9 122116946.729 8  92380685.375 9
E36  24773158.022 7  24773161.746 9 130183826.907 7  98483187.518 9
G01  19982989.469 8                  19982992.410 8  19982993.903 9 105011310.875 8                  81827012.424 8  78417558.481 9
G02  21197992.284 7  21197993.129 6                                 111396193.310 7  86802131.304 6                
G03  20279522.853 8                  20279528.579 7  20279527.252 9 106569603.584 8                  83041426.327 7  79581395.228 9
G04  23573082.459 6                  23573089.900 7  23573092.095 8 123877398.261 6                  96527879.028 7  92505900.227 8
G08  24550316.229 6                  24550328.045 6  24550325.754 7 129012755.944 6                 100529459.421 6  96340718.170 7
G17  22484542.570 7                  22484546.309 7                 118157066.481 7                  92070619.528 7
G19  23785593.500 5                                                 124994017.399 5                                
G28  23512561.524 6                  23512568.079 7  23512571.173 8 123559354.539 6                  96280218.256 7  92268552.031 8
G31  23975219.920 6                  23975227.073 6                 125990834.555 6                  98174563.498 6
G32  23288868.839 6                  23288875.445 7  23288872.644 8 122383823.562 6                  95363842.203 7  91390396.619 8
R02  20880367.852 8  20880370.567 7 111421637.388 8  86661104.446 7
R03  19095543.157 8  19095545.646 7 102219936.399 8  79504528.421 7
R04  21713986.084 8  21713990.161 7 116277421.568 8  90438020.449 7
R17  21332549.437 7  21332553.705 7 114154773.752 7  88787056.894 7
R18  19002897.949 8  19002899.198 8 101438753.416 8  78896839.383 8
R19  20839974.773 8  20839976.435 7 111479817.557 8  86706528.462 7
> 2025 06 15 13 06  0.0000000  0 37
C05  39042591.393 6  39042589.762 7 203305022.151 6 157208334.923 7
C06  39024429.728 6  39024427.102 7 203210455.004 6 157135215.951 7
C09  39853863.715 6  39853863.171 7 207529541.780 6 160475012.715 7
C11  25794237.493 5  25794233.295 5 134317363.234 5 103862701.006 5
C12  22097604.791 8  22097601.781 8 115068031.246 8  88977999.387 8
C16  39433607.312 6  39433609.346 7 205341145.668 6 158782801.961 7
C19  23645032.720 7                 123125888.118 7
C21  24387708.174 7                 126993195.482 7
C22  21331363.098 8                 111078001.376 8
C34  23457144.530 7                 122147509.563 7
C35  23953853.953 7                 124733996.644 7
C39  38985168.664 7                 203005996.435 7
C44  21571372.716 8                 112327795.215 8
E03  27343044.737 6  27343052.535 7 143688682.883 6 108699591.157 7
E05  22556858.335 8  22556860.958 9 118537092.170 8  89672554.752 9
E06  26213457.443 7  26213461.474 8 137752644.227 7 104208993.247 8
E09  24837784.040 8  24837786.103 9 130523432.026 8  98740138.030 9
E15  26192653.532 7  26192657.671 8 137643324.313 7 104126301.825 8
E27  27790331.048 5  27790335.705 6 146039170.620 5 110477704.363 6
E34  23236254.137 8  23236256.645 9 122107340.878 8  92373418.609 9
E36  24778478.665 8  24778482.343 8 130211786.952 8  98504339.085 8
G01  19982409.902 7                  19982413.048 8  19982414.576 9 105008265.679 7                  81824639.553 8  78415284.493 9
G02  21202602.997 7  21202603.645 6                                 111420421.332 7  86821010.278 6                
G03  20274809.080 8                  20274814.480 7  20274813.286 8 106544831.882 8                  83022123.711 7  79562896.888 8
G04  23562144.273 6                  23562151.610 7  23562153.506 8 123819916.186 6                  96483087.890 7  92462975.405 8
G08  24560673.234 6                  24560684.695 6  24560682.964 7 129067181.431 6                 100571868.779 6  96381360.492 7
G17  22480333.625 7                  22480337.221 7                 118134947.837 7                  92053384.240 7
G19  23776307.759 5                                                 124945215.944 5                                
G28  23507366.724 6                  23507371.538 7  23507374.489 8 123532045.826 6                  96258938.779 7  92248159.190 8
G31  23966173.215 6                  23966180.137 6                 125943292.898 6                  98137518.092 6
G32  23296588.682 6                  23296595.821 7  23296593.151 8 122424394.646 6                  95395456.043 7  91420693.210 8
R02  20889120.432 8  20889123.809 7 111468344.582 8  86697432.224 7
R03  19093178.306 8  19093180.559 7 102207276.369 8  79494681.729 7
R04  21703123.177 8  21703128.755 7 116219257.636 8  90392781.903 7
R17  21342662.269 7  21342666.227 7 114208887.344 7  88829145.221 7
R18  19004171.732 8  19004173.150 8 101445554.210 8  78902128.906 8
R19  20830516.853 8  20830517.963 7 111429223.060 8  86667177.197 7
> 2025 06 15 13 06 15.0000000  0 37
C05  39042296.501 6  39042295.122 7 203303487.871 6 157207148.530 7
C06  39020404.291 6  39020400.966 7 203189491.872 6 157119005.974 7
C09  39848896.396 6  39848895.693 7 207503675.892 6 160455011.588 7
C11  25784915.827 5  25784912.520 5 134268821.286 5 103825165.356 5
C12  22094572.177 7  22094568.902 8 115052238.574 7  88965787.492 8
C16  39430030.421 6  39430032.999 7 205322522.785 6 158768401.590 7
C19  23651914.820 7                 123161722.540 7
C21  24379089.762 7                 126948317.314 7
C22  21329868.472 8                 111070219.604 8
C34  23450220.110 7                 122111451.439 7
C35  23962515.451 7                 124779100.679 7
C39  38982795.847 7                 202993640.799 7
C44  21573524.341 8                 112339000.308 8
E03  27333550.084 6  27333558.167 7 143638790.363 6 108661847.897 7
E05  22551648.960 8  22551651.346 9 118509715.569 8  89651844.555 9
E06  26219667.160 7  26219671.018 8 137785275.479 7 104233678.549 8
E09  24841044.892 8  24841046.942 8 130540567.839 8  98753101.141 8
E15  26185186.111 7  26185190.496 8 137604083.899 7 104096616.722 8
E27  27794088.088 5  27794092.666 6 146058911.782 5 110492638.392 6
E34  23234437.998 8  23234440.777 9 122097798.398 8  92366199.805 9
E36  24783808.678 8  24783812.418 9 130239796.853 8  98525528.390 9
G01  19981851.770 8                  19981854.932 8  19981856.389 9 105005332.019 8                  81822353.587 8  78413093.774 9
G02  21207229.902 7  21207230.702 6                                 111444736.333 7  86839957.015 6                
G03  20270112.444 8                  20270118.187 7  20270116.411 8 106520151.018 8                  83002891.862 7  79544466.384 8
G04  23551211.477 7                  23551218.838 7  23551220.616 7 123762464.283 7                  96438320.238 7  92420073.101 7
G08  24571028.815 6                  24571040.146 6  24571039.141 7 129121601.070 6                 100614273.578 6  96421998.396 7
G17  22476147.694 7                  22476151.094 7                 118112949.878 7                  92036243.006 7
G19  23767036.348 5                                                 124896496.033 5                                
G28  23502190.838 6                  23502196.351 7  23502199.451 8 123504850.796 6                  96237747.863 7  92227851.259 8
G31  23957136.703 6                  23957143.316 7                 125895805.215 6                  98100514.750 7
G32  23304322.885 7                  23304329.894 7  23304327.056 8 122465036.395 7                  95427124.886 7  91451042.529 8
R02  20897889.673 8  20897892.121 7 111515136.431 8  86733825.885 7
R03  19090844.067 8  19090846.223 7 102194780.962 8  79484963.063 7
R04  21692277.350 7  21692281.489 7 116161173.494 7  90347605.345 7
R17  21352791.302 8  21352795.560 7 114263091.979 8  88871304.327 7
R18  19005478.186 8  19005480.269 8 101452527.109 8  78907552.276 8
R19  20821075.809 8  20821076.318 7 111378718.291 8  86627895.716 7
> 2025 06 15 13 06 30.0000000  0 37
C05  39042000.712 5  39041999.592 7 203301947.497 5 157205957.420 7
C06  39016384.171 6  39016381.039 7 203168558.212 6 157102818.765 7
C09  39843932.264 6  39843931.683 7 207477828.182 6 160435024.521 7
C11  25775598.328 5  25775594.385 5 134220303.763 5 103787648.521 5
C12  22091559.137 7  22091556.468 8 115036551.690 7  88953657.415 8
C16  39426459.648 6  39426462.686 7 205303930.748 6 158754025.072 7
C19  23658805.516 7                 123197602.288 7
C21  24370480.327 7                 126903484.302 7
C22  21328392.573 8                 111062534.132 8
C34  23443309.341 7                 122075466.675 7
C35  23971186.578 7                 124824251.435 7
C39  38980430.029 7                 202981322.016 7
C44  21575697.614 8                 112350316.863 8
E03  27324057.572 6  27324065.449 7 143588906.427 6 108624111.164 7
E05  22546454.738 8  22546457.486 9 118482421.638 8  89631196.880 9
E06  26225887.106 7  26225891.150 8 137817962.586 7 104258406.123 8
E09  24844321.915 8  24844324.269 9 130557790.021 8  98766129.607 9
E15  26177721.120 7  26177725.260 8 137564853.873 7 104066939.485 8
E27  27797859.903 5  27797864.775 7 146078734.360 5 110507634.127 7
E34  23232633.696 8  23232636.405 9 122088316.275 8  92359026.642 9
E36  24789147.744 7  24789151.395 9 130267853.502 7  98546753.055 9
G01  19981313.751 8                  19981317.373 8  19981318.775 9 105002506.846 8                  81820152.147 8  78410984.061 9
G02  21211872.747 7  21211873.646 6                                 111469134.937 7  86858968.900 6                
G03  20265432.319 8                  20265438.137 7  20265436.467 8 106495557.906 8                  82983728.416 7  79526101.402 8
G04  23540283.460 7                  23540291.234 7  23540292.666 7 123705039.715 7                  96393573.911 7  92377191.226 7
G08  24581382.677 6                  24581394.383 6  24581393.395 7 129176011.396 6                 100656671.135 6  96462629.332 7
G17  22471983.760 7                  22471987.681 7                 118091069.736 7                  92019193.535 7
G19  23757779.776 5                                                 124847854.678 5                                
G28  23497037.182 6                  23497042.268 7  23497044.998 8 123477766.588 6                  96216643.330 7  92207626.072 8
G31  23948109.863 6                  23948116.032 6                 125848368.768 6                  98063551.356 6
G32  23312069.865 7                  23312076.510 7  23312073.705 7 122505745.366 7                  95458846.109 7  91481442.016 7
R02  20906673.544 8  20906676.081 7 111562009.348 8  86770282.578 7
R03  19088539.824 8  19088542.031 7 102182446.924 8  79475369.941 7
R04  21681444.646 7  21681448.996 7 116103165.864 7  90302488.394 7
R17  21362937.788 7  21362941.927 7 114317384.570 7  88913531.831 7
R18  19006816.258 8  19006817.770 8 101459669.117 8  78913107.137 8
R19  20811650.436 8  20811651.650 7 111328299.904 8  86588681.453 7
> 2025 06 15 13 06 45.0000000  0 37
C05  39041704.242 6  39041703.179 7 203300404.599 6 157204764.360 7
C06  39012370.710 6  39012367.462 7 203147657.485 6 157086657.030 7
C09  39838972.482 6  39838972.225 7 207452002.154 6 160415054.208 7
C11  25766287.375 5  25766282.834 5 134171814.591 5 103750153.659 5
C12  22088567.916 7  22088564.928 8 115020974.152 7  88941611.881 8
C16  39422894.653 6  39422898.881 7 205285373.067 6 158739675.137 7
C19  23665704.603 7                 123233530.698 7
C21  24361879.443 7                 126858700.047 7
C22  21326935.817 8                 111054948.422 8
C34  23436413.763 7                 122039558.979 7
C35  23979867.039 7                 124869452.182 7
C39  38978072.492 7                 202969043.583 7
C44  21577893.116 8                 112361748.362 8
E03  27314567.620 6  27314575.224 7 143539034.828 6 108586383.722 7
E05  22541277.602 8  22541280.042 9 118455214.002 8  89610614.502 9
E06  26232118.829 7  26232122.565 8 137850708.910 7 104283178.461 8
E09  24847616.450 7  24847618.610 8 130575101.979 7  98779225.994 8
E15  26170258.344 7  26170262.637 8 137525637.913 7 104037272.912 8
E27  27801647.173 5  27801653.356 7 146098642.021 5 110522694.070 7
E34  23230841.810 8  23230844.178 9 122078898.129 8  92351901.887 9
E36  24794496.077 7  24794499.937 9 130295960.375 7  98568015.710 9
G01  19980797.373 8                  19980801.048 8  19980802.501 9 104999793.751 8                  81818038.044 8  78408958.059 9
G02  21216532.209 7  21216532.983 6                                 111493620.659 7  86878048.651 6                
G03  20260770.003 8                  20260775.484 7  20260774.212 8 106471056.162 8                  82964636.146 7  79507804.639 8
G04  23529361.838 7                  23529369.300 7  23529370.890 7 123647646.283 7                  96348851.824 7  92334332.565 7
G08  24591736.317 6                  24591747.292 6  24591746.345 7 129230415.584 6                 100699063.897 6  96503255.704 7
G17  22467843.098 7                  22467847.198 7                 118069310.865 7                  92002238.595 7
G19  23748539.753 5                                                 124799295.85215                                
G28  23491904.496 6                  23491910.471 7  23491912.929 8 123450797.059 6                  96195628.134 7  92187486.516 8
G31  23939093.312 6                  23939099.809 6                 125800987.456 6                  98026630.918 6
G32  23319829.390 7                  23319836.701 7  23319833.922 7 122546524.775 7                  95490622.252 7  91511894.159 7
R02  20915473.173 8  20915476.118 7 111608966.650 8  86806804.897 7
R03  19086266.734 8  19086268.910 7 102170278.310 8  79465905.463 7
R04  21670627.367 7  21670632.026 7 116045238.863 7  90257434.078 7
R17  21373100.148 7  21373104.356 7 114371768.044 7  88955830.048 7
R18  19008186.418 8  19008188.003 8 101466983.794 8  78918796.338 8
R19  20802242.085 8  20802243.343 7 111277972.280 8  86549537.770 7
> 2025 06 15 13 07  0.0000000  0 38
C05  39041408.815 6  39041407.496 7 203298863.872 6 157203572.981 7
C06  39008364.171 6  39008360.859 7 203126794.547 6 157070524.507 7
C09  39834018.396 6  39834017.613 7 207426202.608 6 160395104.386 7
C11  25756981.499 5  25756977.728 4 134123358.485 5 103712684.535 4
C12  22085598.539 7  22085595.285 8 115005510.893 7  88929654.705 8
C16  39419338.781 6  39419342.422 7 205266854.508 6 158725355.440 7
C19  23672614.540 7                 123269512.188 7
C21  24353289.528 7                 126813969.415 7
C22  21325499.132 8                 111047467.102 8
C34  23429533.898 7                 122003733.309 7
C35  23988557.319 7                 124914707.435 7
C39  38975722.931 7                 202956810.229 7
C44  21580111.426 8                 112373299.438 8
E03  27305080.005 6  27305088.291 7 143489180.485 6 108548669.303 7
E05  22536117.332 8  22536119.954 9 118428097.548 8  89590101.086 9
E06  26238362.214 7  26238366.094 8 137883518.938 7 104307999.020 8
E09  24850928.775 8  24850930.890 9 130592508.321 8  98792393.757 9
E15  26162799.661 7  26162803.733 8 137486440.876 7 104007620.628 8
E27  27805453.350 5  27805459.060 7 146118639.182 5 110537821.716 7
E34  23229062.741 8  23229065.027 9 122069548.809 8  92344829.173 9
E36  24799855.034 7  24799858.945 9 130324122.170 7  98589319.910 9
G01  19980303.289 8                  19980306.605 8  19980308.336 9 104997197.610 8                  81816015.077 8  78407019.371 9
G02  21221208.858 7  21221209.941 6                                 111518198.216 7  86897199.980 6                
G03  20256125.642 8                  20256131.344 7  20256129.974 9 106446650.575 8                  82945618.785 7  79489579.684 9
G04  23518447.164 7                  23518454.615 7  23518456.358 7 123590289.037 7                  96304157.919 7  92291500.955 7
G08  24602088.340 6                  24602099.649 6  24602098.323 7 129284818.130 6                 100741455.357 6  96543880.836 7
G17  22463726.298 7                  22463730.607 7                 118047678.327 7                  91985382.067 7
G19  23739315.953 5                                                 124750824.660 5                                
G28  23486795.333 6                  23486800.649 7  23486803.726 8 123423947.200 6                  96174706.186 7  92167436.322 8
G31  23930088.211 6                  23930095.262 6                 125753666.483 6                  97989757.489 6
G32  23327603.950 7                  23327611.099 7  23327607.845 7 122587379.091 7                  95522456.758 7  91542402.205 7
R02  20924289.797 8  20924292.560 7 111656012.718 8  86843396.274 7
R03  19084025.247 8  19084027.230 7 102158279.160 8  79456572.803 7
R04  21659825.913 7  21659830.655 7 115987397.858 7  90212446.653 7
R11  23503644.138 8  23503647.411 7 125596343.24718  97686217.35617
R17  21383280.814 7  21383284.853 7 114426247.098 7  88998202.591 7
R18  19009590.303 8  19009591.293 8 101474476.117 8  78924623.697 8
R19  20792851.463 7  20792853.158 7 111227740.664 7  86510468.764 7
> 2025 06 15 13 07 15.0000000  0 38
C05  39041112.063 5  39041110.793 7 203297320.356 5 157202379.444 7
C06  39004363.532 6  39004360.723 7 203105964.488 6 157054417.429 7
C09  39829067.912 6  39829066.993 6 207400424.710 6 160375171.295 6
C11  25747679.655 5  25747676.977 4 134074930.987 5 103675237.378 4
C12  22082649.925 7  22082646.881 8 114990157.173 7  88917782.201 8
C16  39415790.067 7  39415792.838 7 205248370.256 7 158711062.265 7
C19  23679533.962 7                 123305541.766 7
C21  24344708.601 7                 126769287.662 7
C22  21324081.684 8                 111040085.225 8
C34  23422668.553 7                 121967985.041 7
C35  23997257.767 7                 124960012.101 7
C39  38973381.217 7                 202944617.084 7
C44  21582351.693 8                 112384965.178 8
E03  27295596.365 6  27295603.497 7 143439338.570 6 108510964.384 7
E05  22530973.543 8  22530976.285 9 118401067.411 8  89569652.975 9
E06  26244616.673 7  26244620.783 8 137916387.616 7 104332863.942 8
E09  24854257.952 7  24854260.262 8 130610003.962 7  98805629.094 8
E15  26155342.806 7  26155347.496 8 137447257.913 7 103977979.012 8
E27  27809274.411 5  27809280.721 7 146138720.59515 110553013.199 7
E34  23227295.643 8  23227298.086 9 122060263.470 8  92337804.876 9
E36  24805223.600 7  24805227.467 9 130352333.970 7  98610661.934 9
G01  19979830.774 8                  19979834.114 8  19979835.740 9 104994713.541 8                  81814079.443 8  78405164.405 9
G02  21225902.362 7  21225903.356 6                                 111542862.581 7  86916418.954 6                
G03  20251498.944 8                  20251504.402 7  20251503.011 9 106422336.250 8                  82926672.583 7  79471422.915 9
G04  23507537.993 6                  23507545.924 7  23507547.551 7 123532963.301 6                  96259488.620 7  92248692.882 7
G08  24612439.531 6                  24612451.873 6  24612449.579 7 129339213.840 6                 100783841.439 6  96584500.838 7
G17  22459633.306 7                  22459636.686 7                 118026167.375 7                  91968620.322 7
G19  23730107.985 5                                                 124702436.669 5                                
G28  23481707.183 7                  23481713.488 7  23481716.213 8 123397212.402 7                  96153873.899 7  92147472.073 8
G31  23921093.238 6                  23921101.036 6                 125706401.273 6                  97952927.542 6
G32  23335391.987 7                  23335398.987 7  23335395.403 7 122628303.080 7                  95554345.549 7  91572962.285 7
R02  20933121.687 8  20933124.662 7 111703141.876 8  86880052.292 7
R03  19081814.305 8  19081817.048 7 102146445.029 8  79447368.483 7
R04  21649038.920 7  21649044.439 7 115929637.601 7  90167522.084 7
R11  23500606.768 7  23500610.286 7 125580113.838 7  97673594.527 7
R17  21393478.589 8  21393483.227 7 114480816.367 8  89040645.313 7
R18  19011025.934 8  19011027.264 8 101482140.989 8  78930585.246 8
R19  20783478.335 8  20783480.254 7 111177600.416 8  86471470.813 7
> 2025 06 15 13 07 30.0000000  0 38
C05  39040814.726 6  39040813.614 7 203295772.530 6 157201182.577 7
C06  39000369.792 6  39000366.479 7 203085165.797 6 157038334.610 7
C09  39824121.521 6  39824120.739 7 207374667.023 6 160355253.835 7
C11  25738384.340 5  25738388.477 5 134026530.65015 103637811.30115
C12  22079721.639 7  22079719.050 8 114974911.501 7  88905993.290 8
C16  39412247.147 7  39412248.950 7 205229918.741 7 158696794.384 7
C19  23686462.028 7                 123341617.612 7
C21  24336136.961 7                 126724653.291 7
C22  21322682.674 8                 111032801.271 8
C34  23415817.888 7                 121932312.847 7
C35  24005967.485 7                 125005364.419 7
C39  38971047.048 7                 202932462.613 7
C44  21584613.709 8                 112396744.011 8
E03  27286114.052 6  27286120.779 7 143389507.816 6 108473267.809 7
E05  22525845.839 8  22525848.760 9 118374122.171 8  89549269.103 9
E06  26250882.576 7  26250886.324 8 137949313.148 7 104357771.852 8
E09  24857604.209 8  24857606.297 9 130627587.185 8  98818930.677 9
E15  26147888.792 7  26147893.528 8 137408087.626 7 103948346.970 8
E27  27813107.005 4  27813118.089 7 146158884.700 4 110568267.215 7
E34  23225540.726 8  23225543.017 9 122051040.662 8  92330827.896 9
E36  24810601.209 7  24810605.205 9 130380594.152 7  98632040.564 9
G01  19979379.226 8                  19979382.378 8  19979383.924 9 104992340.110 8                  81812230.009 8  78403392.023 9
G02  21230612.096 7  21230613.098 6                                 111567612.150 7  86935704.305 6                
G03  20246889.153 8                  20246894.753 7  20246893.145 8 106398111.757 8                  82907796.358 7  79453333.210 8
G04  23496635.624 6                  23496642.859 7  23496644.576 7 123475667.841 6                  96214842.872 7  92205907.420 7
G08  24622789.338 6                  24622801.343 6  24622798.864 7 129393600.718 6                 100826220.660 6  96625114.266 7
G17  22455562.704 7                  22455566.526 7                 118004776.751 7                  91951952.288 7
G19  23720915.468 5                                                 124654130.566 5                                
G28  23476641.102 7                  23476647.633 7  23476650.641 8 123370591.403 7                  96133130.291 7  92127592.792 8
G31  23912109.780 6                  23912117.254 7                 125659190.952 6                  97916140.264 7
G32  23343192.620 7                  23343198.956 7  23343196.075 7 122669294.902 7                  95586287.194 7  91603573.033 7
R02  20941968.942 8  20941971.660 7 111750352.273 8  86916771.463 7
R03  19079633.707 8  19079636.606 7 102134773.494 8  79438290.626 7
R04  21638268.025 7  21638272.441 7 115871957.269 7  90122659.665 7
R11  23497602.505 7  23497606.800 7 125564061.264 7  97661109.175 7
R17  21403692.479 8  21403697.015 7 114535473.916 8  89083156.704 7
R18  19012493.694 8  19012495.485 8 101489976.991 8  78936679.918 8
R19  20774122.162 8  20774124.020 7 111127550.572 8  86432543.197 7
> 2025 06 15 13 07 45.0000000  0 38
C05  39040516.377 6  39040515.267 7 203294219.115 6 157199981.380 7
C06  38996381.166 6  38996377.955 7 203064397.278 6 157022275.104 7
C09  39819178.756 6  39819177.967 7 207348928.260 6 160335350.996 7
C11  25729093.375 5  25729103.585 5 133978156.542 5 103600405.479 5
C12  22076814.657 7  22076811.814 8 114959772.865 7  88894287.148 8
C16  39408709.254 6  39408711.558 7 205211498.730 6 158682550.869 7
C19  23693398.445 7                 123377738.211 7
C21  24327574.073 7                 126680065.184 7
C22  21321302.531 8                 111025613.812 8
C34  23408981.963 7                 121896715.659 7
C35  24014686.094 7                 125050762.880 7
C39  38968719.760 7                 202920345.525 7
C44  21586897.187 8                 112408634.557 8
E03  27276633.399 7  27276639.889 7 143339687.062 7 108435578.812 7
E05  22520734.131 8  22520737.160 9 118347260.617 8  89528948.539 9
E06  26257158.429 7  26257162.312 8 137982293.963 7 104382721.600 8
E09  24860966.296 8  24860968.658 9 130645256.507 8  98832297.407 9
E15  26140437.111 7  26140441.661 8 137368928.780 7 103918723.594 8
E27  27816963.010 4  27816970.742 7                 110583582.588 7
E34  23223797.234 8  23223799.666 9 122041879.165 8  92323897.284 9
E36  24815987.614 7  24815991.965 9 130408901.383 7  98653454.779 9
G01  19978948.532 7                  19978951.551 8  19978953.231 9 104990076.058 7                  81810465.813 8  78401701.343 9
G02  21235337.576 7  21235338.710 6                                 111592445.457 7  86955054.929 6                
G03  20242296.433 8                  20242301.799 7  20242300.181 8 106373975.785 8                  82888989.110 7  79435309.584 8
G04  23485738.040 6                  23485744.907 7  23485747.116 7 123418401.595 6                  96170219.915 7  92163143.752 7
G08  24633136.629 6                  24633148.342 6  24633146.590 7 129447977.250 6                 100868591.811 6  96665719.955 7
G17  22451515.067 7                  22451518.686 7                 117983505.168 7                  91935376.998 7
G19  23711738.854 6                                                 124605905.412 6                                
G28  23471597.598 7                  23471603.344 7  23471606.106 8 123344083.178 7                  96112474.548 7  92107797.691 8
G31  23903135.465 6                  23903143.216 6                 125612034.348 6                  97879394.997 6
G32  23351005.555 7                  23351012.505 7  23351009.490 7 122710352.933 7                  95618280.423 7  91634233.233 7
R02  20950831.161 8  20950833.991 7 111797642.146 8  86953552.450 7
R03  19077484.023 8  19077486.775 8 102123263.853 8  79429338.688 8
R04  21627511.107 7  21627516.084 7 115814355.591 7  90077858.386 7
R11  23494631.615 8  23494635.005 6 125548184.140 8  97648760.339 6
R17  21413922.762 8  21413927.355 7 114590218.183 8  89125735.525 7
R18  19013993.566 8  19013995.303 8 101497982.786 8  78942906.649 8
R19  20764782.887 8  20764783.661 7 111077589.913 8  86393684.946 7
> 2025 06 15 13 08  0.0000000  0 38
C05  39040216.860 5  39040216.016 7 203292659.979 5 157198775.763 7
C06  38992398.470 6  38992395.218 7 203043658.743 6 157006238.775 7
C09  39814239.343 6  39814238.692 7 207323208.174 6 160315462.612 7
C11  25719811.258 6  25719822.212 5 133929808.620 6 103563019.838 5
C12  22073927.978 7  22073925.292 8 114944741.049 7  88882663.599 8
C16  39405176.885 6  39405180.153 7 205193109.964 6 158668331.521 7
C19  23700343.010 7                 123413903.151 7
C21  24319020.039 7                 126635523.224 7
C22  21319940.692 8                 111018522.604 8
C34  23402160.422 8                 121861193.535 8
C35  24023413.757 7                 125096207.019 7
C39  38966400.077 7                 202908265.593 7
C44  21589202.039 8                 112420636.564 8
E03  27267154.607 7  27267161.052 7 143289876.207 7 108397897.354 7
E05  22515638.394 8  22515641.437 9 118320482.627 8  89508691.187 9
E06  26263444.750 7  26263448.797 8 138015329.705 7 104407712.893 8
E09  24864344.750 8  24864347.318 9 130663011.553 8  98845728.992 9
E15  26132987.735 7  26132992.059 8 137329781.307 7 103889108.786 8
E27  27820831.629 5  27820838.474 7 146199455.86515 110598959.084 7
E34  23222065.484 8  23222067.942 9 122032778.841 8  92317012.959 9
E36  24821383.614 7  24821387.627 9 130437255.376 7  98674904.386 9
G01  19978538.656 7                  19978541.235 8  19978543.038 9 104987921.242 7                  81808786.757 8  78400092.238 9
G02  21240079.247 7  21240080.171 6                                 111617362.285 7  86974470.643 6                
G03  20237720.429 8                  20237725.406 7  20237724.229 8 106349928.146 8                  82870250.698 7  79417351.955 8
G04  23474846.131 6                  23474852.968 7  23474854.954 7 123361164.597 6                  96125619.758 7  92120401.948 7
G08  24643482.839 6                  24643494.224 5  24643492.065 7 129502342.849 6                 100910954.519 5  96706317.513 7
G17  22447489.765 7                  22447493.554 7                 117962352.597 7                  91918894.498 7
G19  23702577.305 6                                                 124557761.271 6                                
G28  23466575.139 7                  23466580.325 7  23466583.136 8 123317687.761 7                  96091906.699 7  92088086.846 8
G31  23894172.964 6                  23894179.654 6                 125564931.773 6                  97842691.767 6
G32  23358830.723 7                  23358837.852 7  23358835.162 7 122751476.685 7                  95650324.867 7  91664942.481 7
R02  20959708.385 8  20959711.070 7 111845010.796 8  86990394.718 7
R03  19075363.941 8  19075366.162 7 102111915.602 8  79420512.267 7
R04  21616769.316 8  21616773.404 7 115756832.615 8  90033118.368 7
R11  23491692.992 7  23491696.330 7 125532482.405 7  97636547.826 7
R17  21424169.114 7  21424174.176 7 114645048.399 7  89168381.185 7
R18  19015525.124 8  19015526.951 7 101506158.179 8  78949265.271 7
R19  20755459.916 8  20755460.664 7 111027718.720 8  86354896.262 7
> 2025 06 15 13 08 15.0000000  0 37
C05  39039916.869 6  39039915.167 7 203291095.039 6 157197565.656 7
C06  38988421.384 6  38988418.621 7 203022950.271 6 156990225.694 7
C09  39809303.574 6  39809303.243 7 207297507.059 6 160295588.884 7
C11  25710530.579 5  25710543.084 4 133881487.259 5 103525654.650 4
C12  22071062.209 7  22071058.978 8 114929816.489 7  88871122.987 8
C16  39401651.194 6  39401654.539 7 205174752.721 6 158654136.528 7
C19  23707297.207 7                 123450112.386 7
C21  24310475.240 7                 126591027.644 7
C22  21318597.280 8                 111011527.711 8
C34  23395353.261 8                 121825746.863 8
C35  24032149.829 7                 125141696.777 7
C39  38964087.629 7                 202896222.973 7
C44  21591528.321 8                 112432750.166 8
E03  27257677.704 7  27257684.224 7 143240075.688 7 108360223.638 7
E05  22510558.948 8  22510561.692 9 118293788.483 8  89488497.261 9
E06  26269741.877 7  26269745.822 8 138048420.303 7 104432745.686 8
E09  24867740.201 8  24867742.412 9 130680852.345 8  98859225.416 9
E15  26125540.185 7  26125544.753 8 137290645.438 7 103859502.762 8
E34  23220345.479 8  23220347.896 9 122023739.985 8  92310175.117 9
E36  24826788.386 7  24826792.206 9 130465656.292 7  98696389.471 9
G01  19978149.664 8                  19978152.211 8  19978153.869 9 104985875.966 8                  81807193.002 8  78398564.904 9
G02  21244836.987 7  21244837.742 6                                 111642362.693 7  86993951.460 6                
G03  20233160.440 8                  20233166.211 7  20233165.077 9 106325969.102 8                  82851581.330 7  79399460.465 9
G04  23463959.527 6                  23463966.888 7  23463968.790 7 123303957.366 6                  96081042.790 7  92077682.331 7
G08  24653825.721 6                  24653837.332 6  24653835.416 7 129556697.359 6                 100953308.615 6  96746906.798 7
G17  22443487.158 7                  22443490.783 7                 117941319.331 7                  91902504.970 7
G19  23693431.397 6                                                 124509698.827 6                                
G28  23461574.098 7                  23461578.877 7  23461581.883 8 123291405.593 7                  96071427.117 7  92068460.576 8
G31  23885219.309 6                  23885226.662 6                 125517883.775 6                  97806031.049 6
G32  23366668.938 7                  23366676.179 7  23366673.044 7 122792665.964 7                  95682420.388 7  91695700.691 7
R02  20968599.422 8  20968602.450 7 111892457.868 8  87027297.991 7
R03  19073274.659 8  19073276.392 7 102100728.918 8  79411811.532 7
R04  21606042.117 8  21606046.726 7 115699388.575 8  89988439.757 7
R11  23488787.931 8  23488791.257 7 125516956.391 8  97624472.016 7
R17  21434431.835 8  21434436.347 7 114699964.663 8  89211093.788 7
R18  19017088.155 8  19017090.161 7 101514503.286 8  78955755.909 7
R19  20746153.684 8  20746154.510 7 110977937.657 8  86316177.657 7
> 2025 06 15 13 08 30.0000000  0 38
C05  39039615.531 5  39039614.195 7 203289527.600 5 157196353.608 7
C06  38984451.143 6  38984448.043 7 203002275.043 6 156974238.324 7
C09  39804372.246 6  39804371.856 7 207271828.017 6 160275732.231 7
C11  25701257.470 6  25701263.484 4 133833195.803 6 103488312.636 4
C12  22068217.427 7  22068213.915 8 114915002.311 7  88859667.728 8
C16  39398133.918 7  39398136.172 7 205156430.017 7 158639968.267 7
C19  23714259.968 7                 123486368.740 7
C21  24301940.008 7                 126546581.678 7
C22  21317273.551 8                 111004632.185 8
C34  23388561.336 8                 121790378.916 8
C35  24040894.488 7                 125187235.033 7
C39  38961782.575 7                 202884220.763 7
C44  21593876.534 8                 112444978.334 8
E03  27248203.495 6  27248210.036 7 143190288.632 6 108322560.166 7
E05  22505495.804 8  22505498.514 9 118267181.358 8  89468369.165 9
E06  26276049.930 7  26276053.780 8 138081568.609 7 104457822.155 8
E09  24871151.772 7  24871154.327 9 130698781.789 7  98872788.927 9
E15  26118095.975 7  26118100.392 8 137251524.414 7 103829907.982 8
E27                  27828620.565 7                 110629897.409 7
E34  23218637.703 8  23218640.122 9 122014765.728 8  92303386.159 9
E36  24832202.499 7  24832206.273 9 130494107.193 7  98717912.367 9
G01  19977781.094 8                  19977784.480 8  19977786.129 9 104983943.308 8                  81805687.045 8  78397121.689 9
G02  21249610.887 7  21249611.669 6                                 111667449.789 7  87013499.829 6                
G03  20228618.689 8                  20228624.502 7  20228623.091 8 106302101.754 8                  82832983.407 7  79381637.470 8
G04  23453079.917 6                  23453086.732 7  23453088.938 7 123246783.232 6                  96036491.586 7  92034987.456 7
G08  24664166.841 5                  24664179.039 5  24664177.041 7 129611043.676 5                 100995656.240 5  96787489.895 7
G17  22439508.102 7                  22439511.895 7                 117920408.715 7                  91886210.970 7
G19  23684302.106 5                                                 124461721.290 5                                
G28  23456594.006 7                  23456599.740 7  23456602.666 8 123265240.083 7                  96051038.419 7  92048921.398 8
G31  23876277.757 6                  23876284.869 6                 125470893.961 6                  97769415.709 6
G32  23374520.110 7                  23374527.065 7  23374523.651 7 122833923.617 7                  95714569.189 7  91726509.938 7
R02  20977506.514 8  20977509.152 7 111939986.315 8  87064264.534 7
R03  19071215.423 8  19071217.366 7 102089706.502 8  79403238.538 7
R04  21595330.490 7  21595335.136 7 115642027.172 7  89943825.353 7
R11  23485915.235 7  23485918.401 6 125501609.454 7  97612535.529 6
R17  21444710.671 7  21444715.312 7 114754969.669 7  89253875.412 7
R18  19018684.266 8  19018685.817 8 101523021.391 8  78962381.094 8
R19  20736865.219 8  20736866.260 7 110928250.464 8  86277532.083 7
> 2025 06 15 13 08 45.0000000  0 38
C05  39039314.753 5  39039313.367 7 203287960.925 5 157195142.173 7
C06  38980487.143 6  38980484.630 7 202981636.427 6 156958279.273 7
C09  39799445.919 6  39799445.061 7 207246174.442 6 160255895.265 7
C11  25691989.636 6  25691987.427 5 133784937.795 6 103450996.466 5
C12  22065394.173 7  22065391.186 8 114900302.065 7  88848300.573 8
C16  39394622.218 7  39394624.585 7 205138145.298 7 158625829.377 7
C19  23721232.006 7                 123522675.436 7
C21  24293414.659 7                 126502188.881 7
C22  21315968.913 8                 110997839.365 8
C34  23381784.766 8                 121755093.326 8
C35  24049649.444 7                 125232824.996 7
C39  38959486.113 7                 202872262.400 7
C44  21596247.553 8                 112457324.445 8
E03  27238732.573 6  27238739.120 7 143140518.763 6 108284909.703 7
E05  22500449.885 8  22500452.560 9 118240664.789 8  89448309.571 9
E06  26282369.496 7  26282373.274 8 138114777.903 7 104482944.736 8
E09  24874580.714 7  24874583.633 9 130716803.177 7  98886421.976 9
E15  26110654.897 7  26110659.461 8 137212421.739 7 103800327.089 8
E27                  27832536.337 7                 110645463.919 7
E34  23216942.945 8  23216945.300 9 122005859.631 8  92296648.747 9
E36  24837626.355 7  24837630.488 8 130522611.392 7  98739475.608 8
G01  19977435.685 8                  19977438.612 8  19977440.548 9 104982126.816 8                  81804271.604 8  78395765.220 9
G02  21254402.018 7  21254402.721 6                                 111692626.900 7  87033118.324 6                
G03  20224095.340 8                  20224100.749 7  20224099.471 8 106278329.630 8                  82814459.684 7  79363885.566 8
G04  23442207.411 6                  23442213.917 7  23442215.480 7 123189645.900 6                  95991969.037 7  91992320.064 7
G08  24674508.583 6                  24674519.724 5  24674517.806 7 129665384.764 6                 101037999.872 5  96828069.156 7
G17  22435552.856 7                  22435556.602 7                 117899624.416 7                  91870015.412 7
G19  23675187.738 5                                                 124413832.55915                                
G28  23451638.246 7                  23451643.354 7  23451646.989 8 123239194.882 7                  96030743.451 7  92029472.079 8
G31  23867347.633 6                  23867354.654 7                 125423966.253 6                  97732848.708 7
G32  23382384.916 7                  23382391.901 7  23382388.367 7 122875252.752 7                  95746773.676 7  91757372.588 7
R02  20986428.927 8  20986431.989 7 111987599.104 8  87101296.681 7
R03  19069187.569 8  19069190.039 7 102078852.494 8  79394796.548 7
R04  21584634.495 7  21584639.438 7 115584752.106 7  89899278.147 7
R11  23483077.806 7  23483080.814 7 125486445.299 7  97600741.146 7
R17  21455007.029 8  21455011.049 7 114810066.684 8  89296728.562 7
R18  19020312.843 8  19020314.483 8 101531716.015 8  78969143.559 8
R19  20727595.108 8  20727596.582 7 110878660.620 8  86238962.214 7
> 2025 06 15 13 09  0.0000000  0 37
C05  39039013.711 6  39039012.590 7 203286393.889 6 157193930.439 7
C06  38976530.900 6  38976528.156 7 202961033.482 6 156942347.813 7
C09  39794523.692 6  39794523.301 7 207220545.315 6 160236077.218 7
C11  25682729.972 6  25682725.798 4 133736712.520 6 103413705.642 4
C12  22062592.984 8  22062589.800 8 114885714.887 8  88837020.834 8
C16  39391117.988 7  39391120.548 7 205119897.532 7 158611719.066 7
C19  23728213.783 7                 123559031.137 7
C21  24284899.834 7                 126457848.242 7
C22  21314683.742 8                 110991148.082 8
C34  23375024.343 8                 121719889.221 8
C35  24058413.925 7                 125278465.293 7
C39  38957197.819 7                 202860346.737 7
C44  21598641.145 8                 112469787.329 8
E03  27229264.544 7  27229271.128 7 143090765.124 7 108247271.482 7
E05  22495421.170 8  22495423.652 9 118214237.772 8  89428317.711 9
E06  26288700.139 7  26288704.076 8 138148046.850 7 104508112.456 8
E09  24878027.657 7  24878030.253 9 130734915.262 7  98900123.638 9
E15  26103217.778 7  26103221.767 8 137173336.415 7 103770759.341 8
E27  27836463.263 5  27836468.255 6 146281659.81715 110661095.179 6
E34  23215260.988 8  23215263.293 9 121997020.644 8  92289962.128 9
E36  24843060.459 7  24843064.583 9 130551167.842 7  98761078.370 9
G01  19977112.073 8                  19977114.881 8  19977116.866 9 104980425.482 8                  81802945.886 8  78394494.744 9
G02  21259209.776 7  21259210.735 6                                 111717892.868 7  87052806.079 6                
G03  20219589.561 8                  20219595.127 7  20219593.623 8 106254651.640 8                  82796009.306 7  79346203.961 8
G04  23431340.692 6                  23431348.239 7  23431349.768 7 123132544.519 6                  95947474.526 7  91949679.510 7
G17  22431621.384 7                  22431624.981 7                 117878965.375 7                  91853917.520 7
G19  23666091.211 5                                                 124366031.876 5                                
G28  23446704.955 7                  23446709.873 7  23446713.445 8 123213269.157 7                  96010541.609 7  92010112.008 8
G31  23858429.302 6                  23858436.486 7                 125377099.822 6                  97696329.502 7
G32  23390262.862 7                  23390269.885 7  23390266.508 7 122916652.008 7                  95779032.768 7  91788287.555 7
R02  20995367.344 8  20995370.861 7 112035294.586 8  87138393.138 7
R03  19067191.183 8  19067193.134 7 102068165.057 8  79386484.082 7
R04  21573954.718 7  21573959.141 7 115527562.640 7  89854797.496 7
R11  23480274.324 7  23480277.626 7 125471462.924 7  97589088.174 7
R17  21465320.098 7  21465324.683 7 114865254.078 7  89339652.075 7
R18  19021974.452 7  19021975.953 7 101540586.004 7  78976042.448 7
R19  20718342.548 7  20718344.131 7 110829167.918 7  86200467.955 7
> 2025 06 15 13 09 15.0000000  0 37
C05  39038712.895 5  39038711.599 7 203284826.649 5 157192718.570 7
C06  38972581.798 6  38972578.150 7 202940466.096 6 156926443.846 7
C09  39789606.210 6  39789605.967 7 207194940.728 6 160216278.159 7
C11  25673474.914 5  25673469.771 5 133688520.104 5 103376440.176 5
C12  22059813.281 7  22059810.294 8 114871240.854 7  88825828.604 8
C16  39387620.934 7  39387623.393 6 205101686.721 7 158597637.313 6
C19  23735204.957 7                 123595435.691 7
C21  24276394.451 7                 126413559.908 7
C22  21313418.208 8                 110984558.313 8
C34  23368279.634 8                 121684766.893 8
C35  24067188.677 7                 125324155.774 7
C39  38954917.874 7                 202848473.774 7
C44  21601056.786 8                 112482366.979 8
E03  27219799.312 6  27219806.433 7 143041027.911 6 108209645.688 7
E05  22490409.238 8  22490411.826 9 118187900.426 8  89408393.696 9
E06  26295042.142 7  26295046.195 8 138181375.286 7 104533325.165 8
E09  24881491.357 7  24881494.166 9 130753117.865 7  98913893.800 9
E15  26095783.025 7  26095787.354 8 137134268.659 7 103741204.852 8
E27  27840412.217 5  27840416.594 6 146302407.978 5 110676791.035 6
E34  23213591.772 8  23213594.113 9 121988248.935 8  92283326.377 9
E36  24848504.561 7  24848508.579 9 130579776.503 7  98782720.619 9
G01  19976810.482 8                  19976813.483 8  19976814.742 9 104978839.379 8                  81801709.951 8  78393310.310 9
G02  21264034.643 7  21264035.780 6                                 111743247.553 7  87072562.970 6                
G03  20215101.476 8                  20215107.256 7  20215105.716 8 106231067.867 8                  82777632.321 7  79328592.695 8
G04  23420482.161 6                  23420488.730 7  23420491.116 7 123075479.391 6                  95903008.281 7  91907066.017 7
G17  22427714.188 7                  22427718.134 7                 117858431.813 7                  91837917.297 7
G19  23657012.900 4                                                 124318319.65014                                
G28  23441794.543 7                  23441799.246 7  23441802.608 8 123187463.287 7                  95990433.123 7  91990841.380 8
G31  23849522.413 6                  23849529.485 7                 125330294.996 6                  97659858.293 7
G32  23398154.238 7                  23398160.964 7  23398158.102 7 122958121.058 7                  95811346.281 7  91819254.667 7
R02  21004320.583 8  21004323.714 7 112083072.450 8  87175553.688 7
R03  19065225.570 8  19065227.859 7 102057644.525 8  79378301.453 7
R04  21563290.855 7  21563295.267 7 115470459.055 7  89810383.619 7
R11  23477504.590 7  23477508.837 7 125456662.510 7  97577576.810 7
R17  21475650.362 7  21475654.508 7 114920531.944 7  89382645.899 7
R18  19023668.772 7  19023670.452 8 101549631.400 7  78983077.751 8
R19  20709108.976 8  20709109.553 7 110779772.862 8  86162049.587 7
> 2025 06 15 13 09 30.0000000  0 37
C05  39038411.491 6  39038410.833 7 203283259.599 6 157191506.816 7
C06  38968638.822 6  38968635.475 7 202919934.963 6 156910567.886 7
C09  39784694.541 6  39784693.867 7 207169361.247 6 160196498.507 7
C11  25664225.372 5  25664222.010 4 133640361.252 5 103339200.760 4
C12  22057055.334 7  22057052.657 8 114856880.684 7  88814724.425 8
C16  39384130.398 7  39384133.166 6 205083513.432 7 158583584.559 6
C19  23742205.483 7                 123631889.390 7
C21  24267899.405 7                 126369324.460 7
C22  21312172.377 8                 110978070.500 8
C34  23361550.246 7                 121649727.038 7
C35  24075972.625 7                 125369896.667 7
C39  38952646.113 7                 202836644.076 7
C44  21603494.919 8                 112495063.789 8
E03  27210337.893 7  27210344.820 7 142991307.694 7 108172032.858 7
E05  22485414.797 8  22485417.133 9 118161653.350 8  89388537.981 9
E06  26301396.016 7  26301399.703 8 138214763.476 7 104558583.122 8
E09  24884972.963 7  24884975.325 9 130771411.369 7  98927732.707 9
E15  26088352.339 7  26088356.382 8 137095219.032 7 103711664.073 8
E27  27844375.956 5  27844380.675 6 146323241.958 5 110692551.735 6
E34  23211935.356 8  23211937.817 9 121979545.068 8  92276741.968 9
E36  24853958.099 7  24853962.549 8 130608437.831 7  98804402.707 8
G01  19976530.721 8                  19976533.498 8  19976534.913 9 104977369.102 8                  81800564.290 8  78392212.383 9
G02  21268876.314 7  21268877.833 6                                 111768691.440 7  87092389.342 6                
G03  20210631.801 8                  20210637.252 7  20210635.979 9 106207578.866 8                  82759329.203 7  79311052.211 9
G04  23409629.933 6                  23409635.895 7  23409638.801 7 123018451.288 6                  95858570.871 7  91864480.214 7
G17  22423830.687 7                  22423834.770 7                 117838024.208 7                  91822015.253 7
G19  23647950.360 5                                                 124270696.503 5                                
G28  23436906.137 7                  23436911.133 7  23436914.552 8 123161777.908 7                  95970418.622 7  91971660.796 8
G31  23840627.933 6                  23840635.307 7                 125283552.830 6                  97623435.879 7
G32  23406059.226 7                  23406066.031 7  23406062.926 7 122999660.122 7                  95843714.353 7  91850274.067 7
R02  21013290.210 8  21013292.621 7 112130932.805 8  87212778.370 7
R03  19063291.620 8  19063293.671 7 102047291.563 8  79370249.136 7
R04  21552643.620 7  21552647.305 7 115413442.049 7  89766037.154 7
R11  23474769.112 7  23474772.104 7 125442044.860 7  97566207.506 7
R17  21485997.250 7  21486001.407 7 114975900.026 7  89425709.908 7
R18  19025395.928 7  19025398.088 8 101558852.788 7  78990249.955 8
R19  20699893.468 8  20699894.099 7 110730475.983 8  86123707.565 7
> 2025 06 15 13 09 45.0000000  0 37
C05  39038109.936 5  39038108.899 7 203281687.777 5 157190291.399 7
C06  38964701.728 6  38964698.443 7 202899435.104 6 156894716.129 7
C09  39779786.025 6  39779785.428 7 207143801.886 6 160176734.413 7
C11  25654981.584 5  25654976.940 4 133592231.385 5 103301983.782 4
C12  22054318.687 7  22054315.755 8 114842629.469 7  88803704.495 8
C16  39380646.618 7  39380649.449 6 205065372.679 7 158569556.979 6
C19  23749214.361 7                 123668386.983 7
C21  24259413.720 7                 126325137.072 7
C22  21310945.051 8                 110971679.573 8
C34  23354836.209 7                 121614764.917 7
C35  24084765.694 7                 125415682.858 7
C39  38950381.897 7                 202824852.651 7
C44  21605954.729 8                 112507872.827 8
E03  27200879.228 7  27200885.489 7 142941599.860 7 108134429.289 7
E05  22480436.069 8  22480438.760 9 118135491.645 8  89368746.832 9
E06  26307759.760 7  26307763.598 8 138248206.204 7 104583882.305 8
E09  24888470.614 7  24888472.672 9 130789790.579 7  98941636.434 9
E15  26080924.015 7  26080927.956 8 137056182.640 7 103682133.295 8
E27  27848355.825 5  27848360.182 6 146344156.392 5 110708373.361 6
E34  23210291.147 8  23210293.470 9 121970904.116 8  92270205.154 9
E36  24859421.417 7  24859425.641 8 130637146.778 7  98826120.809 8
G01  19976271.382 8                  19976274.969 8  19976276.573 9 104976009.714 8                  81799505.017 8  78391197.255 9
G02  21273734.463 7  21273735.721 6                                 111794219.461 7  87112281.297 6                
G03  20206178.922 8                  20206184.757 7  20206183.343 9 106184179.653 8                  82741096.083 7  79293578.804 9
G04  23398783.929 6                  23398790.266 7  23398792.534 7 122961455.521 6                  95814158.681 7  91821918.572 7
G17  22419970.454 7                  22419974.265 7                 117817737.763 7                  91806207.644 7
G19  23638904.165 5                                                 124223158.141 5                                
G28  23432040.808 7                  23432045.434 7  23432048.898 8 123136208.460 7                  95950494.367 7  91952566.710 8
G31  23831744.277 6                  23831751.446 7                 125236868.535 6                  97587058.626 7
G32  23413975.833 7                  23413982.689 7  23413979.937 7 123041263.898 7                  95876132.864 7  91881341.811 7
R02  21022273.318 8  21022276.171 7 112178870.104 8  87250062.918 7
R03  19061388.240 8  19061390.122 7 102037100.234 8  79362322.560 7
R04  21542011.119 8  21542015.043 7 115356506.951 8  89721754.355 7
R11  23472067.002 8  23472070.450 6 125427604.897 8  97554976.496 6
R17  21496360.228 7  21496364.676 7 115031353.073 7  89468840.003 7
R18  19027155.946 8  19027157.594 7 101568245.085 8  78997555.030 7
R19  20690695.377 8  20690696.367 7 110681272.737 8  86085438.402 7
> 2025 06 15 13 10  0.0000000  0 37
C05  39037808.339 5  39037806.718 7 203280115.246 5 157189075.428 7
C06  38960771.740 6  38960768.081 7 202878970.587 6 156878891.667 7
C09  39774882.354 6  39774881.663 7 207118266.818 6 160156989.080 7
C11  25645744.240 5  25645739.809 4 133544134.70715 103264792.38914
C12  22051603.587 7  22051600.423 8 114828491.515 7  88792772.113 8
C16  39377170.420 7  39377172.912 7 205047268.597 7 158555557.779 7
C19  23756232.810 7                 123704932.465 7
C21  24250938.130 7                 126281001.918 7
C22  21309737.106 8                 110965389.609 8
C34  23348138.070 8                 121579884.891 8
C35  24093567.535 7                 125461518.146 7
C39  38948125.249 7                 202813103.606 7
C44  21608437.086 8                 112520798.013 8
E03  27191423.326 7  27191429.534 7 142891908.552 7 108096838.237 7
E05  22475474.857 8  22475477.380 9 118109419.519 8  89349023.455 9
E06  26314134.848 7  26314138.521 8 138281707.393 7 104609225.734 8
E09  24891984.312 7  24891987.178 9 130808259.456 7  98955608.032 9
E15  26073498.571 7  26073502.851 8 137017163.682 7 103652615.746 8
E27                  27852356.398 7                 110724258.864 7
E34  23208659.748 8  23208661.986 9 121962330.317 8  92263719.135 9
E36  24864894.644 7  24864898.595 8 130665907.425 7  98847878.022 8
G01  19976035.276 8                  19976038.218 8  19976039.930 9 104974765.399 8                  81798535.436 8  78390268.063 9
G02  21278609.006 7  21278610.517 6                                 111819835.771 7  87132242.034 6                
G03  20201744.480 8                  20201749.638 7  20201748.350 9 106160874.451 8                  82722936.194 7  79276175.580 9
G04  23387944.798 6                  23387951.655 7  23387953.211 7 122904496.530 6                  95769775.070 7  91779384.338 7
G17  22416134.112 7                  22416137.955 7                 117797576.914 7                  91790497.921 7
G19  23629874.239 5                                                 124175708.881 5                                
G28  23427197.954 7                  23427202.746 7  23427206.006 8 123110759.217 7                  95930663.825 7  91933562.438 8
G31  23822872.639 6                  23822879.590 7                 125190246.900 6                  97550730.116 7
G32  23421906.078 7                  23421912.495 7  23421909.684 7 123082936.222 7                  95908604.766 7  91912460.672 7
R02  21031271.759 8  21031274.636 7 112226888.173 8  87287410.313 7
R03  19059514.922 8  19059517.404 7 102027075.144 8  79354525.293 7
R04  21531394.933 8  21531398.883 7 115299658.008 8  89677538.552 7
R11  23469398.395 8  23469401.177 6 125413347.177 8  97543887.151 6
R17  21506739.238 7  21506744.130 7 115086894.886 7  89512039.149 7
R18  19028948.152 8  19028949.914 7 101577812.507 8  79004996.372 7
R19  20681515.837 8  20681516.986 7 110632168.054 8  86047245.885 7
> 2025 06 15 13 10 15.0000000  0 37
C05  39037506.455 6  39037505.332 7 203278545.579 6 157187861.650 7
C06  38956848.994 6  38956845.629 7 202858544.998 6 156863097.328 7
C09  39769984.412 6  39769983.132 7 207092759.586 6 160137265.293 7
C11  25636516.702 5  25636510.037 5 133496074.935 5 103227629.434 5
C12  22048911.101 7  22048907.741 8 114814470.424 7  88781930.110 8
C16  39373701.477 7  39373704.176 7 205029204.697 7 158541589.642 7
C19  23763261.215 7                 123741529.058 7
C21  24242472.749 7                 126236922.658 7
C22  21308549.200 8                 110959204.034 8
C34  23341456.188 7                 121545090.702 7
C35  24102379.959 7                 125507405.854 7
C39  38945877.741 7                 202801400.486 7
C44  21610941.939 8                 112533842.905 8
E03  27181970.512 7  27181977.162 7 142842237.538 7 108059262.520 7
E05  22470530.907 8  22470533.733 8 118083440.610 8  89329370.603 8
E06  26320521.083 7  26320525.594 8 138315270.404 7 104634615.910 8
E09  24895516.743 7  24895519.434 9 130826821.398 7  98969650.007 9
E15  26066077.296 7  26066081.876 8 136978165.849 7 103623114.184 8
E27                  27856369.296 7                 110740210.775 7
E34  23207041.628 8  23207043.883 9 121953827.284 8  92257286.652 9
E36  24870377.798 7  24870382.037 8 130694723.274 7  98869676.991 8
G01  19975821.029 7                  19975823.815 8  19975825.491 9 104973639.771 7                  81797658.323 8  78389427.510 9
G02  21283501.123 7  21283502.567 6                                 111845543.691 7  87152274.161 6                
G03  20197327.881 8                  20197333.673 7  20197332.154 8 106137666.829 8                  82704852.341 7  79258845.203 8
G04  23377112.862 6                  23377120.412 7  23377121.785 7 122847578.016 6                  95725423.071 7  91736880.324 7
G17  22412322.190 7                  22412326.088 7                 117777545.332 7                  91774888.899 7
G19  23620862.953 5                                                 124128352.528 5                                
G28  23422378.527 7                  23422383.589 7  23422386.762 8 123085434.021 7                  95910929.957 7  91914650.810 8
G31  23814013.520 6                  23814020.030 7                 125143691.669 6                  97514453.427 7
G32  23429849.424 7                  23429856.738 7  23429852.981 7 123124680.343 7                  95941132.648 7  91943633.193 7
R02  21040286.157 8  21040288.981 7 112274990.105 8  87324822.898 7
R03  19057674.138 8  19057676.075 7 102017219.822 8  79346860.048 7
R04  21520795.788 7  21520800.233 7 115242899.318 7  89633392.979 7
R11  23466765.329 7  23466768.500 6 125399275.323 7  97532942.371 6
R17  21517136.260 7  21517140.526 7 115142528.733 7  89555309.851 7
R18  19030774.034 8  19030775.440 7 101587558.604 8  79012576.687 7
R19  20672354.987 8  20672356.373 7 110583165.772 8  86009133.043 7
> 2025 06 15 13 10 30.0000000  0 37
C05  39037205.122 5  39037204.164 7 203276977.395 5 157186649.037 7
C06  38952933.561 6  38952930.110 7 202838157.005 6 156847332.067 7
C09  39765090.692 6  39765089.625 7 207067278.861 6 160117562.017 7
C11  25627293.713 5  25627290.763 5 133448051.176 5 103190494.495 5
C12  22046240.577 7  22046237.421 8 114800565.037 7  88771177.589 8
C16  39370239.942 7  39370242.957 7 205011179.697 7 158527651.580 7
C19  23770298.341 7                 123778175.257 7
C21  24234018.547 7                 126192898.104 7
C22  21307380.861 8                 110953121.486 8
C34  23334790.766 7                 121510381.243 7
C35  24111202.126 7                 125553344.418 7
C39  38943638.782 7                 202789741.883 7
C44  21613469.886 8                 112547006.063 8
E03  27172522.203 7  27172528.478 7 142792585.599 7 108021701.277 7
E05  22465605.080 8  22465607.622 9 118057553.695 8  89309787.341 9
E06  26326919.381 7  26326924.159 8 138348893.689 7 104660051.683 8
E09  24899066.271 7  24899069.115 9 130845474.909 7  98983761.257 9
E15  26058659.787 7  26058664.678 8 136939187.971 7 103593627.668 8
E27  27860394.116 6  27860398.796 7 146407415.122 6 110756228.006 7
E34  23205436.837 8  23205439.100 9 121945393.809 8  92250906.781 9
E36  24875871.793 7  24875875.803 8 130723592.936 7  98891516.691 8
G01  19975628.825 7                  19975632.037 8  19975633.737 9 104972631.617 7                  81796872.733 8  78388674.657 9
G02  21288410.223 7  21288411.612 6                                 111871341.840 7  87172376.616 6                
G03  20192930.115 8                  20192935.594 7  20192934.353 9 106114555.471 8                  82686843.489 7  79241586.738 9
G04  23366288.225 6                  23366296.401 7  23366298.574 7 122790698.971 6                  95681101.834 7  91694405.787 7
G17  22408534.452 7                  22408538.448 7                 117757641.866 7                  91759379.754 7
G19  23611869.246 5                                                 124081088.229 5                                
G28  23417582.263 7                  23417587.950 7  23417590.725 8 123060231.828 7                  95891291.913 7  91895831.021 8
G31  23805166.210 6                  23805173.164 7                 125097202.149 6                  97478227.917 7
G32  23437806.351 7                  23437813.577 7  23437809.663 7 123166494.567 7                  95973715.116 7  91974858.087 7
R02  21049315.715 7  21049318.254 7 112323174.099 7  87362299.322 7
R03  19055864.614 8  19055866.829 7 102007533.254 8  79339326.042 7
R04  21510213.269 7  21510216.764 7 115186229.615 7  89589316.590 7
R11  23464166.320 7  23464170.166 6 125385388.302 7  97522141.364 6
R17  21527549.107 7  21527553.906 7 115198253.114 7  89598650.977 7
R18  19032633.232 7  19032634.602 8 101597482.130 7  79020294.964 8
R19  20663213.398 7  20663215.151 7 110534264.811 7  85971098.992 7
> 2025 06 15 13 10 45.0000000  0 37
C05  39036903.929 6  39036902.604 7 203275407.048 6 157185434.749 7
C06  38949024.991 6  38949021.649 7 202817802.956 6 156831593.055 7
C09  39760201.500 6  39760200.737 7 207041821.101 6 160097876.488 7
C11  25618076.637 5  25618072.350 5 133400059.836 5 103153384.573 5
C12  22043591.728 7  22043588.899 8 114786771.745 7  88760511.735 8
C16  39366785.430 7  39366787.834 7 204993189.930 7 158513740.744 7
C19  23777344.810 7                 123814867.135 7
C21  24225573.781 7                 126148924.684 7
C22  21306232.376 8                 110947138.219 8
C34  23328140.843 7                 121475753.024 7
C35  24120033.220 7                 125599329.997 7
C39  38941407.859 7                 202778124.191 7
C44  21616019.816 8                 112560283.771 8
E03  27163076.604 7  27163083.055 7 142742949.298 7 107984151.814 7
E05  22460695.593 8  22460698.297 9 118031755.152 8  89290270.931 9
E06  26333328.308 7  26333333.289 8 138382573.317 7 104685530.072 8
E09  24902632.542 7  24902635.405 9 130864216.078 7  98997938.841 9
E15  26051246.032 7  26051250.497 8 136900226.376 7 103564153.519 8
E27  27864438.844 6  27864443.657 6 146428670.479 6 110772307.540 6
E34  23203844.447 8  23203846.850 9 121937026.235 8  92244576.765 9
E36  24881375.259 7  24881379.096 9 130752512.693 7  98913394.268 9
G01  19975458.521 8                  19975461.687 8  19975463.667 9 104971737.241 8                  81796175.820 8  78388006.777 9
G02  21293335.624 7  21293337.140 6                                 111897226.393 7  87192546.372 6                
G03  20188550.009 8                  20188555.335 7  20188553.922 8 106091536.751 8                  82668906.836 7  79224397.444 8
G04  23355473.127 6                  23355479.473 7  23355481.198 7 122733856.009 6                  95636808.641 7  91651958.163 7
G17  22404770.426 7                  22404774.625 7                 117737862.923 7                  91743967.591 7
G19  23602891.047 5                                                 124033912.524 5                                
G28  23412809.940 7                  23412814.695 7  23412817.585 8 123035149.156 7                  95871747.034 7  91877100.501 8
G31  23796331.788 6                  23796338.256 7                 125050774.855 6                  97442050.861 7
G32  23445776.224 7                  23445782.975 7  23445779.487 7 123208374.970 7                  96006349.144 7  92006132.375 7
R02  21058360.169 8  21058363.163 7 112371436.078 8  87399836.362 7
R03  19054085.714 8  19054087.705 7 101998010.996 8  79331919.851 7
R04  21499646.565 7  21499650.437 7 115129645.521 7  89545306.743 7
R11  23461601.722 7  23461605.717 6 125371682.364 7  97511481.163 6
R17  21537978.742 7  21537983.707 7 115254063.742 7  89642059.185 7
R18  19034524.380 7  19034526.159 8 101607579.245 7  79028148.291 8
R19  20654090.558 8  20654091.675 7 110485462.010 8  85933141.279 7
> 2025 06 15 13 11  0.0000000  0 37
C05  39036601.726 6  39036600.205 7 203273834.053 6 157184218.403 7
C06  38945122.367 6  38945119.298 7 202797482.473 6 156815880.001 7
C09  39755317.137 6  39755316.232 7 207016385.884 6 160078208.391 7
C11  25608864.713 4  25608861.078 4                
C12  22040964.365 7  22040961.342 8 114773090.338 7  88749932.405 8
C16  39363337.681 7  39363339.757 7 204975235.047 7 158499856.894 7
C19  23784399.790 7                 123851604.104 7
C21  24217139.343 7                 126105002.035 7
C22  21305102.226 8                 110941253.715 8
C34  23321506.225 7                 121441205.927 7
C35  24128873.380 7                 125645361.890 7
C39  38939184.561 7                 202766546.973 7
C44  21618591.601 8                 112573675.525 8
E03  27153633.822 7  27153640.616 7 142693328.293 7 107946613.937 7
E05  22455802.842 8  22455805.744 9 118006044.638 8  89270821.109 9
E06  26339748.095 7  26339752.877 8 138416308.664 7 104711050.597 8
E09  24906215.682 7  24906218.331 9 130883044.376 7  99012182.314 9
E15  26043835.122 7  26043839.294 8 136861280.796 7 103534691.456 8
E27  27868498.444 6  27868504.154 6 146450007.721 6 110788448.991 6
E34  23202264.744 8  23202267.026 9 121928724.222 8  92238296.360 9
E36  24886888.126 7  24886891.878 8 130781482.064 7  98935309.378 8
G01  19975309.985 8                  19975313.153 8  19975314.990 9 104970956.308 8                  81795567.308 8  78387423.612 9
G02  21298277.583 7  21298279.111 6                                 111923196.850 7  87212783.078 6                
G03  20184187.099 8                  20184192.697 7  20184191.198 8 106068610.284 8                  82651042.051 7  79207277.023 8
G04  23344661.709 6                  23344669.315 7  23344670.992 7 122677048.933 6                  95592543.428 7  91609537.360 7
G17  22401030.421 7                  22401034.320 7                 117718208.329 7                  91728652.310 7
G19  23593930.733 5                                                 123986825.344 5                                
G28  23408059.518 7                  23408064.018 7  23408067.371 8 123010185.892 7                  95852295.149 7  91858459.149 8
G31  23787508.345 6                  23787515.326 7                 125004409.895 6                  97405922.406 7
G32  23453758.047 7                  23453764.855 7  23453761.647 7 123250320.761 7                  96039034.150 7  92037455.505 7
R02  21067418.725 7  21067421.639 7 112419774.977 7  87437433.276 7
R03  19052337.341 8  19052339.863 7 101988652.739 8  79324641.205 7
R04  21489095.666 7  21489099.880 7 115073146.771 7  89501363.333 7
R11  23459070.374 7  23459073.845 7 125358157.155 7  97500961.520 7
R17  21548424.515 7  21548428.590 7 115309960.055 7  89685534.063 7
R18  19036448.365 7  19036450.571 8 101617849.693 7  79036136.404 8
R19  20644985.655 8  20644986.931 7 110436757.379 8  85895259.913 7
> 2025 06 15 13 11 15.0000000  0 36
C05  39036299.498 6  39036297.981 7 203272259.052 6 157183000.526 7
C06  38941227.012 6  38941223.397 7 202777196.224 6 156800193.418 7
C09  39750436.716 6  39750436.276 7 206990973.959 6 160058558.296 7
C12  22038358.739 7  22038355.896 8 114759521.627 7  88739440.223 8
C16  39359896.105 7  39359898.627 7 204957315.689 7 158486000.508 7
C19  23791463.270 7                 123888386.634 7
C21  24208714.372 7                 126061130.997 7
C22  21303990.802 8                 110935468.603 8
C34  23314887.566 7                 121406740.833 7
C35  24137721.940 7                 125691440.579 7
C39  38936968.806 7                 202755010.909 7
C44  21621185.298 8                 112587181.909 8
E03  27144194.555 7  27144201.174 7 142643723.463 7 107909088.316 7
E05  22450927.493 8  22450930.086 9 117980422.947 8  89251438.477 9
E06  26346178.241 7  26346183.114 8 138450100.171 7 104736613.610 8
E09  24909815.107 7  24909817.911 9 130901960.263 7  99026492.054 9
E15  26036427.183 7  26036431.309 8 136822352.019 7 103505242.090 8
E27  27872576.077 5  27872580.426 6 146471427.162 5 110804652.652 6
E34  23200697.444 8  23200699.810 9 121920488.578 8  92232066.146 9
E36  24892410.592 7  24892414.228 9 130810501.669 7  98957262.495 9
G01  19975183.288 8                  19975186.280 8  19975187.769 9 104970289.567 8                  81795047.756 8  78386925.717 9
G02  21303236.315 7  21303237.344 6                                 111949253.809 7  87233087.175 6                
G03  20179841.715 8                  20179847.701 7  20179845.835 8 106045776.734 8                  82633249.699 7  79190226.020 8
G04  23333859.194 6                  23333866.559 7  23333867.926 7 122620278.580 6                  95548306.924 7  91567144.024 7
G17  22397314.083 7                  22397317.634 7                 117698678.716 7                  91713434.414 7
G19  23584986.947 4                                                                                                
G28  23403331.978 7                  23403336.881 7  23403339.746 8 122985342.951 7                  95832937.064 7  91839907.639 8
G31  23778697.481 6                  23778704.369 7                 124958108.367 6                  97369843.394 7
G32  23461752.513 7                  23461759.272 7  23461755.983 7 123292332.334 7                  96071770.433 7  92068827.761 7
R02  21076491.841 7  21076494.642 7 112468191.360 7  87475090.449 7
R03  19050619.856 8  19050622.329 7 101979459.244 8  79317490.730 7
R04  21478561.392 7  21478565.072 7 115016734.371 7  89457487.076 7
R11  23456573.147 7  23456577.604 7 125344813.816 7  97490583.404 7
R17  21558885.201 7  21558890.651 7 115365942.061 7  89729075.563 7
R18  19038405.085 7  19038406.885 8 101628294.087 7  79044259.792 8
R19  20635899.545 8  20635900.500 7 110388151.938 8  85857455.712 7
> 2025 06 15 13 11 30.0000000  0 36
C05  39035995.961 6  39035994.903 7 203270680.892 6 157181780.188 7
C06  38937337.883 6  38937333.885 7 202756943.042 6 156784532.407 7
C09  39745560.911 6  39745560.358 7 206965583.994 6 160038925.185 7
C12  22035773.781 7  22035771.351 8 114746064.407 7  88729034.245 8
C16  39356461.108 7  39356464.024 7 204939430.589 7 158472170.631 7
C19  23798535.588 7                 123925213.155 7
C21  24200298.592 7                 126017310.428 7
C22  21302898.746 8                 110929781.532 8
C34  23308284.516 7                 121372356.650 7
C35  24146579.739 7                 125737564.527 7
C39  38934761.259 7                 202743514.699 7
C44  21623800.813 8                 112600801.623 8
E03  27134757.409 7  27134764.354 7 142594133.676 7 107871574.080 7
E05  22446068.187 8  22446071.080 9 117954888.846 8  89232122.109 9
E06  26352619.064 7  26352623.764 8 138483946.354 7 104762217.959 8
E09  24913431.407 7  24913433.834 9 130920962.278 7  99040866.948 9
E15  26029022.233 7  26029026.422 8 136783438.826 7 103475804.546 8
E27  27876665.005 5  27876671.611 7 146492927.35015 110820917.435 7
E34  23199142.596 8  23199144.996 9 121912318.047 8  92225885.197 9
E36  24897941.613 7  24897945.866 8 130839570.173 7  98979252.596 8
G01  19975077.698 8                  19975080.820 8  19975082.550 9 104969735.757 8                  81794616.232 8  78386512.171 9
G02  21308211.239 7  21308211.958 6                                 111975395.937 7  87253457.642 6                
G03  20175514.265 8                  20175519.856 7  20175518.181 9 106023034.930 8                  82615528.793 7  79173243.501 9
G04  23323062.852 6                  23323070.195 7  23323071.772 7 122563544.077 6                  95504098.291 7  91524777.443 7
G17  22393621.537 7                  22393625.203 7                 117679272.941 7                  91698313.053 7
G19  23576062.640 4                                                 123892919.42814                                
G28  23398627.316 7                  23398632.120 7  23398634.986 8 122960619.295 7                  95813671.888 7  91821445.180 8
G31  23769898.122 6                  23769905.081 7                 124911869.230 6                  97333812.995 7
G32  23469759.145 7                  23469766.162 7  23469762.855 7 123334408.126 7                  96104556.733 7  92100247.956 7
R02  21085579.417 8  21085582.250 7 112516683.369 8  87512806.423 7
R03  19048932.936 8  19048935.454 7 101970428.484 8  79310466.800 7
R04  21468042.376 7  21468046.381 7 114960407.318 7  89413677.195 7
R11  23454110.066 7  23454114.748 7 125331650.896 7  97480345.572 7
R17  21569363.547 7  21569368.317 7 115422008.496 7  89772682.726 7
R18  19040393.663 7  19040396.017 8 101638911.007 7  79052517.389 8
R19  20626831.651 8  20626832.158 7 110339644.905 8  85819728.037 7
> 2025 06 15 13 11 45.0000000  0 37
C05  39035693.494 5  39035691.976 6 203269102.571 5 157180559.737 6
C06  38933455.300 6  38933451.438 6 202736726.024 6 156768899.305 6
C09  39740690.026 6  39740689.320 7 206940219.166 6 160019311.533 7
C11  25581279.312 5                 133208427.55415
C12  22033212.204 7  22033209.136 7 114732721.942 7  88718717.012 7
C16  39353033.761 7  39353036.742 6 204921582.845 7 158458369.631 6
C19  23805616.984 7                 123962086.585 7
C21  24191893.026 7                 125973543.451 7
C22  21301826.223 7                 110924195.483 7
C34  23301697.459 7                 121338056.686 7
C35  24155447.139 7                 125783736.558 7
C39  38932561.945 7                 202732061.397 7
C44  21626438.652 8                 112614537.624 8
E03  27125324.954 7  27125331.223 7 142544562.218 7 107834073.703 7
E05  22441226.850 7  22441229.374 8 117929445.517 7  89212874.421 8
E06  26359071.305 7  26359075.433 7 138517850.029 7 104787865.864 7
E09  24917064.187 7  24917066.721 8 130940053.366 7  99055309.222 8
E15  26021620.783 7  26021625.189 7 136744544.432 7 103446381.219 7
E27  27880775.538 5  27880779.004 6 146514511.269 5 110837245.437 6
E34  23197600.603 8  23197603.205 8 121904215.842 8  92219755.931 8
E36  24903483.164 7  24903487.417 8 130868690.641 7  99001282.016 8
G01  19974994.370 7                  19974997.584 8  19974999.280 8 104969298.109 7                  81794275.204 8  78386185.344 8
G02  21313202.859 7  21313203.350 5                                 112001626.298 7  87273896.877 5                
G03  20171204.680 7                  20171210.093 7  20171208.680 8 106000387.951 7                  82597881.832 7  79156331.816 8
G04  23312273.654 6                  23312281.387 7  23312282.827 7 122506848.715 6                  95459920.243 7  91482440.103 7
G17  22389952.706 7                  22389956.684 6                 117659994.172 7                  91683290.666 6
G19  23567151.855 4                                                 123846102.70414                                
G28  23393945.941 7                  23393950.658 7  23393953.816 8 122936018.256 7                  95794502.276 7  91803074.346 8
G31  23761111.621 6                  23761118.780 7                 124865696.145 6                  97297834.048 7
G32  23477778.896 7                  23477785.857 7  23477782.528 7 123376550.886 7                  96137395.240 7  92131718.172 7
R02  21094681.520 7  21094684.375 7 112565253.727 7  87550583.395 7
R03  19047277.020 8  19047279.538 7 101961564.322 8  79303572.451 7
R04  21457539.745 7  21457544.422 7 114904169.009 7  89369936.322 7
R11  23451681.522 7  23451685.374 6 125318672.032 7  97470250.893 6
R17  21579856.648 7  21579862.026 7 115478161.919 7  89816357.537 7
R18  19042415.788 7  19042417.746 8 101649703.662 7  79060911.688 8
R19  20617782.558 8  20617783.884 7 110291239.862 8  85782079.666 7
> 2025 06 15 13 12  0.0000000  0 35
C05  39035391.057 5  39035389.734 7 203267528.802 5 157179342.796 7
C06  38929580.865 6  38929576.536 6 202716549.927 6 156753297.875 6
C09  39735824.342 6  39735823.788 7 206914884.308 6 159999721.027 7
C12  22030672.721 7  22030669.682 8 114719499.087 7  88708492.281 8
C16  39349614.414 7  39349617.559 7 204903777.285 7 158444601.272 7
C19  23812707.806 7                 123999011.491 7
C21  24183499.577 7                 125929834.891 7
C22  21300773.677 8                 110918715.210 8
C34  23295127.785 7                 121303845.941 7
C35  24164323.692 7                 125829961.296 7
C39  38930371.573 7                 202720655.801 7
C44  21629099.657 8                 112628394.666 8
E03  27115896.315 7  27115902.516 7 142495014.140 7 107796590.975 7
E05  22436403.167 8  22436405.860 9 117904097.877 8  89193699.114 9
E06  26365535.070 7  26365539.032 8 138551815.864 7 104813560.819 8
E09  24920715.018 7  24920717.460 9 130959238.162 7  99069822.400 9
E15  26014223.630 7  26014228.324 8 136705673.814 7 103416975.844 8
E27  27884896.333 5  27884902.753 6 146536183.479 5 110853640.264 6
E34  23196072.766 8  23196075.392 9 121896186.880 8  92213682.075 9
E36  24909035.283 7  24909039.726 8 130897867.843 7  99023354.354 8
G01  19974934.592 7                  19974937.359 8  19974938.823 9 104968981.468 7                  81794028.464 8  78385948.892 9
G02  21318211.605 7  21318212.538 6                                 112027949.531 7  87294408.472 6                
G03  20166913.905 8                  20166919.767 7  20166917.910 9 105977840.721 8                  82580312.546 7  79139494.587 9
G04  23301492.981 6                  23301501.070 7  23301501.832 7 122450197.743 6                  95415776.648 7  91440135.858 7
G17  22386308.765 7                  22386313.049 7                 117640847.598 7                  91668371.228 7
G28  23389288.460 7                  23389293.591 7  23389296.353 8 122911544.957 7                  95775432.206 7  91784798.871 8
G31  23752338.727 6                  23752345.875 7                 124819594.192 6                  97261910.535 7
G32  23485811.997 7                  23485818.680 7  23485815.665 7 123418765.158 7                  96170289.463 7  92163241.805 7
R02  21103799.076 8  21103801.864 7 112613906.792 8  87588424.619 7
R03  19045653.088 8  19045655.392 7 101952871.286 8  79296811.220 7
R04  21447055.602 7  21447059.442 7 114848024.765 7  89326268.636 7
R11  23449287.525 7  23449291.949 6 125305881.912 7  97460303.061 6
R17  21590367.647 7  21590373.286 7 115534407.019 7  89860103.675 7
R18  19044471.519 7  19044473.058 8 101660677.043 7  79069446.521 8
R19  20608753.614 8  20608755.418 7 110242942.064 8  85744514.749 7
> 2025 06 15 13 12 15.0000000  0 37
C05  39035089.843 5  39035088.526 7 203265960.913 5 157178130.395 7
C06  38925713.501 6  38925710.488 6 202696416.027 6 156737729.049 6
C09  39730965.037 6  39730964.649 7 206889580.753 6 159980154.752 7
C11  25562921.875 5  25562935.861 5 133112837.55515 102931337.64215
C12  22028156.487 7  22028153.501 8 114706397.332 7  88698361.169 8
C16  39346203.130 7  39346205.995 7 204886015.215 7 158430866.521 7
C19  23819809.063 7                 124035988.912 7
C21  24175117.527 7                 125886186.259 7
C22  21299741.735 8                 110913341.861 8
C34  23288575.128 7                 121269725.998 7
C35  24173210.940 7                 125876239.770 7
C39  38928190.492 7                 202709299.192 7
C44  21631784.491 8                 112642373.958 8
E03  27106471.413 7  27106478.520 7 142445490.752 7 107759126.972 7
E05  22431598.174 8  22431600.821 9 117878847.345 8  89174597.256 9
E06  26372010.860 7  26372014.676 8 138585845.018 7 104839303.602 8
E09  24924383.690 7  24924386.252 9 130978517.859 7  99084407.350 9
E15  26006831.573 7  26006836.243 8 136666828.337 7 103387589.517 8
E27  27889038.559 5  27889043.929 6 146557944.98415 110870102.692 6
E34  23194558.931 8  23194561.728 9 121888232.530 8  92207664.655 9
E36  24914598.877 7  24914603.044 8 130927103.044 7  99045470.553 8
G01  19974897.492 8                  19974900.449 8  19974902.087 9 104968787.207 8                  81793877.066 8  78385803.813 9
G02  21323238.959 7  21323239.746 6                                 112054366.934 7  87314993.439 6                
G03  20162642.549 8                  20162648.677 7  20162646.663 9 105955394.550 8                  82562822.026 7  79122732.838 9
G04  23290721.649 6                  23290729.871 7  23290730.721 7 122393592.574 6                  95371668.789 7  91397865.838 7
G17  22382691.183 7                  22382695.336 7                 117621834.569 7                  91653555.924 7
G19  23549391.544 5                                                 123752759.69415                                
G28  23384655.639 7                  23384660.858 7  23384663.853 8 122887200.919 7                  95756462.863 7  91766619.915 8
G31  23743579.790 6                  23743586.613 7                 124773565.256 6                  97226043.876 7
G32  23493858.933 7                  23493865.373 6  23493862.744 7 123461051.971 7                  96203240.157 6  92194819.564 7
R02  21112932.548 8  21112935.603 7 112662643.454 8  87626330.888 7
R03  19044061.354 8  19044063.517 7 101944350.610 8  79290184.028 7
R04  21436588.485 7  21436592.567 7 114791975.878 7  89282675.090 7
R11  23446930.412 8  23446933.821 6 125293282.204 8  97450503.327 6
R17  21600896.473 7  21600900.580 7 115590744.671 7  89903921.778 7
R18  19046560.851 7  19046563.086 7 101671832.250 7  79078122.795 7
R19  20599745.204 8  20599746.756 7 110194753.439 8  85707034.731 7
> 2025 06 15 13 12 30.0000000  0 37
C05  39034788.377 6  39034787.678 7 203264393.706 6 157176918.532 7
C06  38921854.875 6  38921850.784 7 202676319.158 6 156722188.909 7
C09  39726110.681 6  39726110.377 7 206864303.292 6 159960608.641 7
C11  25553751.492 5  25553773.934 4 133065098.591 5 102894422.892 4
C12  22025662.840 7  22025660.053 8 114693411.564 7  88688319.734 8
C16  39342800.166 7  39342802.393 7 204868291.427 7 158417161.375 7
C19  23826919.264 7                 124073013.469 7
C21  24166746.185 7                 125842592.452 7
C22  21298729.292 8                 110908070.213 8
C34  23282039.556 8                 121235691.810 8
C35  24182107.509 7                 125922566.540 7
C39  38926017.649 7                 202697986.379 7
C44  21634491.501 8                 112656470.232 8
E03  27097052.091 7  27097058.388 7 142395987.116 7 107721677.898 7
E05  22426810.588 8  22426813.270 9 117853688.741 8  89155564.949 9
E06  26378496.862 7  26378501.225 8 138619931.895 7 104865090.104 8
E09  24928069.545 7  24928072.061 8 130997886.954 7  99099059.945 8
E15  25999443.482 7  25999447.954 8 136628002.875 7 103358218.328 8
E27  27893196.028 6  27893201.074 6 146579790.540 6 110886628.636 6
E34  23193058.926 8  23193061.218 9 121880347.607 8  92201699.776 9
E36  24920172.139 7  24920176.364 9 130956390.937 7  99067626.637 9
G01  19974882.816 7                  19974885.906 8  19974887.385 9 104968710.122 7                  81793817.006 8  78385746.242 9
G02  21328283.063 7  21328284.079 6                                 112080873.059 7  87335647.543 6                
G03  20158389.364 8                  20158395.209 7  20158393.827 8 105933044.200 8                  82545406.191 7  79106042.659 8
G04  23279957.576 7                  23279965.942 7  23279966.760 8 122337028.306 7                  95327592.812 7  91355626.356 8
G17  22379097.964 7                  22379101.116 7                 117602950.105 7                  91638840.722 7
G19  23540537.596 5                                                 123706233.115 5                                
G28  23380047.175 7                  23380052.104 7  23380054.958 8 122862981.145 7                  95737590.370 7  91748533.805 8
G31  23734833.319 6                  23734840.549 7                 124727604.460 6                  97190230.335 7
G32  23501918.694 7                  23501925.422 7  23501922.556 7 123503405.725 7                  96236243.046 7  92226447.322 7
R02  21122080.579 8  21122083.397 7 112711458.101 8  87664297.789 7
R03  19042501.191 8  19042503.041 7 101935997.178 8  79283686.910 7
R04  21426138.917 7  21426143.044 7 114736017.407 7  89239151.894 7
R11  23444606.404 7  23444611.009 6 125280867.505 7  97440847.415 6
R17  21611440.074 7  21611445.017 7 115647169.331 7  89947807.591 7
R18  19048684.097 7  19048685.582 8 101683164.152 7  79086936.495 8
R19  20590756.963 8  20590757.684 7 110146669.063 8  85669635.828 7
> 2025 06 15 13 12 45.0000000  0 37
C05  39034488.112 6  39034487.088 7 203262829.128 6 157175708.719 7
C06  38918002.774 6  38917999.215 7 202656261.396 6 156706678.979 7
C09  39721261.778 6  39721261.257 7 206839054.025 6 159941084.348 7
C11  25544591.813 5  25544616.324 5 133017398.81115 102857538.36015
C12  22023191.859 7  22023188.707 8 114680543.907 7  88678369.655 8
C16  39339403.988 7  39339406.402 7 204850607.938 7 158403487.407 7
C19  23834038.821 7                 124110086.951 7
C21  24158384.722 7                 125799055.534 7
C22  21297736.708 8                 110902902.216 8
C34  23275520.180 8                 121201745.622 8
C35  24191013.785 7                 125968943.407 7
C39  38923853.922 7                 202686719.407 7
C44  21637221.281 8                 112670685.401 8
E03  27087635.538 7  27087642.217 8 142346505.424 7 107684245.410 8
E05  22422041.074 8  22422043.596 9 117828624.159 8  89136603.772 9
E06  26384993.989 7  26384999.175 8 138654078.391 7 104890921.682 8
E09  24931772.620 7  24931775.211 9 131017347.359 7  99113781.605 9
E15  25992059.418 7  25992063.886 8 136589199.604 7 103328863.921 8
E27  27897370.168 6  27897374.342 6 146601721.851 6 110903219.448 6
E34  23191571.785 8  23191574.357 9 121872534.273 8  92195789.036 9
E36  24925755.712 7  24925760.063 8 130985733.550 7  99089824.073 8
G01  19974891.061 8                  19974893.854 8  19974895.024 9 104968752.301 8                  81793849.872 8  78385777.750 9
G02  21333343.856 7  21333345.464 6                                 112107469.922 7  87356372.334 6                
G03  20154155.037 8                  20154160.801 7  20154159.178 8 105910791.798 8                  82528066.650 7  79089425.601 8
G04  23269202.385 6                  23269210.275 7  23269210.876 8 122280507.177 6                  95283550.440 7  91313419.122 8
G17  22375529.026 7                  22375532.437 7                 117584196.320 7                  91624227.386 7
G19  23531701.433 5                                                 123659802.622 5                                
G28  23375462.299 7                  23375467.092 7  23375469.980 8 122838887.991 7                  95718816.507 7  91730542.193 8
G31  23726100.857 6                  23726107.684 7                 124681714.201 6                  97154471.735 7
G32  23509991.524 7                  23509998.299 6  23509995.747 7 123545828.156 7                  96269299.456 6  92258126.389 7
R02  21131243.368 8  21131245.722 7 112760352.543 8  87702326.753 7
R03  19040971.921 8  19040974.326 7 101927812.130 8  79277320.766 7
R04  21415706.421 7  21415710.076 7 114680151.781 7  89195700.906 7
R11  23442318.623 7  23442320.891 6 125268640.375 7  97431337.356 6
R17  21622000.823 7  21622006.085 7 115703682.576 7  89991762.270 7
R18  19050840.428 7  19050842.278 8 101694674.713 7  79095889.142 8
R19  20581787.371 8  20581789.033 7 110098691.268 8  85632319.776 7
> 2025 06 15 13 13  0.0000000  0 36
C05  39034189.328 6  39034188.435 7 203261271.897 6 157174504.563 7
C06  38914159.241 6  38914155.675 7 202636247.481 6 156691202.980 7
C09  39716419.204 6  39716418.928 7 206813837.676 6 159921585.508 7
C11  25535439.231 5  25535463.637 4 132969743.226 5 102820688.088 4
C12  22020743.976 7  22020741.516 8 114667799.133 7  88668514.601 8
C16  39336016.529 7  39336019.123 7 204832969.488 7 158389848.241 7
C19  23841168.483 7                 124147213.829 7
C21  24150035.952 7                 125755580.322 7
C22  21296765.208 8                 110897842.468 8
C34  23269019.387 8                 121167892.336 8
C35  24199931.123 7                 126015374.828 7
C39  38921700.609 7                 202675502.878 7
C44  21639975.098 8                 112685024.070 8
E03  27078225.058 7  27078231.443 8 142297050.515 7 107646833.195 8
E05  22417289.897 8  22417292.731 9 117803658.443 8  89117717.369 9
E06  26391504.365 7  26391509.391 8 138688289.044 7 104916801.777 8
E09  24935493.932 7  24935496.765 9 131036903.603 7  99128575.773 9
E15  25984680.730 7  25984685.047 8 136550423.350 7 103299529.960 8
E27  27901559.909 6  27901565.527 6 146623743.482 6 110919878.88016
E34  23190099.512 8  23190102.031 9 121864797.301 8  92189936.075 9
E36  24931350.649 7  24931355.057 8 131015135.471 7  99112066.415 8
G01  19974922.479 8                  19974925.517 8  19974926.707 9 104968918.553 8                  81793979.430 8  78385901.898 9
G02  21338423.169 7  21338425.032 6                                 112134162.182 7  87377171.483 6                
G03  20149940.239 8                  20149945.992 7  20149943.956 9 105888642.063 8                  82510807.136 7  79072885.238 9
G04  23258456.372 7                  23258463.371 7  23258465.278 8 122224034.279 7                  95239545.615 7  91271247.838 8
G17  22371986.144 7                  22371989.651 7                 117565578.022 7                  91609719.630 7
G28  23370902.378 7                  23370907.645 7  23370910.083 8 122814926.389 7                  95700145.182 7  91712648.853 8
G31  23717382.392 6                  23717389.240 7                 124635899.548 6                  97118772.125 7
G32  23518078.097 7                  23518085.015 6  23518082.335 7 123588323.673 7                  96302412.853 6  92289860.020 7
R02  21140421.408 8  21140425.133 7 112809330.699 8  87740420.857 7
R03  19039475.941 8  19039477.591 8 101919800.978 8  79271089.850 8
R04  21405292.005 7  21405295.588 7 114624383.939 7  89152325.969 7
R11  23440066.638 8  23440070.404 6 125256605.571 8  97421976.946 6
R17  21632579.204 7  21632583.949 7 115760289.126 7  90035789.514 7
R18  19053031.115 8  19053032.394 7 101706368.914 8  79104984.631 7
R19  20572839.625 8  20572840.447 7 110050825.396 8  85595090.747 7
> 2025 06 15 13 13 15.0000000  0 37
C05  39033890.308 6  39033888.960 7 203259714.210 6 157173300.053 7
C06  38910322.749 6  38910318.829 7 202616269.576 6 156675754.787 7
C09  39711581.733 6  39711581.374 7 206788646.393 6 159902106.053 7
C11  25526292.542 5  25526312.723 5 132922124.186 5 102783866.064 5
C12  22018318.634 7  22018315.968 8 114655169.615 7  88658748.682 8
C16  39332636.625 7  39332638.714 7 204815368.220 7 158376237.836 7
C19  23848307.131 7                 124184386.073 7
C21  24141697.318 7                 125712159.191 7
C22  21295812.691 8                 110892883.029 8
C34  23262534.280 8                 121134124.432 8
C35  24208856.019 7                 126061852.765 7
C39  38919554.674 7                 202664329.002 7
C44  21642750.705 8                 112699478.398 8
E03  27068816.987 7  27068824.119 8 142247614.665 7 107609435.382 8
E05  22412556.794 8  22412559.213 9 117778783.769 8  89098899.864 9
E06  26398025.753 7  26398030.201 8 138722555.721 7 104942724.264 8
E09  24939232.148 7  24939234.925 9 131056547.648 7  99143436.361 9
E15  25977305.890 7  25977309.914 8 136511666.292 7 103270210.514 8
E27  27905764.998 6  27905771.110 6 146645847.325 6 110936600.33316
E34  23188640.144 8  23188642.793 9 121857128.927 8  92184134.985 9
E36  24936955.350 7  24936959.866 8 131044588.866 7  99134347.681 8
G01  19974976.064 8                  19974979.149 8  19974980.622 9 104969201.048 8                  81794199.557 8  78386112.859 9
G02  21343519.502 7  21343521.121 6                                 112160941.906 7  87398038.793 6                
G03  20145743.110 8                  20145748.725 7  20145747.298 8 105866587.196 8                  82493621.531 7  79056415.700 8
G04  23247717.239 6                  23247724.377 7  23247725.811 8 122167601.935 6                  95195572.414 7  91229106.864 8
G17  22368467.347 7                  22368470.301 7                 117547087.437 7                  91595311.422 7
G19  23514091.465 5                                                 123567238.21915                                
G28  23366366.361 6                  23366371.244 7  23366374.079 8 122791088.719 6                  95681570.401 7  91694848.017 8
G31  23708677.156 6                  23708684.046 7                 124590152.978 6                  97083125.521 7
G32  23526177.333 7                  23526183.809 7  23526181.179 7 123630884.133 7                  96335576.830 7  92321642.145 7
R02  21149614.141 8  21149617.350 7 112858384.339 8  87778573.658 7
R03  19038009.800 8  19038012.129 7 101911955.454 8  79264987.807 7
R04  21394894.741 8  21394898.083 7 114568706.184 8  89109021.121 7
R11  23437848.275 7  23437852.912 6 125244755.030 7  97412759.874 6
R17  21643173.332 7  21643178.183 7 115816980.360 7  90079882.618 7
R18  19055254.569 7  19055256.614 7 101718238.487 7  79114216.492 7
R19  20563910.995 8  20563912.649 7 110003063.831 8  85557942.914 7
> 2025 06 15 13 13 30.0000000  0 36
C05  39033590.608 6  39033589.848 7 203258155.466 6 157172094.738 7
C06  38906493.057 6  38906489.225 7 202596327.158 6 156660334.057 7
C09  39706748.701 6  39706747.964 7 206763479.731 6 159882645.611 7
C11  25517155.544 5  25517175.544 4 132874541.332 5 102747071.976 4
C12  22015915.646 7  22015912.617 8 114642654.959 7  88649071.539 8
C16  39329263.084 7  39329265.180 7 204797803.708 7 158362655.869 7
C19  23855454.263 7                 124221602.981 7
C21  24133369.046 7                 125668791.570 7
C22  21294879.632 8                 110888023.368 8
C34  23256066.014 7                 121100441.533 7
C35  24217791.110 7                 126108376.470 7
C39  38917416.540 7                 202653197.253 7
C44  21645548.259 8                 112714047.745 8
E03  27059413.258 7  27059420.267 8 142198197.575 7 107572051.770 8
E05  22407839.948 8  22407842.925 9 117753999.696 8  89080150.889 9
E06  26404556.984 7  26404561.504 8 138756877.655 7 104968688.559 8
E09  24942987.380 7  24942989.570 9 131076278.776 7  99158362.828 9
E15  25969934.391 7  25969938.114 8 136472928.066 7 103240905.310 8
E34  23187194.365 8  23187196.524 9 121849528.684 8  92178385.459 9
E36  24942570.143 7  24942574.343 9 131074093.121 7  99156667.440 9
G01  19975052.020 8                  19975054.861 8  19975056.817 9 104969599.340 8                  81794509.903 8  78386410.271 9
G02  21348631.934 7  21348633.839 6                                 112187808.451 7  87418973.751 6                
G03  20141564.379 8                  20141569.761 7  20141568.500 8 105844626.662 8                  82476509.435 7  79040016.616 8
G04  23236986.038 6                  23236993.347 7  23236995.038 8 122111209.872 6                  95151630.610 7  91186995.966 8
G17  22364972.876 7                  22364976.638 7                 117528724.485 7                  91581002.610 7
G19  23505310.905 4                                                                                                
G28  23361853.273 7                  23361858.677 7  23361860.836 8 122767374.620 7                  95663091.938 7  91677139.532 8
G31  23699984.994 6                  23699991.496 7                 124544474.536 6                  97047532.009 7
G32  23534288.471 7                  23534295.449 7  23534292.209 7 123673508.656 7                  96368790.720 7  92353472.121 7
R02  21158820.757 8  21158823.999 7 112907512.690 8  87816784.603 7
R03  19036574.372 8  19036577.564 7 101904274.342 8  79259013.618 7
R04  21384513.938 8  21384517.967 7 114513118.333 8  89065786.156 7
R11  23435665.505 8  23435668.883 6 125233088.798 8  97403686.134 6
R17  21653782.863 8  21653787.958 7 115873755.568 8  90124041.055 7
R18  19057511.014 8  19057512.702 7 101730283.001 8  79123584.456 7
R19  20555002.227 8  20555002.934 7 109955406.509 8  85520876.100 7
> 2025 06 15 13 13 45.0000000  0 35
C05  39033292.154 6  39033291.112 7 203256599.547 6 157170891.603 7
C06  38902670.883 6  38902667.139 7 202576424.139 6 156644943.814 7
C09  39701921.490 6  39701920.861 7 206738341.634 6 159863207.296 7
C11  25508023.609 4  25508047.773 4 132826998.95814 102710309.19414
C12  22013534.706 7  22013532.142 8 114630259.142 7  88639486.323 8
C16  39325897.933 7  39325900.206 7 204780279.751 7 158349105.253 7
C19  23862610.799 7                 124258868.128 7
C21  24125052.029 7                 125625481.542 7
C22  21293966.013 8                 110883267.219 8
C34  23249614.539 7                 121066847.705 7
C35  24226734.840 7                 126154949.511 7
C39  38915287.429 7                 202642111.510 7
C44  21648368.923 8                 112728735.888 8
E03  27050013.881 7  27050020.583 8 142148803.225 7 107534685.354 8
E05  22403141.885 8  22403144.632 9 117729310.181 8  89061473.445 9
E06  26411099.487 7  26411104.043 8 138791258.573 7 104994697.460 8
E09  24946759.125 7  24946761.526 8 131096100.704 7  99173357.986 8
E15  25962566.809 7  25962570.837 8 136434212.639 7 103211617.374 8
E34  23185761.675 8  23185763.959 9 121842000.503 8  92172690.438 9
E36  24948194.862 8  24948199.249 9 131103652.037 8  99179028.541 9
G01  19975150.543 8                  19975153.462 8  19975155.334 9 104970117.325 8                  81794913.530 8  78386797.089 9
G02  21353762.167 7  21353763.512 6                                 112214765.424 7  87439979.163 6                
G03  20137403.684 8                  20137409.614 7  20137407.995 9 105822764.407 8                  82459473.914 7  79023690.914 9
G04  23226263.634 6                  23226270.889 7  23226272.363 8 122054862.192 6                  95107723.423 7  91144918.253 8
G17  22361503.432 7                  22361507.356 7                 117510492.721 7                  91566796.064 7
G28  23357365.519 7                  23357370.315 7  23357372.680 8 122743788.321 7                  95644713.068 7  91659526.434 8
G31  23691306.121 7                  23691312.871 7                 124498868.433 7                  97011994.840 7
G32  23542412.492 7                  23542419.238 6  23542416.469 7 123716200.880 7                  96402057.333 6  92385352.633 7
R02  21168042.140 8  21168045.347 7 112956719.052 8  87855056.166 7
R03  19035171.597 8  19035173.925 7 101896762.080 8  79253170.733 7
R04  21374150.828 7  21374155.076 7 114457624.518 7  89022624.365 7
R11  23433518.446 8  23433521.229 6 125221610.597 8  97394758.572 6
R17  21664409.233 8  21664414.500 7 115930618.292 8  90168267.555 7
R18  19059800.852 8  19059802.326 7 101742506.354 8  79133091.527 7
R19  20546113.491 8  20546114.623 7 109907857.808 8  85483893.789 7
> 2025 06 15 13 14  0.0000000  0 35
C05  39032993.455 5  39032992.172 7 203255043.862 5 157169688.651 7
C06  38898855.590 6  38898852.088 7 202556557.962 6 156629582.063 7
C09  39697098.957 6  39697098.066 7 206713229.559 6 159843789.095 7
C11  25498899.890 4  25498930.042 4 132779494.56514 102673575.80314
C12  22011176.685 7  22011173.996 8 114617979.655 7  88629991.045 8
C16  39322539.797 7  39322542.173 7 204762793.867 7 158335584.067 7
C19  23869775.678 7                 124296178.799 7
C21  24116745.128 7                 125582226.592 7
C22  21293072.073 8                 110878611.994 8
C34  23243179.875 7                 121033340.681 7
C35  24235687.520 7                 126201569.194 7
C39  38913167.235 7                 202631069.189 7
C44  21651212.260 8                 112743540.225 8
E03  27040618.421 7  27040624.858 8 142099429.260 7 107497334.359 8
E05  22398461.270 8  22398463.849 9 117704712.767 8  89042865.680 9
E06  26417652.745 7  26417657.275 8 138825695.642 7 105020748.836 8
E09  24950547.821 7  24950550.287 9 131116010.722 7  99188419.768 9
E15  25955203.328 7  25955207.396 8 136395517.614 7 103182344.841 8
E34  23184342.144 8  23184344.640 9 121834541.967 8  92167048.109 9
E36  24953830.048 7  24953834.063 9 131133263.044 7  99201429.056 9
G01  19975271.329 7                  19975274.437 8  19975276.081 9 104970752.555 7                  81795408.517 8  78387271.445 9
G02  21358908.681 7  21358909.877 6                                 112241810.329 7  87461053.082 6                
G03  20133262.010 8                  20133267.656 7  20133265.849 8 105800997.916 8                  82442513.033 7  79007436.735 8
G04  23215549.582 6                  23215555.938 7  23215558.127 8 121998556.717 6                  95063849.125 7  91102872.030 8
G17  22358058.608 7                  22358062.692 7                 117492389.846 7                  91552689.939 7
G28  23352900.888 7                  23352905.722 7  23352907.850 8 122720327.513 7                  95626431.947 7  91642007.045 8
G31  23682641.119 7                  23682647.563 7                 124453332.391 7                  96976512.303 7
G32  23550548.895 7                  23550555.707 7  23550553.005 7 123758957.922 7                  96435374.460 7  92417281.538 7
R02  21177277.185 8  21177280.080 7 113006000.313 8  87893386.007 7
R03  19033799.525 8  19033800.884 7 101889415.853 8  79247457.027 7
R04  21363804.914 7  21363808.732 7 114402222.321 7  88979533.804 7
R11  23431403.905 7  23431407.430 6 125210318.146 7  97385975.587 6
R17  21675051.467 8  21675056.475 7 115987565.616 8  90212559.848 7
R18  19062123.492 8  19062125.468 7 101754905.892 8  79142735.587 7
R19  20537244.522 8  20537245.332 7 109860415.428 8  85446994.188 7
> 2025 06 15 13 14 15.0000000  0 35
C05  39032694.853 6  39032693.907 7 203253490.101 6 157168487.189 7
C06  38895047.955 6  38895044.604 7 202536730.364 6 156614250.113 7
C09  39692281.564 6  39692280.794 7 206688145.146 6 159824392.283 7
C11  25489788.247 4  25489810.936 3 132732030.03314 102636873.10913
C12  22008841.529 7  22008838.536 8 114605818.341 7  88620587.148 8
C16  39319189.943 7  39319191.680 7 204745347.696 7 158322093.587 7
C19  23876949.650 7                 124333536.408 7
C21  24108449.342 7                 125539028.498 7
C22  21292197.896 8                 110874059.235 8
C34  23236762.351 7                 120999922.296 7
C35  24244649.409 7                 126248236.918 7
C39  38911055.476 7                 202620071.938 7
C44  21654078.019 8                 112758462.329 8
E03  27031227.313 7  27031233.335 8 142050077.505 7 107460000.167 8
E05  22393798.582 7  22393800.948 9 117680209.147 7  89024328.874 9
E06  26424216.622 7  26424221.479 8 138860190.322 7 105046843.804 8
E09  24954353.509 7  24954356.101 9 131136010.240 7  99203549.274 9
E15  25947844.019 7  25947848.175 8 136356844.678 7 103153089.056 8
E34  23182936.568 8  23182938.876 9 121827154.790 8  92161459.759 9
E36  24959475.298 7  24959479.113 9 131162927.723 7  99223870.173 9
G01  19975414.994 8                  19975418.007 8  19975419.617 9 104971506.656 8                  81795996.157 8  78387834.589 9
G02  21364072.175 7  21364073.259 6                                 112268944.714 7  87482196.748 6                
G03  20129138.379 8                  20129144.043 7  20129142.476 8 105779328.826 8                  82425628.038 7  78991255.273 8
G04  23204843.062 6                  23204850.143 7  23204851.578 8 121942295.296 6                  95020009.146 7  91060858.734 8
G17  22354638.685 7                  22354642.608 7                 117474417.697 7                  91538685.684 7
G28  23348460.176 7                  23348465.356 8  23348467.824 8 122696994.036 7                  95608250.063 8  91624582.722 8
G31  23673989.227 7                  23673996.081 7                 124407868.731 7                  96941086.151 7
G32  23558698.115 7                  23558705.076 7  23558702.071 7 123801781.089 7                  96468743.135 7  92449259.823 7
R02  21186527.156 8  21186530.075 7 113055357.846 8  87931775.168 7
R03  19032458.159 8  19032460.151 7 101882237.256 8  79241873.674 7
R04  21353476.395 7  21353480.386 7 114346913.742 7  88936516.086 7
R11  23429326.666 7  23429330.444 7 125199213.080 7  97377338.297 7
R17  21685709.694 8  21685714.517 7 116044598.897 8  90256919.011 7
R18  19064479.897 8  19064481.780 7 101767483.373 8  79152518.078 7
R19  20528396.166 8  20528396.849 7 109813081.602 8  85410179.016 7
> 2025 06 15 13 14 30.0000000  0 34
C05  39032396.183 6  39032395.034 7 203251933.709 6 157167283.687 7
C06  38891246.633 6  38891243.457 7 202516936.816 6 156598944.502 7
C09  39687468.327 6  39687467.867 7 206663083.962 6 159805013.438 7
C12  22006527.716 7  22006525.214 8 114593770.845 7  88611271.258 8
C16  39315846.442 7  39315848.443 7 204727936.722 7 158308630.338 7
C19  23884132.110 7                 124370936.262 7
C21  24100163.609 7                 125495882.880 7
C22  21291342.412 8                 110869604.381 8
C34  23230361.021 7                 120966588.281 7
C35  24253619.990 7                 126294947.908 7
C39  38908950.664 7                 202609115.247 7
C44  21656965.057 8                 112773497.563 8
E03  27021839.076 7  27021845.316 8 142000743.586 7 107422679.438 8
E05  22389152.211 8  22389155.043 9 117655794.895 8  89005859.669 9
E06  26430791.277 7  26430795.773 8 138894737.865 7 105072978.754 8
E09  24958175.421 7  24958177.970 8 131156094.605 7  99218742.950 8
E15  25940488.151 7  25940492.372 8 136318189.451 7 103123846.640 8
E34  23181543.573 8  23181545.872 9 121819834.512 8  92155922.009 9
E36  24965129.491 7  24965133.488 9 131192641.484 7  99246348.418 9
G01  19975580.118 7                  19975583.295 8  19975585.109 9 104972375.251 7                  81796672.953 8  78388483.189 9
G02  21369251.625 7  21369252.955 6                                 112296163.979 7  87503406.545 6                
G03  20125032.397 8                  20125038.297 7  20125036.563 8 105757752.690 8                  82408815.440 7  78975143.217 8
G04  23194144.531 6                  23194152.098 7  23194153.154 8 121886073.726 6                  94976200.200 7  91018875.148 8
G17  22351242.721 7                  22351246.860 7                 117456571.828 7                  91524779.801 7
G28  23344043.165 7                  23344048.538 7  23344051.077 8 122673783.597 7                  95590164.059 7  91607250.335 8
G31  23665350.367 7                  23665357.440 7                 124362473.229 7                  96905713.098 7
G32  23566858.499 7                  23566865.020 6  23566862.751 7 123844665.555 7                  96502159.557 6  92481283.898 7
R02  21195789.634 7  21195792.627 7 113104786.830 7  87970219.949 7
R03  19031147.589 8  19031149.675 7 101875221.629 8  79236417.077 7
R04  21343164.548 7  21343168.630 7 114291694.354 7  88893567.725 7
R11  23427281.564 7  23427285.264 7 125188290.979 7  97368843.362 7
R17  21696382.913 8  21696388.191 7 116101713.109 8  90301341.087 7
R18  19066868.278 8  19066870.010 8 101780234.047 8  79162435.257 8
R19  20519566.737 8  20519567.895 7 109765852.285 8  85373445.095 7
> 2025 06 15 13 14 45.0000000  0 35
C05  39032097.587 6  39032096.409 7 203250379.327 6 157166081.750 7
C06  38887452.944 6  38887449.781 7 202497181.921 6 156583668.781 7
C09  39682660.985 6  39682660.622 7 206638050.668 6 159785656.152 7
C12  22004236.867 7  22004234.233 8 114581841.835 7  88602046.993 8
C16  39312510.005 7  39312512.632 7 204710565.620 7 158295197.939 7
C19  23891323.531 7                 124408382.737 7
C21  24091888.642 7                 125452794.423 7
C22  21290506.580 8                 110865251.946 8
C34  23223976.660 7                 120933343.481 7
C35  24262599.452 7                 126341706.564 7
C39  38906855.570 7                 202598203.715 7
C44  21659875.028 8                 112788650.505 8
E03  27012455.456 7  27012461.759 8 141951432.288 7 107385375.859 8
E05  22384524.191 8  22384527.070 9 117631474.768 8  88987461.652 9
E06  26437376.349 7  26437380.932 8 138929342.691 7 105099157.057 8
E09  24962014.429 7  24962016.878 8 131176268.233 7  99234004.179 8
E15  25933136.582 7  25933140.730 8 136279556.697 7 103094621.262 8
E34  23180164.172 8  23180166.510 9 121812585.877 8  92150438.463 9
E36  24970793.461 7  24970798.078 9 131222408.970 7  99268867.310 9
G01  19975768.148 8                  19975771.266 8  19975773.047 9 104973362.945 8                  81797442.598 8  78389220.759 9
G02  21374448.399 7  21374449.679 6                                 112323472.841 7  87524686.166 6                
G03  20120945.562 8                  20120950.937 8  20120949.210 9 105736274.172 8                  82392078.958 8  78959104.086 9
G04  23183453.924 6                  23183461.107 7  23183463.111 8 121829896.877 6                  94932426.091 7  90976924.972 8
G17  22347871.869 7                  22347875.819 7                 117438857.104 7                  91510976.143 7
G19  23461681.814 6  23461684.513 2                                 123291788.99116  96071674.07012                
G28  23339650.881 7                  23339656.231 7  23339658.468 8 122650701.129 7                  95572177.754 7  91590013.469 8
G31  23656726.050 7                  23656732.884 7                 124317150.989 7                  96870397.111 7
G32  23575031.643 7                  23575038.109 6  23575036.001 8 123887615.676 7                  96535627.179 6  92513356.999 8
R02  21205067.365 8  21205070.255 7 113154291.451 8  88008723.508 7
R03  19029868.500 8  19029870.475 7 101868373.602 8  79231090.831 7
R04  21332870.199 7  21332874.179 7 114236569.164 7  88850692.610 7
R11  23425272.769 7  23425276.862 6 125177556.630 7  97360494.433 6
R17  21707071.797 7  21707076.965 7 116158912.574 7  90345829.523 7
R18  19069290.269 8  19069292.140 7 101793162.719 8  79172490.882 7
R19  20510758.400 8  20510758.614 7 109718732.493 8  85336796.407 7
> 2025 06 15 13 15  0.0000000  0 35
C05  39031799.793 5  39031798.639 7 203248828.188 5 157164882.313 7
C06  38883666.722 6  38883663.343 7 202477467.088 6 156568424.034 7
C09  39677859.580 6  39677858.766 7 206613046.659 6 159766321.507 7
C12  22001969.567 7  22001966.400 8 114570032.848 7  88592915.524 8
C16  39309182.278 7  39309184.176 7 204693235.729 7 158281797.387 7
C19  23898523.731 7                 124445876.967 7
C21  24083625.349 7                 125409764.551 7
C22  21289690.629 8                 110861003.196 8
C34  23217609.813 8                 120900189.437 8
C35  24271588.397 7                 126388513.995 7
C39  38904768.997 7                 202587338.665 7
C44  21662807.682 8                 112803922.376 8
E03  27003076.673 7  27003082.773 8 141902145.177 7 107348090.572 8
E05  22379914.760 8  22379917.242 9 117607250.116 8  88969135.897 9
E06  26443971.915 7  26443977.253 8 138964005.951 7 105125379.545 8
E09  24965870.756 7  24965873.085 9 131196532.383 7  99249333.865 9
E15  25925789.385 7  25925793.676 8 136240947.860 7 103065413.937 8
E34  23178798.600 8  23178801.044 9 121805410.282 8  92145010.188 9
E36  24976469.101 7  24976473.114 9 131252231.415 7  99291427.783 9
G01  19975978.704 8                  19975982.219 8  19975983.985 9 104974471.188 8                  81798306.158 8  78390048.340 9
G02  21379662.263 7  21379663.641 6                                 112350872.331 7  87546036.404 6                
G03  20116877.079 8                  20116882.962 8  20116881.337 8 105714894.687 8                  82375419.617 8  78943138.887 8
G04  23172773.098 6                  23172778.959 6  23172781.934 8 121773766.338 6                  94888688.031 6  90935009.401 8
G17  22344526.263 7                  22344529.777 7                 117421274.961 7                  91497275.779 7
G19  23453012.444 5  23453015.374 2                                 123246231.515 5  96036174.689 2                
G28  23335282.957 7                  23335288.513 7  23335290.816 8 122627748.188 7                  95554292.423 7  91572873.345 8
G31  23648116.049 7                  23648122.617 7                 124271903.691 7                  96835139.570 7
G32  23583217.732 7                  23583223.873 6  23583221.854 8 123930632.509 7                  96569146.741 6  92545479.892 8
R02  21214358.500 8  21214361.377 7 113203872.440 8  88047286.476 7
R03  19028620.821 8  19028622.603 7 101861694.344 8  79225895.861 7
R04  21322594.046 7  21322598.045 7 114181539.996 7  88807892.194 7
R11  23423300.183 7  23423303.514 6 125167011.682 7  97352292.822 6
R17  21717777.772 8  21717782.191 7 116216198.399 8  90390385.104 7
R18  19071746.003 8  19071748.063 7 101806270.716 8  79182685.998 7
R19  20501970.612 8  20501971.378 7 109671723.835 8  85300234.139 7
> 2025 06 15 13 15 15.0000000  0 35
C05  39031501.010 6  39031499.663 7 203247271.739 6 157163678.778 7
C06  38879886.923 6  38879883.377 7 202457783.705 6 156553203.613 7
C09  39673061.404 6  39673060.830 7 206588063.292 6 159747002.834 7
C12  21999722.950 7  21999719.638 8 114558335.263 7  88583870.224 8
C16  39305860.235 7  39305862.821 7 204675938.443 7 158268422.063 7
C19  23905732.072 7                 124483410.123 7
C21  24075371.360 7                 125366784.843 7
C22  21288892.941 8                 110856849.465 8
C34  23211258.731 7                 120867117.764 7
C35  24280584.287 7                 126435361.375 7
C39  38902689.351 6                 202576511.519 6
C44  21665761.948 8                 112819304.510 8
E03  26993700.386 7  26993706.660 8 141852873.691 7 107310817.081 8
E05  22375321.421 8  22375323.983 9 117583112.407 8  88950875.886 9
E06  26450577.840 7  26450582.920 8 138998718.762 7 105151639.527 8
E09  24969742.300 7  24969744.782 8 131216878.144 7  99264725.287 8
E15  25918445.326 7  25918449.590 8 136202354.447 7 103036218.288 8
E34  23177445.351 8  23177447.876 9 121798299.194 8  92139630.680 9
E36  24982152.728 7  24982156.969 9 131282100.147 7  99314023.258 9
G01  19976211.069 8                  19976214.412 8  19976216.166 9 104975691.331 8                  81799256.917 8  78390959.498 9
G02  21384891.920 7  21384893.165 6                                 112378353.789 7  87567450.496 6                
G03  20112825.722 8                  20112831.252 7  20112830.080 8 105693605.561 8                  82358830.686 7  78927241.160 8
G04  23162098.630 7                  23162105.376 7  23162107.705 8 121717673.762 7                  94844979.608 7  90893122.200 8
G17  22341203.698 7                  22341207.860 7                 117403816.859 7                  91483672.092 7
G19  23444360.276 4                                                 123200765.95214                                
G28  23330938.748 6                  23330943.306 7  23330946.283 8 122604916.384 6                  95536501.446 7  91555823.666 8
G31  23639518.145 7                  23639524.957 7                 124226722.998 7                  96799933.908 7
G32  23591414.238 7                  23591421.166 7  23591418.958 8 123973707.080 7                  96602711.299 7  92577645.923 8
R02  21223662.883 8  21223665.754 7 113253520.823 8  88085901.861 7
R03  19027402.788 8  19027404.719 7 101855174.873 8  79220825.161 7
R04  21312333.982 7  21312337.876 7 114126598.069 7  88765159.635 7
R11  23421360.858 7  23421364.090 6 125156647.390 7  97344231.684 6
R17  21728496.878 7  21728502.089 7 116273561.427 7  90435000.739 7
R18  19074233.387 8  19074235.550 7 101819549.208 8  79193013.690 7
R19  20493202.053 8  20493202.529 7 109624818.083 8  85263751.949 7
> 2025 06 15 13 15 30.0000000  0 36
C05  39031202.087 6  39031200.406 7 203245714.147 6 157162474.358 7
C06  38876113.991 6  38876110.226 7 202438136.001 6 156538010.760 7
C09  39668268.986 6  39668268.018 7 206563104.862 6 159727703.411 7
C11  25444320.726 5  25444322.863 6 132495277.42515 102453754.96416
C12  21997498.978 7  21997495.477 8 114546753.519 7  88574914.480 8
C16  39302545.665 7  39302548.156 7 204658677.956 7 158255075.154 7
C19  23912947.603 7                 124520986.216 7
C21  24067128.087 7                 125323859.508 7
C22  21288114.094 8                 110852794.823 8
C34  23204924.170 7                 120834132.857 7
C35  24289590.302 7                 126482252.646 7
C39  38900618.254 7                 202565726.444 7
C44  21668738.053 8                 112834801.016 8
E03  26984327.854 7  26984334.432 8 141803622.259 7 107273558.758 8
E05  22370745.433 8  22370748.071 9 117559065.880 8  88932684.868 9
E06  26457193.857 7  26457198.781 8 139033485.097 7 105177939.975 8
E09  24973629.751 7  24973632.738 9 131237309.547 7  99280181.499 9
E15  25911105.434 7  25911109.267 8 136163780.671 7 103007037.503 8
E34  23176105.516 8  23176107.729 9 121791256.836 8  92134303.184 9
E36  24987845.791 7  24987850.416 9 131312019.324 7  99336656.896 9
G01  19976465.565 7                  19976468.618 8  19976470.470 9 104977027.688 7                  81800298.232 8  78391957.413 9
G02  21390137.423 7  21390138.959 6                                 112405921.187 7  87588931.560 6                
G03  20108792.577 8                  20108798.478 7  20108796.527 8 105672410.999 8                  82342315.455 7  78911414.072 8
G04  23151432.973 7                  23151439.315 7  23151441.726 8 121661623.634 7                  94801304.221 7  90851266.638 8
G17  22337905.539 7                  22337909.956 7                 117386487.131 7                  91470168.397 7
G19  23435726.734 5                                                 123155396.795 5                                
G28  23326617.782 7                  23326622.469 7  23326625.297 8 122582210.130 7                  95518808.308 7  91538867.739 8
G31  23630934.231 7                  23630940.951 7                 124181613.529 7                  96764783.743 7
G32  23599622.866 7                  23599629.786 7  23599627.457 8 124016843.260 7                  96636323.875 7  92609857.957 8
R02  21232979.976 7  21232983.826 7 113303240.371 7  88124572.595 7
R03  19026215.589 8  19026217.381 7 101848819.537 8  79215882.129 7
R04  21302090.852 7  21302095.062 7 114071747.954 7  88722498.479 7
R11  23419454.191 7  23419459.603 7 125146468.175 7  97336314.549 7
R17  21739232.140 8  21739236.952 7 116331005.514 8  90479679.375 7
R18  19076753.659 8  19076755.430 7 101833002.338 8  79203477.231 7
R19  20484453.349 8  20484454.289 7 109578020.008 8  85227353.423 7
> 2025 06 15 13 15 45.0000000  0 36
C05  39030903.947 6  39030901.969 7 203244160.397 6 157161272.898 7
C06  38872348.342 6  38872344.974 7 202418528.948 6 156522849.368 7
C09  39663481.429 7  39663480.532 7 206538176.300 7 159708427.104 7
C11  25435250.118 5  25435249.535 5 132448046.259 5 102417232.889 5
C12  21995298.069 7  21995294.498 8 114535292.648 7  88566052.207 8
C16  39299239.306 7  39299241.060 7 204641459.249 7 158241760.581 7
C19  23920172.642 7                 124558609.989 7
C21  24058896.096 7                 125280993.695 7
C22  21287355.467 8                 110848844.169 8
C34  23198607.630 7                 120801239.918 7
C35  24298604.625 7                 126529192.549 7
C39  38898556.267 7                 202554988.405 7
C44  21671736.885 8                 112850416.759 8
E03  26974959.922 7  26974966.913 8 141754396.031 7 107236319.523 8
E05  22366188.183 8  22366190.464 9 117535115.690 8  88914566.710 9
E06  26463821.365 7  26463825.757 8 139068309.810 7 105204284.606 8
E09  24977535.238 7  24977537.964 9 131257831.457 7  99295706.180 9
E15  25903769.370 7  25903773.597 8 136125231.696 7 102977875.497 8
E34  23174779.411 8  23174781.666 9 121784288.356 8  92129031.586 9
E36  24993549.878 7  24993554.340 9 131341993.887 7  99359332.434 9
G01  19976742.713 8                  19976746.078 8  19976747.948 9 104978485.305 8                  81801434.036 8  78393045.897 9
G02  21395400.620 8  21395401.997 6                                 112433579.393 8  87610483.396 6                
G03  20104778.230 8                  20104784.147 7  20104782.437 8 105651316.156 8                  82325877.919 7  78895661.431 8
G04  23140775.609 6                  23140782.692 7  23140784.694 8 121605621.186 6                  94757666.012 7  90809446.704 8
G17  22334633.238 7                  22334637.504 7                 117369290.950 7                  91456768.769 7
G19  23427111.480 6  23427117.306 3                                 123110129.570 6  95930129.40613                
G28  23322321.982 6                  23322326.508 7  23322329.477 8 122559634.688 6                  95501217.097 7  91522009.497 8
G31  23622364.782 6                  23622371.896 7                 124136580.894 6                  96729693.457 7
G32  23607844.099 6                  23607851.084 7  23607848.610 8 124060045.762 6                  96669988.174 7  92642119.527 8
R02  21242311.899 8  21242314.970 7 113353035.840 8  88163302.353 7
R03  19025059.854 8  19025061.915 7 101842633.213 8  79211070.528 7
R04  21291865.962 7  21291869.737 7 114016995.219 7  88679913.063 7
R11  23417586.689 7  23417590.171 7 125136479.082 7  97328545.256 7
R17  21749982.755 8  21749988.019 7 116388535.650 8  90524424.999 7
R18  19079307.625 8  19079309.219 7 101846635.294 8  79214080.650 7
R19  20475726.183 8  20475726.944 7 109531335.136 8  85191042.971 7
> 2025 06 15 13 16  0.0000000  0 36
C05  39030605.812 6  39030604.143 7 203242609.351 6 157160073.519 7
C06  38868590.637 6  38868587.410 7 202398961.428 6 156507718.524 7
C09  39658699.744 6  39658698.736 7 206513276.567 6 159689173.076 7
C11  25426191.334 5  25426185.046 4 132400857.624 5 102380743.730 4
C12  21993120.042 7  21993117.068 8 114523951.579 7  88557282.586 8
C16  39295940.241 7  39295942.698 7 204624281.251 7 158228477.492 7
C19  23927407.059 7                 124596280.075 7
C21  24050675.461 7                 125238186.287 7
C22  21286616.719 8                 110844996.297 8
C34  23192308.334 7                 120768438.075 7
C35  24307627.780 7                 126576179.668 7
C39  38896502.972 6                 202544296.240 6
C44  21674758.370 8                 112866150.549 8
E03  26965597.507 7  26965603.956 8 141705194.033 7 107199098.610 8
E05  22361648.579 8  22361650.988 9 117511260.728 8  88896520.599 9
E06  26470459.188 7  26470463.543 8 139103191.431 7 105230672.308 8
E09  24981457.006 7  24981460.144 8 131278442.541 7  99311298.320 8
E15  25896438.346 7  25896442.509 8 136086706.534 7 102948731.488 8
E34  23173467.358 8  23173469.493 9 121777392.691 8  92123815.049 9
E36  24999264.696 7  24999268.603 9 131372022.626 7  99382048.979 9
G01  19977042.968 8                  19977046.386 8  19977048.024 9 104980063.070 8                  81802663.457 8  78394224.104 9
G02  21400681.013 7  21400682.260 6                                 112461327.348 7  87632105.157 6                
G03  20100783.018 8                  20100788.700 7  20100787.207 8 105630319.825 8                  82309517.171 7  78879982.372 8
G04  23130127.697 6                  23130133.923 7  23130136.607 8 121549665.499 6                  94714064.249 7  90767661.726 8
G17  22331386.590 7                  22331390.280 7                 117352227.404 7                  91443472.472 7
G19  23418517.598 6  23418521.964 3                                 123064963.408 6  95894934.933 3                
G28  23318050.264 7                  23318054.943 7  23318058.136 8 122537189.118 7                  95483727.097 7  91505248.269 8
G31  23613809.423 7                  23613816.257 7                 124091624.191 7                  96694662.329 7
G32  23616077.620 7                  23616084.559 7  23616082.039 8 124103313.205 7                  96703702.972 7  92674429.579 8
R02  21251657.460 8  21251660.547 7 113402905.374 8  88202089.739 7
R03  19023935.548 8  19023937.769 7 101836614.340 8  79206389.197 7
R04  21281659.773 7  21281663.777 7 113962338.738 7  88637402.479 7
R11  23415752.267 7  23415755.796 6 125126679.367 7  97320923.224 6
R17  21760749.261 7  21760754.432 7 116446150.188 7  90569236.246 7
R18  19081895.301 8  19081897.278 8 101860446.855 8  79224822.977 8
R19  20467019.742 8  20467020.928 7 109484762.673 8  85154819.988 7
> 2025 06 15 13 16 15.0000000  0 36
C05  39030309.631 5  39030307.311 7 203241065.148 5 157158879.462 7
C06  38864841.355 6  38864837.962 7 202379437.688 6 156492621.583 7
C09  39653924.233 6  39653923.461 7 206488409.922 6 159669944.643 7
C11  25417132.966 4                                
C12  21990965.621 7  21990962.797 8 114512734.771 7  88548609.046 8
C16  39292649.939 7  39292651.840 7 204607148.152 7 158215229.117 7
C19  23934651.174 7                 124634000.493 7
C21  24042466.882 7                 125195441.613 7
C22  21285898.135 8                 110841255.377 8
C34  23186027.023 7                 120735731.718 7
C35  24316660.829 7                 126623218.101 7
C39  38894459.264 7                 202533654.156 7
C44  21677803.484 8                 112882006.484 8
E03  26956240.719 7  26956246.532 8 141656020.743 7 107161899.386 8
E05  22357128.315 8  22357130.452 9 117487505.351 8  88878549.814 9
E06  26477108.472 7  26477112.913 8 139138134.108 7 105257106.183 8
E09  24985396.804 7  24985400.078 9 131299146.854 7  99326961.011 9
E15  25889112.786 7  25889116.649 8 136048209.553 7 102919608.788 8
E34  23172169.624 8  23172171.987 9 121770574.162 8  92118656.880 9
E36  25004990.357 7  25004993.997 9 131402109.780 7  99404809.679 9
G01  19977367.040 8                  19977370.211 8  19977371.878 9 104981765.305 8                  81803989.884 8  78395495.252 9
G02  21405979.364 7  21405980.685 6                                 112489169.343 7  87653800.206 6                
G03  20096807.016 8                  20096812.656 7  20096811.215 8 105609426.364 8                  82293236.543 7  78864380.121 8
G04  23119489.916 7                  23119495.994 7  23119497.946 8 121493761.242 7                  94670502.558 7  90725915.080 8
G17  22328165.547 7                  22328169.205 7                 117335300.705 7                  91430282.836 7
G19  23409942.716 6  23409946.835 3                                 123019902.591 6  95859822.621 3                
G28  23313804.478 6                  23313809.445 7  23313812.325 8 122514877.977 6                  95466341.850 7  91488587.407 8
G31  23605270.045 7                  23605276.919 7                 124046748.102 7                  96659694.014 7
G32  23624324.241 6                  23624331.273 7  23624329.073 8 124146649.489 6                  96737471.474 7  92706791.057 8
R02  21261017.729 7  21261020.844 7 113452853.275 7  88240938.058 7
R03  19022843.424 8  19022845.440 7 101830767.738 8  79201841.864 7
R04  21271471.397 7  21271475.743 7 113907783.085 7  88594970.360 7
R11  23413954.037 7  23413958.439 6 125117073.009 7  97313451.634 6
R17  21771532.859 8  21771537.909 7 116503853.062 8  90614116.175 7
R18  19084516.643 8  19084518.439 8 101874441.343 8  79235707.572 8
R19  20458335.805 8  20458336.649 7 109438307.459 8  85118688.163 7
> 2025 06 15 13 16 30.0000000  0 35
C05  39030013.801 5  39030012.303 7 203239527.490 5 157157690.457 7
C06  38861100.012 6  38861097.203 6 202359957.488 6 156477558.278 6
C09  39649155.236 6  39649153.989 7 206463576.018 6 159650741.499 7
C12  21988835.457 7  21988832.487 8 114501641.837 7  88540031.297 8
C16  39289368.318 7  39289370.032 7 204590059.645 7 158202015.237 7
C19  23941904.354 7                 124671770.722 7
C21  24034270.428 7                 125152759.513 7
C22  21285200.253 8                 110837620.956 8
C34  23179764.662 8                 120703120.736 8
C35  24325704.456 7                 126670307.223 7
C39  38892424.895 6                 202523061.881 6
C44  21680871.372 8                 112897984.140 8
E03  26946888.064 7  26946894.543 8 141606875.906 7 107124721.737 8
E05  22352626.738 8  22352628.834 9 117463849.238 8  88860654.146 9
E06  26483768.835 7  26483773.736 8 139173137.263 7 105283585.810 8
E09  24989354.192 7  24989357.598 9 131319943.973 7  99342693.860 9
E15  25881792.551 7  25881796.173 8 136009740.513 7 102890507.247 8
E34  23170886.601 8  23170889.088 9 121763832.527 8  92113556.875 9
E36  25010726.473 7  25010730.440 9 131432254.918 7  99427614.272 9
G01  19977714.546 8                  19977717.700 8  19977719.248 9 104983591.747 8                  81805413.079 8  78396859.142 9
G02  21411295.113 7  21411296.649 6                                 112517104.739 7  87675568.027 6                
G03  20092850.417 8                  20092856.297 7  20092854.766 9 105588635.446 8                  82277035.850 7  78848854.440 9
G04  23108860.805 7                  23108867.857 7  23108869.590 8 121437908.212 7                  94626980.834 7  90684206.761 8
G17  22324970.593 7                  22324974.591 7                 117318510.700 7                  91417199.728 7
G19  23401387.640 6  23401391.960 3                                 122974947.375 6  95824792.640 3                
G28  23309583.760 7                  23309589.364 7  23309592.380 8 122492701.160 7                  95449061.198 7  91472026.825 8
G31  23596745.952 6                  23596752.512 7                 124001952.703 6                  96624788.570 7
G32  23632583.602 7                  23632590.986 7  23632588.482 8 124190054.001 7                  96771293.136 7  92739203.456 8
R02  21270392.366 8  21270395.128 7 113502878.385 8  88279846.436 7
R03  19021783.125 8  19021785.291 7 101825092.626 8  79197427.895 7
R04  21261302.392 7  21261306.160 7 113853328.313 7  88552616.685 7
R11  23412193.763 7  23412197.695 7 125107660.125 7  97306130.468 7
R17  21782332.321 8  21782337.240 7 116561643.496 8  90659064.237 7
R18  19087172.652 8  19087174.385 8 101888618.254 8  79246734.060 8
R19  20449673.005 8  20449674.477 7 109391969.704 8  85082647.698 7
> 2025 06 15 13 16 45.0000000  0 35
C05  39029719.749 6  39029717.731 7 203237993.521 6 157156504.303 7
C06  38857366.930 6  38857363.813 7 202340517.939 6 156462526.409 7
C09  39644391.621 6  39644390.645 7 206438772.128 6 159631561.611 7
C12  21986728.558 7  21986725.574 8 114490670.216 7  88531547.351 8
C16  39286094.926 7  39286096.416 7 204573012.891 7 158188833.613 7
C19  23949166.304 7                 124709587.718 7
C21  24026085.195 7                 125110137.223 7
C22  21284522.257 8                 110834090.084 8
C34  23173519.950 7                 120670602.518 7
C35  24334756.363 7                 126717443.977 7
C39  38890399.776 7                 202512516.478 7
C44  21683962.790 8                 112914080.623 8
E03  26937541.482 7  26937547.431 8 141557756.863 7 107087563.596 8
E05  22348143.267 8  22348145.581 9 117440289.671 8  88842831.514 9
E06  26490441.192 7  26490445.583 8 139208197.859 7 105310108.882 8
E09  24993329.516 7  24993332.232 8 131340830.743 7  99358494.590 8
E15  25874476.893 7  25874480.626 8 135971296.676 7 102861424.741 8
E34  23169617.987 8  23169620.303 9 121757165.015 8  92108512.945 9
E36  25016473.825 8  25016477.360 9 131462455.157 8  99450460.550 9
G01  19978085.319 7                  19978088.293 8  19978089.895 9 104985539.554 7                  81806930.852 8  78398313.673 9
G02  21416628.351 7  21416629.746 6                                 112545130.600 7  87697406.330 6                
G03  20088913.020 8                  20088918.993 7  20088917.439 8 105567944.248 8                  82260912.862 7  78833403.248 8
G04  23098242.269 7                  23098248.113 7  23098250.764 8 121382103.899 7                  94583497.030 7  90642534.797 8
G17  22321801.033 7                  22321805.187 7                 117301854.671 7                  91404221.008 7
G19  23392852.944 5  23392856.924 2                                 122930095.231 5  95789842.902 2                
G28  23305389.416 6                  23305394.073 7  23305397.277 8 122470656.035 6                  95431883.207 7  91455564.585 8
G31  23588236.741 6                  23588243.156 7                 123957235.516 6                  96589944.084 7
G32  23640855.607 7                  23640863.068 7  23640860.531 8 124233523.554 7                  96805165.479 7  92771664.448 8
R02  21279780.751 8  21279784.289 7 113552977.563 8  88318812.443 7
R03  19020754.778 8  19020756.218 7 101819586.048 8  79193144.973 7
R04  21251151.844 7  21251155.508 7 113798971.673 7  88510339.316 7
R11  23410467.334 7  23410471.364 7 125098437.913 7  97298957.616 7
R17  21793147.851 8  21793152.261 7 116619518.452 8  90704078.021 7
R18  19089861.645 8  19089863.544 8 101902974.746 8  79257900.191 8
R19  20441032.091 8  20441034.027 7 109345746.808 8  85046696.572 7
> 2025 06 15 13 17  0.0000000  0 35
C05  39029425.362 6  39029423.254 7 203236461.667 6 157155319.793 7
C06  38853640.864 6  38853638.120 7 202321117.455 6 156447524.745 7
C09  39639633.945 6  39639632.899 7 206413996.644 6 159612403.668 7
C12  21984644.675 7  21984641.573 8 114479818.360 7  88523156.002 8
C16  39282828.368 7  39282830.826 7 204556006.363 7 158175683.117 7
C19  23956438.167 7                 124747449.659 7
C21  24017911.157 7                 125067573.267 7
C22  21283863.554 8                 110830661.143 8
C34  23167292.452 8                 120638175.685 8
C35  24343817.177 7                 126764626.539 7
C39  38888383.439 6                 202502016.434 6
C44  21687076.316 8                 112930294.260 8
E03  26928199.186 7  26928204.949 8 141508662.229 7 107050423.895 8
E05  22343677.868 8  22343680.407 9 117416825.112 8  88825080.753 9
E06  26497124.504 7  26497128.022 8 139243314.018 7 105336674.006 8
E09  24997320.607 7  24997323.616 9 131361805.464 7  99374361.815 9
E15  25867165.827 7  25867169.551 8 135932876.560 7 102832360.200 8
E34  23168363.038 8  23168365.326 9 121750570.088 8  92103523.941 9
E36  25022230.686 7  25022234.429 9 131492708.853 7  99473347.263 9
G01  19978478.854 8                  19978481.667 8  19978483.478 9 104987607.186 8                  81808541.974 8  78399857.686 9
G02  21421978.089 7  21421979.909 6                                 112573245.302 7  87719313.872 6                
G03  20084994.339 8                  20085000.026 7  20084998.569 8 105547351.231 8                  82244866.341 7  78818025.343 8
G04  23087631.181 6                  23087637.849 7  23087640.320 8 121326346.937 6                  94540050.125 7  90600898.207 8
G17  22318656.793 7                  22318660.526 7                 117285331.005 7                  91391345.426 7
G19  23384337.558 5                                                 122885344.895 5                                
G28  23301218.986 6                  23301223.534 7  23301226.712 8 122448741.225 6                  95414806.728 7  91439199.647 8
G31  23579741.410 6                  23579748.350 7                 123912595.367 6                  96555159.593 7
G32  23649140.290 7                  23649147.054 7  23649144.577 8 124277056.286 7                  96839087.049 7  92804172.579 8
R02  21289182.967 8  21289186.436 7 113603148.839 8  88357834.522 7
R03  19019756.988 8  19019758.813 7 101814246.182 8  79188991.749 7
R04  21241018.993 7  21241023.398 7 113744712.055 7  88468137.451 7
R11  23408777.363 7  23408781.341 7 125089404.587 7  97291931.679 7
R17  21803978.446 8  21803983.511 7 116677475.865 8  90749155.938 7
R18  19092584.981 8  19092586.330 7 101917509.177 8  79269204.736 7
R19  20432412.742 8  20432413.863 7 109299637.555 8  85010833.841 7
> 2025 06 15 13 17 15.0000000  0 35
C05  39029132.055 6  39029129.962 7 203234933.526 6 157154138.137 7
C06  38849923.211 6  38849920.221 7 202301757.724 6 156432554.588 7
C09  39634882.023 6  39634880.524 7 206389251.281 6 159593269.019 7
C12  21982584.213 7  21982581.214 8 114469087.979 7  88514858.598 8
C16  39279570.831 7  39279572.901 7 204539041.641 7 158162564.926 7
C19  23963717.818 7                 124785357.933 7
C21  24009748.566 7                 125025069.288 7
C22  21283224.894 8                 110827335.638 8
C34  23161083.399 8                 120605842.091 8
C35  24352887.317 7                 126811856.286 7
C39  38886375.946 7                 202491563.298 7
C44  21690212.899 8                 112946626.497 8
E03  26918861.673 7  26918867.439 8 141459593.761 7 107013303.959 8
E05  22339231.244 8  22339233.640 9 117393457.210 8  88807403.104 9
E06  26503817.067 7  26503821.302 8 139278487.162 7 105363282.223 8
E09  25001329.262 7  25001332.020 9 131382869.530 7  99390296.640 9
E15  25859858.567 7  25859863.244 8 135894481.865 7 102803314.890 8
E34  23167122.055 8  23167124.467 9 121744049.459 8  92098591.123 9
E36  25027997.888 7  25028001.975 8 131523017.552 7  99496275.568 8
G01  19978895.264 8                  19978898.388 8  19978900.210 9 104989796.299 8                  81810247.769 8  78401492.417 9
G02  21427346.077 7  21427347.105 6                                 112601450.291 7  87741291.770 6                
G03  20081094.624 8                  20081100.667 7  20081098.616 9 105526857.971 8                  82228897.581 7  78802721.949 9
G04  23077030.497 6                  23077036.504 7  23077039.305 7 121270639.186 6                  94496641.532 7  90559298.344 7
G17  22315537.851 7                  22315541.705 7                 117268941.513 7                  91378574.405 7
G19  23375840.974 4                                                 122840698.122 4                                
G28  23297073.755 7                  23297078.661 7  23297081.742 8 122426958.502 7                  95397833.241 7  91422933.372 8
G31  23571261.794 6                  23571268.278 7                 123868034.317 6                  96520436.716 7
G32  23657436.228 7                  23657443.686 7  23657440.933 8 124320653.459 7                  96873058.836 7  92836728.860 8
R02  21298598.933 8  21298602.506 7 113653393.571 8  88396913.735 7
R03  19018790.976 8  19018792.688 7 101809074.543 8  79184969.380 7
R04  21230905.218 7  21230908.263 7 113690550.948 7  88426012.144 7
R11  23407123.109 7  23407126.349 7 125080562.041 7  97285054.225 7
R17  21814825.240 8  21814830.159 7 116735516.955 8  90794298.951 7
R18  19095341.200 8  19095342.554 7 101932223.144 8  79280648.923 7
R19  20423814.494 8  20423815.476 7 109253643.980 8  84975061.069 7
> 2025 06 15 13 17 30.0000000  0 35
C05  39028839.368 6  39028836.928 7 203233408.125 6 157152958.621 7
C06  38846213.670 6  38846209.736 7 202282437.877 6 156417615.263 7
C09  39630135.404 6  39630134.413 7 206364535.046 6 159574156.885 7
C12  21980546.432 7  21980543.553 8 114458478.305 7  88506654.534 8
C16  39276320.847 7  39276322.618 7 204522117.836 7 158149478.393 7
C19  23971006.301 7                 124823311.464 7
C21  24001597.757 7                 124982624.542 7
C22  21282605.916 8                 110824112.579 8
C34  23154891.494 7                 120573601.049 7
C35  24361966.136 7                 126859132.077 7
C39  38884377.130 7                 202481156.198 7
C44  21693372.053 8                 112963076.432 8
E03  26909529.252 7  26909534.648 8 141410550.616 7 106976203.253 8
E05  22334802.618 8  22334805.116 9 117370185.155 8  88789797.979 9
E06  26510520.672 7  26510525.215 8 139313716.156 7 105389932.712 8
E09  25005354.564 7  25005357.181 9 131404021.854 7  99406298.234 9
E15  25852557.128 7  25852561.681 8 135856111.803 7 102774288.223 8
E34  23165895.276 8  23165897.617 9 121737602.282 8  92093713.873 9
E36  25033775.667 7  25033779.821 9 131553380.313 7  99519244.787 9
G01  19979334.707 8                  19979337.903 8  19979339.917 9 104992106.037 8                  81812047.574 8  78403217.218 9
G02  21432730.019 7  21432731.330 6                                 112629744.612 7  87763339.271 6                
G03  20077213.740 8                  20077219.472 7  20077217.953 8 105506463.661 8                  82213005.919 7  78787492.442 8
G04  23066438.372 6                  23066445.261 7  23066447.739 8 121214980.064 6                  94453270.880 7  90517734.796 8
G17  22312444.429 7                  22312448.285 7                 117252685.470 7                  91365907.366 7
G19  23367365.518 5                                                 122796154.49715                                
G28  23292954.132 6                  23292958.535 7  23292961.907 8 122405307.314 6                  95380962.236 7  91406765.305 8
G31  23562797.019 6                  23562803.564 7                 123823551.830 6                  96485775.126 7
G32  23665744.400 7                  23665752.134 7  23665749.436 8 124364313.894 7                  96907079.935 7  92869332.385 8
R02  21308028.014 8  21308031.647 7 113703710.119 8  88436048.788 7
R03  19017855.687 8  19017858.036 7 101804069.996 8  79181076.945 7
R04  21220809.324 7  21220812.775 7 113636487.974 7  88383963.195 7
R11  23405501.651 7  23405506.827 7 125071909.446 7  97278324.422 7
R17  21825687.158 7  21825691.609 7 116793640.643 7  90839506.171 7
R18  19098131.132 8  19098132.478 7 101947115.576 8  79292231.925 7
R19  20415238.472 8  20415238.827 7 109207765.665 8  84939377.925 7
> 2025 06 15 13 17 45.0000000  0 35
C05  39028545.542 6  39028543.634 7 203231881.147 6 157151777.868 7
C06  38842509.916 7  38842506.106 7 202263153.449 7 156402703.348 7
C09  39625393.436 6  39625392.576 7 206339843.756 6 159555064.040 7
C12  21978531.482 7  21978528.518 8 114447985.118 7  88498540.541 8
C16  39273077.855 7  39273079.865 7 204505230.607 7 158136420.164 7
C19  23978302.500 7                 124861305.665 7
C21  23993457.154 7                 124940234.814 7
C22  21282006.040 8                 110820987.526 8
C34  23148716.853 7                 120541448.398 7
C35  24371053.111 7                 126906449.364 7
C39  38882386.507 6                 202470790.748 6
C44  21696552.615 8                 112979639.555 8
E03  26900200.818 7  26900206.011 8 141361528.707 7 106939118.529 8
E05  22330391.326 8  22330393.995 9 117347004.645 8  88772262.071 9
E06  26517234.313 7  26517238.849 8 139348996.413 7 105416621.969 8
E09  25009395.676 7  25009398.318 9 131425257.875 7  99422363.153 9
E15  25845259.965 7  25845263.762 8 135817762.122 7 102745276.975 8
E34  23164681.576 8  23164683.911 9 121731224.243 8  92088888.937 9
E36  25039562.898 7  25039567.127 8 131583792.664 7  99542251.521 8
G01  19979796.440 8                  19979799.504 8  19979801.478 9 104994532.049 8                  81813937.974 8  78405028.848 9
G02  21438130.153 7  21438131.740 6                                 112658123.780 7  87785452.887 6                
G03  20073350.833 8                  20073356.653 7  20073354.922 8 105486163.906 8                  82197187.937 7  78772333.539 8
G04  23055855.660 6                  23055862.195 7  23055865.018 8 121159365.360 6                  94409934.869 7  90476204.452 8
G17  22309375.817 7                  22309379.592 7                 117236558.698 7                  91353341.039 7
G19  23358906.404 4                                                 122751709.928 4                                
G28  23288857.655 6                  23288862.693 7  23288865.863 8 122383783.429 6                  95364190.385 7  91390692.317 8
G31  23554346.631 7                  23554352.926 7                 123779144.002 7                  96451171.688 7
G32  23674064.042 7                  23674071.672 7  23674068.706 8 124408032.883 7                  96941146.635 7  92901979.630 8
R02  21317470.068 8  21317473.172 7 113754093.647 8  88475235.981 7
R03  19016951.540 8  19016953.633 7 101799228.312 8  79177311.196 7
R04  21210730.587 7  21210735.016 7 113582518.723 7  88341987.182 7
R11  23403918.954 7  23403922.568 7 125063442.514 7  97271739.031 7
R17  21836563.218 7  21836568.398 7 116851841.811 7  90884773.721 7
R18  19100953.805 8  19100954.937 7 101962181.987 8  79303950.231 7
R19  20406682.175 8  20406683.550 7 109161998.380 8  84903781.166 7
> 2025 06 15 13 18  0.0000000  0 35
C05  39028253.082 5  39028251.152 7 203230356.524 5 157150598.936 7
C06  38838814.993 7  38838810.710 7 202243908.540 7 156387821.980 7
C09  39620657.057 6  39620656.385 7 206315181.328 6 159535993.520 7
C12  21976539.468 7  21976536.401 8 114437612.462 7  88490519.738 8
C16  39269842.942 7  39269844.598 7 204488383.938 7 158123393.273 7
C19  23985607.809 7                 124899344.294 7
C21  23985327.911 7                 124897904.081 7
C22  21281425.482 8                 110817964.366 8
C34  23142559.935 7                 120509388.322 7
C35  24380148.496 6                 126953811.826 6
C39  38880404.717 6                 202460470.883 6
C44  21699755.827 8                 112996319.762 8
E03  26890876.887 7  26890882.161 8 141312532.146 7 106902053.021 8
E05  22325998.978 8  22326001.055 9 117323919.701 8  88754798.500 9
E06  26523958.238 7  26523962.932 8 139384331.741 7 105443352.889 8
E09  25013453.491 7  25013456.094 9 131446581.467 7  99438494.281 9
E15  25837966.726 7  25837970.559 8 135779436.960 7 102716284.258 8
E34  23163481.814 8  23163484.155 9 121724919.452 8  92084119.395 9
E36  25045360.458 7  25045364.664 9 131614258.599 7  99565298.771 9
G01  19980280.854 8                  19980284.189 8  19980285.777 9 104997078.359 8                  81815922.137 8  78406930.324 9
G02  21443547.738 7  21443548.925 6                                 112686591.744 7  87807635.706 6                
G03  20069506.802 7                  20069512.376 7  20069510.573 8 105465962.732 7                  82181446.779 7  78757248.254 8
G04  23045281.603 6                  23045288.472 7  23045290.648 8 121103799.429 6                  94366636.791 7  90434710.502 8
G17  22306332.421 7                  22306336.074 7                 117220565.088 7                  91340878.504 7
G19  23350468.011 5                                                 122707368.91015                                
G28  23284787.225 6                  23284792.088 8  23284794.764 8 122362391.123 6                  95347521.043 8  91374717.554 8
G31  23545911.238 7                  23545917.314 7                 123734815.222 7                  96416629.844 7
G32  23682395.141 7                  23682402.875 7  23682400.160 8 124451814.130 7                  96975261.841 7  92934673.373 8
R02  21326924.808 8  21326928.214 7 113804547.909 8  88514478.144 7
R03  19016078.193 8  19016080.719 7 101794553.009 8  79173674.895 7
R04  21200670.354 7  21200675.074 7 113528647.594 7  88300087.454 7
R11  23402370.554 7  23402373.264 6 125055165.330 7  97265301.199 6
R17  21847454.495 7  21847459.611 7 116910124.446 7  90930104.587 7
R18  19103809.369 8  19103810.712 7 101977426.430 8  79315807.022 7
R19  20398148.433 8  20398149.333 7 109116346.899 8  84868274.497 7
> 2025 06 15 13 18 15.0000000  0 35
C05  39027961.068 6  39027958.853 7 203228836.254 6 157149423.383 7
C06  38835126.460 6  38835122.884 7 202224705.123 6 156372972.694 7
C09  39615927.163 6  39615926.400 7 206290549.778 6 159516946.887 7
C12  21974570.803 7  21974568.134 8 114427362.365 7  88482593.716 8
C16  39266615.304 7  39266617.469 7 204471579.790 7 158110399.275 7
C19  23992922.113 7                 124937429.107 7
C21  23977210.306 7                 124855634.436 7
C22  21280864.646 8                 110815044.963 8
C34  23136421.774 7                 120477422.986 7
C35  24389253.296 6                 127001221.204 6
C39  38878431.996 6                 202450198.608 6
C44  21702981.991 8                 113013118.917 8
E03  26881557.790 6  26881563.676 8 141263563.037 6 106865008.283 8
E05  22321623.864 8  22321626.721 9 117300932.391 8  88737408.771 9
E06  26530693.419 7  26530697.848 8 139419723.837 7 105470126.754 8
E09  25017528.409 7  25017530.793 9 131467994.319 7  99454692.965 9
E15  25830678.597 7  25830682.431 8 135741138.364 7 102687311.625 8
E34  23162296.353 8  23162298.743 9 121718689.935 8  92079406.813 9
E36  25051168.344 7  25051172.739 9 131644779.982 7  99588387.974 9
G01  19980788.841 8                  19980791.918 8  19980793.465 9 104999747.030 8                  81818001.615 8  78408923.153 9
G02  21448981.774 7  21448983.499 6                                 112715150.298 7  87829889.089 6                
G03  20065681.836 8                  20065687.155 7  20065685.504 8 105445862.156 8                  82165784.002 7  78742238.108 8
G04  23034717.641 7                  23034724.361 7  23034726.439 8 121048284.447 7                  94323378.461 7  90393254.582 8
G17  22303314.629 7                  22303318.454 7                 117204707.061 7                  91328521.598 7
G19  23342052.762 5                                                 122663133.62615                                
G28  23280741.775 7                  23280746.449 7  23280749.242 8 122341132.550 7                  95330955.945 7  91358842.638 8
G31  23537491.326 6                  23537497.698 7                 123690567.670 6                  96382151.290 7
G32  23690738.731 7                  23690746.498 7  23690743.601 7 124495659.254 7                  97009426.847 7  92967414.856 7
R02  21336393.883 7  21336397.289 7 113855074.333 7  88553776.438 7
R03  19015236.143 8  19015238.522 7 101790046.326 8  79170169.672 7
R04  21190629.333 8  21190632.704 7 113474876.749 8  88258265.698 7
R11  23400856.277 7  23400860.067 6 125047079.961 7  97259012.557 6
R17  21858361.953 7  21858366.652 7 116968490.114 7  90975500.064 7
R18  19106699.199 8  19106700.376 7 101992850.870 8  79327803.803 7
R19  20389636.461 8  20389637.827 7 109070813.630 8  84832859.756 7
> 2025 06 15 13 18 30.0000000  0 36
C05  39027670.486 6  39027668.462 7 203227323.483 6 157148253.629 7
C06  38831446.681 6  38831443.746 7 202205546.476 6 156358158.047 7
C09  39611203.372 6  39611202.477 7 206265952.451 6 159497926.704 7
C11  25336046.097 5  25336030.010 4 131931493.73215 102017688.66514
C12  21972626.902 7  21972623.959 8 114417238.259 7  88474765.107 8
C16  39263397.078 7  39263399.221 7 204454821.479 7 158097440.691 7
C19  24000244.680 7                 124975563.173 7
C21  23969105.287 7                 124813429.271 7
C22  21280324.637 8                 110812232.549 8
C34  23130301.966 8                 120445555.908 8
C35  24398366.683 7                 127048680.579 7
C39  38876469.839 6                 202439977.156 6
C44  21706231.669 8                 113030040.196 8
E03  26872244.453 7  26872251.026 8 141214624.896 7 106827986.987 8
E05  22317269.164 8  22317271.594 9 117278046.108 8  88720095.462 9
E06  26537439.903 7  26537444.227 8 139455175.866 7 105496945.935 8
E09  25021620.138 7  25021623.102 9 131489499.625 7  99470961.594 9
E15  25823396.275 7  25823400.183 8 135702869.789 7 102658361.713 8
E34  23161125.670 8  23161128.270 9 121712539.106 8  92074753.745 9
E36  25056988.330 7  25056991.961 9 131675360.109 7  99611521.617 9
G01  19981320.725 8                  19981323.712 8  19981325.427 9 105002541.402 8                  81820179.034 8  78411009.859 9
G02  21454434.375 7  21454435.990 6                                 112743802.677 7  87852215.619 6                
G03  20061876.362 8                  20061882.111 7  20061880.325 8 105425865.567 8                  82150202.247 7  78727305.584 8
G04  23024163.657 7                  23024170.349 7  23024172.857 8 120992824.077 7                  94280162.633 7  90351839.445 8
G17  22300322.978 7                  22300326.940 7                 117188987.679 7                  91316272.743 7
G19  23333656.261 5                                                 122619007.953 5                                
G28  23276722.748 7                  23276727.018 7  23276730.364 8 122320011.226 7                  95314497.816 7  91343070.255 8
G31  23529087.212 7                  23529093.399 7                 123646405.189 7                  96347739.012 7
G32  23699095.671 7                  23699102.479 7  23699099.582 7 124539571.369 7                  97043644.022 7  93000206.318 7
R02  21345876.174 7  21345880.067 7 113905676.198 7  88593133.422 7
R03  19014426.445 8  19014428.199 7 101785711.574 8  79166798.197 7
R04  21180607.082 7  21180610.988 7 113421209.848 7  88216524.824 7
R11  23399379.757 7  23399383.759 6 125039189.932 7  97252875.899 6
R17  21869285.135 7  21869289.564 7 117026941.810 7  91020962.443 7
R18  19109623.014 8  19109624.414 7 102008458.644 8  79339943.196 7
R19  20381147.362 8  20381148.851 7 109025402.298 8  84797539.854 7
