     3.04           OBSERVATION DATA    Mixed(MIXED)        RINEX VERSION / TYPE
cnvtToRINEX 3.14.0  convertToRINEX OPR  20250615 162120 UTC PGM / RUN BY / DATE 
----------------------------------------------------------- COMMENT             
1002                                                        MARKER NAME         
1002                                                        MARKER NUMBER       
GEODETIC                                                    MARKER TYPE         
GNSS Observer       Trimble                                 OBSERVER / AGENCY   
6337S22116          Geo Explorer 3      6.26                REC # / TYPE / VERS 
                    UNKNOWN EXT     NONE                    ANT # / TYPE        
  3914882.9832  1190877.1627  4876882.6006                  APPROX POSITION XYZ 
        1.2650        0.0000        0.0000                  ANTENNA: DELTA H/E/N
R    4 C1C C2C L1C L2C                                      SYS / # / OBS TYPES 
G    8 C1C C2W C2X C5X L1C L2W L2X L5X                      SYS / # / OBS TYPES 
C    4 C2I C7I L2I L7I                                      SYS / # / OBS TYPES 
E    4 C1X C8X L1X L8X                                      SYS / # / OBS TYPES 
    15.000                                                  INTERVAL            
  2025     6    15     8    32   30.0000000     GPS         TIME OF FIRST OBS   
  2025     6    15     9     6   30.0000000     GPS         TIME OF LAST OBS    
     0                                                      RCV CLOCK OFFS APPL 
  8 R01  1 R07  5 R08  6 R14 -7 R15  0 R17  4 R23  3 R24  2 GLONASS SLOT / FRQ #
R L2C -0.25000                                              SYS / PHASE SHIFT   
G L2X -0.25000                                              SYS / PHASE SHIFT   
    18                                                      LEAP SECONDS        
    35                                                      # OF SATELLITES     
   C05   137   137   137   137                              PRN / # OF OBS      
   C08   117   116   117   116                              PRN / # OF OBS      
   C13   137   137   137   137                              PRN / # OF OBS      
   C19    79     0    79     0                              PRN / # OF OBS      
   C20   137     0   137     0                              PRN / # OF OBS      
   C26    91     0    91     0                              PRN / # OF OBS      
   C29   137     0   137     0                              PRN / # OF OBS      
   C30    72     0    71     0                              PRN / # OF OBS      
   C32    85     0    83     0                              PRN / # OF OBS      
   C35   137     0   137     0                              PRN / # OF OBS      
   C45   105     0   103     0                              PRN / # OF OBS      
   C47   137     0   137     0                              PRN / # OF OBS      
   E02   137   137   137   137                              PRN / # OF OBS      
   E10   137   137   137   137                              PRN / # OF OBS      
   E11   137   137   137   137                              PRN / # OF OBS      
   E12     2    16     2    15                              PRN / # OF OBS      
   E16   137   137   137   137                              PRN / # OF OBS      
   E24    20    25    19    25                              PRN / # OF OBS      
   E25   137   137   137   137                              PRN / # OF OBS      
   E36   137   137   137   137                              PRN / # OF OBS      
   G02    12     0     0     0    10     0     0     0      PRN / # OF OBS      
   G08   125     0   119   124   122     0   119   124      PRN / # OF OBS      
   G10   137     0   137   137   137     0   137   137      PRN / # OF OBS      
   G16   137   137     0     0   137   137     0     0      PRN / # OF OBS      
   G18   127     0   121   126   122     0   120   126      PRN / # OF OBS      
   G23   137     0   137   137   137     0   137   137      PRN / # OF OBS      
   G27   137     0   137   137   137     0   137   137      PRN / # OF OBS      
   R01   136     0   135     0                              PRN / # OF OBS      
   R07    74    64    69    62                              PRN / # OF OBS      
   R08   137   137   137   137                              PRN / # OF OBS      
   R14   137   137   137   137                              PRN / # OF OBS      
   R15   135   135   134   134                              PRN / # OF OBS      
   R17    78    39    68    36                              PRN / # OF OBS      
   R23   127     0   121     0                              PRN / # OF OBS      
   R24   137   137   137   137                              PRN / # OF OBS      
DBHZ                                                        SIGNAL STRENGTH UNIT
                                                            END OF HEADER       
>                              2  1
              *** Start of Kinematic Data ***               COMMENT             
> 2025 06 15 08 32 30.0000000  0 29
C05  39186673.973 6  39186672.307 7 204055290.83416 157788492.66817
C08  38450869.676 5  38450868.232 7 200223784.33915 154825704.52917
C13  37607509.671 7  37607511.084 7 195832153.63417 151429830.32117
C20  24069794.198 7                 125337733.57817
C29  21319241.456 8                 111014885.15918
C30  24139261.502 5                 125699476.92815
C32  24185053.338 5                 125937881.18715
C35  23766083.375 6                 123756231.33516
C45  24812809.853 6                 129206807.00516
C47  22182263.483 8                 115508871.06818
E02  24532569.557 7  24532570.224 7 128919519.66817  97526785.46517
E10  24386744.365 8  24386746.385 9 128153203.48118  96947073.55319
E11  23337795.282 7  23337793.987 8 122640944.39017  92777068.50018
E16  25407703.797 7  25407706.700 8 133518375.38917 101005797.47818
E24  27403781.777 6  27403787.569 5 144007840.69616 108940958.02615
E25  24163041.723 8  24163044.414 9 126977645.51118  96057768.84819
E36  24842186.980 8  24842190.997 9 130546576.11818  98757649.27719
G10  21751441.749 8                  21751447.509 7  21751443.849 8 114304590.12318                  89068542.44017  85357339.76218
G16  21077980.565 7  21077983.243 6                                 110765526.40217  86310814.82316                
G18  22158318.486 6                  22158323.367 7  22158325.150 8 116442740.90516                  90734623.41617  86954024.50718
G23  20765250.458 8                  20765254.648 8  20765255.705 8 109122126.76818                  85030244.40018  81487323.53518
G27  20271613.508 8                  20271618.906 8  20271616.044 9 106528042.77718                  83008890.63418  79550175.01319
R01  23027280.864 6                 123094027.38316
R07  22254488.312 6  22254490.738 6 119129980.55116  92656502.77416
R08  21155160.863 8  21155164.276 7 113284929.26418  88110686.39617
R14  20634768.924 8  20634772.409 7 109994926.10618  85551489.80617
R15  21416552.111 7  21416555.087 5 114443536.29117  89011856.95315
R23  20909379.247 7                 111851083.14317
R24  19594204.155 8  19594206.727 8 104779019.78818  81494910.21318
> 2025 06 15 08 32 45.0000000  0 28
C05  39186314.260 5  39186312.190 7 204053415.843 5 157787042.751 7
C08  38453672.263 5  38453671.320 7 200238383.232 5 154836993.319 7
C13  37609177.417 7  37609178.549 7 195840838.473 7 151436545.989 7
C20  24062266.662 8                 125298534.829 8
C29  21319985.078 8                 111018759.872 8
C30  24146552.624 6                 125737435.131 6
C32  24186468.567 4                 125945224.70014
C35  23758849.015 6                 123718564.684 6
C45  24820944.263 6                 129249162.247 6
C47  22186475.164 8                 115530801.744 8
E02  24529323.816 7  24529325.765 7 128902468.560 7  97513886.416 7
E10  24391490.834 8  24391492.645 9 128178145.482 8  96965942.023 9
E11  23338790.486 7  23338788.883 8 122646172.740 7  92781023.703 8
E16  25415587.012 7  25415590.203 8 133559802.665 7 101037136.906 8
E24  27412881.599 6  27412887.695 5 144055663.786 6 108977135.850 5
E25  24168169.699 8  24168172.584 9 127004593.780 8  96078155.033 9
E36  24836440.723 8  24836444.679 8 130516379.497 8  98734805.737 8
G10  21744297.751 8                  21744303.462 7  21744299.799 8 114267046.604 8                  89039287.804 7  85329304.086 8
G16  21083725.909 7  21083728.987 5                                 110795723.025 7  86334344.635 5                
G18  22165635.704 6                  22165640.244 7  22165641.929 8 116481193.804 6                  90764586.757 7  86982739.328 8
G23  20765856.194 8                  20765860.510 8  20765861.793 8 109125310.505 8                  85032725.270 8  81489701.007 8
G27  20267712.276 7                  20267717.219 8  20267714.550 9 106507540.392 7                  82992914.711 8  79534864.775 9
R01  23014937.812 6                 123028048.739 6
R08  21150317.460 8  21150320.136 7 113258990.847 8  88090512.058 7
R14  20640896.749 8  20640900.776 7 110027589.155 8  85576894.379 7
R15  21411312.164 7  21411314.496 5 114415535.314 7  88990078.495 5
R23  20916613.830 7                 111889781.152 7
R24  19590889.815 8  19590892.485 8 104761296.104 8  81481125.112 8
>                              3  5
              *** Start of Occupation ***                   COMMENT             
1002                                                        MARKER NAME         
1002                                                        MARKER NUMBER       
  3914882.9832  1190877.1627  4876882.6006                  APPROX POSITION XYZ 
        1.2650        0.0000        0.0000                  ANTENNA: DELTA H/E/N
> 2025 06 15 08 33  0.0000000  0 28
C05  39185949.809 5  39185947.840 7 204051518.581 5 157785575.696 7
C08  38456474.871 5  38456474.565 6 200252982.026 5 154848282.021 6
C13  37610845.662 7  37610847.356 7 195849527.171 7 151443264.609 7
C20  24054750.614 8                 125259397.280 8
C29  21320739.382 8                 111022685.496 8
C30  24153843.661 5                 125775402.693 5
C32  24187892.684 6                 125952679.790 6
C35  23751619.085 6                 123680909.626 6
C45  24829086.585 6                 129291544.813 6
C47  22190693.898 8                 115552770.246 8
E02  24526093.200 6  24526095.402 8 128885491.848 6  97501043.653 8
E10  24396240.848 8  24396242.892 9 128203109.476 8  96984827.087 9
E11  23339793.759 7  23339792.065 8 122651444.647 7  92785011.877 8
E16  25423476.060 7  25423479.261 8 133601259.970 7 101068499.008 8
E24  27421980.316 6  27421985.594 5 144103476.140 6 109013305.345 5
E25  24173309.922 8  24173313.068 9 127031606.860 8  96098590.203 9
E36  24830699.655 8  24830703.914 8 130486211.791 8  98711984.085 8
G10  21737168.317 8                  21737174.575 7  21737171.338 8 114229585.402 8                  89010097.257 7  85301329.830 8
G16  21089492.601 7  21089495.788 6                                 110826027.033 7  86357958.111 6                
G18  22172958.786 7                  22172964.133 7  22172965.930 8 116519678.009 7                  90794574.428 7  87011477.460 8
G23  20766486.072 7                  20766490.112 8  20766492.029 8 109128620.620 7                  85035304.569 8  81492172.839 8
G27  20263827.575 7                  20263832.303 8  20263829.926 9 106487125.163 7                  82977006.759 8  79519619.634 9
R01  23002596.860 5                 122962082.707 5
R08  21145504.190 7  21145507.239 7 113233216.464 7  88070465.341 7
R14  20647052.470 7  20647056.147 7 110060403.860 7  85602416.933 7
R15  21406102.314 7  21406106.688 6 114387696.538 7  88968426.229 6
R23  20923854.395 7                 111928513.463 7
R24  19587589.425 8  19587592.004 8 104743646.226 8  81467397.438 8
> 2025 06 15 08 33 15.0000000  0 30
C05  39185582.557 5  39185579.731 7 204049603.517 5 157784094.829 7
C08  38459280.792 5  38459279.158 6 200267585.017 5 154859573.947 6
C13  37612516.442 7  37612517.694 7 195858223.944 7 151449989.518 7
C20  24047247.251 8                 125220325.586 8
C29  21321503.755 8                 111026666.438 8
C30  24161137.331 5                 125813383.763 5
C32  24189344.906 5                 125960249.093 5
C35  23744388.063 6                 123643270.604 6
C45  24837224.425 5                 129333958.722 5
C47  22194920.943 8                 115574780.969 8
E02  24522878.448 7  24522879.915 8 128868594.064 7  97488260.621 8
E10  24400996.491 8  24400998.368 9 128228099.728 8  97003732.011 9
E11  23340806.108 7  23340804.391 8 122656764.498 7  92789036.311 8
E12                  26648124.442 5                 105936913.98915
E16  25431372.176 7  25431374.910 8 133642751.426 7 101099886.997 8
E24  27431078.627 5  27431082.436 5 144151281.601 5 109049469.834 5
E25  24178463.208 8  24178466.777 9 127058688.917 8  96119077.609 9
E36  24824966.097 8  24824969.323 8 130456077.389 8  98689187.629 8
G08  22496062.268 6                  22496070.977 4  22496068.541 5 118217799.39416                  92117653.14614  88279465.27715
G10  21730056.932 8                  21730062.618 7  21730058.645 8 114192211.045 8                  88980974.441 7  85273420.455 8
G16  21095280.576 7  21095283.975 6                                 110856442.472 7  86381658.429 6                
G18  22180289.141 7                  22180293.889 7  22180295.837 8 116558197.683 7                  90824589.703 7  87040242.080 8
G23  20767140.653 8                  20767145.133 8  20767146.852 9 109132061.410 8                  85037985.748 8  81494742.289 9
G27  20259959.320 8                  20259965.008 8  20259962.424 9 106466801.698 8                  82961170.318 8  79504443.062 9
R01  22990259.235 5                 122896134.493 5
R08  21140722.574 8  21140725.394 7 113207610.835 8  88050549.843 7
R14  20653238.127 8  20653242.229 7 110093374.603 8  85628060.826 7
R15  21400924.283 7  21400934.264 6 114360024.875 7  88946903.974 6
R23  20931102.034 7                 111967284.239 7
R24  19584303.174 8  19584305.146 7 104726074.541 8  81453730.584 7
> 2025 06 15 08 33 30.0000000  0 31
C05  39185212.071 5  39185209.102 7 204047672.348 5 157782601.548 7
C08  38462087.651 6  38462085.195 6 200282193.826 6 154870870.434 6
C13  37614188.496 7  37614190.310 7 195866930.643 7 151456722.093 7
C20  24039757.242 8                 125181321.799 8
C26  24358948.501 4                 126843442.29814
C29  21322279.081 8                 111030704.453 8
C30  24168438.172 6                 125851380.123 6
C32  24190821.018 6                 125967934.375 6
C35  23737164.923 6                 123605649.439 6
C47  22199155.833 8                 115596835.555 8
E02  24519679.003 7  24519679.700 8 128851777.171 7  97475538.763 8
E10  24405757.849 8  24405759.295 9 128253117.837 8  97022658.041 9
E11  23341827.956 7  23341826.199 8 122662133.972 7  92793098.283 8
E12                  26655011.050 5                 105964284.14815
E16  25439275.324 7  25439277.265 8 133684278.726 7 101131302.054 8
E24  27440173.952 5  27440178.473 5 144199082.004 5 109085630.470 5
E25  24183630.398 8  24183633.597 9 127085841.739 8  96139618.499 9
E36  24819237.909 8  24819241.635 8 130425978.181 8  98666417.778 8
G08  22487220.013 6                  22487229.061 5  22487220.416 5 118171339.559 6                  92081450.814 5  88244770.16115
G10  21722961.670 8                  21722967.778 7  21722963.423 8 114154925.641 8                  88951920.914 7  85245577.463 8
G16  21101090.166 8  21101092.640 6                                 110886970.846 8  86405446.755 6                
G18  22187626.852 6                  22187631.000 7  22187632.410 8 116596754.372 6                  90854633.819 7  87069034.424 8
G23  20767820.653 8                  20767824.766 8  20767826.916 9 109135634.628 8                  85040770.044 8  81497410.579 9
G27  20256110.225 8                  20256115.573 8  20256112.949 9 106446571.982 8                  82945406.886 8  79489336.465 9
R01  22977925.878 5                 122830206.551 5
R07  22276482.774 5  22276479.981 4 119247701.14615  92748069.613 4
R08  21135972.732 8  21135976.297 7 113182176.020 8  88030767.257 7
R14  20659452.690 8  20659456.639 8 110126502.680 8  85653827.088 8
R15  21395778.344 7  21395780.123 5 114332522.654 7  88925513.201 5
R23  20938357.085 7                 112006095.124 7
R24  19581032.448 8  19581034.556 7 104708582.997 8  81440126.063 7
> 2025 06 15 08 33 45.0000000  0 31
C05  39184836.881 5  39184834.626 7 204045722.866 5 157781094.064 7
C08  38464895.484 6  38464890.689 6 200296806.405 6 154882169.826 6
C13  37615860.807 6  37615863.924 7 195875644.951 6 151463460.505 7
C20  24032279.534 8                 125142384.065 8
C29  21323064.932 8                 111034797.362 8
C30  24175738.167 5                 125889389.452 5
C32  24192318.437 5                 125975733.497 5
C35  23729943.063 6                 123568044.009 6
C45  24853535.615 5                 129418880.39515
C47  22203399.659 8                 115618931.750 8
E02  24516493.189 7  24516494.599 8 128835039.054 7  97462876.496 8
E10  24410523.597 8  24410525.170 9 128278161.520 8  97041603.432 9
E11  23342858.631 7  23342856.910 8 122667550.743 7  92797196.020 8
E12                  26661896.373 5                 105991654.01415
E16  25447183.115 7  25447185.985 8 133725839.378 7 101162742.411 8
E24  27449272.157 6  27449273.640 5 144246875.000 6 109121785.443 5
E25  24188810.672 8  24188813.682 9 127113062.909 8  96160211.100 9
E36  24813516.292 8  24813520.082 8 130395911.909 8  98643672.844 8
G08  22478386.492 6                  22478395.091 5  22478387.126 6 118124910.181 6                  92045272.100 5  88210098.920 6
G10  21715882.965 8                  21715889.291 7  21715884.501 8 114117727.168 8                  88922935.085 7  85217799.389 8
G16  21106920.643 8  21106923.163 6                                 110917609.675 8  86429321.163 6                
G18  22194971.312 7                  22194974.553 7  22194976.008 8 116635345.783 7                  90884705.049 7  87097852.678 8
G23  20768525.620 8                  20768529.264 8  20768531.598 8 109139337.939 8                  85043655.741 8  81500176.054 8
G27  20252277.994 8                  20252283.516 8  20252280.968 9 106426433.963 8                  82929714.935 8  79474298.339 9
R01  22965596.431 6                 122764297.048 6
R07  22282054.352 5  22282055.383 4 119277531.380 5  92771271.120 4
R08  21131254.494 8  21131257.981 7 113156910.195 8  88011116.091 7
R14  20665696.789 8  20665700.291 8 110159785.325 8  85679713.550 8
R15  21390661.085 6  21390665.793 5 114305187.512 6  88904252.789 5
R23  20945619.407 6                 112044943.775 6
R24  19577776.313 8  19577778.604 8 104691169.305 8  81426582.063 8
> 2025 06 15 08 34  0.0000000  0 29
C05  39184458.894 5  39184456.436 7 204043753.939 5 157779571.564 7
C08  38467702.257 6  38467697.434 6 200311421.562 6 154893471.172 6
C13  37617535.899 6  37617538.024 7 195884365.517 6 151470203.771 7
C20  24024814.459 8                 125103511.538 8
C29  21323861.174 8                 111038944.008 8
C30  24183041.940 5                 125927410.766 5
C35  23722724.226 6                 123530453.306 6
C45  24861698.183 6                 129461386.294 6
C47  22207650.494 8                 115641068.466 8
E02  24513322.594 7  24513324.401 8 128818378.700 7  97450273.068 8
E10  24415293.188 8  24415295.493 9 128303229.545 8  97060567.219 9
E11  23343898.612 7  23343896.450 8 122673013.660 7  92801328.668 8
E16  25455098.671 7  25455100.629 8 133767432.169 7 101194207.066 8
E24  27458362.400 6  27458367.269 5 144294659.124 6 109157933.741 5
E25  24194003.373 8  24194006.386 9 127140351.190 8  96180854.486 9
E36  24807801.499 8  24807804.791 8 130365877.512 8  98620952.026 8
G08  22469556.950 5                  22469561.406 5  22469558.591 6 118078510.340 5                  92009116.528 5  88175449.683 6
G10  21708820.565 8                  21708826.933 7  21708822.631 8 114080614.782 8                  88894016.356 7  85190085.621 8
G16  21112772.026 7  21112774.582 6                                 110948357.708 7  86453280.658 6                
G18  22202320.489 6                  22202324.938 7  22202326.949 8 116673970.570 6                  90914802.303 7  87126695.855 8
G23  20769254.914 8                  20769258.750 8  20769260.491 9 109143170.161 8                  85046641.873 8  81503037.768 9
G27  20248462.840 8                  20248468.604 8  20248466.168 9 106406386.674 8                  82914093.666 8  79459327.968 9
R01  22953269.813 6                 122698405.381 6
R07  22287647.600 4                 119307516.72414
R08  21126567.820 8  21126570.792 7 113131812.601 8  87991595.773 7
R14  20671968.198 7  20671972.814 8 110193221.170 7  85705719.160 8
R15  21385576.682 4  21385579.364 5 114278018.879 4  88883121.586 5
R23  20952888.928 7                 112083828.928 7
R24  19574533.561 8  19574536.259 8 104673832.489 8  81413097.875 8
> 2025 06 15 08 34 15.0000000  0 30
C05  39184077.769 6  39184075.278 7 204041767.773 6 157778035.697 7
C08  38470509.849 5  38470504.442 6 200326041.146 5 154904775.907 6
C13  37619211.804 6  37619214.135 7 195893094.672 6 151476953.721 7
C20  24017362.387 8                 125064706.645 8
C26  24362542.653 4                 126862176.13614
C29  21324668.647 8                 111043146.576 8
C30  24190338.335 5                 125965446.058 5
C32  24195381.390 5                 125991644.48915
C35  23715507.980 6                 123492879.590 6
C45  24869867.552 6                 129503922.963 6
C47  22211910.075 8                 115663247.717 8
E02  24510167.374 7  24510169.466 8 128801798.438 7  97437730.193 8
E10  24420068.848 8  24420070.758 9 128328323.918 8  97079550.932 9
E11  23344947.032 7  23344945.160 8 122678524.705 7  92805497.740 8
E16  25463019.797 7  25463022.005 8 133809059.033 7 101225697.457 8
E24  27467452.646 6  27467459.327 5 144342436.369 6 109194076.88315
E25  24199209.558 8  24199212.429 9 127167708.602 8  96201550.155 9
E36  24802092.109 8  24802095.953 9 130335877.133 8  98598256.954 9
G08  22460733.179 5                  22460739.425 5  22460735.766 6 118032142.34015                  91972985.688 5  88140824.325 6
G10  21701775.154 8                  21701781.355 7  21701777.358 8 114043590.855 8                  88865166.532 7  85162437.872 8
G16  21118644.352 8  21118646.383 6                                 110979216.782 8  86477326.654 6                
G18  22209677.262 6                  22209682.225 7  22209683.374 8 116712630.711 6                  90944927.053 7  87155565.395 8
G23  20770009.297 8                  20770012.835 8  20770014.726 8 109147133.401 8                  85049730.106 8  81505997.301 8
G27  20244665.781 8                  20244671.276 8  20244669.155 9 106386432.459 8                  82898544.945 8  79444427.090 9
R01  22940947.750 6                 122632534.507 6
R07  22293283.777 6                 119337662.780 6
R08  21121912.397 7  21121915.280 7 113106885.616 7  87972208.106 7
R14  20678270.781 8  20678273.227 7 110226811.777 8  85731845.166 7
R23  20960165.172 6                 112122752.681 6
R24  19571306.497 8  19571308.508 7 104656574.760 8  81399675.200 7
> 2025 06 15 08 34 30.0000000  0 31
C05  39183693.090 5  39183689.848 7 204039761.396 5 157776484.235 7
C08  38473316.825 5  38473312.352 7 200340662.323 5 154916081.945 7
C13  37620889.806 7  37620891.650 7 195901829.418 7 151483707.972 7
C20  24009922.661 8                 125025966.814 8
C29  21325486.102 8                 111047402.221 8
C30  24197645.468 6                 126003492.271 6
C32  24196939.766 5                 125999782.63215
C35  23708293.888 6                 123455320.066 6
C45  24878042.325 6                 129546487.164 6
C47  22216176.579 8                 115685466.596 8
E02  24507026.978 7  24507029.031 8 128785295.465 7  97425245.801 8
E10  24424848.442 8  24424850.396 9 128353441.634 8  97098552.310 9
E11  23346004.339 7  23346002.450 8 122684080.934 7  92809700.985 8
E12                  26682528.156 4                 106073774.48314
E16  25470947.832 8  25470949.203 8 133850716.870 8 101257211.302 8
E24  27476541.401 6  27476549.149 5 144390203.722 6 109230212.47115
E25  24204427.912 8  24204431.034 9 127195132.062 8  96222295.828 9
E36  24796389.448 8  24796392.994 9 130305907.929 8  98575585.472 9
G08  22451915.766 5                  22451919.242 5  22451917.333 6 117985803.649 5                  91936877.630 5  88106220.739 6
G10  21694746.223 8                  21694752.282 7  21694748.066 8 114006652.716 8                  88836383.589 7  85134854.221 8
G16  21124536.985 7  21124539.805 6                                 111010183.683 7  86501456.706 6                
G18  22217040.277 6                  22217044.861 7  22217045.560 8 116751323.168 6                  90975076.969 7  87184459.108 8
G23  20770788.025 8                  20770791.363 8  20770793.161 8 109151224.620 8                  85052918.082 8  81509052.446 8
G27  20240886.058 8                  20240891.496 8  20240888.756 9 106366568.567 8                  82883066.580 8  79429593.646 9
R01  22928628.447 6                 122566681.820 6
R07  22298945.468 6  22298949.097 5 119367964.397 6  92841811.35415
R08  21117289.200 7  21117292.252 7 113082126.807 7  87952951.308 7
R14  20684600.551 8  20684604.039 7 110260554.094 8  85758089.203 7
R15  21375512.213 5  21375505.622 5 114224436.16615  88841251.749 5
R23  20967448.253 7                 112161712.002 7
R24  19568093.338 8  19568095.723 8 104639393.012 8  81386311.616 8
> 2025 06 15 08 34 45.0000000  0 30
C05  39183303.819 5  39183301.510 7 204037738.180 5 157774919.741 7
C08  38476124.010 5  38476121.595 7 200355288.291 5 154927391.650 7
C13  37622569.571 7  37622571.155 7 195910572.813 7 151490468.909 7
C20  24002496.441 8                 124987295.518 8
C29  21326313.871 8                 111051714.134 8
C30  24204956.788 7                 126041552.639 7
C32  24198522.355 4                                
C35  23701085.253 6                 123417777.926 6
C45  24886222.581 6                 129589081.869 6
C47  22220451.451 8                 115707728.322 8
E02  24503901.960 7  24503903.844 8 128768873.178 7  97412822.460 8
E10  24429633.454 8  24429635.148 9 128378585.852 8  97117573.740 9
E11  23347070.583 7  23347069.055 8 122689685.521 7  92813940.827 8
E12                  26689411.992 5                 106101141.48115
E16  25478880.272 7  25478882.901 8 133892408.771 7 101288750.927 8
E24  27485630.863 5  27485637.292 4 144437964.241 5 109266342.90214
E25  24209659.772 8  24209662.770 9 127222624.805 8  96243093.885 9
E36  24790693.375 8  24790696.516 8 130275973.224 8  98552940.095 8
G10  21687733.605 8                  21687740.213 7  21687736.115 8 113969803.864 8                  88807670.244 7  85107337.267 8
G16  21130450.591 7  21130453.786 5                                 111041261.492 7  86525673.149 5                
G18  22224409.759 7                  22224415.224 7  22224416.340 8 116790050.960 7                  91005254.461 7  87213379.155 8
G23  20771591.417 8                  20771594.960 8  20771597.016 8 109155447.050 8                  85056208.293 8  81512205.567 8
G27  20237123.774 8                  20237129.030 8  20237126.610 9 106346798.367 8                  82867661.253 8  79414830.209 9
R01  22916313.835 6                 122500851.112 6
R07  22304632.005 6  22304640.925 5 119398424.739 6  92865502.607 5
R08  21112697.244 8  21112700.614 7 113057539.562 8  87933827.883 7
R14  20690958.966 8  20690963.239 7 110294450.816 8  85784453.238 7
R15  21370517.450 6  21370518.040 6 114197773.054 6  88820513.843 6
R23  20974738.439 7                 112200709.747 7
R24  19564895.903 8  19564896.929 7 104622290.753 8  81373009.861 7
> 2025 06 15 08 35  0.0000000  0 31
C05  39182912.072 5  39182909.651 7 204035698.255 5 157773342.360 7
C08  38478935.094 5  38478930.946 7 200369919.184 5 154938705.191 7
C13  37624249.850 6  37624252.368 7 195919324.991 6 151497236.666 7
C20  23995083.469 8                 124948693.293 8
C29  21327152.719 8                 111056082.484 8
C30  24212268.203 7                 126079627.252 7
C32  24200140.216 6                 126016406.27316
C35  23693879.655 6                 123380253.521 6
C45  24894407.279 6                 129631706.906 6
C47  22224735.477 8                 115730032.953 8
E02  24500792.812 7  24500794.105 8 128752531.911 7  97400460.408 8
E10  24434423.004 8  24434424.939 9 128403756.583 8  97136615.229 9
E11  23348146.519 7  23348144.887 8 122695338.573 7  92818217.314 8
E12                  26696296.942 5                 106128508.90115
E16  25486819.973 7  25486823.017 8 133934134.769 7 101320316.314 8
E24  27494719.869 5  27494731.736 5 144485717.930 5 109302468.60215
E25  24214904.916 8  24214907.569 9 127250186.831 8  96263944.342 9
E36  24785003.633 8  24785006.613 8 130246073.141 8  98530320.889 8
G08  22434296.423 4                  22434302.080 5  22434300.309 7                                  91864738.105 5  88037087.050 7
G10  21680739.154 8                  21680744.801 7  21680741.335 8 113933044.743 8                  88779026.799 7  85079887.294 8
G16  21136386.412 7  21136388.007 6                                 111072450.010 7  86549975.832 6                
G18  22231786.009 7                  22231790.952 7  22231792.033 8 116828814.110 7                  91035459.487 7  87242325.626 8
G23  20772420.007 8                  20772423.273 8  20772425.683 9 109159800.783 8                  85059600.801 8  81515456.730 9
G27  20233379.864 8                  20233385.070 8  20233382.452 9 106327122.306 8                  82852329.276 8  79400137.052 9
R01  22904003.100 6                 122435043.223 6
R07  22310355.053 5  22310356.193 5 119429043.563 5  92889317.088 5
R08  21108137.838 7  21108141.166 7 113033124.522 7  87914838.463 7
R14  20697346.964 8  20697351.346 7 110328501.816 8  85810937.377 7
R15  21365561.104 4  21365558.580 5 114171279.996 4  88799908.110 5
R23  20982036.031 6                 112239746.316 6
R24  19561712.242 8  19561714.037 8 104605268.170 8  81359770.086 8
> 2025 06 15 08 35 15.0000000  0 31
C05  39182517.883 5  39182514.453 7 204033641.498 5 157771751.941 7
C08  38481745.763 5  38481740.984 7 200384554.911 5 154950022.442 7
C13  37625932.035 7  37625934.612 7 195928086.036 7 151504011.276 7
C20  23987682.482 8                 124910160.392 8
C26  24367612.804 4                 126888627.94614
C29  21328002.636 8                 111060507.287 8
C30  24219582.675 7                 126117716.075 7
C32  24201767.531 6                 126024889.038 6
C35  23686676.922 6                 123342746.997 6
C45  24902598.624 6                 129674361.960 6
C47  22229027.234 8                 115752380.482 8
E02  24497698.680 7  24497699.827 8 128736271.767 7  97388159.723 8
E10  24439217.869 8  24439219.875 9 128428953.771 8  97155676.708 9
E11  23349230.972 7  23349229.853 8 122701039.962 7  92822530.365 8
E12                  26703181.747 5                 106155876.70515
E16  25494767.444 7  25494769.970 8 133975894.576 7 101351907.267 8
E24  27503806.679 5  27503825.892 5 144533464.554 5 109338590.08015
E25  24220162.689 8  24220165.628 9 127277817.966 8  96284847.106 9
E36  24779320.293 8  24779323.389 8 130216207.767 8  98507727.952 8
G10  21673760.958 8                  21673766.839 7  21673763.287 8 113896375.550 8                  88750453.435 7  85052504.489 8
G16  21142341.984 8  21142343.659 6                                 111103748.966 8  86574364.605 6                
G18  22239169.197 6                  22239174.688 7  22239176.150 8 116867612.450 6                  91065691.870 7  87271298.378 8
G23  20773273.572 7                  20773276.690 8  20773278.761 8 109164285.727 7                  85063095.561 8  81518805.862 8
G27  20229653.621 8                  20229658.638 8  20229656.230 9 106307540.522 8                  82837070.703 8  79385514.281 9
R01  22891696.070 5                 122369258.810 5
R07  22316108.410 6  22316108.837 6 119459820.487 6  92913254.55816
R08  21103611.140 8  21103613.640 7 113008881.880 8  87895983.042 7
R14  20703763.836 8  20703768.060 8 110362706.604 8  85837541.062 8
R15  21360631.675 6  21360632.873 5 114144948.18316  88779435.390 5
R23  20989341.110 7                 112278821.264 7
R24  19558543.604 8  19558545.673 7 104588325.332 8  81346592.327 7
> 2025 06 15 08 35 30.0000000  0 31
C05  39182120.756 5  39182117.713 7 204031575.872 5 157770154.651 7
C08  38484559.580 5  38484554.580 7 200399203.083 5 154961349.359 7
C13  37627618.325 7  37627620.811 7 195936863.573 7 151510798.604 7
C20  23980297.930 8                 124871704.853 8
C26  24368928.761 5                 126895507.57215
C29  21328864.813 8                 111064996.298 8
C30  24226901.407 7                 126155826.835 7
C35  23679478.675 6                 123305266.234 6
C45  24910797.632 7                 129717054.558 7
C47  22233328.414 8                 115774778.629 8
E02  24494621.217 7  24494622.629 8 128720100.700 7  97375926.413 8
E10  24444019.153 8  24444021.210 9 128454185.059 8  97174763.998 9
E11  23350327.236 7  23350325.370 8 122706797.499 7  92826885.888 8
E12                  26710067.817 5                 106183250.53515
E16  25502722.019 7  25502724.570 8 134017695.863 7 101383529.613 8
E24  27512890.892 4  27512912.147 5 144581211.772 4 109374710.525 5
E25  24225435.517 8  24225438.281 9 127305525.960 8  96305808.012 9
E36  24773644.607 8  24773648.254 8 130186384.954 8  98485167.206 8
G08  22416709.224 5                  22416713.767 5  22416709.899 7                                  91792708.873 5  87968058.777 7
G10  21666801.867 8                  21666808.182 7  21666803.834 8 113859804.421 8                  88721956.467 7  85025194.897 8
G16  21148320.355 8  21148323.152 6                                 111135166.013 8  86598845.438 6                
G18  22246559.954 6                  22246565.788 7  22246567.176 8 116906453.563 6                  91095957.670 7  87300303.087 8
G23  20774153.413 8                  20774156.416 8  20774158.528 8 109168909.609 8                  85066698.563 8  81522258.749 8
G27  20225946.626 8                  20225951.601 8  20225949.641 9 106288060.994 8                  82821891.869 8  79370967.881 9
R01  22879395.432 5                 122303505.979 5
R07  22321886.561 6  22321889.447 6 119490762.926 6  92937320.858 6
R08  21099117.580 7  21099120.989 7 112984820.153 7  87877268.377 7
R14  20710210.447 8  20710215.170 8 110397072.376 8  85864269.959 8
R15  21355740.762 6  21355740.104 5 114118805.111 6  88759101.871 5
R23  20996653.470 7                 112317942.687 7
R24  19555391.347 8  19555393.814 7 104571470.176 8  81333482.760 7
> 2025 06 15 08 35 45.0000000  0 30
C05  39181723.687 6  39181719.993 7 204029504.120 6 157768552.635 7
C08  38487375.235 5  38487370.584 7 200413866.527 5 154972688.083 7
C13  37629307.549 7  37629309.988 7 195945660.457 7 151517600.882 7
C20  23972929.015 8                 124833329.888 8
C26  24370273.920 5                 126902505.372 5
C29  21329739.806 8                 111069552.417 8
C30  24234223.981 7                 126193962.240 7
C35  23672287.336 6                 123267814.045 6
C45  24919003.968 7                 129759787.226 7
C47  22237639.151 8                 115797230.200 8
E02  24491560.709 7  24491562.931 8 128704021.807 7  97363762.826 8
E10  24448827.599 8  24448829.618 9 128479453.321 8  97193879.254 9
E11  23351434.002 7  23351432.192 8 122712613.922 7  92831286.010 8
E12                  26716955.675 5                 106210632.71215
E16  25510684.625 7  25510687.696 8 134059541.446 7 101415185.448 8
E24  27521976.965 5  27521998.726 6 144628962.53115 109410833.470 6
E25  24230722.940 8  24230726.063 9 127333313.612 8  96326829.154 9
E36  24767978.587 8  24767981.817 8 130156607.641 8  98462640.882 8
G08  22407925.548 5                  22407930.014 5  22407927.185 7 117754641.16915                  91756744.810 5  87933593.397 7
G10  21659861.769 8                  21659867.727 7  21659863.497 8 113823334.450 8                  88693538.318 7  84997960.841 8
G16  21154321.605 7  21154324.071 6                                 111166703.819 7  86623420.312 6                
G18  22253959.715 6                  22253965.337 7  22253966.240 7 116945340.313 6                  91126259.025 7  87329341.854 7
G23  20775059.803 7                  20775063.340 8  20775065.164 8 109173675.262 7                  85070412.042 8  81525817.502 8
G27  20222259.803 8                  20222265.121 8  20222262.664 9 106268686.854 8                  82806795.137 8  79356500.188 9
R07  22327694.379 5  22327699.395 6 119521873.74615  92961518.120 6
R08  21094658.808 7  21094660.753 7 112960942.465 7  87858696.860 7
R14  20716688.552 8  20716692.607 8 110431602.240 8  85891126.470 8
R15  21350884.615 5  21350877.484 4 114092844.105 5
R23  21003976.925 7                 112357113.172 7
R24  19552256.744 8  19552258.993 8 104554705.787 8  81320443.795 8
> 2025 06 15 08 36  0.0000000  0 32
C05  39181324.598 5  39181320.211 6 204027422.991 5 157766943.380 6
C08  38490193.049 5  38490189.360 7 200428541.900 5 154984035.987 7
C13  37630999.221 6  37631002.371 7 195954473.343 6 151524415.564 7
C20  23965574.191 8                 124795032.488 8
C26  24371653.361 5                 126909617.334 5
C29  21330627.024 8                 111074172.351 8
C30  24241551.892 7                 126232119.049 7
C32  24206796.177 5                 126051068.65815
C35  23665098.559 6                 123230387.354 6
C45  24927217.394 7                 129802556.361 7
C47  22241960.344 8                 115819731.826 8
E02  24488518.425 7  24488520.223 8 128688031.868 7  97351666.533 8
E10  24453642.627 8  24453644.471 9 128504755.032 8  97213019.816 9
E11  23352551.673 7  23352549.531 8 122718485.925 7  92835728.130 8
E12                  26723844.293 5                 106238020.67715
E16  25518655.868 7  25518658.530 8 134101427.698 7 101446872.081 8
E24  27531064.924 4  27531085.647 5 144676712.97314 109446956.375 5
E25  24236025.170 8  24236028.442 9 127361177.427 8  96347907.922 9
E36  24762319.881 8  24762323.218 8 130126872.503 8  98440146.465 8
G08  22399149.479 5                  22399155.269 6  22399152.999 7 117708528.89715                  91720813.120 6  87899158.849 7
G10  21652940.088 8                  21652945.923 7  21652942.522 8 113786962.575 8                  88665196.642 7  84970800.039 8
G16  21160345.835 7  21160348.416 6                                 111198358.734 7  86648086.470 6                
G18  22261367.759 6                  22261372.431 7  22261374.037 7 116984269.146 6                  91156593.163 7  87358412.068 7
G23  20775993.336 7                  20775996.708 8  20775998.487 8 109178579.249 7                  85074233.354 8  81529479.603 8
G27  20218592.633 8                  20218597.662 8  20218595.232 9 106249414.883 8                  82791778.015 8  79342108.796 9
R01  22854812.852 5                 122172104.09615
R07  22333541.138 6  22333542.304 6 119553149.237 6  92985843.252 6
R08  21090233.357 7  21090236.178 7 112937245.668 7  87840266.058 7
R14  20723196.328 8  20723200.130 7 110466292.180 8  85918107.524 7
R15  21346061.305 5  21346057.459 6 114067062.243 5  88718647.56116
R23  21011308.103 6                 112396329.403 6
R24  19549138.105 8  19549140.519 8 104538028.898 8  81307472.882 8
> 2025 06 15 08 36 15.0000000  0 31
C05  39180921.246 5  39180917.788 7 204025326.086 5 157765321.920 7
C08  38493012.560 5  38493008.743 7 200443222.734 5 154995388.130 7
C13  37632693.614 7  37632696.537 7 195963295.594 7 151531237.457 7
C20  23958232.822 8                 124756806.455 8
C26  24373025.992 4                 126916837.02914
C29  21331525.145 8                 111078849.671 8
C30  24248881.813 6                 126270290.599 6
C32  24208510.665 5                 126060036.92515
C35  23657915.917 6                 123192979.719 6
C45  24935436.076 7                 129845355.151 7
C47  22246290.498 8                 115842277.024 8
E02  24485490.247 7  24485492.994 8 128672124.476 7  97339632.676 8
E10  24458462.262 8  24458464.432 9 128530083.573 8  97232180.686 9
E11  23353678.059 7  23353676.212 8 122724406.812 7  92840207.230 8
E16  25526632.978 7  25526635.771 8 134143347.939 7 101478584.436 8
E24  27540146.755 4  27540171.715 5                 109483073.993 5
E25  24241340.628 8  24241343.985 9 127389110.761 8  96369039.270 9
E36  24756668.453 8  24756671.680 8 130097173.062 8  98417679.027 8
G08  22390381.478 6                  22390387.491 6  22390384.570 7 117662451.510 6                  91684908.808 6  87864750.509 7
G10  21646036.763 8                  21646042.125 7  21646038.568 8 113750682.525 8                  88636926.487 7  84943707.808 8
G16  21166390.625 7  21166393.310 6                                 111230124.076 7  86672838.660 6                
G18  22268782.388 7                  22268787.172 7  22268789.071 7 117023233.286 7                  91186954.843 7  87387508.691 7
G23  20776951.750 8                  20776955.069 8  20776957.102 8 109183615.052 8                  85078157.333 8  81533240.095 8
G27  20214943.227 8                  20214948.607 8  20214946.317 9 106230238.769 8                  82776835.585 8  79327788.965 9
R01  22842530.643 5                 122106445.812 5
R07  22339411.465 6  22339415.166 6 119584581.966 6  93010291.070 6
R08  21085840.770 8  21085844.422 7 112913723.692 8  87821971.196 7
R14  20729732.735 8  20729736.896 8 110501135.281 8  85945207.714 8
R15  21341264.729 5  21341266.298 6 114041453.169 5  88698729.590 6
R23  21018646.130 6                 112435584.574 6
R24  19546034.301 8  19546036.235 8 104521432.804 8  81294564.791 8
> 2025 06 15 08 36 30.0000000  0 31
C05  39180515.298 5  39180512.005 6 204023213.514 5 157763688.345 6
C08  38495831.921 5  38495828.943 7 200457909.097 5 155006744.505 7
C13  37634388.406 6  37634392.123 7 195972127.492 6 151538066.830 7
C20  23950906.551 8                 124718652.284 8
C26  24374442.636 5                 126924164.19415
C29  21332434.819 8                 111083584.506 8
C30  24256216.251 6                 126308477.126 6
C32  24210256.699 5                 126069120.683 5
C35  23650735.810 7                 123155591.503 7
C45  24943659.832 6                 129888183.529 6
C47  22250628.840 8                 115864865.959 8
E02  24482479.290 7  24482481.771 8 128656299.982 7  97327661.548 8
E10  24463287.420 8  24463289.445 9 128555439.045 8  97251361.921 9
E11  23354813.934 7  23354812.271 8 122730376.735 7  92844723.427 8
E16  25534615.969 7  25534619.436 8 134185302.164 7 101510322.512 8
E25  24246670.001 8  24246672.727 8 127417113.641 8  96390223.245 8
E36  24751023.208 8  24751026.923 8 130067509.561 8  98395238.799 8
G08  22381619.066 5                  22381627.089 6  22381622.047 7 117616409.776 5                  91649032.170 6  87830368.715 7
G10  21639150.648 8                  21639155.738 7  21639152.984 8 113714494.641 8                  88608728.139 7  84916684.416 8
G16  21172455.933 8  21172458.698 6                                 111261999.699 8  86697676.786 6                
G18  22276204.144 7                  22276209.060 7  22276211.008 8 117062232.823 7                  91217344.055 7  87416631.697 8
G23  20777935.086 8                  20777938.423 8  20777940.204 8 109188782.679 8                  85082184.064 8  81537099.039 8
G27  20211312.443 8                  20211317.618 8  20211315.297 9 106211158.829 8                  82761968.095 8  79313540.981 9
R01  22830252.850 6                 122040815.183 6
R07  22345312.810 6  22345316.535 6 119616172.162 6  93034861.260 6
R08  21081480.821 8  21081484.440 7 112890376.739 8  87803812.480 7
R14  20736297.868 8  20736302.480 8 110536131.178 8  85972426.703 8
R15  21336531.643 4  21336507.218 7 114016002.35514  88678946.290 7
R17  22890602.670 5  22890601.581 5 122492249.93015  95271755.52315
R23  21025991.658 6                 112474878.448 6
R24  19542946.055 8  19542947.895 8 104504917.771 8  81281719.767 8
> 2025 06 15 08 36 45.0000000  0 31
C05  39180106.668 5  39180103.658 6 204021087.053 5 157762044.008 6
C08  38498653.528 5  38498650.659 7 200472602.679 5 155018106.512 7
C13  37636086.817 6  37636090.018 6 195980970.428 6 151544904.743 6
C20  23943592.567 8                 124680571.943 8
C26  24375859.922 4                 126931600.55614
C29  21333354.876 8                 111088378.581 8
C30  24263548.071 6                 126346680.205 6
C32  24212024.012 5                 126078321.796 5
C35  23643559.437 7                 123118224.443 7
C45  24951887.551 5                 129931042.802 5
C47  22254975.201 8                 115887500.228 8
E02  24479484.186 7  24479486.531 8 128640560.152 7  97315754.459 8
E10  24468117.964 8  24468119.832 9 128580823.029 8  97270564.703 9
E11  23355959.556 7  23355957.972 8 122736397.309 7  92849277.922 8
E16  25542606.350 7  25542609.859 8 134227291.940 7 101542087.454 8
E24                  27558339.736 5                 109555295.01615
E25  24252012.618 8  24252015.062 9 127445187.641 8  96411461.042 9
E36  24745386.080 8  24745389.340 9 130037883.667 8  98372827.027 9
G08  22372865.589 6                  22372870.722 6  22372868.269 7 117570405.467 6                  91613184.659 6  87796014.895 7
G10  21632281.927 8                  21632287.688 7  21632283.818 8 113678400.950 8                  88580603.181 7  84889731.367 8
G16  21178542.921 7  21178545.748 6                                 111293987.037 7  86722601.949 6                
G18  22283632.823 6                  22283637.798 7  22283640.216 8 117101269.278 6                  91247762.059 7  87445782.257 8
G23  20778943.443 8                  20778947.020 8  20778948.918 9 109194083.767 8                  85086314.806 8  81541057.664 9
G27  20207699.997 8                  20207705.421 8  20207703.060 9 106192176.977 8                  82747177.038 8  79299366.216 9
R01  22817981.380 5                 121975213.844 5
R07  22351244.287 7  22351247.416 6 119647921.271 7  93059554.903 6
R08  21077153.615 7  21077156.834 7 112867206.967 7  87785791.540 7
R14  20742891.908 8  20742896.762 8 110571281.539 8  85999765.840 8
R17  22881108.474 4  22881116.020 5 122441454.103 4  95232247.407 5
R23  21033344.764 7                 112514212.899 7
R24  19539872.986 8  19539875.157 7 104488485.438 8  81268939.077 7
> 2025 06 15 08 37  0.0000000  0 31
C05  39179695.371 5  39179692.113 7 204018945.115 5 157760387.704 7
C08  38501476.731 6  38501473.884 7 200487301.841 6 155029472.803 7
C13  37637785.903 6  37637790.085 6 195989823.099 6 151551750.179 6
C20  23936293.941 8                 124642564.171 8
C26  24377311.654 5                 126939144.606 5
C29  21334286.897 8                 111093230.394 8
C30  24270890.832 5                 126384898.191 5
C35  23636387.171 7                 123080877.062 7
C45  24960127.219 6                 129973931.258 6
C47  22259330.383 8                 115910178.274 8
E02  24476505.041 7  24476507.256 8 128624903.655 7  97303910.429 8
E10  24472953.258 8  24472955.380 9 128606233.862 8  97289787.817 9
E11  23357114.560 7  23357113.005 8 122742466.854 7  92853869.517 8
E16  25550603.546 7  25550606.699 8 134269315.521 7 101573877.970 8
E24                  27567404.025 5                 109591363.14115
E25  24257368.064 8  24257370.656 9 127473331.150 8  96432751.390 9
E36  24739755.277 8  24739758.597 8 130008293.929 8  98350442.601 8
G08  22364118.394 5                  22364123.028 6  22364121.462 7 117524437.335 5                  91577365.341 6  87761688.124 7
G10  21625430.962 8                  21625436.810 7  21625433.168 8 113642400.117 8                  88552550.620 7  84862847.670 8
G16  21184651.081 7  21184653.732 6                                 111326084.278 7  86747612.771 6                
G18  22291067.872 7                  22291072.346 7  22291075.529 8 117140340.928 7                  91278207.462 7  87474959.073 8
G23  20779977.480 7                  20779980.996 8  20779983.049 9 109199516.723 7                  85090548.253 8  81545114.712 9
G27  20204106.339 8                  20204112.001 8  20204109.372 9 106173291.771 8                  82732461.337 8  79285263.658 9
R01  22805714.519 5                 121909641.027 5
R07  22357205.544 6  22357206.866 6 119679827.032 6  93084370.423 6
R08  21072860.205 7  21072862.889 7 112844213.105 7  87767907.380 7
R14  20749515.053 8  20749518.995 8 110606583.796 8  86027223.127 8
R15  21327081.257 5  21327084.516 7                  88639787.668 7
R17  22871619.923 5                 122390669.03815
R23  21040705.527 7                 112553585.929 7
R24  19536815.440 8  19536817.058 7 104472134.532 8  81256221.713 7
> 2025 06 15 08 37 15.0000000  0 30
C05  39179281.062 5  39179277.773 7 204016786.642 5 157758718.637 7
C08  38504300.135 6  38504297.344 7 200502005.393 6 155040842.522 7
C13  37639488.388 6  37639491.727 6 195998684.195 6 151558602.173 6
C20  23929009.001 8                 124604628.273 8
C29  21335229.570 8                 111098138.851 8
C30  24278234.948 6                 126423130.146 6
C35  23629218.854 7                 123043548.451 7
C45  24968369.723 6                 130016847.500 6
C47  22263693.229 8                 115932898.995 8
E02  24473541.797 7  24473543.596 8 128609329.445 7  97292128.665 8
E10  24477794.070 8  24477795.838 9 128631670.362 8  97309030.356 9
E11  23358279.141 7  23358277.160 8 122748584.302 7  92858497.310 8
E16  25558606.657 7  25558609.733 8 134311371.700 7 101605693.110 8
E24                  27576484.502 5                 109627459.99115
E25  24262736.579 8  24262739.111 9 127501542.890 8  96454093.364 9
E36  24734131.476 8  24734134.428 9 129978739.302 8  98328084.711 9
G08  22355378.151 5                  22355382.169 6  22355380.623 7 117478504.58415                  91541573.527 6  87727387.686 7
G10  21618597.903 8                  21618603.309 7  21618599.671 8 113606491.332 8                  88524569.762 7  84836032.694 8
G16  21190779.502 8  21190782.573 6                                 111358290.170 8  86772708.262 6                
G18  22298509.417 7                  22298513.692 7  22298516.629 8 117179446.552 7                  91308679.363 7  87504161.264 8
G23  20781036.311 7                  20781039.913 8  20781041.690 8 109205080.385 7                  85094883.573 8  81549269.385 8
G27  20200530.781 8                  20200536.366 8  20200533.482 9 106154502.411 8                  82717820.284 8  79271232.630 9
R01  22793452.865 4                                
R07  22363191.582 6  22363195.803 5 119711888.117 6  93109307.019 5
R08  21068598.433 8  21068601.643 7 112821394.353 8  87750159.503 7
R14  20756165.876 8  20756170.078 7 110642036.801 8  86054797.694 7
R15  21322419.428 5  21322421.981 7 113940724.00415  88620410.953 7
R17  22862131.164 5                 122339893.695 5
R23  21048072.599 7                 112592996.718 7
R24  19533772.832 8  19533775.006 8 104455863.963 8  81243566.830 8
> 2025 06 15 08 37 30.0000000  0 31
C05  39178864.074 5  39178860.775 7 204014616.500 5 157757040.532 7
C08  38507126.198 6  38507122.464 7 200516718.107 6 155052219.304 7
C13  37641192.236 6  37641195.541 6 196007558.569 6 151565464.425 6
C20  23921739.412 8                 124566769.304 8
C26  24380269.923 5                 126954555.07015
C29  21336183.976 8                 111103108.857 8
C30  24285579.490 6                 126461380.719 6
C35  23622055.850 7                 123006243.522 7
C45  24976617.725 6                 130059796.075 6
C47  22268065.693 8                 115955667.240 8
E02  24470594.126 6  24470596.497 8 128593842.616 6  97280413.015 8
E10  24482640.121 8  24482641.943 9 128657137.313 8  97328295.936 9
E11  23359453.007 7  23359451.306 8 122754754.406 7  92863164.949 8
E16  25566616.160 7  25566619.914 8 134353465.086 7 101637536.441 8
E24  27585556.292 5  27585565.081 6 144963128.71315 109663554.14616
E25  24268118.760 8  24268121.593 9 127529827.670 8  96475490.604 9
E36  24728514.913 8  24728517.964 9 129949224.677 8  98305757.114 9
G08  22346642.985 4                  22346649.544 5  22346648.358 7 117432612.186 4                  91505813.319 5  87693117.459 7
G10  21611782.857 8                  21611788.795 7  21611785.140 8 113570679.663 8                  88496664.604 7  84809290.244 8
G16  21196929.470 7  21196932.874 6                                 111390609.417 7  86797892.079 6                
G18  22305959.047 7                  22305962.904 7  22305964.351 8 117218590.806 7                  91339181.360 7  87533392.354 8
G23  20782120.608 8                  20782124.389 8  20782126.411 9 109210779.550 8                  85099324.482 8  81553525.236 9
G27  20196974.732 8                  20196979.810 8  20196977.372 9 106135813.895 8                  82703257.806 8  79257276.925 9
R01  22781196.822 5                 121778584.77115
R07  22369213.990 6  22369214.746 6 119744109.311 6  93134367.799 6
R08  21064371.153 8  21064374.859 7 112798756.122 8  87732552.040 7
R14  20762845.912 8  20762849.670 8 110677644.941 8  86082492.856 8
R15  21317791.856 6  21317793.703 7 113915989.527 6  88601173.014 7
R17  22852643.732 4  22852642.787 5 122289133.351 4  95113732.92715
R23  21055448.418 7                 112632449.908 7
R24  19530745.727 8  19530748.483 8 104439678.596 8  81230978.226 8
> 2025 06 15 08 37 45.0000000  0 30
C05  39178444.739 5  39178441.570 7 204012433.196 5 157755352.255 7
C08  38509952.409 5  38509949.339 7 200531438.549 5 155063602.084 7
C13  37642899.114 6  37642902.241 6 196016444.699 6 151572335.720 6
C20  23914482.553 8                 124528986.104 8
C26  24381784.909 5                 126962426.46515
C29  21337150.036 8                 111108138.855 8
C30  24292927.230 6                 126499648.395 6
C35  23614896.180 7                 122968960.792 7
C45  24984872.215 7                 130102775.223 7
C47  22272447.255 8                 115978481.350 8
E02  24467664.420 7  24467665.859 8 128578441.772 7  97268762.401 8
E10  24487491.011 8  24487493.439 9 128682633.060 8  97347583.289 9
E11  23360636.562 7  23360635.198 8 122760975.592 7  92867871.237 8
E16  25574633.301 7  25574636.736 8 134395593.967 7 101669406.644 8
E24  27594636.060 5  27594643.692 6 145010835.862 5 109699644.233 6
E25  24273514.323 8  24273517.466 9 127558183.849 8  96496941.828 9
E36  24722906.165 8  24722908.752 8 129919748.576 8  98283458.655 8
G10  21604986.481 8                  21604992.221 7  21604988.552 8 113534963.891 8                  88468834.151 7  84782619.401 8
G16  21203101.023 8  21203104.722 6                                 111423039.996 8  86823162.619 6                
G18  22313414.494 7                  22313418.529 7  22313420.728 8 117257772.026 7                  91369712.178 7  87562651.093 8
G23  20783230.533 8                  20783234.552 8  20783236.464 9 109216612.534 8                  85103869.676 8  81557881.045 9
G27  20193437.215 8                  20193442.812 8  20193439.988 9 106117224.936 8                  82688772.887 8  79243395.533 9
R01  22768948.240 5                 121713106.116 5
R07  22375258.510 6  22375264.210 6 119776488.557 6  93159551.555 6
R08  21060177.017 8  21060181.000 7 112776296.964 8  87715083.822 7
R14  20769554.504 8  20769558.373 8 110713406.429 8  86110307.354 8
R15  21313193.930 6  21313197.348 7 113891432.170 6  88582072.850 7
R17  22843173.309 5  22843165.861 5 122238429.69915  95074262.990 5
R23  21062831.858 7                 112671943.785 7
R24  19527734.628 8  19527736.803 7 104423577.063 8  81218454.801 7
> 2025 06 15 08 38  0.0000000  0 31
C05  39178022.709 6  39178019.115 7 204010234.274 6 157753651.895 7
C08  38512780.414 6  38512777.775 6 200546163.982 6 155074988.730 6
C13  37644608.506 7  37644609.923 6 196025339.932 7 151579214.079 6
C20  23907241.286 8                 124491276.361 8
C26  24383317.142 4                 126970404.958 4
C29  21338127.003 8                 111113226.301 8
C30  24300279.611 6                 126537930.588 6
C35  23607739.230 6                 122931697.922 6
C45  24993130.363 7                 130145782.001 7
C47  22276836.673 8                 116001338.729 8
E02  24464749.131 7  24464751.140 8 128563124.534 7  97257174.979 8
E10  24492347.555 8  24492350.108 9 128708154.947 8  97366890.401 9
E11  23361829.760 7  23361828.241 8 122767245.146 7  92872614.126 8
E16  25582656.377 7  25582660.019 8 134437755.681 7 101701301.627 8
E24  27603716.127 6  27603720.543 5 145058535.064 6 109735728.25515
E25  24278924.016 8  24278926.571 9 127586608.691 8  96518444.996 9
E36  24717303.362 8  24717306.532 9 129890308.439 8  98261187.399 9
G08  22329200.755 5                  22329205.463 5  22329202.823 6 117340932.57215                  91434382.500 5  87624662.951 6
G10  21598208.031 8                  21598213.512 7  21598210.392 8 113499341.624 8                  88441076.568 7  84756018.393 8
G16  21209293.089 7  21209297.336 6                                 111455579.027 7  86848517.683 6                
G18  22320876.733 7                  22320881.097 7  22320883.826 7 117296987.508 7                  91400269.668 7  87591935.348 7
G23  20784365.310 8                  20784369.321 8  20784371.084 8 109222576.732 8                  85108517.101 8  81562334.828 8
G27  20189918.714 8                  20189923.931 8  20189921.095 9 106098733.038 8                  82674363.592 8  79229586.642 9
R01  22756704.570 6                 121647657.891 6
R07  22381333.962 6  22381343.501 6 119809022.891 6  93184856.082 6
R08  21056015.311 7  21056018.998 7 112754014.483 7  87697753.037 7
R14  20776291.422 8  20776295.803 8 110749318.328 8  86138238.812 8
R15  21308631.558 7  21308634.031 7 113867049.691 7  88563108.698 7
R17  22833686.608 5  22833676.444 4 122187693.671 5
R23  21070221.164 7                 112711475.685 7
R24  19524738.884 8  19524740.446 7 104407556.844 8  81205994.584 7
> 2025 06 15 08 38 15.0000000  0 31
C05  39177596.202 5  39177593.330 6 204008014.72215 157751935.86416
C08  38515608.167 6  38515604.978 7 200560888.551 6 155086374.653 7
C13  37646317.007 7  37646319.202 6 196034238.414 7 151586094.940 6
C20  23900012.255 8                 124453634.610 8
C26  24384865.114 4                 126978480.30414
C29  21339113.944 8                 111118365.398 8
C30  24307633.940 5                 126576221.224 5
C32  24223089.523 5                 126135934.60115
C35  23600586.421 7                 122894449.092 7
C45  25001393.525 7                 130188810.249 7
C47  22281233.566 8                 116024233.611 8
E02  24461849.414 7  24461851.024 8 128547885.022 7  97245646.416 8
E10  24497208.788 8  24497210.706 9 128733696.955 8  97386212.724 9
E11  23363030.760 7  23363029.324 8 122773557.186 7  92877389.126 8
E16  25590684.610 7  25590688.257 8 134479944.083 7 101733216.871 8
E24  27612791.660 5  27612794.381 5 145106220.088 5 109771801.57115
E25  24284345.260 8  24284347.634 9 127615096.123 8  96539995.551 9
E36  24711707.032 8  24711709.904 9 129860898.422 8  98238938.906 9
G08  22320487.168 5                  22320492.761 6  22320490.559 6 117295147.32915                  91398705.761 6  87590472.684 6
G10  21591446.174 8                  21591451.989 8  21591448.393 8 113463807.249 8                  88413387.438 8  84729482.979 8
G16  21215504.988 8  21215507.799 6                                 111488220.562 8  86873952.620 6                
G18  22328344.787 6                  22328349.471 7  22328349.816 7 117336231.208 6                  91430849.105 7  87621240.638 7
G23  20785524.522 8                  20785527.726 8  20785529.642 8 109228666.175 8                  85113262.111 8  81566882.116 8
G27  20186417.442 8                  20186422.592 8  20186419.653 9 106080332.496 8                  82660025.523 8  79215845.983 9
R01  22744466.480 6                 121582234.694 6
R07  22387442.352 6  22387448.149 6 119841705.938 6  93210276.263 6
R08  21051887.325 8  21051888.851 7 112731903.157 8  87680555.350 7
R14  20783055.554 8  20783059.366 7 110785373.748 8  86166281.893 7
R15  21304100.827 7  21304102.395 7 113842836.583 7  88544276.254 7
R23  21077617.391 7                 112751039.219 7
R24  19521757.440 8  19521759.429 8 104391611.803 8  81193592.908 8
> 2025 06 15 08 38 30.0000000  0 31
C05  39177166.818 5  39177163.880 6 204005780.636 5 157750208.283 6
C08  38518439.140 6  38518434.087 7 200575620.160 6 155097766.054 7
C13  37648027.335 7  37648029.729 6 196043148.040 7 151592984.441 6
C20  23892797.687 7                 124416069.023 7
C26  24386447.697 5                 126986668.542 5
C29  21340112.554 7                 111123564.085 7
C30  24314994.797 6                 126614528.477 6
C32  24225013.602 5                 126145943.814 5
C35  23593437.904 7                 122857222.409 7
C45  25009662.062 7                 130231867.747 7
C47  22285639.151 8                 116047173.836 8
E02  24458966.296 7  24458967.537 9 128532731.470 7  97234182.872 9
E10  24502074.881 8  24502076.546 9 128759266.970 8  97405556.262 9
E11  23364241.550 7  23364239.995 8 122779919.602 7  92882202.245 8
E16  25598719.856 7  25598722.902 8 134522167.000 7 101765158.202 8
E24                  27621868.580 4                 109807870.23914
E25  24289779.189 8  24289782.093 9 127643654.075 8  96561599.450 9
E36  24706117.979 8  24706120.631 9 129831526.557 8  98216719.310 9
G08  22311780.403 5                  22311787.212 5  22311785.064 6 117249401.51015                  91363059.625 5  87556311.893 6
G10  21584702.049 8                  21584707.713 7  21584704.349 8 113428368.977 8                  88385773.218 7  84703019.345 8
G16  21221736.915 7  21221739.823 6                                 111520972.269 7  86899473.440 6                
G18  22335818.533 6                  22335824.761 7  22335823.892 7 117375510.975 6                  91461456.645 7  87650572.850 7
G23  20786708.382 8                  20786712.039 8  20786713.549 8 109234888.713 8                  85118110.844 8  81571528.848 8
G27  20182934.783 8                  20182940.071 8  20182937.383 9 106062031.537 8                  82645765.053 8  79202179.676 9
R01  22732234.929 5                 121516845.03415
R07  22393576.173 6  22393583.278 6 119874545.403 6  93235818.084 6
R08  21047791.499 8  21047793.883 7 112709971.405 8  87663497.287 7
R14  20789848.050 8  20789852.180 8 110821580.781 8  86194442.879 8
R15  21299602.557 7  21299605.915 7 113818800.986 7  88525581.939 7
R23  21085020.816 7                 112790642.925 7
R24  19518791.119 8  19518793.153 8 104375750.305 8  81181256.178 8
> 2025 06 15 08 38 45.0000000  0 29
C05  39176735.210 5  39176732.433 7 204003535.786 5 157748472.407 7
C08  38521272.470 6  38521265.380 7 200590361.523 6 155109164.986 7
C13  37649742.874 7  37649744.064 6 196052071.539 7 151599884.592 6
C20  23885599.504 8                 124378582.698 8
C29  21341122.857 8                 111128825.201 8
C30  24322358.521 5                 126652854.973 5
C32  24226966.308 6                 126156072.892 6
C35  23586293.005 7                 122820020.786 7
C45  25017937.054 7                 130274956.950 7
C47  22290053.568 8                 116070162.124 8
E02  24456099.900 7  24456100.833 9 128517666.854 7  97222786.575 9
E10  24506946.406 8  24506948.430 9 128784867.743 8  97424923.080 9
E11  23365462.627 7  23365460.878 8 122786335.172 7  92887055.588 8
E16  25606761.717 7  25606764.835 8 134564427.184 7 101797127.702 8
E25  24295228.318 8  24295230.485 9 127672285.296 8  96583258.742 9
E36  24700536.578 8  24700539.127 9 129802195.771 8  98194530.754 9
G08  22303082.142 5                  22303089.440 5  22303087.759 6 117203698.119 5                  91327446.678 5  87522182.688 6
G10  21577977.097 8                  21577982.912 7  21577978.989 8 113393029.895 8                  88358236.280 7  84676629.792 8
G16  21227991.085 7  21227993.825 6                                 111553836.717 7  86925082.022 6                
G18  22343301.776 6                  22343305.895 7  22343306.750 7 117414829.357 6                  91492094.282 7  87679934.003 7
G23  20787918.302 8                  20787922.251 8  20787923.871 8 109241247.172 8                  85123065.469 8  81576277.033 8
G27  20179471.304 8                  20179477.095 8  20179474.170 9 106043833.127 8                  82631584.521 8  79188589.989 9
R01  22720009.504 6                 121451492.757 6
R07  22399742.287 6  22399746.494 6 119907544.395 6  93261483.870 6
R08  21043729.850 8  21043732.418 7 112688222.423 8  87646581.426 7
R14  20796669.305 8  20796673.277 7 110857941.868 8  86222723.716 7
R15  21295138.297 7  21295140.681 7 113794946.214 7  88507028.238 7
R23  21092432.405 7                 112830289.219 7
R24  19515841.342 8  19515843.374 8 104359975.141 8  81168986.631 8
> 2025 06 15 08 39  0.0000000  0 30
C05  39176303.040 5  39176300.158 7 204001282.06715 157746729.67717
C08  38524106.762 6  38524098.661 7 200605114.486 6 155120572.897 7
C13  37651459.550 7  37651460.666 6 196061010.722 7 151606796.951 6
C20  23878415.669 8                 124341177.875 8
C26  24389645.920 4                 127003380.78914
C29  21342145.276 8                 111134150.585 8
C30  24329740.454 5                 126691202.65415
C35  23579154.368 7                 122782846.116 7
C45  25026217.804 7                 130318079.390 7
C47  22294478.014 8                 116093200.360 8
E02  24453249.388 7  24453251.400 9 128502693.145 7  97211459.063 9
E10  24511824.095 8  24511826.276 9 128810501.076 8  97444314.533 9
E11  23366694.291 7  23366692.126 8 122792805.723 7  92891950.510 8
E16  25614810.744 7  25614814.247 8 134606726.292 7 101829126.621 8
E25  24300690.488 8  24300693.100 8 127700991.532 8  96604974.762 8
E36  24694962.576 8  24694965.920 8 129772907.928 8  98172374.713 8
G08  22294395.609 5                  22294402.294 6  22294401.294 7 117158039.41015                  91291868.413 6  87488086.825 7
G10  21571271.254 8                  21571277.808 8  21571274.199 8 113357792.173 8                  88330778.306 8  84650315.905 8
G16  21234266.661 7  21234269.317 6                                 111586815.583 7  86950779.816 6                
G18  22350791.713 6                  22350795.265 6  22350797.319 7 117454188.215 6                  91522763.474 6  87709325.293 7
G23  20789154.798 8                  20789158.293 8  20789159.884 8 109247743.318 8                  85128127.398 8  81581128.059 8
G27  20176028.381 8                  20176033.864 8  20176031.530 9 106025739.378 8                  82617485.483 8  79175078.429 9
R01  22707791.358 6                 121386180.263 6
R07  22405937.407 6  22405941.963 6 119940703.927 6  93287274.576 6
R08  21039702.757 8  21039706.144 7 112666658.401 8  87629809.472 7
R14  20803519.460 8  20803523.377 7 110894458.382 8  86251125.415 7
R15  21290709.130 8  21290710.281 7 113771274.331 8  88488616.873 7
R17  22795776.622 5                 121984864.25215
R23  21099852.252 7                 112869979.643 7
R24  19512907.501 8  19512909.717 7 104344288.331 8  81156785.797 7
> 2025 06 15 08 39 15.0000000  0 28
C05  39175868.216 5  39175865.162 7 203999017.624 5 157744978.691 7
C08  38526939.144 6  38526933.757 7 200619877.031 6 155131988.214 7
C13  37653181.347 7  37653179.593 6 196069963.636 7 151613719.898 6
C20  23871248.197 8                 124303852.853 8
C26  24391282.740 5                 127011905.60315
C29  21343179.600 8                 111139538.454 8
C35  23572019.668 7                 122745696.749 7
C45  25034505.371 7                 130361232.890 7
C47  22298911.378 8                 116116286.659 8
E02  24450417.945 7  24450418.987 9 128487808.554 7  97200198.997 9
E10  24516707.698 8  24516709.891 9 128836164.956 8  97463729.075 9
E11  23367935.512 7  23367933.516 8 122799329.202 7  92896885.469 8
E16  25622867.642 7  25622870.461 8 134649062.212 7 101861153.389 8
E25  24306166.695 8  24306169.488 9 127729770.714 8  96626745.998 9
E36  24689396.943 8  24689400.442 8 129743661.189 8  98150249.773 8
G08  22285716.153 5                  22285721.519 6  22285720.559 6 117112423.631 5                  91256323.627 6  87454023.138 6
G10  21564584.945 8                  21564591.074 7  21564587.140 8 113322654.031 8                  88303398.016 7  84624076.441 8
G16  21240564.330 7  21240566.544 6                                 111619906.773 7  86976565.140 6                
G18  22358288.275 6                  22358291.780 5  22358294.742 7 117493585.379 6                  91553462.528 5  87738745.168 7
G23  20790416.585 8                  20790420.250 8  20790422.172 8 109254375.162 8                  85133295.060 8  81586080.413 8
G27  20172604.523 8                  20172610.336 8  20172607.715 9 106007748.565 8                  82603466.645 8  79161643.716 9
R01  22695580.326 6                 121320906.051 6
R07  22412163.497 5  22412166.116 6 119974021.803 5  93313188.318 6
R08  21035709.788 7  21035714.118 7 112645277.657 7  87613180.055 7
R14  20810398.670 8  20810402.403 7 110931127.944 8  86279646.167 7
R15  21286313.533 8  21286314.781 7 113747783.966 8  88470346.570 7
R23  21107279.349 6                 112909712.697 6
R24  19509990.222 8  19509992.747 8 104328688.120 8  81144652.283 8
> 2025 06 15 08 39 30.0000000  0 28
C05  39175434.490 5  39175429.844 7 203996749.250 5 157743224.622 7
C08  38529775.834 6  38529772.452 7 200634656.064 6 155143416.263 7
C13  37654903.517 7  37654902.185 6 196078937.081 7 151620658.737 6
C20  23864096.755 8                 124266614.721 8
C26  24392949.662 5                 127020548.521 5
C29  21344228.104 8                 111144995.481 8
C35  23564891.357 7                 122708579.393 7
C45  25042799.720 7                 130404423.988 7
C47  22303355.606 8                 116139427.660 8
E02  24447602.941 7  24447604.660 8 128473020.126 7  97189011.634 8
E10  24521598.155 8  24521600.780 9 128861866.119 8  97483171.817 9
E11  23369187.540 7  23369186.276 8 122805912.393 7  92901865.598 8
E16  25630932.024 7  25630935.031 8 134691441.608 7 101893213.063 8
E25  24311658.562 8  24311661.261 9 127758629.564 8  96648577.498 9
E36  24683840.419 8  24683844.015 8 129714462.403 8  98128161.093 8
G08  22277043.860 5                  22277050.938 6  22277049.971 6 117066857.854 5                  91220817.830 6  87419996.691 6
G10  21557919.310 8                  21557924.944 7  21557921.071 8 113287622.637 8                  88276100.847 7  84597916.680 8
G16  21246883.301 7  21246886.365 6                                 111653116.683 7  87002442.984 6                
G18  22365794.265 6                  22365797.795 6  22365799.794 7 117533027.532 6                  91584196.710 6  87768198.657 7
G23  20791706.340 8                  20791709.274 8  20791711.346 8 109261149.468 8                  85138573.719 8  81591139.102 8
G27  20169202.315 8                  20169207.051 8  20169205.578 9 105989867.628 8                  82589533.450 8  79148291.100 9
R01  22683377.951 6                 121255677.574 6
R07  22418413.451 4  22418420.663 6 120007504.562 4  93339230.426 6
R08  21031752.958 7  21031756.741 8 112624087.505 7  87596698.829 8
R14  20817308.183 8  20817311.760 7 110967957.329 8  86308291.181 7
R15  21281950.323 7  21281954.403 7 113724481.945 7  88452222.827 7
R23  21114716.349 7                 112949494.963 7
R24  19507090.672 8  19507092.595 8 104313181.416 8  81132591.546 8
> 2025 06 15 08 39 45.0000000  0 30
C05  39174998.754 5  39174992.749 7 203994475.502 5 157741466.447 7
C08  38532616.555 6  38532612.612 7 200649449.828 6 155154855.743 7
C13  37656628.898 7  37656628.897 6 196087929.646 7 151627612.403 6
C20  23856961.863 8                 124229462.443 8
C26  24394624.391 4                 127029307.84214
C29  21345289.012 8                 111150520.317 8
C35  23557771.113 7                 122671492.811 7
C45  25051101.288 7                 130447650.924 7
C47  22307809.631 8                 116162621.993 8
E02  24444807.332 7  24444808.501 8 128458326.512 7  97177896.001 8
E10  24526496.129 8  24526498.388 9 128887603.011 8  97502641.586 9
E11  23370451.914 7  23370450.174 8 122812553.807 7  92906889.790 8
E12  26827245.684 5                 140978207.40515
E16  25639003.263 7  25639007.318 8 134733862.824 7 101925304.411 8
E25  24317165.019 8  24317167.930 8 127787566.520 8  96670468.089 8
E36  24678293.830 8  24678296.651 9 129685310.200 8  98106107.636 9
G08  22268380.896 5                  22268389.375 6  22268387.200 5 117021340.814 5                  91185350.049 6  87386006.898 5
G10  21551272.727 8                  21551278.836 7  21551274.725 8 113252696.784 8                  88248885.923 7  84571835.697 8
G16  21253225.034 7  21253227.980 6                                 111686443.699 7  87028412.053 6                
G18  22373308.297 6                  22373313.212 6  22373313.966 6 117572513.175 6                  91614964.687 6  87797684.687 6
G23  20793021.589 8                  20793025.544 8  20793027.076 9 109268064.634 8                  85143962.185 8  81596303.014 9
G27  20165820.233 8                  20165825.405 8  20165823.801 9 105972095.362 8                  82575684.925 8  79135019.606 9
R01  22671184.012 6                 121190494.147 6
R07  22424704.227 6  22424706.540 6 120041150.386 6  93365399.303 6
R08  21027832.098 7  21027834.198 7 112603086.919 7  87580365.022 7
R14  20824246.231 8  20824250.723 8 111004944.316 8  86337058.777 8
R15  21277626.848 8  21277628.815 7 113701367.499 8  88434244.847 7
R17  22767398.840 4                 121832933.04314
R23  21122162.316 7                 112989324.780 7
R24  19504208.174 8  19504209.880 8 104297766.865 8  81120602.391 8
> 2025 06 15 08 40  0.0000000  0 32
C05  39174556.580 5  39174554.154 7 203992191.208 5 157739700.027 7
C08  38535457.264 5  38535455.419 7 200664253.335 5 155166302.738 7
C13  37658357.769 7  37658358.635 6 196096935.788 7 151634576.492 6
C20  23849842.553 8                 124192390.979 8
C26  24396332.594 5                 127038178.49015
C29  21346361.871 8                 111156107.746 8
C30  24359221.444 5                 126845064.06315
C32  24237042.651 5                 126208540.73615
C35  23550652.471 7                 122634431.907 7
C45  25059407.976 7                 130490908.183 7
C47  22312273.207 8                 116185864.313 8
E02  24442028.294 7  24442029.480 9 128443722.610 7  97166848.219 9
E10  24531400.075 8  24531401.509 9 128913370.223 8  97522134.322 9
E11  23371726.019 7  23371724.144 8 122819248.126 7  92911953.986 8
E12  26834137.790 4                 141014461.46614
E16  25647083.175 7  25647086.707 8 134776320.500 7 101957423.312 8
E24                  27676300.588 5                 110024240.68115
E25  24322685.158 8  24322688.358 8 127816576.195 8  96692413.690 8
E36  24672753.421 8  24672757.030 9 129656199.342 8  98084085.455 9
G08  22259730.655 5                  22259736.209 5  22259734.311 6 116975867.812 5                  91149916.334 5  87352049.542 6
G10  21544645.986 8                  21544651.344 7  21544647.641 8 113217871.426 8                  88221749.276 7  84545829.750 8
G16  21259588.835 7  21259591.561 6                                 111719882.370 7  87054468.160 6                
G18  22380828.942 6                  22380835.209 7  22380834.581 7 117612036.729 6                  91645762.266 7  87827199.126 7
G23  20794363.206 8                  20794367.392 8  20794368.990 9 109275115.371 8                  85149456.218 8  81601568.144 9
G27  20162457.825 8                  20162463.254 8  20162461.230 9 105954426.653 8                  82561917.096 8  79121825.442 9
R01  22658997.656 6                 121125350.841 6
R07  22431015.025 5  22431020.425 6 120074953.448 5  93391690.674 6
R08  21023943.645 8  21023946.928 7 112582270.452 8  87564174.423 7
R14  20831213.327 8  20831217.861 7 111042083.362 8  86365944.712 7
R15  21273334.628 7  21273336.493 6 113678435.312 7  88416408.728 6
R23  21129616.301 7                 113029196.736 7
R24  19501341.996 8  19501343.578 8 104282439.117 8  81108680.847 8
> 2025 06 15 08 40 15.0000000  0 29
C05  39174118.795 5  39174115.476 6 203989905.976 5 157737932.959 6
C08  38538305.715 6  38538302.169 7 200679075.998 6 155177764.539 7
C13  37660092.120 7  37660093.070 6 196105965.384 7 151641558.799 6
C20  23842740.447 8                 124155410.358 8
C26  24398057.864 6                 127047169.913 6
C29  21347448.960 8                 111161767.488 8
C30  24366604.910 5                 126883528.55015
C35  23543543.442 7                 122597406.488 7
C45  25067722.963 7                 130534205.120 7
C47  22316747.636 8                 116209164.289 8
E02  24439268.193 7  24439269.466 9 128429218.266 7  97155875.778 9
E10  24536311.121 8  24536312.385 9 128939177.451 8  97541657.330 9
E11  23373012.295 7  23373009.925 8 122826005.007 7  92917065.514 8
E16  25655170.373 6  25655175.098 8 134818824.188 6 101989577.032 8
E25  24328221.381 8  24328224.379 8 127845668.216 8  96714421.587 8
E36  24667223.575 7  24667227.163 9 129627139.563 7  98062101.962 9
G08  22251087.759 5                                  22251089.640 5 116930448.430 5                                  87318132.46315
G10  21538040.121 8                  21538045.633 7  21538041.737 8 113183156.510 8                  88194698.744 7  84519906.334 8
G16  21265974.401 7  21265977.528 6                                 111753442.074 7  87080618.554 6                
G18  22388358.788 6                  22388363.810 7  22388366.065 7 117651607.896 6                  91676596.963 7  87856748.984 7
G23  20795733.050 8                  20795736.727 8  20795738.131 9 109282311.283 8                  85155063.418 8  81606941.715 9
G27  20159117.151 8                  20159122.470 8  20159120.255 9 105936871.417 8                  82548237.721 8  79108716.027 9
R01  22646820.046 6                 121060258.253 6
R07  22437362.677 6  22437366.931 6 120108923.518 6  93418111.752 6
R08  21020092.799 8  21020096.255 7 112561648.512 8  87548135.138 7
R14  20838211.246 8  20838215.532 8 111079383.705 8  86394956.068 8
R15  21269079.422 7  21269082.053 7 113655695.571 7  88398722.297 7
R23  21137079.138 7                 113069120.556 7
R24  19498493.487 8  19498495.156 8 104267208.112 8  81096834.515 8
> 2025 06 15 08 40 30.0000000  0 30
C05  39173677.776 5  39173675.809 6 203987615.493 5 157736161.788 6
C08  38541155.113 6  38541151.338 7 200693913.235 6 155189237.657 7
C13  37661828.834 6  37661830.921 6 196115013.828 6 151648555.588 6
C20  23835655.619 8                 124118516.379 8
C26  24399807.448 6                 127056277.726 6
C29  21348548.795 8                 111167495.024 8
C30  24373990.132 5                 126922017.033 5
C32  24241258.783 6                 126230398.62416
C35  23536438.042 7                 122560412.059 7
C45  25076044.416 7                 130577537.029 7
C47  22321232.254 8                 116232517.437 8
E02  24436525.710 7  24436527.644 9 128414809.049 7  97144975.318 9
E10  24541228.063 8  24541230.181 9 128965020.093 8  97561207.104 9
E11  23374308.471 7  23374306.657 8 122832819.824 7  92922220.884 8
E16  25663268.856 7  25663271.106 8 134861369.231 7 102021761.967 8
E25  24333772.040 8  24333775.299 9 127874837.907 8  96736488.249 9
E36  24661702.630 7  24661706.053 8 129598126.472 7  98040153.744 8
G08  22242453.692 5                  22242457.465 5                 116885078.604 5                  91079162.60615
G10  21531454.161 8                  21531459.790 8  21531455.817 8 113148547.832 8                  88167730.947 8  84494062.200 8
G16  21272382.961 7  21272385.615 6                                 111787118.010 7  87106859.524 6                
G18  22395897.731 6                  22395901.971 6  22395903.578 7 117691222.063 6                  91707465.079 6  87886330.932 7
G23  20797128.744 7                  20797132.473 8  20797134.216 9 109289647.759 7                  85160780.171 8  81612420.251 9
G27  20155797.505 8                  20155802.699 8  20155800.080 9 105919425.325 8                  82534643.364 8  79095688.109 9
R01  22634651.535 6                 120995212.423 6
R07  22443738.195 6  22443743.600 6 120143055.551 6  93444658.836 6
R08  21016277.445 8  21016280.896 8 112541216.794 8  87532243.879 8
R14  20845237.853 8  20845242.096 7 111116840.600 8  86424089.191 7
R15  21264858.828 7  21264862.196 7 113633144.040 7  88381182.167 7
R23  21144552.226 7                 113109091.731 7
R24  19495662.278 8  19495663.945 7 104252069.452 8  81085059.995 7
> 2025 06 15 08 40 45.0000000  0 31
C05  39173235.999 5  39173233.206 7 203985315.005 5 157734382.877 7
C08  38544006.364 6  38544002.893 7 200708760.612 6 155200718.583 7
C13  37663569.629 7  37663571.489 6 196124076.448 7 151655563.411 6
C20  23828586.277 8                 124081704.705 8
C26  24401577.342 6                 127065496.957 6
C29  21349661.079 8                 111173285.756 8
C30  24381387.488 6                 126960525.206 6
C32  24243385.216 5                 126241512.359 5
C35  23529338.896 7                 122523444.165 7
C45  25084371.496 7                 130620898.972 7
C47  22325726.305 8                 116255919.062 8
E02  24433800.414 7  24433802.981 8 128400490.519 7  97134143.441 8
E10  24546151.398 8  24546153.655 9 128990893.379 8  97580780.037 9
E11  23375615.554 7  23375613.556 8 122839687.893 7  92927416.518 8
E16  25671370.930 7  25671374.039 8 134903950.598 7 102053974.521 8
E25  24339336.489 8  24339339.970 9 127904080.515 8  96758610.076 9
E36  24656189.936 8  24656193.027 8 129569155.384 8  98018237.321 8
G08  22233826.528 6                  22233837.728 5                 116839753.721 6                  91043844.693 5
G10  21524887.079 8                  21524893.427 8  21524889.574 8 113114040.950 8                  88140842.466 8  84468294.083 8
G16  21278812.605 7  21278815.328 6                                 111820905.197 7  87133187.168 6                
G18  22403443.176 6                  22403447.314 6  22403450.069 7 117730874.386 6                  91738362.988 6  87915941.363 7
G23  20798551.129 7                  20798554.370 8  20798556.256 8 109297120.020 7                  85166602.730 8  81618000.212 8
G27  20152497.835 8                  20152502.780 8  20152499.880 9 105902083.885 8                  82521130.555 8  79082738.338 9
R01  22622491.922 6                 120930209.025 6
R07  22450142.212 5                 120177344.282 5
R08  21012496.784 7  21012499.698 8 112520970.729 7  87516496.918 8
R14  20852293.194 8  20852297.217 7 111154448.912 8  86453340.062 7
R15  21260673.563 8  21260675.641 7 113610776.122 8  88363784.894 7
R17  22729583.819 4                 121630650.26314
R23  21152032.233 6                 113149105.145 6
R24  19492848.075 8  19492849.069 7 104237018.223 8  81073353.475 7
> 2025 06 15 08 41  0.0000000  0 31
C05  39172792.618 5  39172790.346 6 203983004.941 5 157732596.581 6
C08  38546859.828 6  38546856.569 7 200723618.167 6 155212207.363 7
C13  37665312.308 7  37665315.281 6 196133153.683 7 151662582.455 6
C20  23821533.267 8                 124044975.957 8
C26  24403367.654 5                 127074828.128 5
C29  21350785.308 8                 111179139.997 8
C30  24388786.560 6                 126999053.099 6
C32  24245550.153 4                 126252745.88814
C35  23522244.741 7                 122486503.201 7
C45  25092704.282 6                 130664290.908 6
C47  22330229.951 8                 116279369.427 8
E02  24431093.858 7  24431095.454 9 128386263.035 7  97123380.468 9
E10  24551081.404 8  24551083.128 9 129016797.450 8  97600376.292 9
E11  23376932.346 7  23376930.613 8 122846609.407 7  92932652.595 8
E16  25679480.991 7  25679484.056 8 134946568.603 7 102086214.684 8
E25  24344914.834 8  24344918.408 9 127933396.186 8  96780787.160 9
E36  24650684.820 8  24650688.051 9 129540226.667 8  97996352.932 9
G08  22225211.055 5                                  22225215.425 5 116794474.505 5                                  87216505.18615
G10  21518340.280 8                  21518346.353 7  21518342.391 8 113079636.347 8                  88114033.712 7  84442602.330 8
G16  21285263.278 8  21285266.342 6                                 111854803.672 8  87159601.551 6                
G18  22410996.150 6                  22411000.446 6  22411003.227 7 117770564.834 6                  91769290.586 6  87945580.293 7
G23  20799998.728 7                  20800002.267 8  20800003.783 8 109304728.351 7                  85172531.273 8  81623681.725 8
G27  20149217.923 8                  20149222.936 8  20149219.685 9 105884847.584 8                  82507699.662 8  79069867.038 9
R01  22610338.943 6                 120865248.938 6
R07  22456576.201 5                 120211789.820 5
R08  21008751.384 7  21008754.146 8 112500911.018 7  87500894.938 8
R14  20859376.875 8  20859381.399 8 111192208.002 8  86482708.249 8
R15  21256521.602 8  21256524.708 7 113588592.390 8  88346530.932 7
R17  22720141.265 5                 121580137.68415
R23  21159520.222 6                 113189160.877 6
R24  19490049.736 8  19490051.162 7 104222054.914 8  81061715.356 7
> 2025 06 15 08 41 15.0000000  0 29
C05  39172347.554 6  39172345.136 6 203980686.928 6 157730804.128 6
C08  38549715.256 6  38549711.734 7 200738487.538 6 155223705.313 7
C13  37667058.441 6  37667061.310 6 196142246.867 6 151669613.903 6
C20  23814495.564 8                 124008332.044 8
C26  24405185.656 5                 127084272.77115
C29  21351921.804 8                 111185059.452 8
C30  24396189.620 6                 127037602.291 6
C35  23515155.956 7                 122449590.975 7
C45  25101042.963 7                 130707714.236 7
C47  22334742.996 8                 116302870.197 8
E02  24428404.159 7  24428405.862 9 128372128.490 7  97112687.768 9
E10  24556016.455 8  24556018.914 9 129042733.947 8  97619997.088 9
E11  23378260.204 7  23378258.251 8 122853586.029 7  92937930.330 8
E16  25687597.993 7  25687601.051 8 134989224.679 7 102118483.700 8
E25  24350508.384 8  24350511.143 9 127962786.508 8  96803020.737 9
E36  24645187.903 8  24645191.513 9 129511342.021 8  97974501.899 9
G08  22216601.921 4                                  22216609.026 6 116749242.846 4                                  87182728.518 6
G10  21511813.301 8                  21511819.030 7  21511815.561 8 113045335.935 8                  88087306.148 7  84416988.449 8
G16  21291735.431 7  21291738.646 6                                 111888815.024 7  87186103.880 6                
G18  22418556.686 6                  22418562.191 6  22418563.773 7 117810294.980 6                  91800249.195 6  87975248.917 7
G23  20801472.824 7                  20801476.533 8  20801477.406 8 109312474.287 7                  85178567.061 8  81629466.010 8
G27  20145958.129 8                  20145962.953 8  20145960.420 9 105867718.237 8                  82494352.114 8  79057075.630 9
R01  22598195.027 6                 120800334.588 6
R07  22463042.015 5                 120246393.380 5
R08  21005039.913 8  21005043.633 7 112481039.777 8  87485439.547 7
R14  20866489.067 8  20866492.679 7 111230119.530 8  86512194.968 7
R15  21252404.083 8  21252408.901 7 113566595.085 8  88329421.951 7
R23  21167016.202 6                 113229261.030 6
R24  19487268.180 8  19487269.970 8 104207181.435 8  81050147.084 8
> 2025 06 15 08 41 30.0000000  0 29
C05  39171901.450 5  39171899.080 7 203978364.234 5 157729008.074 7
C08  38552573.787 6  38552569.197 7 200753372.049 6 155235214.939 7
C13  37668807.130 6  37668811.222 6 196151359.299 6 151676660.166 6
C20  23807475.715 8                 123971776.551 8
C26  24407017.874 5                 127093833.58315
C29  21353071.623 8                 111191047.430 8
C30  24403597.123 5                 127076176.077 5
C35  23508072.750 6                 122412710.808 6
C45  25109389.207 7                 130751171.943 7
C47  22339266.578 8                 116326424.539 8
E02  24425732.578 7  24425734.378 9 128358090.345 7  97102067.953 9
E10  24560959.661 7  24560961.276 9 129068706.075 7  97639644.796 9
E11  23379598.299 7  23379596.979 8 122860620.889 7  92943252.156 8
E16  25695723.259 7  25695726.387 8 135031922.008 7 102150783.888 8
E25  24356115.982 8  24356118.830 8 127992254.595 8  96825313.134 8
E36  24639700.998 8  24639704.081 8 129482504.730 8  97952686.725 8
G08  22208005.028 5                  22208033.719 5  22208012.836 6 116704062.46515                  90938084.43615  87148989.886 6
G10  21505306.849 8                  21505312.428 7  21505309.034 8 113011143.354 8                  88060662.574 7  84391455.011 8
G16  21298229.480 8  21298232.228 6                                 111922942.261 8  87212696.510 6                
G18  22426125.264 6                  22426129.980 7  22426132.135 7 117850068.125 6                  91831241.227 7  88004949.621 7
G23  20802973.390 7                  20802977.030 8  20802978.358 8 109320361.046 7                  85184712.528 8  81635355.452 8
G27  20142719.496 8                  20142724.075 8  20142722.142 9 105850699.311 8                  82481090.634 8  79044366.707 9
R01  22586060.989 6                 120735469.822 6
R07  22469537.685 5  22469549.895 6 120281159.06515  93552073.94816
R08  21001365.033 8  21001367.743 8 112461360.292 8  87470133.302 8
R14  20873630.035 8  20873633.992 7 111268186.410 8  86541802.513 7
R15  21248324.879 8  21248327.475 7 113544787.540 8  88312460.544 7
R23  21174520.879 6                 113269408.456 6
R24  19484504.048 8  19484506.080 8 104192401.051 8  81038651.259 8
> 2025 06 15 08 41 45.0000000  0 29
C05  39171454.340 5  39171452.213 7 203976036.826 5 157727208.381 7
C08  38555434.248 6  38555431.194 7 200768271.490 6 155246736.151 7
C13  37670560.869 6  37670565.132 6 196160490.945 6 151683721.271 6
C20  23800472.945 8                 123935309.698 8
C29  21354234.562 8                 111197103.812 8
C30  24411011.879 5                 127114774.454 5
C32  24252141.234 5                 126287189.25615
C35  23500997.573 6                 122375862.850 6
C45  25117741.035 7                 130794663.689 7
C47  22343799.961 8                 116350032.394 8
E02  24423079.063 7  24423081.315 9 128344148.493 7  97091521.057 9
E10  24565907.835 8  24565910.296 9 129094713.624 8  97659319.317 9
E11  23380948.514 7  23380946.801 8 122867713.935 7  92948617.988 8
E16  25703856.425 7  25703859.297 8 135074660.277 7 102183115.057 8
E25  24361738.119 8  24361741.216 9 128021800.272 8  96847664.211 9
E36  24634222.099 8  24634225.365 9 129453714.896 8  97930907.382 9
G08  22199417.183 5                                  22199423.513 7 116658934.51315                                  87115289.546 7
G10  21498820.270 8                  21498826.174 7  21498822.373 8 112977058.578 8                  88034103.056 7  84366002.166 8
G16  21304745.966 8  21304748.284 6                                 111957184.863 8  87239379.022 6                
G18  22433702.216 5                  22433706.543 6  22433708.998 7 117889883.921 5                  91862266.499 6  88034682.186 7
G23  20804501.003 8                  20804505.030 8  20804506.301 8 109328388.375 8                  85190967.607 8  81641349.896 8
G27  20139501.807 8                  20139506.907 8  20139504.569 9 105833790.936 8                  82467915.300 8  79031740.353 9
R01  22573936.358 7                 120670655.048 7
R07  22476064.583 6  22476071.272 5 120316084.676 6  93579238.388 5
R08  20997725.891 8  20997728.777 7 112441873.062 8  87454976.553 7
R14  20880800.359 8  20880804.591 7 111306408.188 8  86571530.503 7
R15  21244279.392 8  21244281.561 7 113523169.932 8  88295646.830 7
R23  21182035.946 7                 113309602.938 7
R24  19481757.672 8  19481759.481 7 104177713.649 8  81027227.706 7
> 2025 06 15 08 42  0.0000000  0 29
C05  39171006.966 5  39171004.623 6 203973704.874 5 157725405.147 6
C08  38558297.977 5  38558294.813 7 200783185.959 5 155258268.993 7
C13  37672319.087 6  37672323.047 6 196169641.732 6 151690797.275 6
C20  23793485.145 7                 123898931.910 7
C29  21355410.845 8                 111203228.739 8
C30  24418431.622 4                 127153397.20914
C32  24254389.635 5                 126298919.20015
C35  23493928.322 7                 122339047.176 7
C45  25126100.064 7                 130838189.315 7
C47  22348343.462 8                 116373693.875 8
E02  24420445.681 7  24420446.630 9 128330303.326 7  97081047.285 9
E10  24570864.012 8  24570865.962 9 129120756.619 8  97679020.666 9
E11  23382309.411 7  23382307.665 8 122874865.168 7  92954027.845 8
E16  25711996.560 7  25712000.054 8 135117439.354 7 102215477.173 8
E25  24367375.502 8  24367378.416 9 128051423.484 8  96870073.965 9
E36  24628752.914 8  24628755.954 8 129424972.571 8  97909164.037 8
G08  22190839.062 5                                  22190845.567 7                                                  87081627.846 7
G10  21492355.149 8                  21492360.849 7  21492356.898 8 112943082.125 8                  88007627.896 7  84340630.131 8
G16  21311283.547 8  21311286.883 6                                 111991542.793 8  87266151.412 6                
G18  22441284.193 5                  22441291.074 6  22441293.151 6 117929742.506 5                  91893325.068 6  88064446.665 6
G23  20806055.612 8                  20806059.175 8  20806061.003 8 109336556.342 8                  85197332.277 8  81647449.349 8
G27  20136305.448 8                  20136310.787 8  20136308.116 9 105816993.424 8                  82454826.316 8  79019196.751 9
R01  22561820.444 7                 120605891.009 7
R07  22482616.034 5  22482625.685 6 120351170.32815  93606527.301 6
R08  20994122.240 8  20994126.026 7 112422578.138 8  87439969.434 7
R14  20888000.318 8  20888003.830 7 111344784.399 8  86601378.663 7
R15  21240269.701 8  21240271.680 7 113501742.731 8  88278981.286 7
R23  21189557.725 7                 113349844.646 7
R24  19479028.379 8  19479030.542 8 104163119.432 8  81015876.662 8
> 2025 06 15 08 42 15.0000000  0 30
C05  39170557.468 6  39170556.149 6 203971368.494 6 157723598.509 6
C08  38561164.649 5  38561161.712 7 200798115.465 5 155269813.405 7
C13  37674080.080 6  37674084.027 6 196178811.889 6 151697888.201 6
C20  23786517.226 8                 123862643.531 8
C26  24412689.596 5                 127123206.87415
C29  21356599.476 8                 111209422.323 8
C30  24425849.035 5                 127192041.68315
C32  24256670.859 6                 126310772.911 6
C35  23486862.699 7                 122302264.144 7
C45  25134464.834 7                 130881748.535 7
C47  22352897.691 8                 116397408.981 8
E02  24417828.266 7  24417830.411 9 128316555.001 7  97070646.767 9
E10  24575826.832 8  24575828.475 9 129146835.060 8  97698748.828 9
E11  23383681.187 7  23383679.554 8 122882074.600 7  92959481.743 8
E16  25720145.736 7  25720148.398 8 135160259.294 7 102247870.164 8
E25  24373028.075 8  24373030.275 8 128081124.221 8  96892542.365 8
E36  24623292.290 8  24623295.455 9 129396277.907 8  97887456.707 9
G08  22182276.873 5                  22182286.878 5  22182277.330 7 116568829.59215                  90832702.26115  87048004.947 7
G10  21485910.098 8                  21485915.697 7  21485912.003 8 112909214.259 8                  87981237.386 7  84315339.195 8
G16  21317843.575 7  21317846.970 5                                 112026015.931 7  87293013.552 5                
G18  22448879.389 5                  22448884.026 6  22448886.903 6 117969643.501 5                  91924416.810 6  88094242.870 6
G23  20807635.955 8                  20807640.513 8  20807642.228 8 109344864.961 8                  85203806.502 8  81653653.832 8
G27  20133129.965 8                  20133135.197 8  20133132.893 9 105800307.009 8                  82441823.924 8  79006736.128 9
R01  22549714.124 6                 120541178.339 6
R08  20990554.586 7  20990558.557 7 112403476.191 7  87425112.385 7
R14  20895227.710 7  20895232.830 8 111383314.922 7  86631346.777 8
R15  21236295.289 8  21236297.185 7 113480506.267 8  88262464.047 7
R17  22673011.890 5                 121327882.85315
R23  21197089.309 6                 113390133.378 6
R24  19476316.275 8  19476317.851 7 104148618.808 8  81004598.394 7
> 2025 06 15 08 42 30.0000000  0 30
C05  39170107.669 5  39170105.915 6 203969024.972 5 157721786.329 6
C08  38564033.257 5  38564031.598 7 200813057.411 5 155281367.422 7
C13  37675845.619 7  37675847.848 6 196187998.638 7 151704991.951 6
C20  23779565.605 8                 123826442.218 8
C29  21357802.182 8                 111215681.956 8
C30  24433272.876 5                 127230710.882 5
C32  24258967.210 6                 126322748.672 6
C35  23479804.373 6                 122265511.012 6
C45  25142835.856 7                 130925338.481 7
C47  22357461.759 8                 116421174.997 8
E02  24415229.603 7  24415232.181 8 128302901.029 7  97060317.610 8
E10  24580795.329 8  24580797.350 9 129172946.168 8  97718501.720 9
E11  23385063.741 7  23385062.003 8 122889339.516 7  92964977.596 8
E12                  26903213.147 4                 106951076.91814
E16  25728300.146 7  25728303.845 8 135203117.248 7 102280291.855 8
E25  24378693.371 8  24378696.422 9 128110899.695 8  96915067.288 9
E36  24617840.800 8  24617843.760 9 129367628.290 8  97865783.449 9
G08  22173715.190 5                                  22173719.196 7 116523853.697 5                                  87014419.091 7
G10  21479485.360 8                  21479491.322 8  21479487.445 8 112875452.488 8                  87954929.491 8  84290127.512 8
G16  21324425.079 7  21324428.260 6                                 112060601.268 7  87319963.154 6                
G18  22456479.802 5                  22456485.484 6  22456485.538 6 118009584.352 5                  91955539.540 6  88124068.779 6
G23  20809243.858 7                  20809247.484 8  20809249.450 8 109353311.430 7                  85210388.156 8  81659961.252 8
G27  20129975.410 8                  20129980.669 8  20129978.439 9 105783729.178 8                  82428906.117 8  78994356.573 9
R01  22537618.693 7                 120476515.187 7
R08  20987023.279 7  20987026.789 8 112384564.742 7  87410403.477 8
R14  20902484.651 7  20902489.173 8 111421996.458 7  86661432.433 8
R15  21232355.958 7  21232358.601 7 113459458.182 7  88246093.366 7
R17  22663594.895 5  22663595.469 6 121277502.02615  94326944.50816
R23  21204629.075 7                 113430466.458 7
R24  19473621.937 8  19473624.052 7 104134208.843 8  80993390.640 7
> 2025 06 15 08 42 45.0000000  0 30
C05  39169656.133 5  39169653.888 7 203966674.273 5 157719968.592 7
C08  38566906.962 6  38566903.847 7 200828011.541 6 155292930.923 7
C13  37677612.715 7  37677615.201 6 196197201.832 7 151712108.442 6
C20  23772629.779 8                 123790328.154 8
C29  21359017.044 8                 111222007.489 8
C30  24440704.195 5                 127269401.851 5
C32  24261293.782 5                 126334846.048 5
C35  23472752.772 7                 122228787.935 7
C45  25151212.411 7                 130968958.702 7
C47  22362035.953 8                 116444991.786 8
E02  24412650.274 7  24412651.850 8 128289341.264 7  97050059.790 8
E10  24585770.527 8  24585772.301 9 129199089.735 8  97738279.142 9
E11  23386456.943 7  23386454.946 8 122896659.692 7  92970515.258 8
E12                  26910130.022 4                
E16  25736463.676 7  25736466.773 8 135246012.827 7 102312742.017 8
E25  24384373.132 8  24384376.720 9 128140749.588 8  96937648.527 9
E36  24612396.897 8  24612400.259 9 129339023.545 8  97844144.161 9
G08  22165166.387 4                  22165169.706 5  22165170.076 7 116478927.37814                  90762707.74515  86980870.384 7
G10  21473081.337 8                  21473087.001 8  21473083.353 8 112841796.984 8                  87928704.423 8  84264995.162 8
G16  21331028.043 7  21331030.816 6                                 112095298.354 7  87346999.838 6                
G18  22464088.138 6                  22464093.576 7  22464093.791 7 118049564.664 6                  91986692.992 7  88153924.219 7
G23  20810876.941 7                  20810880.784 8  20810882.068 8 109361895.473 7                  85217077.046 8  81666371.432 8
G27  20126841.560 8                  20126846.466 8  20126844.289 9 105767259.984 8                  82416072.973 8  78982058.142 9
R01  22525530.154 6                 120411901.703 6
R08  20983526.354 7  20983530.849 8 112365843.552 7  87395842.617 8
R14  20909769.764 8  20909773.447 7 111460828.334 8  86691634.957 7
R15  21228452.262 7  21228455.710 7 113438598.597 7  88229869.182 7
R17  22654175.691 4                                
R23  21212177.460 6                 113470843.391 6
R24  19470943.837 8  19470945.483 7 104119889.510 8  80982253.412 7
> 2025 06 15 08 43  0.0000000  0 28
C05  39169204.143 5  39169202.183 6 203964319.424 5 157718147.688 6
C08  38569782.109 6  38569777.712 7 200842980.742 6 155304506.024 7
C13  37679383.247 7  37679386.172 6 196206424.510 7 151719239.977 6
C20  23765712.005 8                 123754304.675 8
C29  21360244.775 8                 111228402.031 8
C30  24448139.432 5                 127308117.452 5
C32  24263646.546 5                 126347067.976 5
C35  23465707.073 7                 122192098.070 7
C45  25159596.796 7                 131012611.926 7
C47  22366619.981 8                 116468862.429 8
E02  24410088.614 6  24410090.113 8 128275879.119 6  97039875.768 8
E10  24590751.983 8  24590754.002 9 129225268.736 8  97758083.367 9
E11  23387860.929 7  23387859.037 8 122904038.142 7  92976096.988 8
E12                  26917048.643 4                 107006082.55814
E16  25744633.844 7  25744637.293 8 135288948.910 7 102345222.917 8
E25  24390068.436 8  24390071.814 8 128170676.928 8  96960288.340 8
E36  24606963.005 8  24606966.015 9 129310466.895 8  97822541.241 9
G10  21466697.229 8                  21466703.108 8  21466698.759 8 112808251.021 8                  87902564.727 8  84239944.598 8
G16  21337652.191 7  21337655.598 5                                 112130110.173 7  87374125.900 5                
G18  22471706.850 6                  22471709.427 7  22471710.129 7 118089587.431 6                  92017879.458 7  88183811.198 7
G23  20812537.260 7                  20812540.840 8  20812542.569 8 109370620.095 7                  85223875.437 8  81672886.580 8
G27  20123728.538 8                  20123733.696 8  20123731.606 9 105750902.631 8                  82403327.021 8  78969843.273 9
R01  22513453.318 6                 120347341.668 6
R08  20980067.718 8  20980070.777 7 112347316.435 8  87381432.649 7
R14  20917082.901 8  20917087.752 8 111499813.386 8  86721956.616 8
R15  21224584.961 8  21224587.679 7 113417930.700 8  88213794.200 7
R23  21219734.305 7                 113511267.540 7
R24  19468283.814 8  19468285.355 7 104105664.086 8  80971189.178 7
> 2025 06 15 08 43 15.0000000  0 29
C05  39168750.038 5  39168748.556 6 203961957.221 5 157716321.058 6
C08  38572659.719 6  38572655.459 7 200857961.879 6 155316090.343 7
C13  37681157.731 7  37681160.446 7 196215663.210 7 151726383.929 7
C20  23758811.690 8                 123718368.817 8
C29  21361485.662 8                 111234862.354 8
C30  24455579.616 5                 127346854.544 5
C32  24266018.460 5                 126359411.05815
C35  23458666.038 6                 122155438.150 6
C45  25167984.931 7                 131056294.726 7
C47  22371213.751 8                 116492783.643 8
E02  24407544.556 7  24407546.293 8 128262511.358 7  97029763.129 8
E10  24595739.214 8  24595741.806 9 129251479.813 8  97777911.853 9
E11  23389275.617 7  23389273.520 8 122911471.558 7  92981720.311 8
E12                  26923969.646 5                 107033594.20215
E16  25752811.642 7  25752814.904 8 135331922.173 7 102377731.854 8
E25  24395777.681 8  24395780.826 9 128200678.271 8  96982984.136 9
E36  24601537.318 8  24601540.332 8 129281955.006 8  97800972.229 8
G10  21460333.706 8                  21460339.960 8  21460335.731 8 112774811.510 8                  87876507.996 8  84214973.574 8
G16  21344297.990 8  21344301.599 6                                 112165033.015 8  87401338.470 6                
G18  22479328.675 6                  22479333.401 7  22479334.471 7 118129649.177 6                  92049096.342 7  88213727.385 7
G23  20814223.325 8                  20814227.090 8  20814229.271 8 109379481.985 8                  85230780.825 8  81679504.214 8
G27  20120636.451 8                  20120641.928 8  20120639.341 9 105734654.094 8                  82390665.851 8  78957709.635 9
R01  22501385.496 6                 120282832.370 6
R08  20976643.670 8  20976647.138 7 112328980.273 8  87367171.199 7
R14  20924424.453 7  20924429.219 7 111538947.946 7  86752394.549 7
R15  21220752.185 8  21220754.734 7 113397451.387 8  88197865.825 7
R17  22635371.038 5                                
R23  21227298.873 7                 113551735.430 7
R24  19465640.371 8  19465642.369 7 104091529.077 8  80960195.298 7
> 2025 06 15 08 43 30.0000000  0 32
C05  39168294.678 6  39168293.181 6 203959585.956 6 157714487.450 6
C08  38575540.553 6  38575534.310 7 200872953.008 6 155327682.409 7
C13  37682934.852 7  37682937.647 7 196224916.411 7 151733539.065 7
C20  23751926.207 8                 123682519.098 8
C26  24422509.750 5                 127174459.75115
C29  21362738.597 8                 111241386.672 8
C30  24463021.996 5                 127385611.371 5
C32  24268442.916 5                 126371873.838 5
C35  23451631.599 6                 122118806.681 6
C45  25176380.197 7                 131100004.935 7
C47  22375817.287 8                 116516753.550 8
E02  24405017.883 7  24405019.996 8 128249236.313 7  97019720.646 8
E10  24600732.913 8  24600735.365 9 129277721.094 8  97797763.184 9
E11  23390700.489 7  23390698.123 8 122918958.034 7  92987383.770 8
E12                  26930891.546 5                 107061109.35015
E16  25760994.554 6  25760999.072 8 135374930.562 6 102410267.383 8
E25  24401500.868 8  24401503.742 9 128230751.770 8  97005734.488 9
E36  24596120.140 8  24596123.030 8 129253486.229 8  97779435.819 8
G08  22139585.176 5                  22139582.599 6  22139580.165 7 116344452.95315                  90657925.174 6  86880453.726 7
G10  21453990.218 8                  21453996.523 8  21453992.630 8 112741476.994 8                  87850533.098 8  84190080.934 8
G16  21350964.215 8  21350966.343 5                                 112200064.878 8  87428636.006 5                
G18  22486957.389 6                  22486963.451 7  22486965.622 7 118169747.862 6                  92080342.012 7  88243671.145 7
G23  20815935.624 8                  20815939.509 8  20815941.087 8 109388479.194 8                  85237791.617 8  81686222.883 8
G27  20117565.015 8                  20117570.190 8  20117567.515 8 105718512.727 8                  82378088.143 8  78945656.021 8
R01  22489326.826 6                 120218372.453 6
R07  22522561.713 5  22522565.257 5 120564964.16215  93772806.42515
R08  20973254.301 8  20973258.016 7 112310833.284 8  87353056.892 7
R14  20931793.773 8  20931798.151 8 111578229.530 8  86782946.900 8
R15  21216954.865 7  21216958.632 7 113377159.409 7  88182083.205 7
R17  22625972.147 4                                
R23  21234872.581 7                 113592244.978 7
R24  19463013.333 8  19463015.441 8 104077483.211 8  80949270.710 8
> 2025 06 15 08 43 45.0000000  0 32
C05  39167837.668 5  39167836.641 6 203957205.171 5 157712646.478 6
C08  38578419.256 6  38578415.139 6 200887953.748 6 155339281.903 6
C13  37684714.177 7  37684716.994 7 196234183.490 7 151740704.923 7
C20  23745058.667 8                 123646755.372 8
C26  24424536.440 5                 127185047.22515
C29  21364003.790 8                 111247974.660 8
C30  24470467.144 4                 127424387.125 4
C32  24270822.291 5                 126384455.56115
C35  23444603.476 6                 122082203.255 6
C45  25184778.469 7                 131143741.944 7
C47  22380429.398 8                 116540771.813 8
E02  24402509.309 7  24402511.294 8 128236053.747 7  97009748.111 8
E10  24605732.218 8  24605734.679 9 129303992.087 8  97817636.995 9
E11  23392134.408 7  23392132.789 8 122926497.151 7  92993087.047 8
E12                  26937814.336 4                 107088627.75714
E16  25769185.520 6  25769189.816 8 135417973.560 6 102442829.085 8
E25  24407237.474 8  24407239.980 9 128260896.769 8  97028538.982 9
E36  24590711.272 8  24590713.728 8 129225060.178 8  97757931.708 8
G08  22131067.071 5                  22131072.002 6  22131068.916 7 116299726.631 5                  90623073.592 6  86847054.216 7
G10  21447666.850 8                  21447673.386 8  21447668.701 8 112708247.263 8                  87824639.820 8  84165266.530 8
G16  21357651.510 7  21357652.777 5                                 112235205.126 7  87456018.010 5                
G18  22494595.603 5                  22494600.982 7  22494603.484 7 118209883.088 5                  92111616.167 7  88273642.225 7
G23  20817673.733 8                  20817677.559 8  20817678.855 8 109397611.213 8                  85244907.455 8  81693042.226 8
G27  20114513.772 8                  20114518.925 8  20114516.434 9 105702478.377 8                  82365593.817 8  78933682.277 9
R01  22477277.256 6                 120153962.389 6
R07  22529318.928 5  22529326.139 6 120601144.130 5  93800946.382 6
R08  20969900.194 7  20969905.058 7 112292875.369 7  87339089.696 7
R14  20939190.534 8  20939194.601 7 111617657.302 8  86813612.889 7
R15  21213192.868 7  21213195.027 7 113357054.391 7  88166445.976 7
R17  22616579.527 5  22616588.036 5 121025937.41615  94131219.82515
R23  21242453.229 7                 113632795.583 7
R24  19460403.778 8  19460405.393 8 104063525.658 8  80938414.831 8
> 2025 06 15 08 44  0.0000000  0 29
C05  39167379.297 5  39167378.105 6 203954819.290 5 157710801.527 6
C08  38581302.699 6  38581298.714 6 200902968.346 6 155350892.111 6
C13  37686497.606 7  37686500.057 7 196243468.604 7 151747884.767 7
C20  23738207.713 8                 123611082.364 8
C26  24426592.493 5                 127195749.524 5
C29  21365282.030 8                 111254630.589 8
C30  24477922.125 6                 127463186.378 6
C35  23437579.415 6                 122045632.337 6
C45  25193183.490 6                 131187509.707 6
C47  22385052.269 8                 116564842.606 8
E02  24400019.212 6  24400021.114 8 128222968.077 6  96999848.895 8
E10  24610738.257 8  24610740.381 9 129330296.947 8  97837536.446 9
E11  23393580.518 7  23393578.319 8 122934093.103 7  92998833.329 8
E16  25777385.473 7  25777388.171 8 135461055.322 7 102475420.052 8
E25  24412988.021 8  24412990.778 9 128291117.531 8  97051400.767 9
E36  24585310.143 8  24585313.399 8 129196681.202 8  97736463.208 8
G08  22122562.354 5                  22122571.216 6  22122567.894 7 116255053.170 5                  90588263.141 6  86813694.196 7
G10  21441364.243 8                  21441370.272 7  21441366.215 8 112675126.839 8                  87798831.702 7  84140533.763 8
G16  21364360.222 7  21364361.873 5                                 112270457.839 7  87483487.631 5                
G18  22502241.803 6                  22502246.428 6  22502248.600 7 118250058.887 6                  92142921.999 6  88303643.667 7
G23  20819437.853 8                  20819442.021 8  20819443.927 8 109406882.179 8                  85252131.608 8  81699965.376 8
G27  20111483.366 8                  20111488.788 8  20111486.189 9 105686555.378 8                  82353186.297 8  78921791.742 9
R01  22465238.921 6                 120089606.917 6
R07  22536109.014 6  22536111.041 5 120637480.366 6  93829207.780 5
R08  20966583.263 7  20966586.695 7 112275111.139 7  87325273.062 7
R14  20946614.945 8  20946618.666 7 111657235.090 8  86844395.604 7
R15  21209465.780 7  21209469.179 7 113337140.889 7  88150957.686 7
R23  21250042.108 7                 113673391.511 7
R24  19457811.163 8  19457813.352 8 104049661.234 8  80927631.438 8
> 2025 06 15 08 44 15.0000000  0 31
C05  39166920.048 5  39166919.319 6 203952428.346 5 157708952.707 6
C08  38584188.850 6  38584184.686 6 200917996.846 6 155362513.102 6
C13  37688284.427 7  37688286.981 6 196252771.951 7 151755078.713 6
C20  23731374.003 8                 123575500.374 8
C26  24428674.731 6                 127206566.285 6
C29  21366573.343 8                 111261354.595 8
C30  24485376.657 5                 127502009.049 5
C32  24275724.918 5                 126409978.23815
C35  23430563.657 6                 122009094.153 6
C45  25201594.847 6                 131231308.140 6
C47  22389684.262 8                 116588966.064 8
E02  24397548.704 6  24397549.564 8 128209979.682 6  96990023.185 8
E10  24615750.310 8  24615752.509 9 129356635.790 8  97857461.599 9
E11  23395036.420 7  23395034.689 8 122941746.013 7  93004622.703 8
E16  25785591.480 7  25785593.930 8 135504175.635 7 102508040.263 8
E25  24418752.813 8  24418755.988 8 128321414.062 8  97074319.849 8
E36  24579918.200 8  24579922.164 9 129168349.468 8  97715030.425 9
G08  22114074.630 5                  22114079.027 6  22114076.459 7 116210432.926 5                  90553494.165 6  86780373.976 7
G10  21435082.864 8                  21435088.640 7  21435085.003 8 112642116.042 8                  87773109.020 7  84115882.885 8
G16  21371089.683 7  21371091.861 5                                 112305822.871 7  87511044.752 5                
G18  22509893.022 5                  22509899.132 6  22509900.752 7 118290275.509 5                  92174259.436 6  88333675.453 7
G23  20821228.902 8                  20821232.689 8  20821234.182 9 109416292.193 8                  85259464.095 8  81706992.344 9
G27  20108474.780 8                  20108480.293 8  20108477.326 9 105670744.125 8                  82340865.862 8  78909984.654 9
R01  22453209.549 6                 120025306.745 6
R07  22542922.408 5  22542928.948 6 120673972.820 5  93857590.857 6
R08  20963302.686 7  20963304.090 7 112257541.123 7  87311607.473 7
R14  20954067.751 8  20954070.869 7 111696963.074 8  86875295.106 7
R15  21205774.903 7  21205778.544 7 113317419.380 7  88135618.798 7
R17  22597797.274 6                 120925461.01516
R23  21257639.013 6                 113714032.881 6
R24  19455235.729 8  19455237.867 8 104035889.903 8  80916920.386 8
> 2025 06 15 08 44 30.0000000  0 30
C05  39166459.761 6  39166459.143 6 203950033.545 6 157707100.901 6
C08  38587077.128 6  38587074.018 6 200933040.284 6 155374145.610 6
C13  37690073.905 7  37690077.362 6 196262094.589 7 151762287.582 6
C20  23724559.402 8                 123540010.771 8
C26  24430769.722 5                 127217498.967 5
C29  21367877.716 8                 111268147.824 8
C30  24492836.888 5                 127540856.386 5
C32  24278216.709 6                 126422930.581 6
C35  23423551.977 6                 121972589.860 6
C45  25210011.348 6                 131275137.997 6
C47  22394327.698 8                 116613143.212 8
E02  24395094.925 7  24395096.782 8 128197089.544 7  96980271.931 8
E10  24620769.034 8  24620771.234 9 129383009.612 8  97877413.226 9
E11  23396503.671 7  23396502.070 8 122949456.836 7  93010455.881 8
E16  25793803.683 7  25793806.945 8 135547335.530 7 102540690.441 8
E25  24424532.431 8  24424535.954 8 128351787.305 8  97097296.997 8
E36  24574536.575 8  24574540.017 8 129140066.130 8  97693634.269 8
G08  22105592.126 5                  22105598.696 5  22105596.083 7 116165867.452 5                  90518767.764 5  86747094.572 7
G10  21428822.367 8                  21428827.632 7  21428824.548 8 112609216.291 8                  87747472.869 7  84091314.901 8
G16  21377841.028 7  21377843.520 5                                 112341300.897 7  87538689.940 5                
G23  20823046.228 8                  20823049.400 8  20823051.317 9 109425842.265 8                  85266905.688 8  81714123.880 9
G27  20105487.692 8                  20105493.075 8  20105490.107 9 105655045.924 8                  82328633.480 8  78898261.951 9
R01  22441191.449 5                 119961063.614 5
R07  22549766.840 5  22549776.268 6 120710622.39615  93886095.938 6
R08  20960057.781 7  20960061.313 7 112240166.768 7  87298094.100 7
R14  20961548.930 8  20961553.014 7 111736841.471 8  86906311.591 7
R15  21202120.705 6  21202123.142 7 113297891.326 6  88120430.342 7
R17  22588415.854 4                 120875260.650 4
R23  21265243.917 6                 113754721.011 6
R24  19452678.194 8  19452680.052 7 104022212.817 8  80906282.659 7
> 2025 06 15 08 44 45.0000000  0 30
C05  39165999.255 5  39165998.906 6 203947634.351 5 157705245.644 6
C08  38589969.139 6  38589965.947 6 200948098.118 6 155385789.265 6
C13  37691868.274 6  37691871.673 6 196271435.940 6 151769510.896 6
C20  23717760.725 8                 123504613.359 8
C26  24432889.588 4                 127228546.81814
C29  21369195.476 8                 111275009.702 8
C30  24500302.891 5                 127579727.684 5
C32  24280723.597 4                 126436006.286 4
C35  23416548.609 6                 121936119.165 6
C45  25218435.575 6                 131318998.406 6
C47  22398981.135 8                 116637373.538 8
E02  24392661.179 7  24392662.566 8 128184297.490 7  96970594.793 8
E10  24625794.584 8  24625796.532 9 129409417.782 8  97897390.826 9
E11  23397981.917 7  23397980.320 8 122957225.031 7  93016332.484 8
E16  25802025.119 7  25802027.385 8 135590534.378 7 102573370.042 8
E25  24430326.794 8  24430330.345 8 128382236.605 8  97120331.679 8
E36  24569163.179 8  24569167.024 9 129111830.671 8  97672274.345 9
G08  22097123.322 6                  22097127.685 6  22097126.541 7 116121356.320 6                  90484083.814 6  86713855.760 7
G10  21422582.729 7                  21422588.225 7  21422585.520 8 112576427.268 7                  87721922.997 7  84066829.620 8
G16  21384613.444 7  21384616.994 6                                 112376891.166 7  87566422.633 6                
G18  22525223.358 6                  22525230.075 6  22525230.197 7 118370828.47116                  92237031.166 6  88393831.643 7
G23  20824889.661 8                  20824893.356 8  20824895.461 8 109435531.705 8                  85274455.900 8  81721359.500 8
G27  20102521.892 8                  20102527.367 8  20102524.665 9 105639460.379 8                  82316488.890 8  78886623.388 9
R01  22429184.100 6                 119896877.497 6
R07  22556650.542 6  22556651.448 6 120747428.104 6  93914722.540 6
R08  20956850.117 8  20956854.317 7 112222987.616 8  87284732.585 7
R14  20969057.770 8  20969062.270 7 111776869.684 8  86937444.624 7
R15  21198502.785 7  21198505.219 7 113278556.252 7  88105391.908 7
R23  21272860.327 6                 113795455.057 6
R24  19450137.716 8  19450139.363 7 104008629.498 8  80895717.853 7
> 2025 06 15 08 45  0.0000000  0 29
C05  39165538.013 6  39165538.132 6 203945232.706 6 157703388.535 6
C08  38592863.662 6  38592860.452 6 200963172.283 6 155397445.495 6
C13  37693665.876 6  37693669.190 7 196280798.031 6 151776750.259 7
C20  23710981.384 8                 123469310.371 8
C29  21370526.960 8                 111281942.278 8
C32  24283255.300 5                 126449202.34315
C35  23409552.109 6                 121899683.908 6
C45  25226864.247 6                 131362891.074 6
C47  22403644.509 8                 116661658.946 8
E02  24390245.385 7  24390247.290 8 128171605.489 7  96960993.413 8
E10  24630826.736 8  24630828.673 9 129435862.206 8  97917395.849 9
E11  23399471.460 7  23399469.871 8 122965052.511 7  93022253.923 8
E16  25810253.664 7  25810255.530 8 135633773.907 7 102606080.430 8
E25  24436135.978 8  24436139.609 8 128412763.863 8  97143425.302 8
E36  24563799.851 7  24563803.489 8 129083645.124 7  97650952.178 8
G08  22088661.414 5                  22088668.970 6  22088667.056 7 116076901.874 5                  90449443.908 6  86680659.229 7
G10  21416364.613 7                  21416370.155 7  21416367.507 8 112543751.174 7                  87696461.107 7  84042428.649 8
G16  21391408.190 7  21391411.673 5                                 112412595.459 7  87594244.108 5                
G18  22532898.704 5                  22532905.680 6  22532907.498 6                                  92268466.316 6  88423957.028 6
G23  20826760.668 8                  20826764.361 8  20826765.767 8 109445362.396 8                  85282116.167 8  81728700.606 8
G27  20099577.962 8                  20099582.940 8  20099580.369 9 105623989.631 8                  82304433.744 8  78875070.565 9
R01  22417187.729 6                 119832751.017 6
R07  22563555.860 5  22563556.497 6 120784391.55715  93943471.751 6
R08  20953678.719 8  20953682.515 7 112206005.884 8  87271524.581 7
R14  20976595.529 8  20976600.298 7 111817048.808 8  86968695.034 7
R15  21194921.209 7  21194923.233 7 113259416.521 7  88090505.497 7
R17  22569677.907 5  22569671.045 5 120774914.10415  93935982.05615
R23  21280483.903 6                 113836236.593 6
R24  19447615.469 8  19447617.185 8 103995142.116 8  80885227.630 8
> 2025 06 15 08 45 15.0000000  0 31
C05  39165076.577 6  39165075.689 6 203942825.737 6 157701527.319 6
C08  38595760.011 5  38595757.611 6 200978259.829 5 155409112.128 6
C13  37695466.803 6  37695470.603 7 196290177.757 6 151784003.236 7
C20  23704221.121 8                 123434099.118 8
C26  24437208.865 5                 127250992.49915
C29  21371871.010 8                 111288942.641 8
C30  24515258.270 5                 127657289.50815
C32  24285815.604 6                 126462525.896 6
C35  23402562.443 5                 121863281.431 5
C45  25235299.531 6                 131406812.844 6
C47  22408317.933 7                 116685996.519 7
E02  24387848.146 6  24387850.679 8 128159010.784 6  96951465.615 8
E10  24635864.893 8  24635867.158 9 129462339.790 8  97937425.968 9
E11  23400971.545 7  23400970.070 8 122972936.248 7  93028217.908 8
E16  25818488.293 7  25818490.893 8 135677050.953 7 102638819.229 8
E25  24441960.083 8  24441963.047 8 128443365.886 8  97166575.516 8
E36  24558444.935 7  24558448.861 9 129055506.576 7  97629665.575 9
G08  22080214.409 6                  22080219.453 6  22080217.459 7 116032501.146 6                  90414846.052 6  86647502.974 7
G10  21410167.103 8                  21410173.315 8  21410170.086 8 112511185.216 8                  87671085.057 8  84018109.956 8
G16  21398223.060 7  21398226.793 5                                 112448410.386 7  87622151.811 5                
G18  22540583.883 5                  22540590.920 6  22540592.095 7 118451551.81515                  92299932.316 6  88454111.963 7
G23  20828657.351 8                  20828661.522 8  20828662.710 8 109455331.256 8                  85289884.147 8  81736144.895 8
G27  20096654.992 8                  20096660.525 8  20096657.651 9 105608630.842 8                  82292465.887 8  78863601.376 9
R01  22405202.192 6                 119768682.081 6
R07  22570487.761 5  22570489.417 6 120821509.148 5  93972340.936 6
R08  20950543.768 8  20950547.385 7 112189218.782 8  87258467.980 7
R14  20984160.631 8  20984165.230 7 111857375.766 8  87000060.488 7
R15  21191375.593 7  21191378.413 7 113240469.159 7  88075768.656 7
R17  22560305.185 6  22560302.420 5 120724790.382 6  93896997.05015
R23  21288115.238 6                 113877062.723 6
R24  19445110.588 8  19445112.818 7 103981747.643 8  80874809.729 7
> 2025 06 15 08 45 30.0000000  0 31
C05  39164612.532 5  39164611.599 6 203940410.024 5 157699659.345 6
C08  38598659.565 5  38598656.459 6 200993357.181 5 155420786.352 6
C13  37697271.884 6  37697274.907 7 196299571.715 6 151791267.226 7
C20  23697474.311 8                 123398976.516 8
C26  24439386.359 5                 127262381.484 5
C29  21373227.886 8                 111296007.319 8
C30  24522737.973 6                 127696229.010 6
C32  24288398.795 6                 126475968.338 6
C35  23395574.633 5                 121826908.514 5
C45  25243738.464 6                 131450759.956 6
C47  22413000.665 8                 116710382.728 8
E02  24385469.862 6  24385471.755 8 128146510.029 6  96942008.875 8
E10  24640908.715 8  24640911.303 9 129488847.016 8  97957478.491 9
E11  23402481.623 7  23402480.297 8 122980872.662 7  93034221.756 8
E16  25826730.066 7  25826732.703 8 135720361.964 7 102671583.692 8
E25  24447796.470 8  24447800.044 8 128474039.138 8  97189779.605 8
E36  24553099.262 8  24553102.563 9 129027411.592 8  97608411.934 9
G08  22071774.228 6                  22071781.285 6  22071777.564 7 115988151.144 6                  90380287.631 6  86614384.514 7
G10  21403990.498 8                  21403996.508 8  21403992.667 8 112478726.195 8                  87645792.320 8  83993871.104 8
G16  21405058.689 8  21405061.906 5                                 112484332.354 8  87650142.920 5                
G18  22548277.333 6                  22548281.649 6  22548282.674 7 118491969.224 6                  92331426.358 6  88484293.748 7
G23  20830580.250 7                  20830583.899 8  20830585.407 8 109465434.719 7                  85297756.955 8  81743689.663 8
G27  20093753.409 8                  20093758.261 8  20093755.676 9 105593380.787 8                  82280582.721 8  78852213.338 9
R01  22393226.161 4                 119704667.343 4
R07  22577448.965 6  22577452.205 6 120858776.988 6  94001327.060 6
R08  20947444.617 7  20947447.698 7 112172623.178 7  87245560.236 7
R14  20991753.274 8  20991757.256 7 111897846.162 8  87031537.395 7
R15  21187865.181 7  21187868.001 7 113221711.080 7  88061179.040 7
R17  22550939.029 5  22550936.883 4 120674687.78815  93858028.409 4
R23  21295755.524 6                 113917929.843 6
R24  19442622.794 8  19442624.740 7 103968442.743 8  80864461.496 7
> 2025 06 15 08 45 45.0000000  0 31
C05  39164146.925 5  39164146.521 6 203937986.299 5 157697785.156 6
C08  38601559.898 5  38601557.888 6 201008465.022 5 155432468.667 6
C13  37699078.522 6  37699081.788 7 196308980.574 6 151798542.757 7
C19  26150533.699 6                 136172727.97916
C20  23690746.757 8                 123363943.563 8
C26  24441603.822 5                 127273881.326 5
C29  21374596.623 8                 111303137.092 8
C30  24530214.151 6                 127735188.644 6
C32  24291001.943 6                 126489530.366 6
C35  23388596.589 5                 121790565.863 5
C45  25252182.714 6                 131494732.807 6
C47  22417694.512 8                 116734818.270 8
E02  24383108.392 6  24383110.988 8 128134104.031 6  96932623.849 8
E10  24645958.523 8  24645961.268 9 129515384.514 8  97977553.908 9
E11  23404002.210 7  23404000.635 8 122988862.458 7  93040265.989 8
E16  25834977.044 7  25834981.079 8 135763707.475 7 102704374.228 8
E25  24453647.333 8  24453650.824 9 128504784.193 8  97213038.021 9
E36  24547761.584 8  24547764.603 9 128999360.958 8  97587191.811 9
G08  22063343.375 6                  22063351.741 6  22063347.192 7 115943852.956 6                  90345769.481 6  86581304.654 7
G10  21397833.702 8                  21397840.241 7  21397836.047 8 112446375.054 8                  87620583.660 7  83969712.801 8
G16  21411915.207 7  21411918.032 6                                 112520361.792 7  87678217.768 6                
G18  22555973.567 5                  22555977.230 6  22555980.837 7 118532423.182 5                  92362949.030 6  88514502.868 7
G23  20832528.637 8                  20832532.474 8  20832533.839 8 109475673.357 8                  85305735.116 8  81751335.394 8
G27  20090871.813 8                  20090877.248 8  20090874.919 9 105578240.316 8                  82268784.976 8  78840907.160 9
R01  22381261.808 6                 119640708.134 6
R07  22584438.445 6  22584440.871 5 120896195.655 6  94030430.524 5
R08  20944381.580 7  20944384.132 7 112156219.833 7  87232802.092 7
R14  20999372.405 8  20999375.812 7 111938460.833 8  87063126.531 7
R15  21184390.127 7  21184392.981 7 113203143.325 7  88046737.430 7
R23  21303403.126 7                 113958838.606 7
R24  19440151.373 8  19440153.346 7 103955228.072 8  80854183.401 7
> 2025 06 15 08 46  0.0000000  0 32
C05  39163679.596 5  39163678.933 6 203935552.146 5 157695902.909 6
C08  38604462.168 5  38604461.219 6 201023580.792 5 155444157.136 6
C13  37700887.447 6  37700891.178 7 196318401.627 6 151805827.696 7
C19  26140097.761 6                 136118365.699 6
C20  23684035.577 8                 123328997.990 8
C26  24443824.515 4                 127285489.687 4
C29  21375978.472 8                 111310329.403 8
C30  24537691.745 6                 127774165.613 6
C32  24293625.725 5                 126503209.077 5
C35  23381623.165 6                 121754251.096 6
C45  25260631.986 6                 131538728.594 6
C47  22422395.654 8                 116759300.547 8
E02  24380765.969 6  24380767.800 8 128121790.412 6  96923308.646 8
E10  24651014.389 8  24651016.569 9 129541949.573 8  97997650.191 9
E11  23405532.750 7  23405530.682 8 122996902.997 7  93046348.569 8
E16  25843231.821 7  25843235.714 8 135807084.652 7 102737188.742 8
E25  24459511.212 8  24459514.604 9 128535598.350 8  97236348.676 9
E36  24542430.964 8  24542434.690 9 128971352.100 8  97566003.272 9
G08  22054921.305 5                  22054930.191 5  22054926.385 7 115899603.957 5                  90311289.824 5  86548261.649 7
G10  21391698.595 8                  21391704.286 8  21391700.329 8 112414129.432 8                  87595457.184 8  83945633.271 8
G16  21418790.891 8  21418794.335 6                                 112556495.975 8  87706374.250 6                
G18  22563676.569 5                  22563682.935 6  22563685.533 8 118572911.064 5                  92394498.157 6  88544737.291 8
G23  20834501.664 8                  20834505.995 8  20834507.155 8 109486044.476 8                  85313816.512 8  81759080.060 8
G27  20088011.496 8                  20088016.605 8  20088013.966 9 105563207.036 8                  82257070.736 8  78829680.993 9
R01  22369307.102 6                 119576802.714 6
R07  22591453.941 6  22591460.795 5 120933762.028 6  94059648.745 5
R08  20941353.760 8  20941356.466 7 112140006.540 8  87220191.805 7
R14  21007018.154 8  21007021.634 7 111979216.519 8  87094825.346 7
R15  21180950.275 7  21180952.989 7 113184763.132 7  88032441.730 7
R17  22532234.413 5  22532224.385 5 120574531.69115  93780140.66615
R23  21311058.189 7                 113999786.149 7
R24  19437696.703 8  19437698.124 7 103942101.055 8  80843973.511 7
> 2025 06 15 08 46 15.0000000  0 31
C05  39163211.445 6  39163210.812 6 203933114.234 6 157694017.761 6
C08  38607368.325 5  38607366.147 6 201038711.269 5 155455856.938 6
C13  37702701.859 6  37702704.020 7 196327841.855 6 151813127.480 7
C19  26129658.946 5                 136064001.744 5
C20  23677343.326 8                 123294146.876 8
C26  24446076.006 4                 127297213.01914
C29  21377372.887 8                 111317591.102 8
C30  24545178.317 6                 127813167.041 6
C35  23374656.104 6                 121717971.130 6
C45  25269086.584 6                 131582753.900 6
C47  22427107.474 8                 116783836.435 8
E02  24378442.920 6  24378443.539 8 128109576.177 6  96914068.624 8
E10  24656075.840 8  24656078.402 9 129568549.031 8  98017772.508 9
E11  23407073.321 7  23407071.707 8 123005001.090 7  93052474.730 8
E16  25851494.668 7  25851497.591 8 135850500.251 7 102770032.324 8
E25  24465389.028 8  24465392.777 9 128566488.367 8  97259716.736 9
E36  24537110.799 8  24537114.102 9 128943391.937 8  97544851.652 9
G08  22046514.911 6                  22046520.928 6  22046517.238 7 115855411.515 6                  90276854.115 6  86515260.818 7
G10  21385583.123 8                  21385589.826 8  21385586.084 8 112381996.471 8                  87570418.531 8  83921637.880 8
G16  21425688.316 7  21425692.065 6                                 112592741.283 7  87734617.315 6                
G18  22571388.601 4                  22571394.958 6  22571397.509 7 118613439.54614                  92426078.757 6  88575002.091 7
G23  20836501.852 7                  20836506.274 8  20836507.003 8 109496554.918 7                  85322006.424 8  81766928.751 8
G27  20085172.286 8                  20085177.584 8  20085174.766 9 105548288.034 8                  82245445.548 8  78818540.188 9
R01  22357362.971 6                 119512958.328 6
R07  22598503.962 5  22598507.238 6 120971483.024 5  94088987.135 6
R08  20938362.436 8  20938365.925 7 112123990.477 8  87207734.842 7
R14  21014691.394 8  21014695.118 7 112020119.621 8  87126638.847 7
R15  21177547.883 7  21177550.620 7 113166578.277 7  88018297.948 7
R17  22522888.825 5  22522875.329 5 120524496.310 5  93741224.329 5
R23  21318720.720 7                 114040779.490 7
R24  19435259.577 8  19435261.491 7 103929068.899 8  80833837.392 7
> 2025 06 15 08 46 30.0000000  0 31
C05  39162742.810 6  39162742.537 6 203930675.272 6 157692131.803 6
C08  38610277.806 5  38610274.793 6 201053858.933 5 155467570.046 6
C13  37704518.710 6  37704521.147 7 196337303.650 6 151820443.921 7
C19  26119221.090 4                 136009639.00114
C20  23670669.216 8                 123259393.115 8
C26  24448347.311 4                 127309053.92914
C29  21378781.063 8                 111324924.737 8
C30  24552671.715 5                 127852195.183 5
C35  23367694.880 6                 121681728.598 6
C45  25277544.911 5                 131626810.836 5
C47  22431829.900 8                 116808428.366 8
E02  24376137.835 6  24376138.591 8 128097463.903 6  96904905.782 8
E10  24661144.662 8  24661147.144 9 129595185.376 8  98037922.693 9
E11  23408625.818 7  23408624.159 8 123013159.190 7  93058646.284 8
E16  25859765.001 6  25859767.090 8 135893956.671 6 102802906.800 8
E25  24471282.395 8  24471285.708 9 128597456.661 8  97283144.022 9
E36  24531800.226 8  24531803.232 9 128915483.131 8  97523738.816 9
G08  22038115.149 6                  22038122.959 5  22038119.154 7 115811278.309 6                  90242464.779 5  86482304.260 7
G10  21379490.552 8                  21379496.808 8  21379492.734 8 112349978.892 8                  87545469.794 8  83897728.656 8
G16  21432607.285 8  21432610.922 6                                 112629100.013 8  87762948.753 6                
G18  22579112.874 6                  22579116.839 6  22579118.788 8 118654011.04616                  92457692.970 6  88605299.011 8
G23  20838529.030 7                  20838533.332 8  20838534.522 8 109507207.033 7                  85330306.763 8  81774883.240 8
G27  20082355.638 8                  20082360.630 8  20082357.981 8 105533485.999 8                  82233911.488 8  78807486.706 8
R01  22345429.982 5                 119449178.479 5
R07  22605578.025 5  22605584.305 6 121009360.117 5  94118447.174 6
R08  20935409.089 8  20935412.377 7 112108174.560 8  87195433.583 7
R14  21022392.573 8  21022397.312 8 112061172.198 8  87158568.563 8
R15  21174181.603 7  21174185.182 7 113148591.064 7  88004307.889 7
R17  22513535.806 5  22513529.296 5 120474490.021 5  93702330.750 5
R23  21326392.981 7                 114081821.000 7
R24  19432840.611 8  19432842.374 7 103916134.145 8  80823777.019 7
> 2025 06 15 08 46 45.0000000  0 29
C05  39162272.715 6  39162273.177 6 203928228.423 6 157690239.714 6
C08  38613189.590 5  38613185.778 6 201069016.881 5 155479291.188 6
C13  37706337.870 6  37706341.286 7 196346780.154 6 151827771.733 7
C20  23664012.322 8                 123224730.178 8
C26  24450653.581 5                 127321005.351 5
C29  21380201.970 8                 111332323.607 8
C30  24560172.230 4                 127891243.262 4
C35  23360741.960 6                 121645516.896 6
C45  25286009.713 5                 131670892.454 5
C47  22436562.574 8                 116833069.589 8
E02  24373849.503 6  24373851.695 8 128085446.968 6  96895815.077 8
E10  24666219.456 8  24666221.621 9 129621851.631 8  98058095.552 9
E11  23410188.378 7  23410186.742 8 123021370.455 7  93064858.054 8
E16  25868038.029 6  25868043.025 8 135937447.042 6 102835806.861 8
E25  24477189.125 8  24477192.450 9 128628496.285 8  97306625.283 9
E36  24526498.501 8  24526500.845 9 128887618.847 8  97502659.676 9
G08  22029727.066 6                  22029734.113 5  22029731.449 7 115767197.896 6                  90208116.417 5  86449387.110 7
G10  21373418.611 8                  21373424.897 8  21373420.830 8 112318070.134 8                  87520605.854 8  83873900.711 8
G16  21439545.962 8  21439550.573 6                                 112665565.099 8  87791363.094 6                
G18  22586840.593 6                  22586843.818 6  22586846.127 8 118694618.756 6                  92489335.224 6  88635622.875 8
G23  20840582.073 7                  20840586.242 8  20840587.325 8 109517993.915 7                  85338712.124 8  81782938.389 8
G27  20079559.990 8                  20079564.896 8  20079562.326 9 105518794.314 8                  82222463.393 8  78796515.618 9
R01  22333511.960 6                 119385456.661 6
R07  22612681.568 5  22612688.346 6 121047386.562 5  94148023.227 6
R08  20932491.772 8  20932494.140 7 112092551.873 8  87183282.646 7
R14  21030121.096 8  21030125.677 7 112102367.074 8  87190608.979 7
R15  21170851.435 8  21170854.328 7 113130794.861 8  87990466.405 7
R23  21334073.390 7                 114122904.047 7
R24  19430438.522 8  19430440.688 8 103903290.099 8  80813787.220 8
> 2025 06 15 08 47  0.0000000  0 30
C05  39161802.176 6  39161801.568 6 203925775.602 6 157688343.005 6
C08  38616103.064 5  38616099.393 6 201084187.209 5 155491021.819 6
C13  37708161.790 7  37708164.467 7 196356273.230 7 151835112.394 7
C20  23657372.801 8                 123190160.152 8
C26  24452961.081 5                 127333068.909 5
C29  21381636.034 8                 111339789.491 8
C30  24567680.103 5                 127930319.07915
C32  24304398.510 5                 126559171.82915
C35  23353794.698 6                 121609337.958 6
C45  25294481.188 5                 131715000.400 5
C47  22441303.991 8                 116857761.830 8
E02  24371578.662 6  24371583.392 8 128073527.291 6  96886797.943 8
E10  24671299.910 8  24671301.915 9 129648549.595 8  98078292.374 9
E11  23411761.883 7  23411759.774 8 123029636.654 7  93071111.362 8
E16  25876322.460 6  25876325.663 7 135980972.864 6 102868733.722 7
E25  24483109.617 8  24483113.005 9 128659608.924 8  97330161.765 9
E36  24521204.158 8  24521207.265 9 128859800.990 8  97481615.640 9
G08  22021350.037 6                  22021355.619 5  22021354.047 7 115723172.371 6                  90173810.860 5  86416510.883 7
G10  21367367.666 8                  21367373.801 8  21367370.180 8 112286272.204 8                  87495828.265 8  83850155.526 8
G16  21446505.838 7  21446509.810 6                                 112702138.098 7  87819861.512 6                
G18  22594574.178 6                  22594577.826 6  22594580.948 7 118735264.112 6                  92521006.902 6  88665974.929 7
G23  20842661.144 8                  20842664.109 8  20842665.774 8 109528917.247 8                  85347223.843 8  81791095.437 8
G27  20076785.007 8                  20076790.792 8  20076788.132 9 105504214.887 8                  82211102.812 8  78785628.409 9
R01  22321602.139 6                 119321795.187 6
R07  22619811.883 5  22619820.635 5 121085563.39415  94177716.338 5
R08  20929611.039 8  20929613.517 7 112077124.632 8  87171283.686 7
R14  21037875.857 8  21037880.125 7 112143705.566 8  87222761.139 7
R15  21167557.155 7  21167560.009 7 113113191.980 7  87976775.308 7
R23  21341761.566 7                 114164029.682 7
R24  19428054.016 8  19428055.995 8 103890538.568 8  80803869.339 8
> 2025 06 15 08 47 15.0000000  0 32
C05  39161330.175 6  39161328.881 6 203923316.791 6 157686441.734 6
C08  38619018.480 5  38619014.699 6 201099369.64615 155502761.83916
C13  37709988.589 6  37709990.813 7 196365782.839 6 151842465.829 7
C19  26087890.553 5                 135846536.81415
C20  23650752.418 8                 123155683.438 8
C26  24455301.054 5                 127345244.56515
C29  21383082.604 8                 111347322.524 8
C30  24575190.435 5                 127969410.709 5
C32  24307123.439 5                 126573745.44815
C35  23346853.101 7                 121573191.891 7
C45  25302958.001 6                 131759134.312 6
C47  22446055.820 8                 116882505.199 8
E02  24369330.853 5  24369333.705 8 128061705.120 5  96877854.569 8
E10  24676386.524 8  24676388.290 9 129675279.275 8  98098513.156 9
E11  23413345.162 7  23413343.181 8 123037957.747 7  93077406.224 8
E16  25884611.958 7  25884615.153 8 136024533.979 7 102901687.361 8
E25  24489043.502 8  24489047.351 9 128690794.494 8  97353753.444 9
E36  24515918.574 8  24515922.466 9 128832029.618 8  97460606.820 9
G08  22012982.399 6                  22012987.981 5  22012986.601 7 115679201.939 6                  90139548.255 5  86383675.900 7
G10  21361338.035 8                  21361343.596 7  21361340.265 8 112254585.459 8                  87471137.280 7  83826493.335 8
G16  21453486.298 8  21453489.197 6                                 112738818.816 8  87848443.876 6                
G18  22602317.086 6                  22602320.171 6  22602322.702 7 118775947.252 6                  92552708.014 6  88696355.142 7
G23  20844765.016 8                  20844768.920 8  20844770.547 8 109539977.028 8                  85355841.858 8  81799354.342 8
G27  20074032.447 8                  20074037.518 8  20074035.116 9 105489748.031 8                  82199829.960 8  78774825.257 9
R01  22309704.561 6                 119258195.104 6
R07  22626973.337 6  22626980.089 5 121123890.85416  94207526.587 5
R08  20926766.311 7  20926769.991 7 112061893.294 7  87159437.112 7
R14  21045657.975 8  21045662.269 7 112185187.258 8  87255024.654 7
R15  21164299.016 7  21164301.859 7 113095782.479 7  87963234.569 7
R17  22485542.077 5                 120324603.46715
R23  21349456.809 7                 114205198.351 7
R24  19425686.858 8  19425689.321 7 103877879.521 8  80794023.439 7
> 2025 06 15 08 47 30.0000000  0 32
C05  39160857.910 6  39160857.076 6 203920857.381 6 157684539.926 6
C08  38621938.033 5  38621934.363 7 201114569.228 5 155514515.158 7
C13  37711818.306 6  37711820.598 7 196375314.195 6 151849836.036 7
C19  26077449.547 6                 135792165.397 6
C20  23644150.937 8                 123121305.436 8
C26  24457660.854 5                 127357537.669 5
C29  21384543.848 8                 111354927.903 8
C30  24582698.802 5                 128008529.411 5
C32  24309887.499 5                 126588160.399 5
C35  23339917.820 6                 121537084.122 6
C45  25311439.724 6                 131803299.036 6
C47  22450818.244 8                 116907304.882 8
E02  24367102.372 6  24367103.680 8 128049985.794 6  96868989.017 8
E10  24681479.965 8  24681481.705 9 129702045.779 8  98118761.828 9
E11  23414940.004 7  23414938.111 8 123046338.981 7  93083746.555 8
E16  25892909.359 7  25892912.336 7 136068135.510 7 102934671.581 7
E25  24494993.354 8  24494996.634 8 128722058.180 8  97377404.165 8
E36  24510643.516 7  24510647.539 9 128804310.068 7  97439637.186 9
G08  22004626.171 6                  22004631.815 6  22004630.575 7 115635292.127 6                  90105332.781 6  86350886.164 7
G10  21355330.246 8                  21355335.907 7  21355332.450 8 112223015.301 8                  87446537.184 7  83802918.238 8
G16  21460487.772 7  21460490.574 6                                 112775612.264 7  87877114.082 6                
G18  22610066.252 4                  22610070.444 6  22610072.254 7 118816673.249 4                  92584442.488 6  88726767.309 7
G23  20846896.470 8                  20846900.510 8  20846902.347 8 109551178.348 8                  85364570.142 8  81807718.971 8
G27  20071302.106 8                  20071307.498 8  20071304.778 9 105475399.172 8                  82188648.999 8  78764110.181 9
R01  22297818.899 6                 119194661.976 6
R07  22634161.554 5  22634168.378 5 121162373.415 5  94237457.474 5
R08  20923959.765 8  20923963.613 8 112046863.115 8  87147746.957 8
R14  21053467.470 8  21053471.819 8 112226817.097 8  87287403.385 8
R15  21161078.629 7  21161081.560 7 113078571.950 7  87949848.645 7
R17  22476208.548 5                 120274698.67115
R23  21357162.224 7                 114246415.199 7
R24  19423337.892 8  19423339.942 7 103865318.460 8  80784253.729 7
> 2025 06 15 08 47 45.0000000  0 31
C05  39160386.303 5  39160386.087 6 203918402.043 5 157682641.277 6
C08  38624859.867 5  38624857.628 7 201129790.943 5 155526285.524 7
C13  37713653.928 6  37713656.271 7 196384872.071 6 151857226.775 7
C19  26067010.085 6                 135737801.813 6
C20  23637568.602 8                 123087031.281 8
C26  24460047.495 6                 127369952.683 6
C29  21386018.411 8                 111362610.447 8
C30  24590216.189 5                 128047679.54415
C32  24312684.220 5                 126602705.961 5
C35  23332992.053 6                 121501019.511 6
C45  25319927.717 6                 131847499.222 6
C47  22455592.612 8                 116932165.535 8
E02  24364892.770 6  24364894.051 8 128038374.300 6  96860204.980 8
E10  24686581.501 8  24686583.123 9 129728853.832 8  98139041.947 9
E11  23416547.290 7  23416545.381 8 123054785.042 7  93090135.938 8
E16  25901215.068 7  25901218.154 7 136111782.145 7 102967689.907 7
E25  24500957.774 8  24500961.650 8 128753404.578 8  97401117.489 8
E36  24505379.989 7  24505383.348 9 128776647.214 7  97418710.416 9
G08  21996282.954 6                  21996288.082 5  21996288.067 7 115591448.188 6                  90071168.735 5  86318145.581 7
G10  21349346.143 8                  21349351.515 7  21349347.631 8 112191566.780 8                  87422031.875 7  83779433.994 8
G16  21467511.744 7  21467514.805 6                                 112812522.990 7  87905875.661 6                
G18  22617822.767 5                  22617828.865 6  22617830.097 7 118857457.57915                  92616213.811 6  88757214.979 7
G23  20849055.772 7                  20849059.823 8  20849061.643 8 109562525.886 7                  85373412.391 8  81816192.788 8
G27  20068595.247 8                  20068600.229 8  20068597.691 9 105461173.217 8                  82177563.859 8  78753486.931 9
R01  22285947.619 6                 119131201.424 6
R07  22641382.224 5  22641386.989 4 121201015.687 5
R08  20921192.363 8  20921195.523 8 112032039.577 8  87136217.503 8
R14  21061305.783 8  21061310.058 7 112268599.380 8  87319900.670 7
R15  21157896.398 7  21157900.129 7 113061565.697 7  87936621.635 7
R23  21364877.219 7                 114287684.972 7
R24  19421008.379 8  19421009.968 7 103852860.501 8  80774564.207 7
> 2025 06 15 08 48  0.0000000  0 31
C05  39159914.707 5  39159913.108 6 203915945.668 5 157680741.819 6
C08  38627787.271 5  38627784.690 6 201145029.41615 155538068.85516
C13  37715493.343 7  37715495.502 7 196394451.239 7 151864633.982 7
C19  26056568.423 6                 135683441.180 6
C20  23631005.111 8                 123052856.104 8
C26  24462460.858 5                 127382484.220 5
C29  21387507.517 8                 111370364.979 8
C30  24597740.957 5                 128086856.15415
C35  23326073.776 6                 121464992.925 6
C45  25328421.641 6                 131891729.432 6
C47  22460377.701 8                 116957082.057 8
E02  24362701.898 7  24362703.955 8 128026865.620 7  96851498.658 8
E10  24691689.657 8  24691691.545 9 129755698.151 8  98159349.503 9
E11  23418165.610 7  23418163.954 8 123063290.646 7  93096570.383 8
E16  25909528.244 7  25909531.529 7 136155468.549 7 103000738.251 7
E25  24506937.674 8  24506941.386 8 128784828.347 8  97424889.364 8
E36  24500125.678 8  24500129.136 9 128749035.825 8  97397822.602 9
G08  21987953.237 6                  21987956.981 5  21987956.051 7 115547664.926 6                  90037051.998 5  86285450.370 7
G10  21343383.608 8                  21343389.531 7  21343385.210 8 112160234.922 8                  87397617.458 7  83756036.849 8
G16  21474556.719 7  21474560.379 5                                 112849545.489 7  87934724.287 5                
G18  22625592.280 6                  22625595.087 6  22625596.922 7 118898273.177 6                  92648018.199 6  88787694.068 7
G23  20851241.975 7                  20851246.579 8  20851247.698 8 109574014.336 7                  85382364.423 8  81824771.830 8
G27  20065910.267 8                  20065915.415 8  20065913.002 9 105447065.195 8                  82166570.601 8  78742951.726 9
R01  22274088.218 5                 119067808.844 5
R07  22648627.337 5                                
R08  20918460.822 8  20918464.376 7 112017416.984 8  87124844.422 7
R14  21069171.279 8  21069175.725 7 112310528.360 8  87352512.031 7
R15  21154750.572 7  21154753.885 7 113044758.529 7  87923549.345 7
R17  22457576.570 4                 120174973.99414
R23  21372600.857 6                 114329002.523 6
R24  19418696.484 8  19418697.877 7 103840500.393 8  80764950.788 7
> 2025 06 15 08 48 15.0000000  0 31
C05  39159441.355 6  39159440.690 6 203913480.601 6 157678835.688 6
C08  38630715.976 5  38630712.233 6 201160277.06115 155549859.37516
C13  37717335.195 7  37717337.474 7 196404043.835 7 151872051.595 7
C19  26046126.788 6                 135629076.209 6
C20  23624459.645 7                 123018772.427 7
C26  24464893.530 4                 127395124.60414
C29  21389009.283 8                 111378183.811 8
C30  24605272.112 5                 128126051.698 5
C35  23319161.298 7                 121428996.782 7
C45  25336920.009 6                 131935981.486 6
C47  22465172.254 8                 116982046.644 8
E02  24360529.113 6  24360532.177 8 128015451.831 6  96842864.258 8
E10  24696802.922 8  24696805.282 9 129782570.921 8  98179678.529 9
E11  23419794.267 7  23419792.390 8 123071848.021 7  93103043.976 8
E16  25917848.305 7  25917850.443 8 136199186.496 7 103033810.596 8
E25  24512929.815 7  24512934.410 8 128816321.612 7  97448713.784 8
E36  24494879.653 8  24494883.128 9 128721468.189 8  97376967.870 9
G08  21979629.153 6                  21979633.461 5  21979634.915 7 115503934.991 6                  90002976.697 5  86252794.914 7
G10  21337442.357 8                  21337448.327 8  21337444.239 8 112129012.126 8                  87373288.007 8  83732721.118 8
G16  21481621.587 7  21481624.628 6                                 112886671.621 7  87963653.730 6                
G18  22633364.085 5                  22633370.203 6  22633369.834 7 118939122.871 5                  92679849.057 6  88818198.697 7
G23  20853453.484 7                  20853457.363 8  20853458.902 8 109585635.772 7                  85391420.063 8  81833450.173 8
G27  20063246.397 8                  20063251.676 8  20063248.937 9 105433067.450 8                  82155663.260 8  78732498.862 9
R01  22262242.249 6                 119004476.793 6
R07  22655904.697 5  22655908.019 5 121278746.84115  94327979.56215
R08  20915766.648 8  20915769.152 7 112002988.046 8  87113621.903 7
R14  21077063.578 8  21077067.857 7 112352595.795 8  87385231.104 7
R15  21151641.763 7  21151644.173 6 113028142.657 7  87910625.871 6
R17  22448258.381 5                 120125159.94215
R23  21380333.001 7                 114370359.432 7
R24  19416402.033 8  19416403.813 7 103828230.183 8  80755407.306 7
> 2025 06 15 08 48 30.0000000  0 28
C05  39158966.880 6  39158965.574 6 203911010.657 6 157676925.769 6
C08  38633646.450 5  38633643.612 6 201175537.54215 155561659.70716
C13  37719180.962 7  37719182.282 7 196413653.805 7 151879482.642 7
C19  26035689.112 6                 135574710.903 6
C20  23617932.629 8                 122984784.382 8
C29  21390523.629 8                 111386070.830 8
C30  24612798.915 5                 128165269.86115
C35  23312255.068 7                 121393035.327 7
C45  25345422.029 6                 131980259.145 6
C47  22469975.448 8                 117007063.135 8
E02  24358377.692 7  24358379.075 8 128004137.210 7  96834304.786 8
E10  24701922.188 8  24701925.099 9 129809475.842 8  98200031.910 9
E11  23421433.546 7  23421431.386 8 123080460.931 7  93109559.580 8
E16  25926173.819 7  25926176.477 7 136242939.949 7 103066909.791 7
E25  24518937.684 7  24518941.335 8 128847888.164 7  97472593.592 8
E36  24489642.750 8  24489646.347 9 128693948.241 8  97356149.228 9
G08  21971320.860 6                  21971325.282 5  21971324.288 7 115460262.506 6                  89968946.307 5  86220182.351 7
G10  21331522.440 8                  21331528.371 8  21331524.198 8 112097902.503 8                  87349046.776 8  83709489.971 8
G16  21488707.320 7  21488709.968 5                                 112923905.061 7  87992666.760 5                
G18  22641145.393 5                  22641150.611 6  22641151.663 7 118980010.511 5                  92711709.488 6  88848731.637 7
G23  20855690.892 8                  20855695.086 8  20855696.312 9 109597393.964 8                  85400582.299 8  81842230.619 9
G27  20060604.214 8                  20060609.720 8  20060607.024 9 105419184.036 8                  82144845.021 8  78722131.369 9
R01  22250405.473 6                 118941209.583 6
R08  20913108.597 7  20913111.591 7 111988756.979 7  87102553.289 7
R14  21084981.879 8  21084985.856 8 112394805.169 8  87418060.565 8
R15  21148568.311 7  21148571.430 7 113011722.234 7  87897854.488 7
R23  21388071.991 7                 114411759.857 7
R24  19414124.858 8  19414126.108 7 103816053.772 8  80745936.738 7
> 2025 06 15 08 48 45.0000000  0 32
C05  39158492.206 6  39158492.105 6 203908541.506 6 157675016.414 6
C08  38636580.170 5  38636576.621 6 201190816.59115 155573474.34516
C13  37721031.447 7  37721032.543 7 196423286.634 7 151886931.333 7
C19  26025250.114 5                 135520351.24315
C20  23611425.453 8                 122950897.814 8
C26  24469802.607 5                 127420731.63915
C29  21392053.055 8                 111394031.614 8
C30  24620338.450 4                 128204515.91914
C32  24324090.867 4                 126661900.89314
C35  23305355.592 7                 121357113.804 7
C45  25353929.984 5                 132024567.589 5
C47  22474791.233 8                 117032137.062 8
E02  24356244.250 7  24356245.740 8 127992927.332 7  96825824.577 8
E10  24707049.790 8  24707052.138 9 129836418.496 8  98220413.850 9
E11  23423084.112 7  23423082.004 8 123089134.916 7  93116121.385 8
E16  25934507.740 7  25934510.216 8 136286734.306 7 103100039.860 8
E25  24524959.655 7  24524963.328 8 128879533.386 7  97496532.959 8
E36  24484415.829 8  24484419.555 9 128666481.616 8  97335370.916 9
G08  21963022.410 6                  21963027.935 6  21963025.156 7 115416653.322 6                  89934965.160 6  86187617.012 7
G10  21325625.514 8                  21325630.489 7  21325626.782 8 112066911.939 8                  87324898.300 7  83686347.673 8
G16  21495813.899 7  21495816.835 6                                 112961251.204 7  88021767.617 6                
G18  22648934.448 5                  22648938.980 6  22648940.700 7 119020941.617 5                  92743603.795 6  88879296.973 7
G23  20857955.321 7                  20857959.646 8  20857960.885 8 109609294.355 7                  85409855.325 8  81851117.287 8
G27  20057985.452 8                  20057990.958 8  20057987.840 9 105405420.747 8                  82134120.378 8  78711853.589 9
R01  22238583.222 6                 118878013.920 6
R07  22670539.238 5  22670551.549 5 121357092.28515  94388908.49015
R08  20910489.695 8  20910492.915 7 111974729.619 8  87091643.181 7
R14  21092928.116 8  21092931.421 7 112437161.669 8  87451004.475 7
R15  21145533.548 6  21145536.641 7 112995503.336 6  87885239.744 7
R17  22429648.885 5                 120025599.42615
R23  21395820.039 6                 114453209.360 6
R24  19411866.467 8  19411868.625 8 103803977.058 8  80736543.746 8
> 2025 06 15 08 49  0.0000000  0 30
C05  39158018.363 6  39158018.132 6 203906074.084 6 157673108.454 6
C08  38639519.105 5  38639515.238 6 201206114.661 5 155585303.884 6
C13  37722885.173 6  37722886.877 7 196432943.215 6 151894398.438 7
C19  26014824.635 5                 135465998.27415
C20  23604937.872 8                 122917114.016 8
C26  24472295.675 5                 127433722.15815
C29  21393596.000 8                 111402067.152 8
C32  24327006.535 6                 126677064.626 6
C35  23298466.235 7                 121321233.621 7
C45  25362446.756 5                 132068907.504 5
C47  22479616.991 8                 117057269.346 8
E02  24354131.927 7  24354132.772 8 127981823.304 7  96817424.464 8
E10  24712184.079 8  24712186.464 9 129863399.774 8  98240824.976 9
E11  23424746.169 7  23424744.382 8 123097870.850 7  93122730.062 8
E16  25942849.598 7  25942851.990 8 136330570.324 7 103133201.474 8
E25  24530996.518 8  24531000.364 8 128911258.095 8  97520532.468 8
E36  24479200.407 8  24479203.126 9 128639069.338 8  97314633.712 9
G08  21954735.235 6                  21954741.687 6  21954738.796 7 115373108.565 6                  89901034.104 6  86155099.893 7
G10  21319751.037 8                  21319755.647 7  21319752.818 8 112036041.520 8                  87300843.438 7  83663295.108 8
G16  21502941.888 8  21502945.367 5                                 112998710.600 8  88050956.676 5                
G18  22656734.314 6                  22656736.426 6  22656737.828 7 119061916.886 6                  92775532.619 6  88909895.372 7
G23  20860247.667 7                  20860250.927 8  20860252.730 8 109621337.845 7                  85419239.848 8  81860110.767 8
G27  20055389.505 8                  20055394.554 8  20055391.824 8 105391778.671 8                  82123490.201 8  78701666.325 8
R01  22226775.115 6                 118814891.104 6
R07  22677898.919 4                 121396493.46114
R08  20907908.107 8  20907912.011 7 111960907.129 8  87080892.343 7
R14  21100901.092 8  21100905.314 7 112479665.951 8  87484063.339 7
R15  21142536.296 7  21142538.041 7 112979486.930 7  87872782.492 7
R23  21403578.881 6                 114494708.793 6
R24  19409627.289 8  19409629.284 8 103792000.908 8  80727228.968 8
> 2025 06 15 08 49 15.0000000  0 29
C05  39157544.609 6  39157544.558 6 203903605.128 6 157671199.303 6
C13  37724742.968 6  37724745.277 7 196442620.331 6 151901881.382 7
C20  23598468.234 8                 122883429.918 8
C26  24474810.953 5                 127446827.60015
C29  21395152.535 8                 111410174.148 8
C30  24635428.704 5                 128283090.43915
C32  24329939.916 5                 126692352.729 5
C35  23291583.671 7                 121285391.499 7
C45  25370967.432 6                 132113275.272 6
C47  22484453.731 8                 117082456.698 8
E02  24352037.076 7  24352039.190 8 127970821.976 7  96809102.014 8
E10  24717325.811 8  24717327.539 9 129890416.229 8  98261262.742 9
E11  23426419.717 7  23426417.888 8 123106665.449 7  93129383.106 8
E16  25951197.838 7  25951201.243 7 136374444.520 7 103166391.976 7
E25  24537048.317 8  24537051.924 9 128943058.911 8  97544589.531 9
E36  24473994.008 8  24473996.402 9 128611708.128 8  97293935.147 9
G08  21946460.124 6                                  21946464.237 7 115329625.314 6                                  86122628.687 7
G10  21313898.424 8                  21313903.873 7  21313899.956 8 112005288.207 8                  87276879.803 7  83640329.949 8
G16  21510091.631 7  21510094.525 5                                 113036279.672 7  88080231.248 5                
G18  22664538.916 6                  22664542.190 7  22664543.340 7 119102932.973 6                  92807493.135 7  88940524.256 7
G23  20862565.946 7                  20862569.684 8  20862571.448 8 109633520.935 7                  85428733.173 8  81869208.532 8
G27  20052816.286 8                  20052821.152 8  20052818.163 8 105378254.672 8                  82112952.038 8  78691567.247 8
R01  22214979.079 6                 118751838.461 6
R07  22685288.222 5  22685294.283 5 121436048.93315  94450320.02715
R08  20905364.027 8  20905367.277 7 111947286.250 8  87070298.332 7
R14  21108902.081 8  21108906.515 7 112522313.933 8  87517233.998 7
R15  21139576.458 7  21139578.999 7 112963669.952 7  87860480.392 7
R23  21411345.709 6                 114536254.417 6
R24  19407405.586 8  19407407.585 8 103780122.218 8  80717990.003 8
> 2025 06 15 08 49 30.0000000  0 31
C05  39157070.989 6  39157071.236 6 203901138.618 6 157669292.017 6
C08  38645404.745 4  38645400.862 6 201236763.05914 155609020.06016
C13  37726605.779 6  37726608.364 7 196452321.861 6 151909383.231 7
C20  23592019.724 8                 122849849.819 8
C26  24477352.241 6                 127460052.172 6
C29  21396724.196 8                 111418356.611 8
C30  24642975.374 5                 128322420.63615
C32  24332890.232 5                 126707768.60615
C35  23284707.432 7                 121249591.503 7
C45  25379496.315 6                 132157674.672 6
C47  22489302.407 8                 117107703.034 8
E02  24349964.599 7  24349966.064 8 127959927.462 7  96800860.381 8
E10  24722474.588 8  24722476.064 8 129917471.797 8  98281730.128 8
E11  23428105.031 7  23428103.411 8 123115522.610 7  93136083.486 8
E16  25959554.588 6  25959558.209 7 136418360.771 6 103199614.293 7
E25  24543115.674 8  24543118.805 8 128974939.680 8  97568707.094 8
E36  24468796.758 8  24468800.366 9 128584402.022 8  97273278.265 9
G08  21938198.419 6                  21938204.934 6  21938201.926 8 115286207.788 6                  89833317.42616  86090206.553 8
G10  21308069.459 8                  21308074.521 7  21308070.915 8 111974656.135 8                  87253010.698 7  83617455.417 8
G16  21517262.276 8  21517264.586 6                                 113073962.202 8  88109594.232 6                
G18  22672351.902 6                  22672356.079 6  22672357.079 7 119143993.737 6                  92839488.487 6  88971186.433 7
G23  20864911.548 7                  20864915.358 8  20864916.555 8 109645847.523 7                  85438338.315 8  81878413.445 8
G27  20050266.007 8                  20050270.774 8  20050268.088 9 105364852.984 8                  82102509.146 8  78681559.470 9
R01  22203198.110 5                 118688860.843 5
R07  22692706.790 5  22692710.931 5 121475756.13115  94481203.41515
R08  20902859.604 8  20902862.877 7 111933871.246 8  87059864.472 7
R14  21116930.456 8  21116935.665 8 112565109.398 8  87550519.299 8
R15  21136655.512 7  21136657.611 7 112948056.501 7  87848336.645 7
R17  22401786.792 5  22401786.056 5 119876530.16015
R23  21419121.056 6                 114577850.456 6
R24  19405203.295 8  19405204.786 7 103768345.121 8  80708830.036 7
> 2025 06 15 08 49 45.0000000  0 32
C05  39156597.907 6  39156597.484 6 203898676.133 6 157667387.873 6
C08  38648353.994 5  38648349.448 6 201252118.41615 155620893.83416
C13  37728473.772 6  37728477.137 7 196462049.233 6 151916905.019 7
C19  25983502.674 5                 135302975.73115
C20  23585591.076 7                 122816375.423 7
C26  24479916.803 5                 127473397.405 5
C29  21398310.343 8                 111426616.099 8
C30  24650539.009 5                 128361781.89615
C32  24335880.250 5                 126723314.08815
C35  23277841.183 7                 121213835.354 7
C45  25388024.773 6                 132202106.884 6
C47  22494162.350 8                 117133009.831 8
E02  24347912.277 7  24347913.724 8 127949141.367 7  96792700.764 8
E10  24727630.413 8  24727632.274 9 129944567.978 8  98302228.191 9
E11  23429802.668 7  23429801.018 8 123124443.753 7  93142832.275 8
E16  25967919.622 6  25967923.283 7 136462320.428 6 103232869.397 7
E25  24549197.545 8  24549200.987 9 129006901.771 8  97592886.201 9
E36  24463611.291 8  24463614.921 9 128557152.575 8  97252664.264 9
G08  21929948.977 6                  21929954.378 5  21929953.472 8 115242857.749 6                  89799538.120 5  86057834.841 8
G10  21302263.372 8                  21302269.016 7  21302265.827 8 111944147.156 8                  87229237.485 7  83594672.766 8
G16  21524454.527 7  21524457.268 5                                 113111759.294 7  88139046.486 5                
G18  22680172.601 5                  22680178.366 6  22680179.433 7 119185100.530 5                  92871519.731 6  89001883.027 7
G23  20867284.813 7                  20867288.463 8  20867289.791 8 109658318.994 7                  85448056.326 8  81887726.563 8
G27  20047739.502 8                  20047744.261 8  20047741.586 9 105351575.212 8                  82092162.830 8  78671644.258 9
R01  22191431.043 6                 118625959.960 6
R07  22700155.879 5  22700157.903 5 121515619.729 5  94512208.335 5
R08  20900392.991 7  20900396.594 8 111920664.024 7  87049592.229 8
R14  21124986.524 8  21124991.205 8 112608053.315 8  87583920.107 8
R15  21133771.311 7  21133773.994 7 112932648.502 7  87836352.704 7
R17  22392512.557 5                 119826902.066 5
R23  21426906.738 6                 114619498.396 6
R24  19403019.899 8  19403021.939 7 103756671.194 8  80699750.289 7
> 2025 06 15 08 50  0.0000000  0 31
C05  39156125.663 5  39156124.868 6 203896218.581 5 157665487.487 6
C08  38651304.558 5  38651301.961 6 201267496.24415 155632784.83216
C13  37730347.004 6  37730350.117 7 196471803.275 6 151924447.485 7
C19  25973072.021 6                 135248655.944 6
C20  23579182.513 7                 122783007.970 7
C26  24482500.749 6                 127486864.003 6
C29  21399911.421 8                 111434953.494 8
C30  24658114.696 5                 128401175.15815
C32  24338889.841 5                 126738989.47915
C35  23270983.413 7                 121178123.925 7
C45  25396565.334 6                 132246572.503 6
C47  22499034.769 8                 117158377.968 8
E02  24345881.937 7  24345881.738 8 127938464.716 7  96784623.956 8
E10  24732794.245 8  24732796.388 9 129971705.535 8  98322757.546 9
E11  23431512.568 7  23431511.004 8 123133429.749 7  93149630.123 8
E16  25976291.575 6  25976296.850 7 136506324.127 6 103266157.836 7
E25  24555295.507 8  24555298.788 8 129038945.956 8  97617127.372 8
E36  24458437.477 8  24458440.754 9 128529960.720 8  97232093.823 9
G08  21921709.598 4                  21921717.323 5  21921716.731 7 115199577.54014                  89765812.37415  86025514.461 7
G10  21296481.649 8                  21296486.997 7  21296483.806 8 111913762.356 8                  87205560.988 7  83571982.814 8
G16  21531669.809 7  21531672.722 5                                 113149671.791 7  88168588.633 5                
G18  22688003.089 5                  22688009.432 6  22688010.928 6 119226254.007 5                  92903587.375 6  89032614.547 6
G23  20869685.642 7                  20869689.806 8  20869691.371 8 109670936.132 7                  85457887.824 8  81897148.428 8
G27  20045236.559 8                  20045241.840 8  20045238.916 9 105338422.440 8                  82081913.915 8  78661822.387 9
R01  22179678.441 6                 118563137.532 6
R08  20897964.990 7  20897969.135 7 111907665.492 7  87039482.305 7
R14  21133070.775 7  21133074.853 7 112651145.924 7  87617436.539 7
R15  21130926.404 7  21130928.318 7 112917446.936 7  87824529.249 7
R17  22383256.954 5                 119777296.12215
R23  21434701.518 7                 114661198.893 7
R24  19400856.646 8  19400858.301 7 103745101.469 8  80690751.605 7
> 2025 06 15 08 50 15.0000000  0 29
C05  39155654.109 6  39155654.128 6 203893762.428 6 157663588.271 6
C08  38654263.089 4  38654260.525 5 201282892.527 4 155644690.321 5
C13  37732224.830 7  37732227.892 7 196481580.595 7 151932007.879 7
C19  25962640.726 5                 135194344.289 5
C20  23572795.794 8                 122749744.225 8
C26  24485110.311 4                 127500448.64814
C29  21401526.742 8                 111443365.259 8
C32  24341925.945 5                 126754790.56115
C35  23264134.301 7                 121142454.003 7
C45  25405110.646 6                 132291067.783 6
C47  22503917.389 8                 117183803.946 8
E02  24343868.133 7  24343870.139 8 127927894.094 7  96776627.354 8
E10  24737965.621 8  24737967.684 9 129998880.849 8  98343315.457 9
E11  23433234.333 7  23433232.695 8 123142476.988 7  93156474.289 8
E16  25984673.934 6  25984678.102 7 136550368.258 6 103299476.822 7
E25  24561408.456 8  24561411.524 9 129071068.529 8  97641427.851 9
E36  24453273.224 8  24453276.595 9 128502823.002 8  97211564.317 9
G08  21913490.417 5                  21913495.223 5  21913492.647 8 115156361.56015                  89732137.689 5  85993242.861 8
G10  21290722.542 8                  21290727.994 7  21290724.400 8 111883498.293 8                  87181978.644 7  83549383.046 8
G16  21538904.871 8  21538908.214 5                                 113187695.708 8  88198217.625 5                
G18  22695844.083 5                  22695847.713 6  22695850.966 7 119267454.64115                  92935688.721 6  89063378.242 7
G23  20872113.735 7                  20872117.573 8  20872119.159 8 109683695.189 7                  85467829.927 8  81906676.293 8
G27  20042756.572 8                  20042761.575 8  20042759.361 9 105325391.297 8                  82071759.755 8  78652091.345 9
R01  22167940.236 6                 118500390.517 6
R08  20895575.978 7  20895580.035 7 111894872.441 7  87029532.181 7
R14  21141182.005 8  21141185.851 7 112694383.760 8  87651065.945 7
R15  21128119.860 7  21128121.563 6 112902448.612 7  87812863.949 6
R23  21442507.234 6                 114702948.524 6
R24  19398711.744 8  19398713.458 8 103733632.424 8  80681831.257 8
> 2025 06 15 08 50 30.0000000  0 27
C05  39155182.739 6  39155182.457 6 203891304.865 6 157661687.943 6
C08  38657220.339 5  38657218.459 5 201298304.64415 155656607.80715
C13  37734106.219 6  37734109.260 7 196491378.129 6 151939583.901 7
C19  25952211.348 6                 135140038.098 6
C20  23566427.279 8                 122716581.611 8
C29  21403155.860 8                 111451848.628 8
C35  23257290.780 7                 121106822.672 7
C45  25413660.663 6                 132335589.562 6
C47  22508810.171 7                 117209284.838 7
E02  24341877.611 7  24341878.372 8 127917426.768 7  96768708.879 8
E10  24743143.999 8  24743145.658 9 130026090.902 8  98363899.694 9
E11  23434967.384 7  23434965.475 8 123151582.469 7  93163362.534 8
E16  25993064.018 6  25993066.694 8 136594449.624 6 103332823.992 8
E25  24567535.438 8  24567538.559 8 129103266.490 8  97665785.358 8
E36  24448118.471 8  24448122.208 9 128475736.519 8  97191073.567 9
G08  21905278.844 5                  21905283.486 6  21905280.616 7 115113208.427 5                  89698511.938 6  85961018.099 7
G10  21284986.381 8                  21284991.541 7  21284987.785 8 111853352.345 8                  87158488.314 7  83526871.491 8
G16  21546161.005 7  21546164.493 5                                 113225827.896 7  88227931.001 5                
G23  20874568.411 7                  20874571.960 8  20874573.729 8 109696593.162 7                  85477880.294 8  81916307.908 8
G27  20040299.526 8                  20040304.555 8  20040302.063 9 105312479.022 8                  82061698.250 8  78642449.055 9
R01  22156216.739 6                 118437716.692 6
R08  20893225.251 7  20893228.693 7 111882282.150 7  87019739.638 7
R14  21149319.853 8  21149323.987 7 112737762.903 8  87684805.242 7
R15  21125350.203 7  21125352.454 7 112887650.578 7  87801354.308 7
R17  22364738.930 5                 119678205.19415
R23  21450320.452 6                 114744743.890 6
R24  19396585.353 8  19396587.075 7 103722260.943 8  80672986.775 7
> 2025 06 15 08 50 45.0000000  0 29
C05  39154709.981 6  39154709.030 6 203888846.511 6 157659786.966 6
C08  38660182.917 5  38660181.987 6 201313733.03015 155668538.06316
C13  37735991.900 6  37735994.573 7 196501196.350 6 151947175.969 7
C19  25941783.768 6                 135085738.141 6
C20  23560077.679 8                 122683520.875 8
C29  21404799.235 8                 111460404.118 8
C32  24348077.116 5                 126786764.98115
C35  23250455.595 6                 121071230.600 6
C45  25422215.270 6                 132380138.086 6
C47  22513714.878 8                 117234821.147 8
E02  24339904.731 7  24339906.254 8 127907063.403 7  96760869.016 8
E10  24748328.340 8  24748330.173 9 130053336.234 8  98384510.590 9
E11  23436710.975 7  23436709.303 8 123160746.743 7  93170295.259 8
E16  26001460.064 6  26001462.481 8 136638568.637 6 103366199.706 8
E25  24573676.575 8  24573680.155 8 129135540.269 8  97690200.226 8
E36  24442974.129 8  24442977.709 9 128448701.876 8  97170622.062 9
G08  21897079.330 5                  21897084.322 6  21897080.117 7 115070118.992 5                  89664935.748 6  85928840.859 7
G10  21279271.397 8                  21279277.427 7  21279273.147 8 111823325.321 8                  87135090.646 7  83504448.720 8
G16  21553437.743 7  21553441.106 5                                 113264068.602 7  88257728.956 5                
G18  22711549.346 5                  22711550.901 6  22711553.026 7 119349969.15515                  92999985.274 6  89124995.731 7
G23  20877049.584 7                  20877052.674 8  20877054.344 8 109709630.498 7                  85488039.297 8  81926043.569 8
G27  20037864.775 8                  20037870.118 8  20037867.327 9 105299686.329 8                  82051729.961 8  78632896.097 9
R01  22144507.035 6                 118375117.102 6
R08  20890911.620 8  20890915.165 7 111869895.186 8  87010105.374 7
R14  21157484.526 8  21157489.159 7 112781283.704 8  87718654.685 7
R15  21122618.611 7  21122621.173 7 112873053.611 7  87790001.135 7
R17  22355483.422 5                 119628708.70715
R23  21458142.114 6                 114786585.509 6
R24  19394476.844 8  19394478.953 8 103710987.847 8  80664218.827 8
> 2025 06 15 08 51  0.0000000  0 29
C05  39154237.768 6  39154237.102 6 203886386.065 6 157657884.380 6
C08  38663153.488 5  38663147.656 6 201329176.268 5 155680479.739 6
C13  37737880.962 6  37737884.465 7 196511034.124 6 151954783.140 7
C19  25931354.725 6                 135031443.461 6
C20  23553748.064 8                 122650561.030 8
C26  24493076.060 5                 127541885.71815
C29  21406455.501 8                 111469030.479 8
C30  24688422.104 5                 128558980.56315
C35  23243628.346 7                 121035676.801 7
C45  25430775.526 6                 132424711.712 6
C47  22518629.384 8                 117260411.501 8
E02  24337951.774 7  24337953.796 8 127896802.678 7  96753106.872 8
E10  24753519.419 8  24753521.198 9 130080615.416 8  98405147.086 9
E11  23438466.345 7  23438464.165 8 123169968.401 7  93177271.383 8
E16  26009862.048 6  26009865.225 8 136682723.825 6 103399602.764 8
E25  24579832.249 8  24579835.756 8 129167888.393 8  97714671.328 8
E36  24437839.390 8  24437842.883 9 128421717.780 8  97150208.797 9
G08  21888890.032 5                  21888896.509 6  21888892.521 7 115027091.863 5                  89631408.213 6  85896710.300 7
G10  21273580.419 8                  21273585.556 7  21273581.816 8 111793416.033 8                  87111784.728 7  83482113.856 8
G16  21560735.255 7  21560738.405 5                                 113302416.260 7  88287610.207 5                
G18  22719411.980 5                  22719412.553 6  22719415.718 7 119391285.401 5                  93032179.760 6  89155848.783 7
G23  20879556.679 7                  20879560.256 8  20879561.480 8 109722805.744 7                  85498305.700 8  81935882.235 8
G27  20035452.812 8                  20035458.241 8  20035455.551 9 105287012.077 8                  82041853.916 8  78623431.555 9
R01  22132809.309 6                 118312590.900 6
R08  20888636.797 8  20888640.850 7 111857710.348 8  87000628.311 7
R14  21165675.175 8  21165679.683 7 112824944.100 8  87752612.706 7
R15  21119923.822 7  21119927.118 7 112858656.396 7  87778803.366 7
R23  21465972.554 6                 114828472.331 6
R24  19392387.278 8  19392389.026 7 103699811.781 8  80655526.325 7
> 2025 06 15 08 51 15.0000000  0 30
C05  39153765.820 6  39153764.599 6 203883927.655 6 157655983.380 6
C08  38666123.309 5  38666116.469 6 201344638.586 5 155692436.185 6
C13  37739774.099 6  37739778.019 7 196520895.363 6 151962408.483 7
C19  25920930.655 6                 134977158.562 6
C20  23547438.754 8                 122617706.511 8
C26  24495769.547 5                 127555931.669 5
C29  21408126.662 8                 111477731.838 8
C30  24696007.452 4                                
C35  23236808.474 7                 121000165.401 7
C45  25439340.798 6                 132469314.390 6
C47  22523554.277 8                 117286060.086 8
E02  24336019.832 7  24336021.626 8 127886648.942 7  96745425.661 8
E10  24758717.709 8  24758719.553 9 130107932.492 8  98425812.254 9
E11  23440232.282 7  23440230.685 8 123179251.543 7  93184294.004 8
E16  26018272.930 7  26018275.436 8 136726919.162 7 103433036.221 8
E25  24586002.598 8  24586006.374 8 129200314.859 8  97739201.693 8
E36  24432714.833 8  24432718.480 9 128394788.459 8  97129836.964 9
G10  21267912.152 8                  21267917.230 7  21267913.759 8 111763628.884 8                  87088573.914 7  83459870.203 8
G16  21568054.274 7  21568057.233 6                                 113340874.723 7  88317577.826 6                
G18  22727279.945 4                  22727282.003 6  22727285.092 7 119432644.891 4                  93064407.844 6  89186734.035 7
G23  20882090.463 7                  20882094.188 8  20882096.282 8 109736122.880 7                  85508682.687 8  81945826.856 8
G27  20033064.529 8                  20033069.770 8  20033067.112 8 105274460.582 8                  82032073.530 8  78614058.686 8
R01  22121127.014 6                 118250143.130 6
R07  22745438.632 4                 121758002.44314
R08  20886399.954 7  20886403.088 7 111845732.242 7  86991311.985 7
R14  21173892.119 8  21173897.640 8 112868748.112 8  87786682.419 8
R15  21117268.579 7  21117271.722 7 112844463.660 7  87767764.488 7
R17  22336998.416 5                 119529804.20815
R23  21473812.115 6                 114870407.944 6
R24  19390316.252 8  19390318.140 7 103688736.949 8  80646912.565 7
> 2025 06 15 08 51 30.0000000  0 27
C05  39153292.649 6  39153292.186 6 203881465.193 6 157654079.216 6
C08  38669094.470 6  38669088.155 6 201360113.741 6 155704402.531 6
C13  37741671.780 6  37741674.827 7 196530774.032 6 151970047.273 7
C19  25910504.329 5                 134922877.585 5
C20  23541148.930 8                 122584951.431 8
C26  24498481.947 5                 127570089.208 5
C29  21409810.957 8                 111486502.079 8
C35  23229994.864 6                 120964690.431 6
C45  25447911.872 6                 132513939.670 6
C47  22528490.016 8                 117311760.716 8
E02  24334106.600 7  24334108.685 8 127876596.196 7  96737820.829 8
E10  24763921.942 8  24763924.072 9 130135281.248 8  98446501.399 9
E11  23442009.532 7  23442007.701 8 123188589.902 7  93191358.417 8
E16  26026688.526 7  26026692.156 8 136771148.262 7 103466495.245 8
E25  24592187.101 8  24592190.549 8 129232813.374 8  97763786.575 8
E36  24427599.570 8  24427603.220 9 128367907.779 8  97109501.913 9
G10  21262266.357 8                  21262270.922 7  21262268.140 8 111733957.895 8                  87065453.707 7  83437713.313 8
G16  21575392.782 7  21575395.101 5                                 113379437.443 7  88347626.673 5                
G23  20884650.518 7                  20884654.286 8  20884655.781 8 109749575.607 7                  85519165.350 8  81955872.723 8
G27  20030698.160 8                  20030703.410 8  20030700.781 9 105262025.843 8                  82022384.095 8  78604773.002 9
R01  22109458.216 6                 118187767.805 6
R07  22753077.894 4                                
R08  20884200.445 8  20884203.894 8 111833954.474 8  86982151.505 8
R14  21182135.735 8  21182140.227 7 112912688.813 8  87820858.526 7
R15  21114649.175 7  21114652.071 7 112830468.949 7  87756879.787 7
R23  21481659.287 6                 114912386.235 6
R24  19388262.730 8  19388265.073 7 103677757.309 8  80638372.851 7
> 2025 06 15 08 51 45.0000000  0 27
C05  39152819.158 6  39152818.347 6 203878999.439 6 157652172.521 6
C08  38672069.616 6  38672063.158 6 201375602.404 6 155716379.337 6
C13  37743571.498 6  37743574.928 7 196540670.755 6 151977700.051 7
C19  25900083.848 5                 134868601.692 5
C20  23534877.801 8                 122552296.829 8
C26  24501221.113 5                 127584358.950 5
C29  21411508.458 8                 111495341.981 8
C30  24711204.852 4                 128677625.42414
C35  23223189.097 6                 120929252.729 6
C45  25456487.015 6                 132558588.051 6
C47  22533435.727 8                 117337514.087 8
E02  24332214.124 7  24332215.191 8 127866645.251 7  96730292.966 8
E10  24769132.313 8  24769134.798 8 130162662.344 8  98467215.002 8
E11  23443797.275 7  23443795.362 8 123197984.270 7  93198465.177 8
E16  26035111.480 7  26035115.355 8 136815411.841 7 103499980.271 8
E25  24598385.281 8  24598388.709 8 129265384.535 8  97788426.431 8
E36  24422494.091 8  24422497.370 9 128341076.497 8  97089204.238 9
G10  21256641.702 8                  21256647.522 8  21256644.124 8 111704403.993 8                  87042424.711 8  83415643.863 8
G16  21582750.495 8  21582752.600 5                                 113418105.157 8  88377757.343 5                
G23  20887236.007 7                  20887240.031 8  20887241.590 8 109763164.540 7                  85529754.118 8  81966020.298 8
G27  20028354.385 8                  20028359.677 8  20028357.193 9 105249708.689 8                  82012786.358 8  78595575.154 9
R01  22097804.082 7                 118125466.561 7
R08  20882038.999 8  20882041.595 7 111822378.312 8  86973147.821 7
R14  21190404.350 8  21190409.522 8 112956766.596 8  87855141.221 8
R15  21112067.230 7  21112070.222 7 112816673.441 7  87746149.932 7
R23  21489513.732 6                 114954407.945 6
R24  19386227.471 8  19386229.203 7 103666873.569 8  80629907.747 7
> 2025 06 15 08 52  0.0000000  0 28
C05  39152344.470 6  39152343.016 6 203876524.891 6 157650259.064 6
C08  38675045.899 6  38675038.370 6 201391098.942 6 155728362.238 6
C13  37745474.621 6  37745477.727 7 196550580.002 6 151985362.526 7
C19  25889659.094 5                 134814325.561 5
C20  23528625.083 8                 122519737.409 8
C26  24503987.076 6                 127598735.111 6
C29  21413218.222 8                 111504246.065 8
C32  24363829.272 5                 126868831.75815
C35  23216389.683 6                 120893846.881 6
C45  25465064.493 6                 132603253.677 6
C47  22538390.174 8                 117363314.697 8
E02  24330338.468 7  24330340.017 8 127856790.586 7  96722837.995 8
E10  24774347.352 8  24774350.277 8 130190070.102 8  98487948.774 8
E11  23445594.064 7  23445592.595 8 123207428.840 7  93205609.930 8
E16  26043540.409 7  26043544.080 8 136859703.986 7 103533486.957 8
E25  24604596.303 8  24604599.470 9 129298022.647 8  97813116.909 9
E36  24417395.960 8  24417399.836 9 128314289.088 8  97068939.749 9
G08                                  21856264.798 6  21856263.321 7                                  89497794.39216  85768659.933 7
G10  21251039.213 8                  21251044.929 8  21251041.266 8 111674961.851 8                  87019482.806 8  83393657.874 8
G16  21590127.263 7  21590129.781 5                                 113456871.606 7  88407964.961 5                
G23  20889846.391 7                  20889850.915 8  20889852.981 9 109776883.962 7                  85540444.550 8  81976265.289 9
G27  20026031.822 8                  20026037.319 8  20026034.181 9 105237503.784 8                  82003276.048 8  78586461.087 9
R01  22086161.587 7                 118063234.263 7
R08  20879913.948 8  20879916.657 7 111810998.049 8  86964296.488 7
R14  21198698.144 8  21198702.371 7 113000975.271 8  87889525.743 7
R15  21109521.990 7  21109525.462 7 112803071.658 7  87735570.747 7
R23  21497377.641 6                 114996467.201 6
R24  19384209.672 8  19384211.126 7 103656080.194 8  80621512.878 7
> 2025 06 15 08 52 15.0000000  0 29
C05  39151867.621 6  39151867.003 6 203874042.870 6 157648339.777 6
C08  38678023.016 6  38678015.786 6 201406604.660 6 155740352.226 6
C13  37747379.590 6  37747383.534 7 196560502.975 6 151993035.569 7
C19  25879237.714 5                 134760050.771 5
C20  23522391.060 8                 122487274.725 8
C26  24506765.402 5                 127613218.816 5
C29  21414940.847 8                 111513215.578 8
C32  24367054.617 6                 126885603.587 6
C35  23209597.083 6                 120858474.242 6
C45  25473643.683 6                 132647937.577 6
C47  22543354.220 8                 117389163.708 8
E02  24328481.426 7  24328483.346 8 127847033.653 7  96715456.957 8
E10  24779568.450 8  24779571.012 8 130217505.725 8  98508703.628 8
E11  23447401.396 7  23447399.641 8 123216924.954 7  93212793.662 8
E16  26051975.359 7  26051978.244 8 136904025.843 7 103567016.136 8
E25  24610820.492 8  24610823.241 9 129330728.806 8  97837858.859 9
E36  24412307.378 8  24412310.940 9 128287546.888 8  97048709.443 9
G08  21848124.640 5                  21848135.624 6  21848133.220 7 114812673.72515                  89464504.579 6  85736757.205 7
G10  21245458.015 8                  21245464.037 8  21245460.021 8 111645632.911 8                  86996629.092 8  83371756.420 8
G16  21597523.667 8  21597526.108 5                                 113495737.959 8  88438250.407 5                
G18  22758826.573 5                  22758832.586 6  22758834.186 7 119598454.41315                  93193597.021 6  89310540.286 7
G23  20892482.555 7                  20892486.323 8  20892487.926 8 109790735.006 7                  85551237.545 8  81986608.567 8
G27  20023730.935 8                  20023736.518 8  20023733.233 9 105225412.542 8                  81993854.304 8  78577431.920 9
R01  22074532.484 7                 118001072.630 7
R08  20877825.283 8  20877828.497 7 111799815.352 8  86955598.822 7
R14  21207015.936 8  21207019.722 7 113045315.405 8  87924012.502 7
R15  21107013.213 7  21107015.851 7 112789665.013 7  87725143.362 7
R23  21505248.671 7                 115038565.255 7
R24  19382208.017 8  19382209.973 7 103645378.490 8  80613189.342 7
> 2025 06 15 08 52 30.0000000  0 30
C05  39151389.012 5  39151388.438 6 203871552.538 5 157646414.085 6
C08  38681002.755 6  38680995.963 7 201422118.588 6 155752348.575 7
C13  37749287.008 6  37749291.841 7 196570438.814 6 152000718.589 7
C19  25868810.881 4                 134705776.78814
C20  23516175.555 8                 122454908.267 8
C26  24509568.765 4                 127627809.058 4
C29  21416676.046 8                 111522249.667 8
C32  24370296.355 6                 126902490.999 6
C35  23202811.155 7                 120823134.104 7
C45  25482228.780 6                 132692638.523 6
C47  22548327.485 8                 117415060.231 8
E02  24326643.607 7  24326644.751 8 127837373.673 7  96708149.266 8
E10  24784794.908 8  24784796.695 8 130244968.278 8  98529478.835 8
E11  23449218.391 7  23449216.327 8 123226471.565 7  93220015.621 8
E16  26060414.958 7  26060418.211 8 136948376.395 7 103600567.017 8
E25  24617056.427 8  24617059.952 8 129363501.945 8  97862651.504 8
E36  24407226.444 8  24407230.414 9 128260849.025 8  97028512.693 9
G08  21840008.773 6                  21840016.141 6  21840014.790 7 114770009.362 6                  89431259.627 6  85704897.640 7
G10  21239898.036 8                  21239904.191 8  21239900.229 8 111616416.462 8                  86973863.058 8  83349938.972 8
G16  21604938.741 7  21604941.772 5                                 113534702.998 7  88468612.760 5                
G18  22766731.237 5                  22766735.944 6  22766737.449 7 119639984.302 5                  93225957.809 6  89341552.732 7
G23  20895142.994 7                  20895147.185 8  20895148.800 8 109804716.612 7                  85562132.338 8  81997049.367 8
G27  20021451.495 8                  20021457.428 8  20021454.393 9 105213434.248 8                  81984520.563 8  78568487.085 9
R01  22062917.198 7                 117938981.604 7
R08  20875774.094 8  20875776.924 7 111788829.275 8  86947054.125 7
R14  21215358.920 8  21215363.142 7 113089786.125 8  87958600.768 7
R15  21104541.067 7  21104543.377 7 112776452.902 7  87714867.150 7
R17  22290881.023 5                 119282992.75315
R23  21513123.848 5                 115080701.214 5
R24  19380223.595 8  19380225.826 8 103634767.607 8  80604936.438 8
> 2025 06 15 08 52 45.0000000  0 29
C05  39150909.194 6  39150908.565 6 203869053.146 6 157644481.396 6
C08  38683983.305 6  38683977.232 7 201437640.026 6 155764350.677 7
C13  37751196.629 6  37751202.297 6 196580386.702 6 152008410.920 6
C20  23509978.111 8                 122422637.363 8
C29  21418422.566 8                 111531347.591 8
C30  24741638.475 5                 128836110.36015
C32  24373559.862 5                 126919492.868 5
C35  23196030.327 7                 120787825.897 7
C45  25490816.309 6                 132737355.515 6
C47  22553309.820 8                 117441003.541 8
E02  24324822.896 7  24324825.036 8 127827809.998 7  96700914.393 8
E10  24790025.881 8  24790027.503 8 130272456.856 8  98550273.761 8
E11  23451044.228 7  23451042.489 8 123236067.922 7  93227275.190 8
E16  26068858.979 7  26068863.032 8 136992754.627 7 103634138.807 8
E25  24623305.720 8  24623309.108 8 129396341.220 8  97887494.183 8
E36  24402154.213 8  24402158.400 9 128234194.726 8  97008348.910 9
G08  21831901.746 6                  21831908.113 6  21831906.426 7 114727402.214 6                  89398059.344 6  85673080.608 7
G10  21234360.214 8                  21234365.514 7  21234362.019 8 111587311.974 8                  86951184.254 7  83328205.110 8
G16  21612371.830 7  21612375.348 5                                 113573765.621 7  88499051.146 5                
G18  22774639.590 5                  22774643.801 6  22774645.922 7 119681546.05415                  93258342.649 6  89372588.290 7
G23  20897828.608 7                  20897832.523 8  20897833.987 8 109818827.883 7                  85573128.123 8  82007586.986 8
G27  20019193.888 8                  20019198.977 8  20019195.879 8 105201568.227 8                  81975274.310 8  78559626.093 8
R01  22051315.014 6                 117876960.860 6
R08  20873759.331 8  20873761.940 7 111778039.308 8  86938661.985 7
R14  21223725.564 8  21223729.878 7 113134385.754 8  87993289.296 7
R15  21102104.518 7  21102108.518 7 112763434.314 7  87704741.619 7
R17  22281672.412 5  22281706.680 5 119233712.938 5  92737336.84815
R23  21521007.803 6                 115122873.763 6
R24  19378256.181 8  19378257.744 7 103624247.003 8  80596753.729 7
> 2025 06 15 08 53  0.0000000  0 30
C05  39150428.609 5  39150427.141 6 203866547.320 5 157642543.719 6
C08  38686965.146 6  38686959.516 7 201453171.484 6 155776360.608 7
C13  37753110.561 6  37753115.644 7 196590349.139 6 152016114.547 7
C19  25847969.073 5                 134597234.15315
C20  23503799.915 8                 122390465.064 8
C26  24515231.576 5                 127657304.20215
C29  21420182.883 8                 111540511.988 8
C30  24749254.344 5                 128875773.84515
C32  24376856.460 4                 126936613.23314
C35  23189256.126 7                 120752552.318 7
C45  25499407.563 6                 132782090.922 6
C47  22558301.507 8                 117466996.238 8
E02  24323022.577 7  24323023.850 8 127818345.401 7  96693754.483 8
E10  24795262.249 8  24795263.848 8 130299974.074 8  98571090.361 8
E11  23452880.148 7  23452878.588 8 123245716.568 7  93234574.326 8
E16  26077309.943 7  26077313.662 8 137037163.179 7 103667733.505 8
E25  24629568.438 8  24629571.264 8 129429249.149 8  97912388.788 8
E36  24397091.156 8  24397095.099 9 128207586.788 8  96988220.201 9
G08  21823805.759 6                  21823811.748 5  21823809.273 7 114684855.301 6                  89364905.890 5  85641308.521 7
G10  21228843.196 8                  21228848.884 7  21228845.465 8 111558322.349 8                  86928594.961 7  83306557.028 8
G16  21619824.582 7  21619827.948 5                                 113612928.455 7  88529567.596 5                
G18  22782555.640 6                  22782558.031 6  22782561.882 7 119723140.086 6                  93290753.648 6  89403648.781 7
G23  20900539.159 7                  20900542.634 8  20900544.614 8 109833071.348 7                  85584226.920 8  82018223.334 8
G27  20016957.555 8                  20016962.756 8  20016959.559 8 105189817.327 8                  81966117.776 8  78550851.087 8
R01  22039726.365 6                 117815013.520 6
R08  20871781.053 8  20871782.783 7 111767448.231 8  86930424.460 7
R14  21232116.778 8  21232122.041 7 113179116.729 8  88028079.970 7
R15  21099704.691 7  21099708.070 7 112750612.242 7  87694768.950 7
R23  21528899.755 6                 115165086.075 6
R24  19376305.526 8  19376307.858 7 103613819.065 8  80588643.123 7
> 2025 06 15 08 53 15.0000000  0 28
C05  39149947.042 6  39149945.657 6 203864039.920 6 157640604.822 6
C08  38689950.174 6  38689945.436 7 201468717.711 6 155788381.911 7
C13  37755026.934 6  37755032.505 7 196600330.967 6 152023833.109 7
C19  25837550.985 5                 134542972.313 5
C20  23497641.073 8                 122358396.348 8
C26  24518098.596 6                 127672220.919 6
C29  21421956.528 8                 111549747.703 8
C35  23182489.457 7                 120717318.207 7
C45  25508002.784 6                 132826849.228 6
C47  22563303.543 8                 117493042.993 8
E02  24321241.639 7  24321242.427 9 127808984.784 7  96686673.238 9
E10  24800504.784 8  24800506.718 8 130327524.685 8  98591932.184 8
E11  23454726.976 7  23454725.543 8 123255422.289 7  93241916.649 8
E16  26085765.627 7  26085770.844 8 137081606.515 7 103701354.562 8
E25  24635844.455 8  24635847.334 8 129462230.374 8  97937338.836 8
E36  24392037.483 8  24392041.477 9 128181030.045 8  96968130.185 9
G08  21815721.898 6                  21815727.912 6  21815725.177 7 114642373.379 6                  89331803.167 6  85609585.067 7
G10  21223349.620 8                  21223355.248 7  21223351.621 8 111529452.552 8                  86906098.989 7  83284998.404 8
G16  21627296.585 7  21627300.194 5                                 113652195.864 7  88560165.511 5                
G18  22790478.622 5                  22790481.831 6  22790484.305 7 119764772.353 5                  93323194.272 6  89434737.703 7
G23  20903275.969 7                  20903279.035 8  20903281.144 8 109847451.657 7                  85595432.343 8  82028961.881 8
G27  20014744.085 8                  20014749.506 8  20014746.589 9 105178186.528 8                  81957054.820 8  78542165.752 9
R01  22028152.571 6                 117753145.501 6
R08  20869841.988 8  20869843.741 7 111757060.943 8  86922345.491 7
R14  21240534.102 8  21240538.902 7 113223983.304 8  88062976.188 7
R15  21097343.291 7  21097346.466 7 112737991.968 7  87684953.175 7
R23  21536799.209 6                 115207342.495 6
R24  19374374.472 8  19374375.729 7 103603489.297 8  80580608.842 7
> 2025 06 15 08 53 30.0000000  0 29
C05  39149465.178 6  39149464.506 6 203861531.661 6 157638665.257 6
C08  38692938.258 6  38692934.570 7 201484279.442 6 155800415.207 7
C13  37756948.530 6  37756953.028 7 196610332.988 6 152031567.328 7
C19  25827130.990 6                 134488719.988 6
C20  23491502.816 8                 122326432.309 8
C26  24520987.111 5                 127687251.268 5
C29  21423744.036 8                 111559055.480 8
C35  23175730.579 7                 120682124.460 7
C45  25516602.994 6                 132871630.822 6
C47  22568315.559 8                 117519144.598 8
E02  24319479.531 7  24319481.205 9 127799729.034 7  96679671.334 9
E10  24805754.349 8  24805755.910 8 130355109.319 8  98612799.789 8
E11  23456585.113 7  23456583.546 8 123265185.796 7  93249302.675 8
E16  26094230.725 7  26094234.860 8 137126085.322 7 103735002.412 8
E25  24642134.377 8  24642137.649 8 129495285.573 8  97962344.828 8
E36  24386994.301 8  24386997.572 9 128154525.277 8  96948079.516 9
G08  21807650.619 6                  21807656.706 6  21807653.459 7 114599957.744 6                  89298752.064 6  85577911.046 7
G10  21217878.455 8                  21217884.350 7  21217881.071 8 111500703.521 8                  86883697.152 7  83263529.994 8
G16  21634788.598 7  21634792.137 5                                 113691568.298 7  88590845.303 5                
G18  22798406.732 5                  22798411.752 6  22798414.668 8 119806443.148 5                  93355665.074 6  89465855.547 8
G23  20906038.664 7                  20906042.523 8  20906043.966 8 109861969.431 7                  85606744.845 8  82039803.081 8
G27  20012554.221 8                  20012559.227 8  20012556.521 9 105166676.744 8                  81948086.154 8  78533570.781 9
R01  22016594.004 6                 117691357.831 6
R08  20867940.668 8  20867942.773 7 111746878.830 8  86914426.106 7
R14  21248976.825 8  21248980.835 7 113268985.979 8  88097978.229 7
R15  21095019.705 7  21095022.616 7 112725574.342 7  87675294.995 7
R17  22254103.625 5                 119086053.84815
R23  21544707.329 6                 115249643.809 6
R24  19372461.374 8  19372462.927 8 103593258.017 8  80572651.144 8
> 2025 06 15 08 53 45.0000000  0 28
C05  39148983.172 6  39148982.227 6 203859023.640 6 157636725.897 6
C08  38695929.985 6  38695925.822 7 201499857.541 6 155812461.156 7
C13  37758874.629 6  37758877.830 7 196620355.979 6 152039317.738 7
C19  25816715.060 6                 134434478.372 6
C20  23485384.659 8                 122294574.108 8
C26  24523893.050 5                 127702395.948 5
C29  21425545.208 8                 111568436.322 8
C35  23168980.970 6                 120646972.229 6
C45  25525208.147 6                 132916436.572 6
C47  22573338.768 8                 117545301.973 8
E02  24317739.275 7  24317739.944 8 127790579.242 7  96672749.557 8
E10  24811009.887 8  24811011.867 8 130382728.921 8  98633693.825 8
E11  23458454.356 7  23458452.607 8 123275007.954 7  93256733.065 8
E16  26102701.234 6  26102705.910 8 137170600.363 6 103768677.668 8
E25  24648438.522 8  24648442.171 9 129528415.519 8  97987407.360 9
E36  24381960.604 8  24381963.904 9 128128073.476 8  96928068.917 9
G08  21799591.702 6                  21799598.170 6  21799595.122 7 114557609.569 6                  89265753.482 6  85546287.421 7
G10  21212431.145 8                  21212436.853 7  21212433.421 8 111472076.441 8                  86861390.342 7  83242152.643 8
G16  21642301.765 7  21642304.310 5                                 113731046.400 7  88621607.449 5                
G18  22806344.141 6                  22806350.834 7  22806351.473 7 119848153.651 6                  93388166.739 7  89497002.929 7
G23  20908827.389 7                  20908831.441 8  20908832.937 8 109876625.471 7                  85618165.127 8  82050747.510 8
G27  20010386.995 8                  20010392.059 8  20010389.341 9 105155289.127 8                  81939212.668 8  78525067.037 9
R01  22005049.858 6                 117629651.976 6
R08  20866076.879 8  20866078.895 7 111736902.636 8  86906666.797 7
R14  21257443.586 8  21257449.418 7 113314124.909 8  88133086.261 7
R15  21092733.553 7  21092736.880 7 112713360.430 7  87665795.327 7
R23  21552623.056 5                 115291991.036 5
R24  19370566.533 8  19370568.446 7 103583126.664 8  80564771.238 7
> 2025 06 15 08 54  0.0000000  0 31
C05  39148501.788 6  39148500.552 6 203856513.694 6 157634785.040 6
C08  38698924.187 6  38698919.542 6 201515449.946 6 155824518.205 6
C13  37760803.231 6  37760806.343 7 196630397.862 6 152047082.750 7
C19  25806295.562 5                 134380245.845 5
C20  23479286.468 7                 122262820.001 7
C26  24526830.165 6                 127717652.484 6
C29  21427360.663 8                 111577888.164 8
C32  24390253.853 5                 127006287.76115
C35  23162237.937 7                 120611859.610 7
C45  25533816.920 6                 132961264.063 6
C47  22578372.776 8                 117571513.011 8
E02  24316017.928 8  24316018.558 9 127781533.424 8  96665906.455 9
E10  24816271.936 7  24816274.116 8 130410381.299 7  98654612.658 8
E11  23460334.154 7  23460332.499 8 123284886.645 7  93264206.234 8
E16  26111178.830 6  26111183.284 8 137215149.446 6 103802378.651 8
E25  24654757.182 8  24654760.360 8 129561617.998 8  98012524.783 8
E36  24376936.481 8  24376939.969 9 128101672.639 8  96908096.859 9
G08  21791546.364 6                  21791552.711 6  21791548.649 7 114515327.009 6                  89232806.049 6  85514712.803 7
G10  21207006.586 8                  21207012.305 7  21207008.625 8 111443569.452 8                  86839177.116 7  83220864.975 8
G16  21649833.320 8  21649836.945 5                                 113770627.904 8  88652450.125 5                
G18  22814289.132 5                  22814294.235 6  22814295.939 7 119889901.413 5                  93420697.478 6  89528178.201 7
G23  20911642.359 7                  20911646.075 8  20911647.463 8 109891417.582 7                  85629691.445 8  82061793.542 8
G27  20008242.993 8                  20008248.065 8  20008245.401 9 105144021.709 8                  81930432.858 8  78516653.052 9
R01  21993522.542 6                 117568026.813 6
R07  22830954.904 5                 122215727.68815
R08  20864252.277 8  20864254.818 7 111727130.596 8  86899066.327 7
R14  21265937.250 7  21265941.723 7 113359398.084 7  88168298.733 7
R15  21090485.969 8  21090489.148 7 112701348.311 8  87656452.568 7
R17  22235720.285 5                                
R23  21560550.787 5                 115334382.295 5
R24  19368690.002 8  19368692.218 7 103573092.801 8  80556967.150 7
> 2025 06 15 08 54 15.0000000  0 30
C05  39447811.309 6  39447809.532 6 205415097.891 6 158839981.202 6
C08  39001712.374 6  39001707.780 6 203092151.402 6 157043723.771 6
C13  38062526.755 6  38062530.382 7 198201553.786 6 153262000.140 7
C19  26095677.250 5                 135887122.023 5
C20  23773001.073 8                 123792268.050 8
C26  24829568.393 5                 129294115.633 5
C29  21728981.154 8                 113148506.150 8
C32  24693427.095 5                 128585110.56315
C35  23455296.247 7                 122137884.743 7
C45  25842219.854 5                 134567205.700 5
C47  22883208.914 8                 119158871.728 8
E02  24614108.522 8  24614109.247 9 129348010.026 8  97850935.807 9
E10  25121331.902 7  25121334.227 9 132013482.278 7  99867348.128 9
E11  23762016.946 7  23762014.949 8 124870238.857 7  94463514.892 8
E16  26419454.310 6  26419458.328 7 138835147.083 6 105027896.226 7
E25  24960880.509 8  24960883.984 8 131170308.379 8  99229488.576 8
E36  24671714.633 8  24671718.181 9 129650742.243 8  98079957.977 9
G08  22083304.823 6                  22083311.434 7  22083307.848 8 116048530.896 6                  90427510.399 7  86659637.774 8
G10  21501397.036 8                  21501402.989 7  21501399.284 8 112990602.324 8                  88044657.305 7  84376116.820 8
G16  21957176.712 7  21957180.657 5                                 115385727.387 7  89910969.168 5                
G18  23122033.455 6                  23122036.963 6  23122039.021 7 121507101.435 6                  94680853.239 6  90735827.450 7
G23  21214275.062 7                  21214278.621 8  21214279.966 8 111481762.351 7                  86868921.100 8  83249388.613 8
G27  20305913.571 8                  20305918.935 8  20305916.508 9 106708293.122 8                  83149345.631 8  79684777.801 9
R01  22281801.338 6                 119109046.990 6
R07  23138681.565 5  23138684.402 5                  96338025.51515
R08  21162257.347 7  21162260.556 7 113322936.053 7  88140248.398 7
R14  21574246.764 8  21574251.197 7 115002861.701 8  89446548.116 7
R15  21388067.799 7  21388071.840 6 114291536.513 7  88893265.724 6
R17  22526334.443 4                                
R24  19666623.727 8  19666625.879 7 105166280.078 8  81796112.834 7
> 2025 06 15 08 54 30.0000000  0 30
C05  39447328.721 6  39447326.902 6 205412582.854 6 158838036.403 6
C08  39004712.698 6  39004706.856 6 203107770.726 6 157055801.599 6
C13  38064462.215 7  38064465.808 7 198211631.869 7 153269793.142 7
C19  26085267.742 6                 135832906.933 6
C20  23766944.216 8                 123760721.244 8
C26  24832546.585 5                 129309594.327 5
C29  21730823.219 8                 113158098.549 8
C32  24696850.959 5                 128602957.988 5
C35  23448567.248 7                 122102850.083 7
C45  25850836.509 5                 134612074.111 5
C47  22888262.339 8                 119185188.515 8
E02  24612426.580 8  24612427.372 9 129339170.868 8  97844249.057 9
E10  25126606.348 7  25126608.350 8 132041198.447 7  99888315.188 8
E11  23763917.929 7  23763915.911 8 124880228.836 7  94471072.228 8
E16  26427944.705 6  26427948.321 8 138879761.908 6 105061647.006 8
E25  24967225.838 8  24967229.458 8 131203653.880 8  99254714.222 8
E36  24666709.763 8  24666713.368 9 129624441.842 8  98060061.874 9
G08  22075283.249 6                  22075290.258 6  22075286.590 7 116006378.757 6                  90394664.639 6  86628160.604 7
G10  21496018.043 8                  21496024.004 8  21496019.832 8 112962334.458 8                  88022630.428 8  84355007.708 8
G16  21964747.946 7  21964751.386 5                                 115425513.050 7  89941970.934 5                
G18  23129988.858 6                  23129994.190 6  23129997.174 7 121548921.975 6                  94713440.656 6  90767057.044 7
G23  21217141.170 7                  21217144.936 8  21217145.736 8 111496824.504 7                  86880657.830 8  83260636.317 8
G27  20303815.264 8                  20303820.634 8  20303817.870 9 106697264.965 8                  83140752.289 8  79676542.512 9
R01  22270303.863 6                 119047582.935 6
R07                  23146647.230 5                  96371169.00215
R08  21160509.132 8  21160511.844 7 113313571.307 8  88132964.687 7
R14  21582789.967 8  21582793.942 7 115048399.364 8  89481966.244 7
R15  21385895.748 7  21385899.187 7 114279926.553 7  88884235.692 7
R17  22517164.898 6                 120494119.72216
R24  19664784.120 8  19664785.784 7 105156440.237 8  81788459.579 7
> 2025 06 15 08 54 45.0000000  0 31
C05  39446845.102 6  39446843.696 6 205410064.848 6 158836089.284 6
C08  39007714.681 6  39007709.523 6 203123403.206 6 157067889.644 6
C13  38066400.998 6  38066404.840 7 198221727.663 6 153277599.846 7
C19  26074860.176 6                 135778700.697 6
C20  23760904.511 8                 123729278.240 8
C26  24835534.504 4                 129325183.71714
C29  21732678.954 8                 113167760.872 8
C32  24700303.738 5                 128620924.986 5
C35  23441846.545 7                 122067854.191 7
C45  25859458.666 5                 134656962.226 5
C47  22893326.330 8                 119211557.800 8
E02  24610763.621 8  24610765.086 9 129330434.917 8  97837640.340 9
E10  25131886.526 8  25131888.470 8 132068946.016 8  99909306.027 8
E11  23765829.163 7  23765827.449 8 124890274.043 7  94478671.354 8
E16  26436441.945 6  26436444.539 8 138924409.047 6 105095422.253 8
E25  24973584.742 8  24973588.496 8 131237070.396 8  99279993.566 8
E36  24661714.501 8  24661718.063 9 129598191.355 8  98040203.569 9
G08  22067274.374 6                  22067281.879 6  22067277.634 7 115964292.039 6                  90361869.746 6  86596732.170 7
G10  21490661.989 8                  21490667.200 8  21490662.901 8 112934186.153 8                  88000696.685 8  84333987.860 8
G16  21972338.140 7  21972341.639 5                                 115465400.037 7  89973051.652 5                
G18  23137955.200 5                  23137959.581 6  23137961.216 7 121590778.283 5                  94746056.034 6  90798313.397 7
G23  21220033.162 7                  21220036.406 8  21220038.085 8 111512021.165 7                  86892499.354 8  83271984.463 8
G27  20301739.430 8                  20301744.522 8  20301742.076 9 106686356.345 8                  83132252.109 8  79668396.493 9
R01  22258820.615 7                 118986199.979 7
R07  23154633.655 5  23154632.521 5 123948602.94515  96404421.430 5
R08  21158797.977 8  21158801.221 8 113304409.737 8  88125838.994 8
R14  21591357.421 8  21591361.451 7 115094068.468 8  89517486.626 7
R15  21383760.792 7  21383763.244 7 114268517.665 7  88875362.160 7
R17  22508004.047 5  22508012.650 5 120445086.28615  93679535.00815
R23  21884164.000 6                 117065503.46416
R24  19662962.198 8  19662964.107 7 105146697.018 8  81780881.527 7
> 2025 06 15 08 55  0.0000000  0 29
C05  39446361.275 6  39446360.048 6 205407546.085 6 158834141.614 6
C08  39010719.949 6  39010715.134 6 203139050.715 6 157079989.257 6
C13  38068343.214 6  38068347.216 7 198231843.244 6 153285421.837 7
C19  26064449.984 6                 135724505.808 6
C20  23754886.330 8                 123697941.332 8
C29  21734548.477 8                 113177495.235 8
C32  24703781.975 5                 128639013.360 5
C35  23435133.120 6                 122032899.329 6
C45  25868082.492 5                 134701872.044 5
C47  22898400.550 8                 119237981.650 8
E02  24609121.170 7  24609122.828 9 129321804.312 7  97831111.366 9
E10  25137172.784 8  25137175.063 8 132096727.045 8  99930322.192 8
E11  23767751.655 7  23767749.985 8 124900376.521 7  94486313.803 8
E16  26444945.261 7  26444947.236 8 138969090.453 7 105129223.377 8
E25  24979957.158 8  24979961.364 8 131270559.844 8  99305328.084 8
E36  24656728.936 8  24656732.689 9 129571992.940 8  98020384.648 9
G08  22059278.848 6                  22059284.715 6  22059281.745 7 115922272.967 6                  90329127.654 6  86565354.275 7
G10  21485328.417 8                  21485334.347 8  21485329.852 8 112906159.600 8                  87978857.847 8  84313058.970 8
G16  21979947.758 7  21979951.216 5                                 115505390.041 7  90004212.654 5                
G18  23145928.390 5                  23145932.615 6  23145934.370 7 121632672.507 5                  94778700.820 6  90829598.023 7
G23  21222950.838 7                  21222954.045 8  21222955.813 8 111527354.187 7                  86904447.204 8  83283434.467 8
G27  20299687.074 8                  20299691.771 8  20299688.889 8 106675569.541 8                  83123846.789 8  79660341.402 8
R01  22247353.431 7                 118924900.973 7
R07  23162648.137 5  23162645.031 5 123991497.649 5  96437783.899 5
R08  21157125.067 8  21157127.865 7 113295453.724 8  88118873.235 7
R14  21599949.661 8  21599953.609 7 115139870.483 8  89553110.433 7
R15  21381663.291 7  21381667.050 7 114257312.259 7  88866646.826 7
R23  21892120.306 7                 117108066.506 7
R24  19661158.692 8  19661160.878 7 105137052.903 8  81773380.532 7
> 2025 06 15 08 55 15.0000000  0 30
C05  39445875.696 6  39445874.419 6 205405018.526 6 158832187.134 6
C08  39013726.479 6  39013722.310 6 203154705.324 6 157092094.385 6
C13  38070287.928 6  38070291.554 7 198241970.530 6 153293252.896 7
C19  26054043.609 6                 135670314.394 6
C20  23748887.463 8                 123666702.724 8
C29  21736430.073 8                 113187293.651 8
C32  24707274.077 5                 128657215.229 5
C35  23428426.176 6                 121997977.561 6
C45  25876709.144 6                 134746795.074 6
C47  22903484.104 8                 119264451.916 8
E02  24607497.663 8  24607499.058 9 129313271.043 8  97824656.014 9
E10  25142463.940 8  25142466.457 8 132124533.283 8  99951357.416 8
E11  23769683.365 7  23769681.725 8 124910528.013 7  94493993.335 8
E16  26453451.750 7  26453455.178 8 139013797.774 7 105163044.146 8
E25  24986342.217 7  24986346.457 8 131304113.884 7  99330711.478 8
E36  24651752.229 8  24651755.730 9 129545838.481 8  98000598.995 9
G08  22051294.259 6                  22051300.277 6  22051297.168 7 115880313.673 6                  90296432.076 6  86534021.083 7
G10  21480016.599 8                  21480022.245 8  21480018.516 8 112878246.958 8                  87957107.724 8  84292215.106 8
G16  21987575.840 8  21987578.890 5                                 115545474.729 8  90035447.440 5                
G18  23153906.545 6                  23153909.703 6  23153911.862 7 121674596.313 6                  94811368.639 6  90860904.673 7
G23  21225892.579 8                  21225896.339 8  21225898.082 8 111542815.357 8                  86916494.862 8  83294980.136 8
G27  20297655.617 8                  20297661.018 8  20297657.758 9 106664896.500 8                  83115530.138 8  79652371.270 9
R01  22235900.228 6                 118863678.208 6
R07                  23170687.077 5                  96471249.924 5
R08  21155489.601 8  21155492.395 7 113286695.583 8  88112061.333 7
R14  21608565.426 8  21608569.037 7 115185796.649 8  89588830.746 7
R15  21379603.152 7  21379605.873 7 114246301.999 7  88858083.262 7
R17  22489686.889 5                 120347093.81315
R23  21900082.941 6                 117150665.459 6
R24  19659371.766 8  19659373.889 7 105127499.370 8  81765950.039 7
> 2025 06 15 08 55 30.0000000  0 31
C05  39445389.012 6  39445386.914 6 205402481.670 6 158830225.474 6
C08  39016733.825 6  39016729.485 6 203170366.221 6 157104204.384 6
C13  38072234.497 6  38072238.976 7 198252108.902 6 153301092.500 7
C19  26043637.122 6                 135616126.308 6
C20  23742907.369 8                 123635562.154 8
C29  21738324.034 8                 113197155.552 8
C30  25125490.436 5                 130834816.66015
C32  24710795.161 5                 128675529.608 5
C35  23421727.629 6                 121963088.413 6
C45  25885338.060 5                 134791730.503 5
C47  22908576.117 8                 119290968.054 8
E02  24605892.635 8  24605893.659 9 129304834.672 8  97818273.972 9
E10  25147760.507 8  25147762.420 8 132152364.142 8  99972411.270 8
E11  23771624.317 7  23771622.740 8 124920727.944 7  94501709.521 8
E16  26461964.636 7  26461967.871 8 139058530.338 7 105196883.953 8
E25  24992740.077 7  24992743.723 8 131337731.909 7  99356143.261 8
E36  24646784.155 8  24646787.008 9 129519727.505 8  97980846.213 9
G08  22043321.525 6                  22043327.757 6  22043324.140 7 115838413.918 6                  90263782.935 6  86502732.349 7
G10  21474726.598 8                  21474732.195 8  21474728.557 8 112850447.774 8                  87935446.046 8  84271456.015 8
G16  21995221.366 7  21995224.312 5                                 115585653.270 7  90066755.348 5                
G18  23161888.842 6                  23161892.835 6  23161894.537 7 121716548.987 6                  94844058.965 6  90892232.918 7
G23  21228858.785 7                  21228862.833 8  21228864.570 8 111558403.940 7                  86928641.808 8  83306620.935 8
G27  20295646.120 8                  20295651.583 8  20295648.466 8 106654336.850 8                  83107301.837 8  79644485.821 8
R01  22224462.032 7                 118802531.574 7
R07                  23178748.341 4                
R08  21153890.951 7  21153893.824 7 113278134.301 7  88105402.591 7
R14  21617204.367 8  21617208.082 7 115231846.070 8  89624646.940 7
R15  21377579.021 7  21377581.740 7 114235486.452 7  88849671.191 7
R17  22480539.306 5                 120298142.079 5
R23  21908051.907 6                 117193299.570 6
R24  19657602.626 8  19657603.820 7 105118036.143 8  81758589.753 7
> 2025 06 15 08 55 45.0000000  0 30
C05  39444900.524 6  39444898.349 6 205399938.027 6 158828258.569 6
C08  39019743.176 6  39019738.971 6 203186036.089 6 157116321.269 6
C13  38074184.296 6  38074188.529 7 198262260.838 6 153308942.605 7
C19  26033232.779 6                 135561944.421 6
C20  23736946.481 8                 123604522.409 8
C29  21740231.439 8                 113207083.520 8
C32  24714333.900 6                 128693958.866 6
C35  23415034.507 7                 121928234.716 7
C45  25893971.308 5                 134836680.642 5
C47  22913677.787 8                 119317532.650 8
E02  24604305.682 8  24604307.186 9 129296497.930 8  97811967.261 9
E10  25153061.246 8  25153063.559 8 132180222.136 8  99993485.634 8
E11  23773575.019 7  23773573.485 8 124930978.872 7  94509464.265 8
E16  26470482.815 7  26470485.600 8 139103290.469 7 105230744.650 8
E25  24999149.599 7  24999153.768 8 131371416.347 7  99381625.259 8
E36  24641823.466 8  24641827.033 9 129493662.604 8  97961128.297 9
G08  22035359.492 6                  22035366.559 7  22035362.716 7 115796576.522 6                  90231182.357 7  86471490.163 7
G10  21469458.442 8                  21469464.217 8  21469460.540 8 112822764.864 8                  87913874.974 8  84250783.738 8
G16  22002885.300 7  22002888.029 5                                 115625927.967 7  90098138.205 5                
G18  23169876.391 5                  23169882.219 6  23169884.111 7 121758532.992 5                  94876773.678 6  90923584.529 7
G23  21231850.236 7                  21231854.186 8  21231855.905 8 111574122.359 7                  86940889.908 8  83318358.715 8
G27  20293658.935 8                  20293664.424 8  20293661.413 8 106643893.386 8                  83099164.052 8  79636687.098 8
R01  22213037.858 7                 118741464.278 7
R07  23186839.583 5                 124120828.94315
R08  21152329.942 8  21152332.524 8 113269772.866 8  88098899.276 8
R14  21625866.329 8  21625871.056 7 115278020.614 8  89660560.395 7
R15  21375592.248 7  21375594.890 7 114224868.362 7  88841412.683 7
R17  22471395.404 6                 120249217.354 6
R23  21916028.922 5                 117235971.471 5
R24  19655849.886 8  19655851.124 7 105108665.709 8  81751301.626 7
> 2025 06 15 08 56  0.0000000  0 30
C05  39444412.112 6  39444409.005 6 205397391.072 6 158826289.099 6
C08  39022754.781 6  39022750.405 6 203201718.229 6 157128447.661 6
C13  38076136.673 6  38076140.944 7 198272429.654 6 153316805.777 7
C19  26022829.034 6                 135507772.360 6
C20  23731005.622 8                 123573587.122 8
C29  21742149.835 8                 113217080.961 8
C32  24717892.304 5                 128712506.347 5
C35  23408350.477 7                 121893419.903 7
C45  25902604.735 5                 134881648.510 5
C47  22918789.499 8                 119344148.964 8
E02  24602738.995 8  24602740.302 9 129288264.236 8  97805738.518 9
E10  25158368.103 8  25158370.355 8 132208110.553 8 100014583.018 8
E11  23775535.830 7  23775534.534 8 124941284.068 7  94517260.094 8
E16  26479006.159 7  26479009.115 8 139148081.438 7 105264628.661 8
E25  25005573.299 7  25005577.032 8 131405170.409 7  99407159.962 8
E36  24636872.789 8  24636876.437 9 129467647.198 8  97941447.819 9
G08  22027411.138 6                  22027417.379 7  22027413.517 8 115754805.177 6                  90198633.268 7  86440297.272 8
G10  21464213.453 8                  21464219.178 7  21464215.896 8 112795201.849 8                  87892397.319 7  84230200.972 8
G16  22010568.192 7  22010570.961 5                                 115666301.959 7  90129598.401 5                
G18  23177875.214 5                  23177880.220 6  23177880.331 7 121800551.491 5                  94909515.390 6  90954961.971 7
G23  21234866.597 7                  21234870.581 8  21234872.312 8 111589973.852 7                  86953241.700 8  83330195.837 8
G27  20291694.311 8                  20291699.912 8  20291697.276 9 106633569.546 8                  83091119.512 8  79628977.744 9
R01  22201629.374 7                 118680480.520 7
R07  23194951.605 5  23194948.455 5 124164260.220 5  96572341.99215
R08  21150805.797 7  21150809.024 7 113261614.943 7  88092554.248 7
R14  21634552.693 8  21634557.844 7 115324323.613 8  89696573.785 7
R15  21373642.219 7  21373645.515 7 114214451.504 7  88833310.771 7
R17  22462257.927 4                                
R23  21924012.503 5                 117278684.558 5
R24  19654115.548 8  19654117.492 7 105099391.762 8  81744088.564 7
> 2025 06 15 08 56 15.0000000  0 28
C05  39443922.036 6  39443919.090 6 205394839.118 6 158824315.751 6
C08  39025767.969 6  39025764.110 6 203217410.925 6 157140582.196 6
C13  38078091.922 6  38078096.815 7 198282613.750 6 153324680.756 7
C19  26012427.483 6                 135453608.878 6
C20  23725084.410 8                 123542754.913 8
C29  21744083.351 8                 113227146.235 8
C32  24721478.718 4                 128731170.398 4
C35  23401668.868 7                 121858642.430 7
C45  25911244.671 5                 134926632.174 5
C47  22923910.075 8                 119370815.389 8
E02  24601191.299 8  24601192.731 9 129280132.065 8  97799586.586 9
E10  25163680.518 8  25163682.744 8 132236027.688 8 100035702.107 8
E11  23777506.941 7  23777505.541 8 124951641.880 7  94525095.701 8
E16  26487535.942 7  26487538.007 8 139192901.397 7 105298534.607 8
E25  25012009.144 7  25012013.123 8 131438992.320 7  99432745.967 8
E36  24631931.458 8  24631934.836 9 129441679.712 8  97921803.600 9
G08  22019474.602 6                  22019480.728 7  22019476.517 7 115713098.520 6                  90166134.552 7  86409152.678 7
G10  21458991.061 8                  21458996.394 7  21458993.287 8 112767757.215 8                  87871011.916 7  84209706.608 8
G16  22018270.087 7  22018272.993 5                                 115706773.229 7  90161134.438 5                
G23  21237908.013 7                  21237911.957 8  21237913.712 8 111605956.600 7                  86965695.788 8  83342131.007 8
G27  20289751.983 8                  20289757.767 8  20289755.061 9 106623363.858 8                  83083167.038 8  79621356.627 9
R01  22190236.618 7                 118619579.416 7
R08  21149320.944 7  21149323.666 7 113253658.939 7  88086366.190 7
R14  21643262.257 8  21643267.857 8 115370752.365 8  89732685.017 8
R15  21371730.215 6  21371734.003 7 114204234.206 6  88825363.854 7
R17  22453125.690 5                 120151190.30015
R23  21932005.294 7                 117321437.005 7
R24  19652398.708 8  19652400.519 7 105090212.505 8  81736949.145 7
> 2025 06 15 08 56 30.0000000  0 29
C05  39443431.096 6  39443428.348 6 205392284.375 6 158822340.238 6
C08  39028784.408 6  39028780.184 6 203233116.242 6 157152726.550 6
C13  38080051.703 7  38080055.295 7 198292815.024 7 153332569.038 7
C19  26002025.811 6                 135399456.355 6
C20  23719183.732 8                 123512028.127 8
C26  24857066.955 5                 129437297.65015
C29  21746029.912 8                 113237281.393 8
C35  23394998.563 7                 121823904.493 7
C45  25919893.897 6                 134971633.453 6
C47  22929040.964 8                 119397533.921 8
E02  24599662.995 8  24599664.864 9 129272103.604 8  97793513.104 9
E10  25168999.635 8  25169001.128 8 132263975.483 8 100056844.440 8
E11  23779488.499 7  23779486.904 8 124962054.254 7  94532972.595 8
E16  26496068.518 6  26496072.483 7 139237752.293 6 105332463.932 7
E25  25018459.111 8  25018462.410 8 131472883.963 8  99458384.745 8
E36  24626999.546 8  24627002.895 9 129415762.215 8  97902197.192 9
G02  24271328.166 5                                                 127546609.25915                                
G08  22011550.508 6                  22011556.378 7  22011553.171 8 115671458.766 6                  90133688.062 7  86378058.113 8
G10  21453791.661 8                  21453796.765 7  21453793.344 8 112740433.197 8                  87849720.466 7  84189302.357 8
G16  22025990.268 7  22025993.894 5                                 115747343.504 7  90192747.613 5                
G18  23193885.723 5                  23193892.431 6  23193889.161 7 121884682.80915                  94975076.991 6  91017791.786 7
G23  21240974.940 7                  21240978.654 8  21240980.766 8 111622072.550 7                  86978253.653 8  83354165.618 8
G27  20287832.829 8                  20287838.425 8  20287835.647 9 106613278.550 8                  83075308.391 8  79613825.417 9
R01  22178859.312 7                 118558763.201 7
R08  21147873.504 8  21147876.191 8 113245906.917 8  88080336.858 8
R14  21651996.545 8  21652001.808 7 115417308.787 8  89768895.499 7
R15  21369856.381 7  21369858.885 7 114194218.629 7  88817573.979 7
R23  21940005.473 7                 117364230.981 7
R24  19650700.411 8  19650702.306 7 105081130.323 8  81729885.217 7
> 2025 06 15 08 56 45.0000000  0 31
C05  39442941.224 6  39442938.786 6 205389733.891 6 158820368.035 6
C08  39031804.377 6  39031800.173 6 203248841.198 6 157164886.007 6
C13  38082015.621 6  38082019.417 7 198303040.764 6 153340476.235 7
C19  25991631.565 6                 135345322.207 6
C20  23713304.645 8                 123481414.183 8
C26  24860228.327 4                 129453755.147 4
C29  21747990.862 8                 113247493.670 8
C32  24728723.140 5                 128768860.76815
C35  23388336.270 6                 121789213.327 6
C45  25928538.700 5                 135016659.379 5
C47  22934183.545 8                 119424311.715 8
E02  24598156.957 8  24598158.073 9 129264186.204 8  97787523.628 9
E10  25174325.131 8  25174326.645 8 132291961.154 8 100078015.407 8
E11  23781481.840 7  23781480.057 8 124972528.391 7  94540896.208 8
E16  26504609.246 6  26504614.343 7 139282641.098 6 105366421.929 7
E25  25024923.081 8  25024926.540 8 131506852.437 8  99484081.660 8
E36  24622078.209 8  24622081.758 9 129389902.016 8  97882634.139 9
G08  22003641.082 6                  22003646.711 7  22003643.828 8 115629893.589 6                  90101299.617 7  86347019.170 8
G10  21448616.680 8                  21448621.510 7  21448618.211 8 112713237.302 8                  87828528.853 7  84168993.749 8
G16  22033730.758 7  22033735.244 5                                 115788019.766 7  90224443.374 5                
G18  23201902.227 5                  23201905.758 5  23201906.936 6 121926810.728 5                  95007903.917 5  91049250.966 6
G23  21244068.279 7                  21244072.031 8  21244074.571 8 111638328.733 7                  86990920.774 8  83366304.963 8
G27  20285938.016 8                  20285943.453 8  20285940.706 8 106603321.035 8                  83067549.276 8  79606389.598 8
R01  22167499.757 7                 118498039.993 7
R07  23219444.027 5                 124295368.27515
R08  21146464.590 7  21146468.088 7 113238366.602 7  88074472.190 7
R14  21660755.798 8  21660760.392 7 115463999.953 8  89805210.827 7
R15  21368020.221 7  21368023.651 7 114184412.338 7  88809946.884 7
R17  22434895.734 5  22434892.333 5 120053560.69915  93375094.72115
R23  21948014.378 7                 117407073.596 7
R24  19649021.370 8  19649023.394 7 105072152.570 8  81722902.507 7
> 2025 06 15 08 57  0.0000000  0 29
C05  39442452.333 6  39442449.136 6 205387184.648 6 158818396.795 6
C08  39034827.348 6  39034823.531 6 203264582.762 6 157177058.308 6
C13  38083983.847 6  38083987.246 7 198313287.796 6 153348399.897 7
C19  25981237.827 6                 135291203.720 6
C20  23707447.038 8                 123450910.214 8
C26  24863413.620 5                 129470325.736 5
C29  21749966.431 8                 113257779.962 8
C35  23381682.618 6                 121754566.094 6
C45  25937196.474 5                                
C47  22939336.787 8                 119451145.632 8
E02  24596670.847 8  24596672.021 9 129256376.807 8  97781615.854 9
E10  25179656.976 8  25179658.873 8 132319981.462 8 100099212.559 8
E11  23783486.005 7  23783484.344 8 124983061.083 7  94548864.112 8
E16  26513160.452 6  26513162.744 7 139327564.606 6 105400406.172 7
E25  25031400.735 8  25031404.653 8 131540894.464 8  99509834.221 8
E36  24617167.693 8  24617171.028 9 129364096.016 8  97863112.083 9
G08  21995745.090 6                  21995751.235 7  21995748.777 8 115588400.077 6                  90068967.011 7  86316033.769 8
G10  21443465.080 8                  21443470.366 8  21443466.831 8 112686166.485 8                  87807434.722 8  84148778.535 8
G16  22041490.711 8  22041495.011 6                                 115828798.554 8  90256219.025 6                
G18  23209926.296 6                                  23209932.801 6 121968977.286 6                                  91080738.823 6
G23  21247188.044 7                  21247191.474 8  21247193.758 8 111654721.852 7                  87003694.625 8  83378546.552 8
G27  20284067.187 8                  20284072.360 8  20284069.633 9 106593488.286 8                  83059887.397 8  79599046.953 9
R01  22156157.628 7                 118437407.311 7
R08  21145095.546 7  21145098.525 7 113231034.845 7  88068769.701 7
R14  21669539.299 8  21669544.349 7 115510821.623 8  89841627.629 7
R15  21366224.900 6  21366227.472 7 114174812.218 6  88802480.127 7
R17  22425780.439 4  22425787.310 4 120004801.600 4  93337171.035 4
R23  21956032.379 7                 117449961.697 7
R24  19647361.715 8  19647363.689 7 105063275.978 8  81715998.511 7
> 2025 06 15 08 57 15.0000000  0 28
C05  39441963.095 6  39441960.395 6 205384639.742 6 158816428.900 6
C08  39037854.864 6  39037850.089 6 203280343.848 6 157189245.757 6
C13  38085955.517 6  38085959.752 7 198323559.111 6 153356342.330 7
C19  25970849.863 7                 135237104.110 7
C20  23701610.473 8                 123420519.479 8
C26  24866614.465 5                 129487012.372 5
C29  21751956.542 8                 113268143.277 8
C35  23375038.679 7                 121719965.740 7
C47  22944501.430 8                 119478038.712 8
E02  24595205.875 8  24595207.306 9 129248678.530 8  97775792.154 9
E10  25184996.591 8  25184998.186 8 132348039.356 8 100120438.184 8
E11  23785502.113 7  23785500.334 8 124993655.272 7  94556878.544 8
E16  26521715.124 6  26521718.246 7 139372525.501 6 105434418.775 7
E25  25037892.690 8  25037897.395 8 131575012.955 8  99535644.603 8
E36  24612268.367 8  24612271.109 9 129338347.255 8  97843633.315 9
G08  21987863.050 7                  21987869.437 7  21987866.096 8 115546981.445 7                  90036692.783 7  86285104.329 8
G10  21438338.228 8                  21438343.016 7  21438339.681 8 112659223.997 8                  87786440.555 7  84128659.172 8
G16  22049271.123 7  22049274.764 5                                 115869682.554 7  90288076.646 5                
G18  23217955.492 5                                  23217965.517 6 122011185.285 5                                  91112257.708 6
G23  21250333.673 7                  21250337.847 8  21250339.407 8 111671254.750 7                  87016577.410 8  83390892.530 8
G27  20282220.284 8                  20282225.731 8  20282222.816 9 106583783.443 8                  83052325.187 8  79591799.828 9
R01  22144832.213 7                 118376868.646 7
R08  21143766.578 8  21143768.394 7 113223914.892 8  88063231.930 7
R14  21678347.814 8  21678353.613 8 115557776.799 8  89878148.251 8
R15  21364466.837 6  21364469.666 7 114165421.542 6  88795176.298 7
R17  22416671.804 5  22416683.473 5 119956081.108 5  93299275.76415
R23  21964058.519 6                 117492898.180 6
R24  19645721.493 8  19645723.223 7 105054503.637 8  81709175.571 7
> 2025 06 15 08 57 30.0000000  0 26
C05  39441474.058 6  39441471.092 6 205382092.546 6 158814459.244 6
C08  39040884.028 6  39040879.504 5 203296117.784 6 157201443.138 5
C13  38087932.045 6  38087935.340 7 198333848.120 6 153364298.433 7
C19  25960461.904 6                 135183017.303 6
C20  23695794.880 8                 123390235.672 8
C29  21753959.839 8                 113278577.123 8
C35  23368402.858 7                 121685406.032 7
C47  22949676.432 8                 119504984.274 8
E02  24593761.070 8  24593762.378 9 129241084.879 8  97770047.616 9
E10  25190341.572 8  25190343.234 8 132376128.201 8 100141687.168 8
E11  23787528.327 7  23787526.804 8 125004304.372 7  94564934.510 8
E16  26530277.278 6  26530280.115 7 139417517.172 6 105468454.574 7
E25  25044398.753 8  25044403.194 8 131609201.108 8  99561507.692 8
E36  24607378.280 8  24607380.999 9 129312649.181 8  97824192.892 9
G08  21979994.356 7                  21980000.931 7  21979996.713 8 115505631.422 7                  90004471.988 7  86254226.061 8
G10  21433234.291 8                  21433239.471 7  21433235.673 8 112632403.409 8                  87765541.430 7  84108630.806 8
G16  22057070.050 7  22057072.967 5                                 115910664.920 7  90320010.902 5                
G18  23225994.439 5                  23225998.591 5  23226003.775 6 122053427.937 5                  95106593.50415  91143802.540 6
G23  21253505.746 7                  21253509.112 8  21253510.568 8 111687920.694 7                  87029563.850 8  83403337.857 8
G27  20280396.666 8                  20280402.485 8  20280399.449 9 106574200.103 8                  83044857.635 8  79584643.441 9
R01  22133523.259 6                 118316417.854 6
R08  21142474.246 7  21142477.326 7 113217000.077 7  88057853.734 7
R14  21687180.029 7  21687186.118 8 115604858.182 7  89914767.013 8
R15  21362748.443 6  21362750.733 6 114156233.625 6  88788030.044 6
R23  21972092.538 5                 117535876.313 5
R24  19644099.108 8  19644101.215 7 105045829.185 8  81702428.751 7
> 2025 06 15 08 57 45.0000000  0 30
C05  39440984.641 6  39440981.495 6 205379541.137 6 158812486.299 6
C08  39043914.431 6  39043910.203 5 203311902.607 6 157213648.930 5
C13  38089909.887 6  38089914.512 7 198344152.755 6 153372266.605 7
C19  25950077.874 6                 135128941.519 6
C20  23689999.462 8                 123360057.084 8
C26  24873095.734 5                 129520706.14515
C29  21755976.898 8                 113289079.461 8
C32  24743494.609 5                 128845695.75415
C35  23361772.529 6                 121650884.970 6
C45  25963195.643 4                                
C47  22954860.853 8                 119531980.304 8
E02  24592335.832 8  24592336.876 9 129233593.893 8  97764380.735 9
E10  25195692.462 8  25195694.018 8 132404245.802 8 100162957.934 8
E11  23789564.674 7  23789563.329 8 125015006.185 7  94573030.354 8
E16  26538845.032 6  26538847.142 7 139462537.290 6 105502511.937 7
E25  25050917.318 8  25050921.884 8 131643456.768 8  99587421.814 8
E36  24602497.310 8  24602500.068 9 129286999.755 8  97804789.300 9
G08  21972138.476 6                  21972145.021 7  21972140.933 8 115464348.251 6                  89972303.287 7  86223397.710 8
G10  21428153.830 8                  21428158.661 7  21428155.167 8 112605702.858 8                  87744735.817 7  84088692.091 8
G16  22064886.703 7  22064889.211 5                                 115951743.309 7  90352020.024 5                
G18  23234042.220 6                  23234048.487 6  23234049.538 6 122095703.302 6                  95139535.368 6  91175371.797 6
G23  21256701.985 7                  21256705.275 8  21256706.554 8 111704717.456 7                  87042652.212 8  83415880.883 8
G27  20278596.436 8                  20278601.234 8  20278598.671 9 106564736.337 8                  83037483.252 8  79577576.343 9
R01  22122231.137 6                 118256053.611 6
R08  21141221.346 7  21141224.382 7 113210288.261 7  88052633.444 7
R14  21696035.935 8  21696040.915 8 115652063.143 8  89951481.984 8
R15  21361065.983 7  21361069.437 7 114147246.409 7  88781040.019 7
R17  22398482.408 4  22398475.573 4                
R23  21980134.449 5                                
R24  19642494.892 8  19642496.885 7 105037250.349 8  81695756.334 7
> 2025 06 15 08 58  0.0000000  0 26
C05  39440493.597 6  39440490.811 6 205376985.605 6 158810510.202 6
C08  39046948.855 6  39046944.019 6 203327698.441 6 157225863.275 6
C13  38091892.574 6  38091897.111 7 198354472.936 6 153380246.877 7
C19  25939695.096 6                 135074877.212 6
C20  23684223.489 7                 123329984.023 7
C29  21758007.198 8                 113299650.427 8
C32  24747222.973 5                 128865201.49315
C35  23355151.261 6                 121616402.915 6
C47  22960054.598 8                 119559026.920 8
E02  24590929.967 8  24590930.764 9 129226205.815 8  97758791.688 9
E10  25201048.378 8  25201050.363 8 132432392.233 8 100184250.523 8
E11  23791611.382 7  23791609.929 8 125025760.845 7  94581166.161 8
E16  26547416.840 7  26547420.114 7 139507585.810 7 105536590.788 7
E25  25057449.724 8  25057453.018 9 131677779.825 8  99613386.960 9
E36  24597625.470 8  24597628.432 9 129261399.173 8  97785422.630 9
G08  21964294.943 6                  21964301.190 7  21964297.674 8 115423132.220 6                  89940186.928 7  86192619.506 8
G10  21423095.035 8                  21423100.581 7  21423097.378 8 112579122.612 8                  87724023.984 7  84068843.229 8
G16  22072722.080 8  22072724.614 5                                 115992917.629 8  90384103.861 5                
G18  23242090.936 6                  23242098.582 6  23242101.501 5 122138011.331 6                  95172502.488 6  91206965.413 5
G23  21259922.857 7                  21259927.111 8  21259927.627 8 111721644.976 7                  87055842.498 8  83428521.585 8
G27  20276817.668 8                  20276822.972 8  20276820.539 9 106555392.384 8                  83030202.239 8  79570598.726 9
R01  22110955.412 6                 118195776.686 6
R08  21140006.396 7  21140008.713 7 113203779.918 7  88047571.400 7
R14  21704914.967 8  21704919.571 7 115699391.422 8  89988292.801 7
R15  21359422.484 7  21359424.846 7 114138460.288 7  88774206.345 7
R24  19640908.805 8  19640910.693 7 105028767.363 8  81689158.476 7
> 2025 06 15 08 58 15.0000000  0 28
C05  39440003.542 6  39440000.033 6 205374431.321 6 158808535.052 6
C08  39049985.584 6  39049980.703 6 203343510.549 6 157238090.116 6
C13  38093878.332 6  38093882.968 7 198364814.234 6 153388243.384 7
C19  25929315.583 6                 135020829.952 6
C20  23678470.192 8                 123300022.044 8
C26  24879636.633 5                 129554825.31315
C29  21760051.087 8                 113310295.361 8
C32  24750997.742 5                 128884828.658 5
C35  23348536.133 6                 121581965.114 6
C47  22965259.223 8                 119586129.378 8
E02  24589543.442 8  24589545.140 9 129218926.021 8  97753284.581 9
E10  25206410.315 7  25206413.056 8 132460572.769 7 100205568.908 8
E11  23793669.034 7  23793667.608 8 125036573.554 7  94589345.916 8
E16  26555996.769 7  26555999.008 7 139552667.934 7 105570695.075 7
E25  25063995.473 8  25063998.291 8 131712175.549 8  99639407.070 8
E36  24592764.244 8  24592767.155 9 129235852.808 8  97766096.982 9
G08  21956466.213 6                  21956472.217 7  21956468.732 8 115381989.046 6                  89908127.277 7  86161895.770 8
G10  21418061.489 8                  21418066.470 8  21418062.944 8 112552668.235 8                  87703410.143 8  84049088.318 8
G16  22080576.146 8  22080579.764 6                                 116034192.752 8  90416266.281 6                
G18  23250149.089 5                  23250157.262 6  23250154.783 5 122180357.126 5                  95205499.098 6  91238587.074 5
G23  21263169.738 7                  21263174.127 8  21263175.259 8 111738708.481 7                  87069138.709 8  83441263.785 8
G27  20275063.206 8                  20275069.014 8  20275066.200 9 106546173.728 8                  83023018.891 8  79563714.658 9
R01  22099696.213 7                 118135592.823 7
R08  21138828.853 8  21138832.615 7 113197480.335 8  88042671.755 7
R14  21713817.674 8  21713822.403 7 115746847.984 8  90025203.431 7
R15  21357817.130 7  21357819.909 7 114129880.720 7  88767533.425 7
R23  21996240.220 4                                
R24  19639340.862 8  19639343.433 8 105020385.916 8  81682639.556 8
> 2025 06 15 08 58 30.0000000  0 27
C05  39439513.427 6  39439509.635 6 205371880.262 6 158806562.402 6
C08  39053025.128 6  39053020.269 6 203359340.654 6 157250331.014 6
C13  38095868.624 6  38095873.306 7 198375178.205 6 153396257.432 7
C19  25918939.577 6                 134966802.052 6
C20  23672737.879 8                 123270173.444 8
C26  24882957.862 5                 129572057.12915
C29  21762110.141 8                 113321016.177 8
C32  24754782.110 5                 128904578.70915
C35  23341932.992 7                 121547573.705 7
C47  22970474.847 8                 119613289.601 8
E02  24588179.239 8  24588180.939 9 129211756.638 8  97747860.994 9
E10  25211779.701 7  25211782.405 8 132488789.368 7 100226914.529 8
E11  23795737.749 7  23795736.676 8 125047446.281 7  94597571.041 8
E16  26564582.207 7  26564584.769 7 139597785.456 7 105604826.104 7
E25  25070553.791 7  25070557.821 8 131746645.734 7  99665483.484 8
E36  24587912.964 8  24587916.601 9 129210362.646 8  97746813.840 9
G08  21948651.100 6                  21948657.183 7  21948654.061 8 115340920.930 6                  89876126.183 7  86131228.032 8
G10  21413051.604 8                  21413056.741 7  21413053.339 8 112526341.813 8                  87682896.077 7  84029429.030 8
G16  22088450.300 7  22088454.158 6                                 116075570.355 7  90448508.562 6                
G23  21266442.772 8                  21266447.156 8  21266448.770 8 111755909.704 8                  87082542.243 8  83454108.856 8
G27  20273333.780 8                  20273339.023 8  20273336.002 9 106537082.499 8                  83015934.836 8  79556925.787 9
R01  22088455.401 7                 118075504.785 7
R08  21137692.371 8  21137695.406 7 113191391.893 8  88037936.329 7
R14  21722744.495 8  21722749.843 7 115794434.171 8  90062214.852 7
R15  21356249.586 7  21356251.495 6 114121509.752 7  88761022.726 6
R23  22004305.547 6                 117708194.64616
R24  19637792.977 8  19637795.139 7 105012107.847 8  81676201.073 7
> 2025 06 15 08 58 45.0000000  0 30
C05  39439024.085 6  39439021.308 6 205369335.179 6 158804594.414 6
C08  39056069.617 6  39056063.037 6 203375191.704 6 157262588.043 6
C13  38097863.882 6  38097868.377 7 198385567.916 6 153404291.415 7
C19  25908568.385 6                 134912796.573 6
C20  23667027.956 7                 123240441.147 7
C26  24886289.187 5                 129589409.424 5
C29  21764183.956 8                 113331815.725 8
C32  24758600.212 4                 128924454.954 4
C35  23335334.710 6                 121513231.524 6
C47  22975702.787 8                 119640510.333 8
E02  24586836.891 8  24586838.258 9 129204700.618 8  97742523.113 9
E10  25217156.811 7  25217159.164 8 132517044.673 7 100248289.454 8
E11  23797819.275 7  23797817.529 8 125058381.737 7  94605843.640 8
E16  26573173.730 7  26573177.516 7 139642940.943 7 105638985.897 7
E25  25077127.817 7  25077132.084 8 131781193.007 7  99691618.252 8
E36  24583074.279 8  24583077.006 9 129184931.530 8  97727575.384 9
G08  21940850.273 6                  21940856.951 7  21940853.923 8 115299930.878 6                  89844185.951 7  86100618.646 8
G10  21408066.119 8                  21408071.864 7  21408068.351 8 112500146.359 8                  87662484.063 7  84009867.508 8
G16  22096344.233 8  22096347.992 5                                 116117052.963 8  90480832.620 5                
G18  23266287.898 5                  23266293.420 6  23266290.983 6 122265173.09615                  95271587.02116  91301921.34716
G23  21269742.855 7                  21269746.716 8  21269748.599 8 111773251.304 7                  87096055.147 8  83467058.704 8
G27  20271628.532 8                  20271633.744 8  20271630.491 9 106528121.686 8                  83008952.354 8  79550234.252 9
R01  22077233.512 7                 118015516.019 7
R07  23285898.805 4                                
R08  21136594.686 8  21136598.627 7 113185517.395 8  88033367.274 7
R14  21731696.238 8  21731700.951 7 115842152.457 8  90099329.063 7
R15  21354722.158 7  21354725.332 7 114113350.522 7  88754676.618 7
R17  22362200.036 4  22362173.860 5 119664471.65214  93072454.02815
R23  22012381.536 6                 117751392.315 6
R24  19636264.442 8  19636267.043 7 105003936.005 8  81669845.204 7
> 2025 06 15 08 59  0.0000000  0 29
C05  39438536.536 6  39438532.814 6 205366791.585 6 158802627.515 6
C08  39059116.279 6  39059111.787 6 203391058.916 6 157274857.553 6
C13  38099863.144 7  38099867.781 7 198395978.557 7 153412341.559 7
C19  25898200.625 6                 134858809.251 6
C20  23661340.056 8                 123210820.767 8
C29  21766272.453 8                 113342689.368 8
C35  23328748.373 6                 121478934.208 6
C45  26006534.533 5                 135422759.03415
C47  22980941.257 8                 119667786.918 8
E02  24585515.058 8  24585516.525 9 129197753.193 8  97737267.456 9
E10  25222540.741 8  25222542.408 8 132545333.925 8 100269690.096 8
E11  23799911.280 7  23799909.491 8 125069375.217 7  94614160.120 8
E16  26581772.937 7  26581776.796 7 139688129.589 7 105673170.763 7
E25  25083715.800 7  25083720.021 9 131815812.559 7  99717807.691 9
E36  24578244.614 8  24578248.089 9 129159554.837 8  97708378.103 9
G02  24185080.791 4                                                 127093338.92114                                
G08  21933064.222 7                  21933071.089 7  21933067.684 8 115259014.656 7                  89812303.218 7  86070064.293 8
G10  21403105.394 8                  21403111.110 7  21403107.374 8 112474077.409 8                  87642170.605 7  83990400.430 8
G16  22104257.117 7  22104260.800 5                                 116158635.696 7  90513234.695 5                
G18  23274369.372 6                  23274375.881 6  23274377.065 6 122307638.363 6                  95304676.727 6  91333632.297 6
G23  21273068.427 7                  21273072.523 7  21273074.714 8 111790728.450 7                  87109673.707 7  83480109.807 8
G27  20269947.259 8                  20269952.579 8  20269949.104 8 106519286.659 8                  83002067.944 8  79543636.651 8
R01  22066029.058 7                 117955622.332 7
R08  21135537.294 8  21135540.857 7 113179852.347 8  88028961.148 7
R14  21740671.809 8  21740676.903 7 115889997.345 8  90136541.745 7
R15  21353234.431 7  21353236.259 7 114105398.139 7  88748491.390 7
R17  22353124.221 5  22353115.700 5 119615997.772 5  93034752.12215
R23  22020465.308 4                 117794634.79514
R24  19634755.784 8  19634757.390 7 104995865.858 8  81663568.412 7
> 2025 06 15 08 59 15.0000000  0 30
C05  39438047.412 6  39438045.397 6 205364249.793 6 158800662.024 6
C08  39062168.068 6  39062162.188 6 203406942.614 6 157287139.780 6
C13  38101866.390 6  38101871.617 7 198406410.432 6 153420408.162 7
C19  25887835.195 6                 134804840.857 6
C20  23655673.027 8                 123181313.012 8
C29  21768374.712 8                 113353637.525 8
C32  24766303.525 4                 128964569.39014
C35  23322173.116 6                 121444682.345 6
C45  26015222.639 5                 135467978.722 5
C47  22986189.877 8                 119695119.729 8
E02  24584213.347 7  24584215.028 9 129190915.034 7  97732094.445 9
E10  25227929.132 7  25227932.053 8 132573657.502 7 100291116.682 8
E11  23802014.082 7  23802012.567 8 125080427.034 7  94622520.749 8
E16  26590377.859 6  26590382.389 7 139733351.632 6 105707380.849 7
E25  25090317.122 7  25090321.719 9 131850504.668 7  99744051.989 9
E36  24573426.687 8  24573429.453 9 129134233.010 8  97689222.313 9
G02  24176492.756 5                                                 127048211.654 5                                
G08  21925292.154 6                  21925299.158 7  21925295.824 8 115218172.820 6                  89780478.397 7  86039565.511 8
G10  21398169.099 8                  21398174.515 7  21398170.958 8 112448135.483 8                  87621956.138 7  83971028.227 8
G16  22112188.867 7  22112192.466 5                                 116200318.679 7  90545714.886 5                
G18  23282458.959 6                  23282461.890 5  23282465.154 5 122350141.262 6                  95337795.962 5  91365371.574 5
G23  21276420.096 7                  21276424.218 8  21276426.649 9 111808341.348 7                  87123398.049 8  83493262.294 9
G27  20268290.047 8                  20268295.483 8  20268292.326 9 106510578.034 8                  82995281.996 8  79537133.443 9
R01  22054842.742 6                 117895824.855 6
R08  21134518.927 8  21134521.881 7 113174397.196 8  88024718.189 7
R14  21749671.658 8  21749675.727 7 115937969.271 8  90173853.172 7
R15  21351785.382 7  21351788.050 7 114097653.274 7  88742467.624 7
R17  22344070.092 4  22344063.744 5                  92997079.187 5
R23  22028558.986 5                                
R24  19633265.469 8  19633267.331 7 104987897.935 8  81657371.099 7
> 2025 06 15 08 59 30.0000000  0 28
C05  39437559.779 6  39437557.126 6 205361710.033 6 158798698.130 6
C08  39065220.655 6  39065215.334 6 203422842.914 6 157299434.950 6
C13  38103874.267 6  38103878.579 7 198416863.817 6 153428491.380 7
C19  25877475.814 6                 134750891.758 6
C20  23650027.957 8                 123151918.305 8
C29  21770491.559 8                 113364660.418 8
C35  23315602.739 7                 121410476.071 7
C47  22991450.188 8                 119722508.905 8
E02  24582932.329 7  24582934.726 9 129184186.321 7  97727004.205 9
E10  25233326.431 8  25233328.343 8 132602015.492 8 100312569.281 8
E11  23804128.478 7  23804126.721 8 125091537.274 7  94630925.574 8
E16  26598990.374 6  26598994.280 7 139778607.012 6 105741616.191 7
E25  25096933.036 7  25096937.339 8 131885269.354 7  99770351.166 8
E36  24568618.387 8  24568621.274 9 129108966.213 8  97670108.158 9
G02  24167913.738 4                                                                                                
G08  21917534.084 6                  21917541.192 7  21917538.529 8 115177405.815 6                  89748711.879 7  86009122.594 8
G10  21393256.847 8                  21393262.070 8  21393258.498 8 112422320.934 8                  87601840.909 8  83951751.139 8
G16  22120139.619 7  22120143.379 5                                 116242101.515 7  90578272.930 5                
G18  23290552.972 5                  23290556.725 5  23290558.657 5 122392682.112 5                  95370944.590 5  91397139.022 5
G23  21279798.139 7                  21279801.991 8  21279804.070 9 111826090.001 7                  87137228.124 8  83506516.142 9
G27  20266656.910 8                  20266662.071 8  20266659.729 9 106501996.045 8                  82988594.728 8  79530724.819 9
R01  22043673.983 7                 117836124.150 7
R07  23311240.351 5  23311252.448 5 124786742.06915  97056494.37115
R08  21133539.132 8  21133542.219 8 113169152.026 8  88020638.615 8
R14  21758694.433 7  21758699.922 7 115986067.200 7  90211262.599 7
R15  21350375.229 7  21350377.989 7 114090116.212 7  88736605.527 7
R23  22036658.508 6                 117881260.00616
R24  19631794.576 8  19631797.137 7 104980032.284 8  81651253.387 7
> 2025 06 15 08 59 45.0000000  0 26
C05  39437072.501 6  39437069.562 6 205359170.531 6 158796734.408 6
C08  39068275.691 5  39068271.772 6 203438758.038 5 157311741.518 6
C13  38105884.338 6  38105889.365 7 198427336.849 6 153436589.744 7
C19  25867119.064 6                 134696960.463 6
C20  23644404.761 8                 123122635.015 8
C29  21772622.056 8                 113375756.188 8
C35  23309042.727 6                 121376313.764 6
C47  22996719.428 8                 119749952.592 8
E02  24581673.465 7  24581674.938 9 129177565.321 7  97721995.483 9
E10  25238729.480 8  25238731.093 8 132630405.955 8 100334046.475 8
E11  23806253.354 7  23806251.734 8 125102704.068 7  94639373.166 8
E16  26607608.136 6  26607612.127 7 139823893.699 6 105775875.240 7
E25  25103562.122 7  25103566.397 8 131920104.537 7  99796703.735 8
E36  24563819.835 8  24563823.230 9 129083752.688 8  97651034.292 9
G08  21909790.507 7                  21909797.560 7  21909794.953 8 115136712.100 7                  89717002.458 7  85978734.431 8
G10  21388368.172 8                  21388373.779 8  21388370.376 8 112396632.126 8                  87581823.635 8  83932567.936 8
G16  22128109.591 7  22128112.856 5                                 116283982.236 7  90610907.180 5                
G18  23298654.558 5                  23298660.356 5  23298660.986 6 122435258.823 5                  95404121.23915  91428933.229 6
G23  21283201.058 7                  21283204.797 8  21283207.260 9 111843972.341 7                  87151162.461 8  83519869.855 9
G27  20265047.367 8                  20265052.874 8  20265050.190 9 106493539.033 8                  82982004.855 8  79524409.531 9
R01  22032524.305 7                 117776518.935 7
R08  21132598.707 8  21132602.395 8 113164115.093 8  88016720.995 8
R14  21767741.072 7  21767745.418 7 116034289.289 7  90248768.631 7
R15  21349002.898 7  21349006.193 7 114082785.063 7  88730903.469 7
R23  22044769.130 5                 117924635.369 5
R24  19630342.795 8  19630344.283 7 104972267.202 8  81645213.868 7
> 2025 06 15 09 00  0.0000000  0 28
C05  39436585.339 6  39436582.222 7 205356631.839 6 158794771.336 7
C08  39071331.470 5  39071331.810 6 203454688.429 5 157324059.879 6
C13  38107899.413 6  38107905.073 7 198437829.870 6 153444703.614 7
C19  25856764.200 5                 134643047.901 5
C20  23638803.620 8                 123093464.012 8
C29  21774767.353 8                 113386925.440 8
C32  24778050.545 5                 129025606.50315
C35  23302491.166 7                 121342196.036 7
C47  23002000.255 8                 119777451.282 8
E02  24580434.074 7  24580435.641 9 129171052.727 7  97717068.721 9
E10  25244138.110 8  25244140.022 8 132658829.358 8 100355548.603 8
E11  23808388.995 7  23808387.545 8 125113927.923 7  94647863.933 8
E16  26616232.828 6  26616235.968 7 139869212.160 6 105810158.273 7
E25  25110204.629 7  25110208.881 9 131955010.691 7  99823109.957 9
E36  24559032.253 8  24559035.515 9 129058592.993 8  97632001.145 9
G08  21902060.991 6                  21902067.477 7  21902065.047 8 115096092.398 6                  89685350.819 7  85948401.570 8
G10  21383503.934 8                  21383509.731 8  21383505.490 8 112371069.727 8                  87561904.889 8  83913479.161 8
G16  22136097.593 7  22136100.801 5                                 116325960.989 7  90643617.856 5                
G18  23306762.736 5                  23306772.044 5  23306769.822 6 122477871.895 5                  95437326.238 5  91460754.563 6
G23  21286629.532 7                  21286633.591 8  21286635.354 8 111861988.844 7                  87165201.294 8  83533323.722 8
G27  20263462.167 8                  20263467.792 8  20263464.976 9 106485207.682 8                  82975512.898 8  79518188.073 9
R01  22021391.480 7                 117717010.486 7
R08  21131696.941 8  21131700.954 8 113159287.223 8  88012966.005 8
R14  21776810.563 8  21776815.370 7 116082635.198 8  90286370.968 7
R15  21347669.920 8  21347672.881 7 114075660.572 8  88725362.240 7
R17  22316951.757 6  22316950.162 5 119422737.13216  92884380.85115
R23  22052884.390 5                 117968054.230 5
R24  19628909.388 8  19628911.381 8 104964603.221 8  81639253.010 8
> 2025 06 15 09 00 15.0000000  0 29
C05  39436098.147 6  39436095.361 6 205354095.881 6 158792810.354 6
C08  39074393.823 5  39074393.563 6 203470635.958 5 157336391.527 6
C13  38109918.996 6  38109923.970 7 198448344.781 6 153452834.389 7
C19  25846413.721 5                 134589156.225 5
C20  23633222.403 8                 123064407.331 8
C29  21776927.044 8                 113398169.973 8
C32  24781991.218 5                 129046206.19115
C35  23295948.152 7                 121308124.924 7
C47  23007292.873 8                 119805006.859 8
E02  24579216.596 7  24579217.336 9 129164650.405 7  97712225.409 9
E10  25249553.053 8  25249555.327 9 132687287.537 8 100377077.012 9
E11  23810536.247 7  23810534.535 8 125125210.573 7  94656399.198 8
E16  26624862.589 6  26624866.373 7 139914563.999 6 105844466.594 7
E25  25116861.320 8  25116865.202 8 131989989.499 8  99849571.156 8
E36  24554255.567 8  24554258.415 8 129033488.999 8  97613010.169 8
G08  21894345.886 6                  21894352.071 7  21894349.727 8 115055549.001 6                  89653758.515 7  85918125.672 8
G10  21378663.530 8                  21378669.233 7  21378666.136 8 112345635.736 8                  87542086.261 7  83894486.289 8
G16  22144105.397 7  22144107.951 5                                 116368039.410 7  90676406.212 5                
G18  23314878.934 5                  23314885.289 5  23314886.137 6 122520522.887 5                  95470560.746 5  91492604.360 6
G23  21290083.631 7                  21290088.148 8  21290088.913 8 111880141.160 7                  87179345.945 8  83546879.018 8
G27  20261900.813 8                  20261906.513 8  20261904.010 9 106477003.982 8                  82969120.392 8  79512061.925 9
R01  22010278.040 7                 117657601.359 7
R07  23336810.241 5  23336811.628 5                  97162957.41315
R08  21130835.017 8  21130838.271 8 113154670.278 8  88009375.040 8
R14  21785903.671 8  21785908.642 7 116131106.580 8  90324070.901 7
R15  21346375.177 7  21346378.618 7 114068744.614 7  88719983.143 7
R17  22307926.652 6  22307926.210 6 119374449.246 6  92846823.562 6
R23  22061008.707 6                 118011518.692 6
R24  19627495.794 8  19627497.472 7 104957042.426 8  81633372.385 7
> 2025 06 15 09 00 30.0000000  0 29
C05  39435612.250 6  39435608.184 6 205351561.373 6 158790850.517 6
C08  39077461.361 5  39077459.790 6 203486599.267 5 157348735.438 6
C13  38111942.941 6  38111947.572 7 198458880.458 6 153460981.242 7
C19  25836069.716 6                 134535284.545 6
C20  23627664.378 8                 123035464.056 8
C29  21779100.402 8                 113409488.678 8
C35  23289413.010 6                 121274099.401 6
C47  23012595.200 8                 119832618.037 8
E02  24578018.929 8  24578019.757 9 129158357.276 8  97707464.706 9
E10  25254975.891 8  25254977.131 9 132715779.203 8 100398630.727 9
E11  23812694.024 7  23812692.569 8 125136550.794 7  94664977.969 8
E16  26633499.863 6  26633502.886 7 139959947.759 6 105878799.101 7
E25  25123530.568 7  25123534.943 8 132025039.590 7  99876086.294 8
E36  24549489.004 8  24549491.628 9 129008439.596 8  97594060.471 9
G02  24133661.788 5                                                 126823380.55215                                
G08  21886645.313 7                  21886651.799 7  21886648.592 8 115015080.782 7                  89622224.914 7  85887905.961 8
G10  21373848.324 8                  21373853.499 7  21373850.315 8 112320329.235 8                  87522366.891 7  83875588.586 8
G16  22152130.989 7  22152134.064 5                                 116410216.068 7  90709271.129 5                
G18  23323001.775 4                  23323010.080 6  23323009.601 7                                  95503823.849 6  91524481.567 7
G23  21293562.976 7                  21293567.730 8  21293568.585 8 111898427.911 7                  87193595.338 8  83560534.675 8
G27  20260364.029 8                  20260369.643 8  20260366.664 9 106468926.859 8                  82962826.529 8  79506030.309 9
R01  21999182.212 7                 117598290.678 7
R07  23345383.850 4  23345386.136 5 124969518.49114  97198653.815 5
R08  21130012.220 8  21130014.948 7 113150262.979 8  88005947.168 7
R14  21795019.699 7  21795024.875 7 116179701.934 7  90361867.161 7
R15  21345119.972 7  21345123.387 7 114062035.970 7  88714765.329 7
R17  22298904.740 5  22298909.597 4 119326198.893 5  92809295.418 4
R23  22069143.666 5                 118055026.963 5
R24  19626100.531 8  19626102.296 7 104949583.586 8  81627571.067 7
> 2025 06 15 09 00 45.0000000  0 27
C05  39435123.837 6  39435120.667 6 205349022.634 6 158788887.394 6
C08  39080529.409 5  39080527.153 6 203502572.66915 157361087.06616
C13  38113969.127 6  38113973.827 7 198469430.850 6 153469139.471 7
C19  25825727.189 6                 134481427.357 6
C20  23622126.536 8                 123006628.527 8
C29  21781287.313 8                 113420875.728 8
C32  24789968.935 4                 129087775.10814
C35  23282887.217 7                 121240113.616 7
C47  23017907.413 8                 119860279.023 8
E02  24576840.519 8  24576841.859 9 129152167.524 8  97702782.215 9
E10  25260402.783 8  25260404.286 8 132744298.369 8 100420205.252 8
E11  23814862.233 7  23814860.479 8 125147942.636 7  94673595.813 8
E16  26642140.602 6  26642143.926 7 140005357.571 6 105913151.223 7
E25  25130213.016 8  25130217.047 8 132060154.943 8  99902650.797 8
E36  24544731.235 8  24544734.103 9 128983438.911 8  97575147.620 9
G08  21878958.069 6                  21878963.618 7  21878961.096 8 114974682.274 6                  89590745.596 7  85857738.300 8
G10  21369056.014 8                  21369060.938 7  21369057.284 8 112295144.410 8                  87502742.376 7  83856781.757 8
G16  22160174.866 7  22160177.663 5                                 116452484.752 7  90742207.718 5                
G23  21297067.589 7                  21297071.850 8  21297073.438 8 111916843.013 7                  87207944.733 8  83574286.170 8
G27  20258850.040 8                  20258855.281 8  20258852.477 9 106460970.547 8                  82956626.813 8  79500088.926 9
R01  21988104.618 7                 117539073.213 7
R08  21129226.751 7  21129230.604 7 113146059.676 7  88002677.928 7
R14  21804157.851 7  21804162.421 7 116228414.175 7  90399754.474 7
R15  21343902.498 7  21343904.869 7 114055528.820 7  88709704.193 7
R17  22289895.782 5  22289896.819 4 119277980.229 5  92771571.97714
R23  22077284.610 6                 118098573.144 6
R24  19624723.824 8  19624725.401 7 104942220.920 8  81621844.517 7
> 2025 06 15 09 01  0.0000000  0 28
C05  39434636.443 6  39434633.118 7 205346482.697 6 158786923.354 7
C13  38115997.985 6  38116003.168 7 198479999.024 6 153477311.447 7
C19  25815387.141 6                 134427588.042 6
C20  23616610.692 8                 122977904.127 8
C29  21783487.689 8                 113432334.193 8
C32  24793992.590 5                 129108728.06715
C35  23276368.953 7                 121206170.938 7
C45  26076099.534 5                 135784983.25415
C47  23023229.007 8                 119887992.849 8
E02  24575683.122 8  24575684.209 9 129146084.418 8  97698180.373 9
E10  25265835.061 8  25265837.257 8 132772848.099 8 100441802.927 8
E11  23817039.998 7  23817038.665 8 125159389.126 7  94682255.005 8
E16  26650786.358 7  26650790.741 7 140050796.212 7 105947525.213 7
E25  25136907.948 7  25136912.194 8 132095338.525 7  99929266.903 8
E36  24539983.225 8  24539986.474 9 128958490.046 8  97556273.988 9
G08  21871283.640 6                  21871290.145 7  21871287.008 8 114934356.903 6                  89559323.203 7  85827625.153 8
G10  21364287.156 8                  21364292.322 8  21364288.669 8 112270084.588 8                  87483215.244 8  83838068.259 8
G16  22168236.563 7  22168238.829 5                                 116494848.269 7  90775218.249 5                
G18  23339268.007 5                  23339270.818 6  23339275.389 6 122648655.36415                  95570424.27116  91588306.985 6
G23  21300596.900 7                  21300601.263 8  21300602.613 8 111935389.340 7                  87222396.417 8  83588135.719 8
G27  20257359.389 8                  20257364.604 8  20257361.980 9 106453138.312 8                  82950523.763 8  79494240.171 9
R01  21977044.508 7                 117479952.714 7
R08  21128479.921 7  21128484.284 8 113142063.446 7  87999569.760 8
R14  21813318.798 7  21813323.632 7 116277246.382 7  90437735.079 7
R15  21342723.213 7  21342724.883 6 114049226.536 7  88704802.329 6
R17  22280894.074 6                 119229796.474 6
R23  22085432.894 5                 118142160.387 5
R24  19623365.780 8  19623367.462 7 104934957.428 8  81616195.147 7
> 2025 06 15 09 01 15.0000000  0 30
C05  39434148.865 6  39434145.739 7 205343945.540 6 158784961.449 7
C08  39086676.377 5                 203534558.60215
C13  38118031.717 6  38118036.895 7 198490588.874 6 153485500.202 7
C19  25805051.754 6                 134373770.920 6
C20  23611116.500 8                 122949294.956 8
C26  24920775.480 5                 129769010.48815
C29  21785702.495 8                 113443867.960 8
C32  24798045.066 5                 129129799.662 5
C35  23269859.398 7                 121172275.361 7
C45  26084806.435 4                 135830333.642 4
C47  23028561.510 8                 119915763.356 8
E02  24574546.189 8  24574547.741 9 129140111.850 8  97693662.181 9
E10  25271274.152 8  25271276.547 8 132801432.234 8 100463426.591 8
E11  23819229.800 7  23819228.029 8 125170894.150 7  94690958.479 8
E16  26659439.963 7  26659443.543 7 140096267.478 7 105981923.842 7
E25  25143617.645 8  25143621.254 8 132130594.032 8  99955937.419 8
E36  24535246.440 8  24535249.446 9 128933597.008 8  97537442.562 9
G08  21863624.370 6                  21863631.763 7  21863628.363 8 114894108.725 6                  89527961.010 7  85797569.666 8
G10  21359543.102 8                  21359548.441 8  21359543.998 8 112245153.804 8                  87463788.660 8  83819451.114 8
G16  22176316.421 7  22176319.401 5                                 116537310.020 7  90808305.276 5                
G18  23347410.758 4                  23347413.895 5  23347419.175 6 122691445.02614                  95603761.74315  91620260.260 6
G23  21304152.378 7                  21304156.441 8  21304157.813 8 111954070.709 7                  87236953.316 8  83602086.075 8
G27  20255893.690 8                  20255898.847 8  20255895.706 9 106445434.203 8                  82944520.549 8  79488487.087 9
R01  21966004.095 7                 117420933.500 7
R08  21127773.766 7  21127777.129 8 113138278.336 7  87996625.721 8
R14  21822502.825 7  21822508.062 7 116326201.707 7  90475811.396 7
R15  21341581.846 6  21341585.420 7 114043133.093 6  88700062.975 7
R17  22271897.035 5                 119181651.669 5
R23  22093589.225 5                 118185792.803 5
R24  19622026.764 8  19622028.459 7 104927797.272 8  81610626.095 7
> 2025 06 15 09 01 30.0000000  0 30
C05  39433662.967 6  39433659.452 7 205341413.548 6 158783003.560 7
C08  39089752.276 5  39089748.329 6 203550581.10615 157398225.22716
C13  38120070.032 6  38120075.106 7 198501202.996 6 153493707.673 7
C19  25794721.261 6                 134319978.598 6
C20  23605644.857 8                 122920803.774 8
C26  24924342.483 5                 129787578.746 5
C29  21787932.433 8                 113455479.544 8
C32  24802115.971 5                 129150994.475 5
C35  23263360.119 7                 121138429.429 7
C47  23033906.905 8                 119943592.943 8
E02  24573431.089 7  24573432.649 9 129134252.448 7  97689229.582 9
E10  25276720.507 8  25276722.837 8 132830053.146 8 100485078.115 8
E11  23821430.486 7  23821429.007 8 125182460.103 7  94699708.062 8
E16  26668100.944 7  26668102.818 7 140141773.643 7 106016348.891 7
E25  25150340.393 7  25150344.342 8 132165923.794 7  99982664.138 8
E36  24530520.598 8  24530523.474 9 128908762.248 8  97518655.271 9
G02  24099511.586 5                                                 126643935.17715                                
G08  21855981.317 7                  21855987.483 7  21855984.871 8 114853940.519 7                  89496661.140 7  85767573.949 8
G10  21354823.773 8                  21354829.186 8  21354825.245 8 112220354.708 8                  87444464.706 8  83800932.331 8
G16  22184415.902 7  22184419.084 5                                 116579872.174 7  90841470.556 5                
G18  23355561.379 5                  23355566.052 6  23355570.572 6 122734274.40915                  95637135.368 6  91652243.249 6
G23  21307733.469 7                  21307736.894 8  21307738.958 8 111972889.385 7                  87251617.170 8  83616138.951 8
G27  20254452.232 8                  20254457.472 8  20254454.771 9 106437860.809 8                  82938619.192 8  79482831.629 9
R01  21954982.072 7                 117362018.985 7
R08  21127106.672 8  21127110.137 7 113134706.955 8  87993848.017 7
R14  21831710.686 7  21831716.129 7 116375282.665 7  90513985.354 7
R15  21340482.014 7  21340484.703 7 114037250.873 7  88695488.004 7
R17  22262904.287 5                 119133548.971 5
R23  22101754.622 4                                
R24  19620707.491 8  19620709.319 8 104920742.821 8  81605139.329 8
> 2025 06 15 09 01 45.0000000  0 28
C05  39433177.339 6  39433174.180 7 205338885.611 6 158781048.816 7
C08  39092831.962 4  39092827.932 6 203566621.70414 157410628.81516
C13  38122112.210 6  38122117.612 7 198511839.881 6 153501932.786 7
C19  25784395.776 6                 134266210.271 6
C20  23600196.388 8                 122892429.519 8
C26  24927937.798 6                 129806259.282 6
C29  21790177.246 8                 113467167.738 8
C35  23256869.250 7                 121104632.009 7
C47  23039261.910 8                 119971480.342 8
E02  24572337.642 7  24572338.972 9 129128505.032 7  97684881.719 9
E10  25282173.511 8  25282176.077 8 132858709.530 8 100506756.461 8
E11  23823642.593 7  23823641.316 8 125194085.709 7  94708502.749 8
E16  26676765.299 7  26676768.486 7 140187313.267 7 106050799.287 7
E25  25157077.762 7  25157081.260 8 132201326.484 7 100009445.988 8
E36  24525805.510 8  24525808.448 9 128883984.626 8  97499911.157 9
G02  24090991.794 4                                                 126599173.469 4                                
G08  21848352.422 6                  21848358.683 7  21848356.396 8 114813851.350 6                  89465422.765 7  85737637.256 8
G10  21350129.184 8                  21350135.004 8  21350131.184 8 112195686.245 8                  87425242.529 8  83782511.063 8
G16  22192533.715 7  22192537.524 5                                 116622533.294 7  90874712.931 5                
G18  23363718.525 6                  23363721.878 5  23363725.066 6 122777142.472 6                  95670538.896 5  91684255.007 6
G23  21311341.051 7                  21311344.103 8  21311346.142 8 111991843.907 7                  87266386.933 8  83630293.305 8
G27  20253035.661 8                  20253040.761 8  20253038.220 8 106430417.007 8                  82932818.827 8  79477272.931 8
R01  21943980.933 7                 117303208.456 7
R08  21126479.496 8  21126482.800 8 113131347.996 8  87991235.536 8
R14  21840941.178 8  21840947.110 8 116424487.007 8  90552255.319 8
R15  21339420.051 6  21339424.186 7 114031578.945 6  88691076.507 7
R17  22253933.132 5                 119085486.573 5
R24  19619407.554 8  19619409.991 7 104913793.188 8  81599734.057 7
> 2025 06 15 09 02  0.0000000  0 27
C05  39432692.653 6  39432688.617 7 205336357.167 6 158779093.656 7
C08  39095914.220 4  39095911.612 6 203582675.81914 157423042.87316
C13  38124159.178 6  38124163.802 7 198522495.116 6 153510172.071 7
C19  25774073.866 6                 134212461.662 6
C20  23594769.172 8                 122864167.932 8
C26  24931538.587 5                 129825047.206 5
C29  21792435.261 8                 113478927.972 8
C35  23250387.539 7                 121070878.735 7
C47  23044627.775 8                 119999421.036 8
E02  24571264.331 8  24571265.745 9 129122865.155 8  97680615.179 9
E10  25287632.745 8  25287635.056 8 132887396.729 8 100528458.147 8
E11  23825865.311 7  23825863.972 8 125205766.250 7  94717339.007 8
E16  26685437.763 7  26685439.868 7 140232881.621 7 106085271.379 7
E25  25163827.664 7  25163831.185 8 132236797.332 7 100036279.393 8
E36  24521100.293 8  24521103.468 9 128859259.566 8  97481206.825 9
G08  21840738.399 6                  21840744.661 7  21840741.943 8 114773836.880 6                  89434242.697 7  85707756.354 8
G10  21345458.869 8                  21345464.295 7  21345460.922 8 112171143.941 8                  87406118.678 7  83764184.043 8
G16  22200669.996 7  22200674.071 5                                 116665288.465 7  90908028.620 5                
G18  23371881.635 5                  23371888.720 5  23371887.619 6 122820044.05015                  95703968.815 5  91716291.953 6
G23  21314971.718 7                  21314976.098 8  21314977.821 8 112010929.559 7                  87281258.866 8  83644545.559 8
G27  20251643.146 8                  20251648.293 8  20251645.536 9 106423098.347 8                  82927115.976 8  79471807.708 9
R01  21932997.479 7                 117244497.732 7
R08  21125890.719 8  21125894.417 7 113128197.215 8  87988784.912 7
R14  21850194.529 8  21850199.786 8 116473809.783 8  90590617.433 8
R15  21338397.878 7  21338400.032 7 114026112.463 7  88686824.780 7
R17  22244952.201 6                 119037460.320 6
R24  19618127.112 8  19618128.669 7 104906943.416 8  81594406.469 7
> 2025 06 15 09 02 15.0000000  0 26
C05  39432205.679 6  39432201.770 7 205333823.563 6 158777134.486 7
C13  38126209.051 6  38126212.265 7 198533163.851 6 153518421.829 7
C19  25763755.674 6                 134158728.466 6
C20  23589362.034 8                 122836014.553 8
C26  24935164.474 5                 129843937.838 5
C29  21794707.021 8                 113490755.584 8
C35  23243912.882 7                 121037165.000 7
C47  23050002.619 7                 120027410.319 7
E02  24570210.754 7  24570212.106 9 129117328.122 7  97676426.450 9
E10  25293097.092 8  25293099.086 8 132916109.969 8 100550179.512 8
E11  23828098.180 7  23828096.193 8 125217496.979 7  94726213.199 8
E16  26694113.231 7  26694115.829 6 140278473.734 7 106119761.484 6
E25  25170589.167 8  25170593.186 8 132272331.406 8 100063160.650 8
E36  24516404.300 8  24516407.522 9 128834582.369 8  97462538.686 9
G08  21833136.873 6                  21833143.179 7  21833140.806 8 114733892.605 6                  89403117.274 7  85677927.890 8
G10  21340811.770 8                  21340817.465 7  21340813.789 8 112146723.272 8                  87387089.599 7  83745947.848 8
G16  22208823.492 7  22208827.343 5                                 116708132.586 7  90941413.592 5                
G18  23380051.066 5                  23380056.874 5  23380055.763 6 122862974.57615                  95737421.252 5  91748350.469 6
G23  21318627.926 7                  21318631.687 8  21318634.157 8 112030141.420 7                  87296229.141 8  83658892.058 8
G27  20250273.758 8                  20250278.649 8  20250275.757 9 106415900.236 8                  82921507.098 8  79466432.495 9
R01  21922032.129 6                 117185882.613 6
R08  21125340.800 8  21125343.810 7 113125249.537 8  87986492.271 7
R14  21859468.450 7  21859472.966 7 116523245.669 7  90629067.539 7
R15  21337411.930 7  21337416.068 6 114020847.073 7  88682729.474 6
R23  22126309.079 4                                
R24  19616863.830 8  19616866.029 7 104900188.868 8  81589152.940 7
> 2025 06 15 09 02 30.0000000  0 26
C05  39431718.620 6  39431714.007 7 205331284.186 6 158775170.877 7
C13  38128260.755 7  38128263.196 7 198543845.371 7 153526681.461 7
C19  25753438.810 7                 134105010.323 7
C20  23583976.026 8                 122807968.932 8
C26  24938813.392 5                 129862930.246 5
C29  21796991.023 8                 113502649.920 8
C32  24818622.419 4                 129237165.60714
C35  23237446.301 7                 121003490.313 7
C47  23055387.169 7                 120055447.455 7
E02  24569176.704 8  24569177.914 9 129111893.330 8  97672315.061 9
E10  25298565.044 7  25298567.753 8 132944848.480 7 100571919.995 8
E11  23830339.489 7  23830337.851 8 125229277.146 7  94735124.811 8
E16  26702794.272 7  26702796.442 6 140324088.847 7 106154268.905 6
E25  25177363.117 7  25177367.058 8 132307927.893 7 100090089.131 8
E36  24511717.741 8  24511720.614 8 128809952.366 8  97443906.256 8
G08  21825548.701 6                  21825556.080 6  21825552.535 8 114694018.176 6                  89372046.336 6  85648151.540 8
G10  21336187.967 8                  21336193.609 8  21336189.836 8 112122423.709 8                  87368154.880 8  83727802.094 8
G16  22216992.619 7  22216997.354 5                                 116751064.756 7  90974867.205 5                
G18  23388225.993 4                  23388230.975 5  23388232.901 6                                  95770895.584 5  91780430.028 6
G23  21322307.858 7                  21322311.466 8  21322313.662 8 112049478.604 7                  87311297.062 8  83673332.147 8
G27  20248926.464 8                  20248931.814 8  20248928.927 9 106408822.132 8                  82915991.681 8  79461146.905 9
R01  21911084.922 7                 117127363.223 7
R08  21124828.226 8  21124832.115 8 113122504.306 8  87984357.143 8
R14  21868763.425 7  21868768.454 7 116572793.489 7  90667604.659 7
R15  21336464.298 7  21336466.909 6 114015781.752 7  88678789.731 6
R24  19615618.573 8  19615619.857 7 104893529.003 8  81583973.040 7
> 2025 06 15 09 02 45.0000000  0 26
C05  39431229.507 6  39431226.244 7 205328740.298 6 158773203.775 7
C13  38130314.953 7  38130317.228 7 198554540.980 7 153534951.979 7
C19  25743128.997 7                 134051308.800 7
C20  23578611.394 8                 122780032.622 8
C26  24942477.452 6                 129882025.593 6
C29  21799288.340 8                 113514612.326 8
C35  23230985.866 6                 120969856.088 6
C47  23060780.019 7                 120083533.712 7
E02  24568162.449 8  24568163.433 9 129106562.234 8  97668282.094 9
E10  25304038.566 7  25304041.399 8 132973613.511 7 100593680.549 8
E11  23832590.782 7  23832589.161 8 125241108.022 7  94744074.762 8
E16  26711478.930 7  26711481.659 6 140369727.974 7 106188794.564 6
E25  25184148.900 7  25184152.939 8 132343587.955 7 100117065.692 8
E36  24507040.090 8  24507042.968 9 128785370.897 8  97425310.554 9
G08  21817974.196 6                  21817981.352 7  21817977.876 8 114654215.035 6                  89341031.011 7  85618428.517 8
G10  21331587.373 8                  21331592.920 8  21331589.241 8 112098246.688 8                  87349315.634 8  83709747.819 8
G16  22225179.292 7  22225183.197 5                                 116794085.976 7  91008390.190 5                
G23  21326011.299 7                  21326015.402 8  21326016.721 8 112068942.248 7                  87326463.547 8  83687866.689 8
G27  20247602.536 8                  20247607.780 8  20247605.291 9 106401865.459 8                  82910570.879 8  79455951.968 9
R01  21900156.346 7                 117068941.092 7
R08  21124353.402 8  21124357.705 8 113119963.153 8  87982380.653 8
R14  21878079.705 8  21878084.428 7 116622453.919 8  90706229.399 7
R15  21335553.743 6  21335557.304 7 114010917.940 6  88675006.855 7
R17  22218060.516 6                 118893301.92116
R23  22142696.908 5                 118448466.60715
R24  19614390.863 8  19614392.669 7 104886965.304 8  81578867.904 7
> 2025 06 15 09 03  0.0000000  0 27
C05  39430741.582 6  39430737.930 7 205326197.469 6 158771237.504 7
C13  38132374.027 7  38132375.049 7 198565256.245 7 153543237.717 7
C19  25732818.373 7                 133997629.823 7
C20  23573268.119 8                 122752211.351 8
C26  24946168.843 6                 129901229.120 6
C29  21801599.725 8                 113526648.275 8
C35  23224536.526 6                 120936268.006 6
C47  23066184.506 8                 120111674.584 8
E02  24567168.855 8  24567169.762 9 129101340.372 8  97664331.789 9
E10  25309519.102 7  25309521.217 8 133002410.556 7 100615465.297 8
E11  23834852.669 7  23834851.230 8 125252995.056 7  94753067.236 8
E16  26720169.525 7  26720172.741 6 140415396.582 7 106223342.517 6
E25  25190948.025 8  25190951.993 8 132379316.942 8 100144094.434 8
E36  24502372.427 8  24502375.617 9 128760843.597 8  97406755.812 9
G08  21810415.024 6                  21810420.942 6  21810418.390 8 114614489.264 6                  89310075.848 6  85588763.160 8
G10  21327010.910 8                  21327016.478 8  21327012.632 8 112074197.949 8                  87330576.381 8  83691789.358 8
G16  22233383.823 7  22233387.242 5                                 116837201.487 7  91041986.658 5                
G18  23404592.638 5                  23404597.467 4  23404607.803 6 122991946.13115                  95837916.86014  91844658.831 6
G23  21329739.905 7                  21329744.251 8  21329745.642 8 112088537.682 7                  87341732.722 8  83702499.654 8
G27  20246303.028 8                  20246308.180 8  20246305.634 9 106395035.883 8                  82905249.141 8  79450851.957 9
R01  21889246.187 7                 117010622.756 7
R08  21123918.521 8  21123922.027 8 113117631.624 8  87980567.241 8
R14  21887417.984 8  21887423.092 7 116672232.201 8  90744945.784 7
R15  21334682.345 7  21334686.136 7 114006261.497 7  88671385.224 7
R17  22209110.938 6                 118845408.70716
R23  22150907.781 5                 118492384.563 5
R24  19613182.666 8  19613184.462 8 104880503.236 8  81573841.843 8
> 2025 06 15 09 03 15.0000000  0 27
C05  39430252.396 6  39430248.359 7 205323649.132 6 158769266.990 7
C13  38134434.143 7  38134435.151 7 198575984.458 7 153551533.461 7
C19  25722512.645 7                 133943966.983 7
C20  23567946.417 8                 122724498.752 8
C26  24949875.155 5                 129920534.150 5
C29  21803924.231 8                 113538751.162 8
C32  24831230.011 5                 129302784.79515
C35  23218093.674 6                 120902719.443 6
C47  23071598.087 8                 120139863.344 8
E02  24566194.044 8  24566195.620 9 129096221.194 8  97660459.185 9
E10  25315003.646 7  25315006.015 8 133031232.853 7 100637269.131 8
E11  23837124.216 7  23837122.725 8 125264931.538 7  94762097.090 8
E16  26728862.705 6  26728867.686 6 140461087.800 6 106257907.503 6
E25  25197758.359 8  25197762.750 8 132415108.074 8 100171170.168 8
E36  24497714.093 8  24497717.274 9 128736363.766 8  97388237.004 9
G08  21802868.383 7                  21802875.215 7  21802872.078 8 114574834.310 7                  89279175.889 7  85559150.700 8
G10  21322457.316 8                  21322463.031 8  21322459.247 8 112050270.909 8                  87311931.961 8  83673921.788 8
G16  22241605.441 7  22241608.741 5                                 116880404.367 7  91075651.202 5                
G18  23412787.390 6                  23412790.642 4  23412800.709 6 123034996.78916                  95871462.70514  91876807.038 6
G23  21333492.886 7                  21333496.986 8  21333498.333 8 112108258.088 7                  87357099.254 8  83717225.928 8
G27  20245026.387 8                  20245031.605 8  20245029.119 9 106388326.882 8                  82900021.330 8  79445841.994 9
R01  21878354.842 7                 116952401.896 7
R08  21123520.327 8  21123523.840 7 113115502.913 8  87978911.572 7
R14  21896777.103 8  21896781.829 7 116722121.072 8  90783748.211 7
R15  21333848.728 7  21333851.912 7 114001805.647 7  88667919.505 7
R17  22200165.658 5  22200167.681 5 118797546.520 5  92397970.32115
R24  19611991.799 8  19611993.924 8 104874136.142 8  81568889.692 8
> 2025 06 15 09 03 30.0000000  0 27
C05  39429761.116 6  39429757.539 7 205321094.001 6 158767291.196 7
C13  38136497.200 7  38136497.569 7 198586724.204 7 153559838.123 7
C19  25712209.582 6                 133890319.403 6
C20  23562645.328 8                 122696893.780 8
C26  24953600.415 4                 129939938.98214
C29  21806261.232 8                 113550919.807 8
C35  23211659.439 7                 120869209.445 7
C47  23077019.903 8                 120168098.805 8
E02  24565239.413 7  24565240.771 9 129091203.467 7  97656663.313 9
E10  25320493.111 7  25320495.544 8 133060078.995 7 100659091.025 8
E11  23839404.437 7  23839403.351 8 125276916.113 7  94771163.334 8
E16  26737561.389 6  26737566.841 6 140506800.105 6 106292488.477 6
E25  25204580.596 7  25204584.911 8 132450959.909 7 100198291.795 8
E36  24493064.495 8  24493067.618 9 128711930.210 8  97369753.191 9
G02  24031542.553 4                                                                                                
G08  21795336.117 6                  21795342.525 7  21795339.194 8 114535249.195 6                  89248330.302 7  85529590.384 8
G10  21317927.343 8                  21317933.275 8  21317929.315 8 112026464.548 8                  87293381.544 8  83656144.287 8
G16  22249843.065 7  22249846.710 5                                 116923692.843 7  91109382.450 5                
G18  23420983.528 5                  23420990.366 5  23421021.830 5 123078074.188 5                  95905029.353 5  91908975.31415
G23  21337269.689 8                  21337273.315 8  21337274.849 8 112128101.957 8                  87372562.020 8  83732044.405 8
G27  20243771.968 8                  20243777.372 8  20243775.335 9 106381737.244 8                  82894886.577 8  79440921.171 9
R01  21867481.331 7                 116894277.708 7
R08  21123160.743 8  21123163.093 7 113113575.891 8  87977412.754 7
R14  21906156.483 8  21906161.271 7 116772118.530 8  90822635.087 7
R15  21333052.539 7  21333053.911 6 113997549.179 7  88664608.855 6
R17  22191227.001 6  22191228.323 6 118749714.751 6  92360767.811 6
R24  19610818.885 8  19610820.935 8 104867862.790 8  81564010.433 8
> 2025 06 15 09 03 45.0000000  0 28
C05  39429269.932 6  39429265.677 7 205318532.778 6 158765310.675 7
C13  38138560.175 6  38138562.741 7 198597476.177 6 153568152.233 7
C19  25701910.405 6                 133836687.948 6
C20  23557364.611 8                 122669397.324 8
C29  21808610.342 8                 113563154.724 8
C35  23205231.348 7                 120835738.679 7
C45  26172026.304 4                 136284514.65614
C47  23082451.935 8                 120196381.526 8
E02  24564303.629 7  24564305.362 9 129086287.939 7  97652944.748 9
E10  25325987.209 7  25325989.609 8 133088949.607 7 100680931.419 8
E11  23841694.552 7  23841693.186 8 125288949.392 7  94780266.408 8
E16  26746265.113 6  26746269.081 6 140552534.048 6 106327085.85116
E25  25211415.295 8  25211418.967 8 132486872.842 8 100225459.684 8
E36  24488423.633 8  24488426.952 9 128687543.544 8  97351304.843 9
G02  24023072.342 5                                                 126241998.27615                                
G08  21787816.966 6                  21787823.038 6  21787819.607 7 114495734.720 6                  89217539.866 6  85500082.829 7
G10  21313420.024 8                  21313426.163 8  21313422.370 8 112002779.538 8                  87274925.705 8  83638457.453 8
G16  22258096.429 7  22258100.277 5                                 116967067.188 7  91143180.582 5                
G18  23429187.460 5                                  23429224.274 5 123121178.46515                                  91941163.68115
G23  21341068.685 7                  21341073.389 8  21341074.944 8 112148069.758 7                  87388121.313 8  83746955.416 8
G27  20242541.178 8                  20242546.652 8  20242544.050 9 106375267.802 8                  82889845.413 8  79436090.082 9
R01  21856626.317 7                 116836251.232 7
R08  21122838.946 8  21122841.143 7 113111850.926 8  87976071.127 7
R14  21915556.173 8  21915561.036 7 116822225.082 8  90861606.807 7
R15  21332293.347 7  21332296.431 6 113993492.455 7  88661453.695 6
R17  22182293.885 5  22182295.257 5 118701914.185 5  92323589.475 5
R23  22175576.072 4                 118624369.40714
R24  19609662.921 8  19609665.247 7 104861684.130 8  81559204.784 7
> 2025 06 15 09 04  0.0000000  0 26
C05  39428778.047 6  39428773.634 7 205315970.589 6 158763329.451 7
C13  38140629.054 7  38140630.778 7 198608245.511 7 153576479.741 7
C19  25691616.424 7                 133783078.143 7
C20  23552106.057 8                 122642014.698 8
C29  21810973.419 8                 113575461.226 8
C35  23198811.889 7                 120802312.420 7
C47  23087893.204 8                 120224716.658 8
E02  24563388.669 8  24563390.414 9 129081479.877 8  97649307.495 9
E10  25331485.797 7  25331489.206 8 133117849.807 7 100702794.206 8
E11  23843994.129 7  23843993.340 8 125301036.462 7  94789410.189 8
E16  26754973.161 6  26754976.875 6 140598294.493 6 106361703.345 6
E25  25218262.606 8  25218265.600 8 132522852.010 8 100252677.637 8
E36  24483792.552 8  24483796.259 9 128663209.024 8  97332895.957 9
G08  21780312.546 6                  21780318.530 7  21780315.049 7 114456296.472 6                  89186808.721 7  85470632.227 7
G10  21308937.024 8                  21308943.041 8  21308939.249 8 111979221.295 8                  87256568.614 8  83620865.277 8
G16  22266368.046 7  22266371.216 5                                 117010532.532 7  91177049.652 5                
G18  23437394.184 5                                  23437425.104 6 123164314.77615                                  91973375.941 6
G23  21344893.552 7                  21344897.380 8  21344898.898 8 112168166.491 7                  87403781.100 8  83761962.720 8
G27  20241334.294 8                  20241339.419 8  20241336.451 9 106368923.775 8                  82884902.029 8  79431352.677 9
R01  21845790.424 7                 116778328.634 7
R08  21122555.286 7  21122557.936 7 113110333.864 7  87974891.222 7
R14  21924976.747 8  21924981.516 7 116872444.878 8  90900666.613 7
R15  21331573.160 7  21331575.708 6 113989641.154 7  88658458.250 6
R17  22173366.885 5  22173367.709 5 118654150.10915  92286439.76715
R23  22183810.546 6                 118668430.74416
R24  19608526.464 8  19608528.030 8 104855605.062 8  81554476.612 8
> 2025 06 15 09 04 15.0000000  0 28
C05  39428287.320 6  39428283.191 6 205313416.713 6 158761354.611 6
C13  38142700.810 7  38142704.481 7 198619041.333 7 153584827.730 7
C19  25681326.749 7                 133729499.626 7
C20  23546871.779 8                 122614755.428 8
C29  21813352.767 8                 113587848.475 8
C32  24848365.239 4                 129391879.39614
C35  23192404.226 7                 120768940.053 7
C47  23093346.387 8                 120253113.342 8
E02  24562496.581 8  24562497.659 9 129076788.675 8  97645758.624 9
E10  25336992.882 7  25336995.791 8 133146788.790 7 100724686.360 8
E11  23846306.404 7  23846305.383 8 125313186.523 7  94798601.643 8
E16  26763687.646 6  26763691.660 6 140644090.738 6 106396347.792 6
E25  25225123.691 8  25225126.507 8 132558906.474 8 100279952.579 8
E36  24479174.376 8  24479177.242 9 128638935.993 8  97314533.574 9
G02  24006155.506 5                                                 126153097.53115                                
G08  21772823.547 6                  21772829.746 6  21772827.037 8 114416944.020 6                  89156144.489 6  85441245.667 8
G10  21304479.964 8                  21304485.914 7  21304482.189 8 111955799.246 8                  87238317.680 7  83603374.816 8
G16  22274658.007 7  22274660.989 5                                 117054097.677 7  91210996.486 5                
G18  23445611.271 5                                  23445647.925 5 123207495.49315                                  92005619.07115
G23  21348743.394 7                  21348747.568 8  21348749.677 9 112188401.283 7                  87419548.479 8  83777073.114 9
G27  20240152.648 8                  20240157.645 8  20240155.241 9 106362714.678 8                  82880063.789 8  79426716.004 9
R01  21834976.617 7                 116720520.050 7
R08  21122312.871 8  21122315.476 7 113109033.820 8  87973880.080 7
R14  21934421.801 8  21934426.401 7 116922787.122 8  90939821.641 7
R15  21330890.648 7  21330894.312 6 113986004.702 7  88655629.863 6
R17  22164453.481 6  22164451.235 5 118606430.11016  92249325.769 5
R23  22192058.667 6                 118712542.389 6
R24  19607410.485 8  19607411.733 8 104849635.370 8  81549833.497 8
> 2025 06 15 09 04 30.0000000  0 27
C05  39427797.995 6  39427794.111 7 205310869.888 6 158759385.256 7
C13  38144778.756 6  38144782.889 7 198629862.276 6 153593195.172 7
C19  25671042.944 6                 133675951.311 6
C20  23541660.088 8                 122587618.410 8
C29  21815746.366 8                 113600315.133 8
C32  24852689.648 5                                
C35  23186004.463 7                 120735620.342 7
C47  23098811.412 8                 120281570.229 8
E02  24561625.269 7  24561626.865 9 129072213.102 7  97642297.210 9
E10  25342507.440 7  25342509.610 8 133175765.193 7 100746606.803 8
E11  23848630.499 7  23848629.164 8 125325398.247 7  94807839.727 8
E16  26772410.301 6  26772412.647 6 140689921.084 6 106431018.166 6
E25  25231997.566 8  25232001.608 8 132595034.763 8 100307283.363 8
E36  24474566.690 8  24474569.664 9 128614723.139 8  97296216.703 9
G08  21765351.057 6                  21765357.064 7  21765354.266 8 114377676.106 6                  89125546.257 7  85411922.321 8
G10  21300048.569 8                  21300054.268 7  21300050.548 8 111932512.231 8                  87220171.984 7  83585985.147 8
G16  22282967.151 7  22282970.089 5                                 117097760.922 7  91245019.774 5                
G18  23453836.124 5                                                                                                
G23  21352620.049 7                  21352624.015 8  21352625.933 8 112208772.545 7                  87435422.171 8  83792285.419 8
G27  20238996.180 8                  20239001.616 8  20238999.022 9 106356639.282 8                  82875329.694 8  79422179.184 9
R01  21824182.772 7                 116662824.518 7
R08  21122109.676 8  21122113.557 7 113107949.776 8  87973036.949 7
R14  21943888.218 8  21943893.467 7 116973250.330 8  90979070.736 7
R15  21330251.811 7  21330255.411 7 113982581.645 7  88652967.510 7
R17  22155551.294 5  22155542.697 5 118558757.30115  92212246.85415
R23  22200314.676 6                 118756701.998 6
R24  19606313.999 8  19606316.131 8 104843773.683 8  81545274.412 8
