     3.04           OBSERVATION DATA    Mixed(MIXED)        RINEX VERSION / TYPE
cnvtToRINEX 3.14.0  convertToRINEX OPR  20250615 162123 UTC PGM / RUN BY / DATE 
----------------------------------------------------------- COMMENT             
1003                                                        MARKER NAME         
1003                                                        MARKER NUMBER       
GEODETIC                                                    MARKER TYPE         
GNSS Observer       Trimble                                 OBSERVER / AGENCY   
6337S22116          Geo Explorer 3      6.26                REC # / TYPE / VERS 
                    UNKNOWN EXT     NONE                    ANT # / TYPE        
  3915165.3230  1191104.1990  4876592.5147                  APPROX POSITION XYZ 
        1.3030        0.0000        0.0000                  ANTENNA: DELTA H/E/N
R    4 C1C C2C L1C L2C                                      SYS / # / OBS TYPES 
C    4 C2I C7I L2I L7I                                      SYS / # / OBS TYPES 
G    8 C1C C2W C2X C5X L1C L2W L2X L5X                      SYS / # / OBS TYPES 
E    4 C1X C8X L1X L8X                                      SYS / # / OBS TYPES 
    15.000                                                  INTERVAL            
  2025     6    15     9    49    0.0000000     GPS         TIME OF FIRST OBS   
  2025     6    15    10    19    0.0000000     GPS         TIME OF LAST OBS    
     0                                                      RCV CLOCK OFFS APPL 
  7 R01  1 R02 -4 R08  6 R15  0 R16 -1 R17  4 R24  2        GLONASS SLOT / FRQ #
R L2C -0.25000                                              SYS / PHASE SHIFT   
G L2X -0.25000                                              SYS / PHASE SHIFT   
    18                                                      LEAP SECONDS        
    32                                                      # OF SATELLITES     
   C13    26    16    25    15                              PRN / # OF OBS      
   C19   121     0   121     0                              PRN / # OF OBS      
   C20   121     0   121     0                              PRN / # OF OBS      
   C24    51     0    50     0                              PRN / # OF OBS      
   C26     3     0     3     0                              PRN / # OF OBS      
   C29   112     0   112     0                              PRN / # OF OBS      
   C35   121     0   121     0                              PRN / # OF OBS      
   C44    90     0    88     0                              PRN / # OF OBS      
   C47    44     0    44     0                              PRN / # OF OBS      
   E02   121   121   121   121                              PRN / # OF OBS      
   E04    49    55    47    55                              PRN / # OF OBS      
   E10    28    55    26    52                              PRN / # OF OBS      
   E11   121   121   121   121                              PRN / # OF OBS      
   E25    85    80    84    80                              PRN / # OF OBS      
   E30   121   121   121   121                              PRN / # OF OBS      
   E34    79    77    78    77                              PRN / # OF OBS      
   E36   121   121   121   121                              PRN / # OF OBS      
   G01    17     0    15    15    15     0    15    13      PRN / # OF OBS      
   G02   121   121     0     0   121   121     0     0      PRN / # OF OBS      
   G08   121     0   121   121   121     0   121   121      PRN / # OF OBS      
   G10   121     0   121   121   121     0   121   121      PRN / # OF OBS      
   G16    44     0     0     0    35     0     0     0      PRN / # OF OBS      
   G23    31     0    26    39    29     0    26    38      PRN / # OF OBS      
   G27   121     0   121   121   121     0   121   121      PRN / # OF OBS      
   G32    19     0     6     2    14     0     6     2      PRN / # OF OBS      
   R01   121     0   121     0                              PRN / # OF OBS      
   R02   121   121   121   121                              PRN / # OF OBS      
   R08    57    17    48    16                              PRN / # OF OBS      
   R15   101    81    97    72                              PRN / # OF OBS      
   R16   103    96   102    94                              PRN / # OF OBS      
   R17   121   121   121   121                              PRN / # OF OBS      
   R24   121   121   121   121                              PRN / # OF OBS      
DBHZ                                                        SIGNAL STRENGTH UNIT
                                                            END OF HEADER       
>                              2  1
              *** Start of Kinematic Data ***               COMMENT             
> 2025 06 15 09 49  0.0000000  0 23
C13  38349186.437 5  38349185.077 4 199694297.54815 154416257.65014
C19  23755321.511 8                 123700189.37418
C20  22785278.725 7                 118648900.42817
C24  25298866.465 5                 131737788.00815
C29  22249778.203 7                 115860439.35417
C35  21997493.613 8                 114546720.37818
E02  24527714.905 7  24527717.424 9 128894012.77317  97507489.66519
E10  26190048.367 5  26190053.687 5 137629730.76015 104115912.33715
E11  24202127.904 7  24202126.614 8 127183037.55617  96213135.98518
E25  26410702.455 5  26410706.339 7 138789457.69215 104993122.70217
E30  26864402.127 6  26864406.021 7 141173381.79216 106796759.76517
E36  23605387.967 8  23605390.409 9 124047148.96418  93840873.08119
G02  22407600.263 7  22407602.281 5                                 117752729.99917  91755385.93615                
G08  20504337.324 8                  20504342.658 8  20504340.799 9 107751018.21618                  83961971.90918  80463584.22419
G10  20701451.539 8                  20701456.791 8  20701453.420 8 108786856.25718                  84769007.25618  81236990.56318
G16  23763027.599 6                                                 124875500.48516                                
G27  20216479.122 8                  20216484.832 8  20216481.519 8 106238311.67518                  82783124.15618  79333813.97918
R01  20101868.924 5                 107455976.47215
R02  22804284.633 7  22804292.130 6 121688045.19817  94646286.51316
R08  21476596.459 5  21476603.060 5 115006318.00615  89449280.12615
R15  21601020.587 6  21601026.395 7 115429321.72816  89778222.58117
R17  20494904.008 8  20494906.703 8 109672366.86818  85300736.16118
R24  19505458.236 8  19505460.091 7 104304450.33718  81125650.01317
> 2025 06 15 09 49 15.0000000  0 25
C13  38351823.099 5  38351824.616 4 199708019.932 5 154426868.774 4
C19  23746863.374 7                 123656149.417 7
C20  22784578.807 6                 118645274.646 6
C24  25299694.000 5                 131741948.466 5
C29  22254713.871 7                 115886138.721 7
C35  21993137.198 8                 114524037.128 8
E02  24530657.314 8  24530659.262 9 128909471.993 8  97519184.464 9
E10  26196461.489 5  26196461.927 5 137663412.118 5 104141392.035 5
E11  24206172.295 7  24206171.125 8 127204291.298 7  96229214.286 8
E25  26419339.593 5  26419339.837 7 138834823.210 5 105027441.235 7
E30  26859456.101 7  26859460.149 7 141147393.409 7 106777099.745 7
E36  23602703.909 8  23602706.627 9 124033045.291 8  93830203.727 9
G02  22400729.717 7  22400731.109 5                                 117716621.382 7  91727249.382 5                
G08  20500353.442 8                  20500359.060 7  20500356.825 9 107730083.552 8                  83945659.231 7  80447951.232 9
G10  20701653.262 8                  20701659.035 8  20701655.086 8 108787916.977 8                  84769833.779 8  81237782.649 8
G16  23773460.819 5                                                 124930332.313 5                                
G23  22186757.154 5                                  22186762.045 6 116592123.11015                                  87065632.902 6
G27  20219873.438 8                  20219878.061 8  20219875.314 8 106256144.491 8                  82797019.886 8  79347130.700 8
R01  20096268.426 6                 107426038.351 6
R02  22791524.550 7  22791530.191 6 121619946.611 7  94593321.056 6
R08  21483036.507 5                 115040791.910 5
R15  21606950.508 6  21606956.012 7 115461012.938 6  89802871.234 7
R16  22367047.188 5  22367018.954 4 119480566.51815
R17  20487773.243 7  20487775.390 8 109634209.168 7  85271057.974 8
R24  19507912.525 7  19507915.661 7 104317578.782 7  81135861.056 7
>                              3  5
              *** Start of Occupation ***                   COMMENT             
1003                                                        MARKER NAME         
1003                                                        MARKER NUMBER       
  3915165.3230  1191104.1990  4876592.5147                  APPROX POSITION XYZ 
        1.3030        0.0000        0.0000                  ANTENNA: DELTA H/E/N
> 2025 06 15 09 49 30.0000000  0 23
C13  38354455.024 4  38354465.045 4 199721734.45514 154437473.75814
C19  23738417.453 7                 123612169.251 7
C20  22783904.978 6                 118641767.430 6
C29  22259659.874 7                 115911890.072 7
C35  21988790.505 8                 114501405.238 8
E02  24533615.902 7  24533617.794 9 128925019.397 7  97530945.969 9
E10  26202870.054 6  26202880.454 6 137697094.236 6 104166872.74916
E11  24210221.228 7  24210220.018 8 127225569.448 7  96245311.063 8
E25  26427980.634 5  26427975.204 7 138880201.27515 105061769.345 7
E30  26854525.280 7  26854528.181 7 141121478.936 7 106757495.593 7
E36  23600027.447 8  23600029.933 9 124018978.377 8  93819562.203 9
G02  22393864.935 7  22393866.121 5                                 117680545.850 7  91699138.530 5                
G08  20496389.302 8                  20496395.475 8  20496391.937 9 107709251.981 8                  83929426.870 8  80432395.198 9
G10  20701877.527 8                  20701882.230 8  20701879.016 8 108789092.666 8                  84770749.902 8  81238660.603 8
G16  23783897.063 5                                                 124985174.53115                                
G23  22194375.390 4                  22194381.046 6  22194381.067 6 116632159.549 4                  90882256.72616  87095530.296 6
G27  20223288.159 8                  20223293.232 8  20223290.526 8 106274089.959 8                  82811003.352 8  79360531.531 8
R01  20090700.534 6                 107396274.572 6
R02  22778766.723 7  22778773.195 6 121551872.655 7  94540374.756 6
R08  21489521.584 4                                
R15  21612914.974 7  21612915.711 6 115492854.093 7  89827636.476 6
R17  20480651.290 8  20480653.643 7 109596098.743 8  85241416.578 7
R24  19510384.507 8  19510387.258 7 104330794.867 8  81146140.224 7
> 2025 06 15 09 49 45.0000000  0 21
C19  23729983.230 8                 123568248.491 8
C20  22783255.120 6                 118638378.441 6
C24  25301371.096 5                 131750850.41615
C29  22264613.935 7                 115937692.824 7
C35  21984454.032 8                 114478824.167 8
E02  24536590.507 8  24536592.755 9 128940654.293 8  97542773.652 9
E10  26209279.068 6  26209289.979 6 137730776.423 6 104192353.143 6
E11  24214274.723 7  24214273.584 8 127246871.406 7  96261425.827 8
E25  26436604.169 4  26436612.918 6 138925316.18314 105096106.438 6
E30  26849607.188 7  26849610.766 7 141095637.844 7 106737947.021 7
E36  23597357.431 8  23597359.985 9 124004947.635 8  93808948.031 9
G02  22387005.998 7  22387007.251 5                                 117644503.040 7  91671053.243 5                
G08  20492444.952 8                  20492450.960 8  20492447.195 9 107688523.088 8                  83913274.454 8  80416915.763 9
G10  20702122.651 8                  20702128.144 8  20702124.164 9 108790382.729 8                  84771755.149 8  81239623.963 9
G16  23794335.790 5                                                 125040026.714 5                                
G27  20226724.401 8                  20226729.570 8  20226726.527 8 106292147.447 8                  82825074.134 8  79374016.025 8
R01  20085165.247 6                 107366684.412 6
R02  22766012.580 7  22766019.641 6 121483823.233 7  94487447.668 6
R15  21618897.559 7  21618902.002 7 115524844.046 7  89852517.495 7
R17  20473537.991 8  20473540.678 8 109558035.465 8  85211811.765 8
R24  19512872.270 8  19512874.428 7 104344097.636 8  81156486.792 7
> 2025 06 15 09 50  0.0000000  0 24
C13  38359725.048 5                 199749141.05215
C19  23721559.877 7                 123524389.056 7
C20  22782626.407 6                 118635109.001 6
C24  25302180.263 6                 131755325.83116
C29  22269579.372 7                 115963548.427 7
C35  21980127.562 8                 114456295.633 8
E02  24539583.384 7  24539584.838 9 128956378.153 7  97554668.660 9
E10  26215689.565 6  26215690.994 5 137764460.358 6 104217834.27615
E11  24218333.056 7  24218332.013 7 127268198.667 7  96277559.769 7
E25  26445252.268 5  26445252.786 6 138970719.34815 105130453.467 6
E30  26844703.509 6  26844707.859 7 141069871.958 6 106718455.260 7
E36  23594694.217 8  23594697.323 9 123990954.651 8  93798362.418 9
G02  22380153.729 7  22380154.957 5                                 117608494.451 7  91642994.661 5                
G08  20488519.768 7                  20488525.882 8  20488523.090 9 107667898.570 7                  83897203.385 8  80401514.344 9
G10  20702390.361 8                  20702395.516 8  20702391.856 8 108791788.611 8                  84772850.667 8  81240673.802 8
G16  23804776.166 5                                                 125094889.94715                                
G27  20230181.883 8                  20230187.347 8  20230184.333 8 106310318.488 8                  82839233.346 8  79387585.293 8
R01  20079662.555 6                 107337269.998 6
R02  22753265.888 7  22753272.403 6 121415800.358 7  94434541.054 6
R08  21502521.895 5  21502529.841 5 115145131.38615  89557249.73815
R15  21624914.156 6  21624916.321 7 115556983.890 6  89877515.235 7
R16  22353315.098 6  22353311.017 5 119407311.93816  92872397.927 5
R17  20466434.180 8  20466436.586 7 109520020.995 8  85182244.987 7
R24  19515376.329 8  19515378.654 7 104357488.676 8  81166902.025 7
> 2025 06 15 09 50 15.0000000  0 22
C13  38362344.069 4                 199762830.60714
C19  23713147.827 7                 123480589.168 7
C20  22782021.833 7                 118631957.248 7
C24  25303057.122 6                 131759901.630 6
C29  22274554.811 7                 115989454.850 7
C35  21975811.525 8                 114433817.844 8
E02  24542592.373 8  24542593.694 9 128972188.854 8  97566629.352 9
E10  26222099.010 6  26222101.600 5 137798143.861 6 104243315.680 5
E11  24222396.483 7  24222394.738 7 127289549.079 7  96293711.226 7
E30  26839813.538 6  26839819.050 7 141044179.378 6 106699018.953 7
E36  23592038.351 8  23592041.289 9 123976997.364 8  93787803.839 9
G02  22373306.859 7  22373309.523 5                                 117572518.263 7  91614961.292 5                
G08  20484615.106 7                  20484620.598 8  20484618.390 9 107647376.646 7                  83881212.251 8  80386189.561 9
G10  20702679.549 8                  20702684.841 8  20702681.333 8 108793308.220 8                  84774034.765 8  81241808.577 8
G16  23815218.155 6                                                 125149761.534 6                                
G27  20233660.852 8                  20233666.492 8  20233663.732 8 106328600.923 8                  82853479.414 8  79401237.760 8
R01  20074192.421 7                 107308029.704 7
R02  22740522.834 7  22740529.405 6 121347802.727 7  94381654.112 6
R15  21630954.241 5  21630959.048 6 115589271.255 5  89902627.534 6
R16  22348805.361 5                 119383233.46115
R17  20459338.849 8  20459341.111 7 109482053.278 8  85152714.561 7
R24  19517896.912 8  19517899.089 7 104370965.985 8  81177384.347 7
> 2025 06 15 09 50 30.0000000  0 23
C19  23704749.707 7                 123436850.792 7
C20  22781439.305 7                 118628924.970 7
C24  25303949.765 6                 131764582.073 6
C29  22279540.045 7                 116015413.822 7
C35  21971504.987 8                 114411392.571 8
C47  24056933.006 5                 125270980.35515
E02  24545617.545 8  24545619.275 9 128988088.088 8  97578656.998 9
E10  26228508.626 6  26228512.348 6 137831828.760 6 104268797.985 6
E11  24226463.771 7  24226462.288 7 127310924.382 7  96309881.488 7
E30  26834938.957 6  26834944.787 6 141018562.051 6 106679639.601 6
E36  23589389.811 8  23589392.336 9 123963077.551 8  93777273.594 9
G02  22366467.512 7  22366469.887 5                                 117536576.226 7  91586954.542 5                
G08  20480728.996 8                  20480735.290 7  20480732.904 9 107626959.224 8                  83865302.598 7  80370942.815 9
G10  20702990.235 8                  20702996.140 8  20702992.135 8 108794943.229 8                  84775308.807 8  81243029.518 8
G16  23825662.034 5                                                 125204643.300 5                                
G27  20237161.300 8                  20237167.113 8  20237164.410 9 106346996.475 8                  82867813.581 8  79414974.680 9
R01  20068755.461 6                 107278965.453 6
R02  22727786.715 7  22727792.144 6 121279832.270 7  94328788.228 6
R08  21515684.313 5                 115215433.42915
R15  21637023.575 6  21637029.772 7 115621707.774 6  89927855.809 7
R16  22344333.949 5  22344326.469 5                  92835074.05815
R17  20452253.219 8  20452255.734 8 109444134.468 8  85123222.103 8
R24  19520434.029 8  19520435.829 7 104384531.335 8  81187935.200 7
> 2025 06 15 09 50 45.0000000  0 22
C19  23696360.788 7                 123393171.761 7
C20  22780878.946 7                 118626009.556 7
C24  25304869.238 6                 131769364.397 6
C29  22284534.615 7                 116041422.794 7
C35  21967208.002 8                 114389017.487 8
E02  24548658.843 8  24548661.181 9 129004073.213 8  97590749.637 9
E10  26234917.678 6  26234922.361 6 137865512.332 6 104294279.328 6
E11  24230535.661 7  24230534.361 8 127332322.024 7  96326068.676 8
E30  26830080.211 6  26830083.580 6 140993017.589 6 106660315.412 6
E36  23586747.817 8  23586749.974 9 123949192.714 8  93766769.800 9
G02  22359634.454 7  22359636.289 5                                 117500665.796 7  91558972.482 5                
G08  20476862.973 7                  20476869.307 8  20476866.636 9 107606644.084 7                  83849472.621 8  80355772.402 9
G10  20703322.832 8                  20703328.631 8  20703324.803 8 108796690.996 8                  84776670.720 8  81244334.703 8
G16  23836107.479 5                                                 125259532.01715                                
G23                                                  22232655.304 5                                                  87245730.453 5
G27  20240683.022 8                  20240688.224 8  20240686.139 9 106365502.508 8                  82882233.861 8  79428794.091 9
R01  20063351.291 6                 107250075.144 6
R02  22715054.011 7  22715059.863 6 121211887.248 7  94275942.234 6
R15  21643124.965 6  21643126.657 7 115654289.921 6  89953197.425 7
R16  22339881.706 5  22339890.656 5 119335598.94915  92816613.953 5
R17  20445175.621 8  20445178.418 8 109406262.066 8  85093765.854 8
R24  19522986.756 8  19522988.864 7 104398182.168 8  81198552.526 7
> 2025 06 15 09 51  0.0000000  0 23
C19  23687985.247 7                 123349556.533 7
C20  22780342.637 7                 118623215.267 7
C24  25305809.299 5                 131774252.707 5
C29  22289539.807 7                 116067485.941 7
C35  21962921.400 8                 114366696.923 8
E02  24551717.596 7  24551720.233 9 129020148.383 7  97602910.376 9
E10  26241329.602 6  26241332.278 5 137899198.843 6 104319762.960 5
E11  24234612.319 7  24234611.393 8 127353746.153 7  96342275.859 8
E30  26825233.849 6  26825236.067 6 140967550.441 6 106641049.766 6
E36  23584112.631 8  23584115.118 9 123935347.056 8  93756295.656 9
G02  22352806.301 7  22352809.682 5                                 117464791.494 7  91531018.542 5                
G08  20473017.762 7                  20473023.312 7  20473020.921 9 107586435.554 7                  83833725.704 7  80340681.634 9
G10  20703678.304 8                  20703683.707 8  20703680.165 9 108798555.730 8                  84778123.770 8  81245727.194 9
G16  23846555.697 5                                                                                                
G23                                  22240371.663 5  22240347.797 5                                  91070492.25515  87275912.974 5
G27  20244226.639 8                  20244231.804 8  20244229.356 9 106384123.192 8                  82896743.494 8  79442699.141 9
R01  20057979.617 7                 107221363.267 7
R02  22702326.537 7  22702330.996 6 121143972.422 7  94223119.682 6
R08  21528898.673 5  21528902.366 4 115286349.76315
R15  21649247.508 6  21649252.389 7 115687021.713 6  89978655.555 7
R16  22335468.783 6  22335475.047 5 119312039.640 6  92798290.115 5
R17  20438108.029 8  20438110.498 8 109368440.656 8  85064349.205 8
R24  19525556.031 8  19525558.557 7 104411922.610 8  81209239.522 7
> 2025 06 15 09 51 15.0000000  0 23
C19  23679620.598 7                 123306002.868 7
C20  22779828.667 7                 118620539.541 7
C24  25306764.461 4                 131779244.430 4
C29  22294554.933 7                 116093600.612 7
C35  21958645.025 8                 114344428.473 8
E02  24554793.538 7  24554795.965 9 129036310.925 7  97615137.206 9
E10  26247739.165 6  26247741.974 5 137932885.637 6 104345246.831 5
E11  24238693.743 7  24238693.058 8 127375194.139 7  96358501.115 8
E25  26488509.228 4  26488484.577 6 139198163.39514 105302318.938 6
E30  26820402.270 6  26820403.578 6 140942158.150 6 106621840.704 6
E36  23581484.756 8  23581487.362 9 123921538.016 8  93745849.213 9
G02  22345985.645 7  22345988.801 6                                 117428950.881 7  91503090.794 6                
G08  20469192.308 8                  20469198.046 7  20469195.103 9 107566331.303 8                  83818060.087 7  80325668.732 9
G10  20704054.852 8                  20704060.252 8  20704056.525 8 108800534.749 8                  84779665.883 8  81247205.031 8
G23  22248046.905 4                  22248059.276 5  22248051.916 5 116914284.87214                  91102035.727 5  87306142.066 5
G27  20247791.077 8                  20247796.786 8  20247793.946 8 106402855.917 8                  82911340.412 8  79456687.845 8
R01  20052641.716 7                 107192827.664 7
R02  22689604.286 7  22689607.968 6 121076085.721 7  94170318.962 6
R08  21535564.550 5                 115322036.236 5
R15  21655402.713 6  21655404.942 7 115719900.320 6  90004227.757 7
R16  22331089.492 5  22331092.761 5 119288652.720 5  92780100.50615
R17  20431048.846 8  20431051.769 7 109330667.803 8  85034970.354 7
R24  19528141.912 8  19528144.368 7 104425750.396 8  81219994.500 7
> 2025 06 15 09 51 30.0000000  0 22
C19  23671268.504 7                 123262510.140 7
C20  22779337.486 7                 118617981.470 7
C29  22299580.571 7                 116119765.951 7
C35  21954378.565 8                 114322211.406 8
E02  24557886.202 8  24557888.154 9 129052559.864 8  97627429.367 9
E10  26254150.401 5  26254151.780 5 137966571.858 5 104370730.27015
E11  24242779.979 7  24242778.758 8 127396665.073 7  96374743.720 8
E30  26815583.601 7  26815585.846 6 140916840.144 7 106602687.826 6
E36  23578863.812 8  23578866.457 9 123907764.738 8  93735429.818 9
G02  22339174.520 7  22339174.303 5                                 117393142.944 7  91475188.516 5                
G08  20465386.029 8                  20465392.395 7  20465389.178 9 107546330.689 8                  83802475.176 7  80310733.190 9
G10  20704452.949 8                  20704457.836 8  20704454.215 8 108802627.090 8                  84781296.256 8  81248767.491 8
G16  23867450.892 5                                                                                                
G23  22255762.039 3                  22255765.951 5  22255765.525 5                                  91133626.702 5  87336416.799 5
G27  20251377.078 8                  20251382.697 8  20251380.163 8 106421699.701 8                  82926023.861 8  79470759.489 8
R01  20047336.029 7                 107164467.568 7
R02  22676886.903 7  22676892.566 6 121008226.662 7  94117539.843 6
R08  21542258.028 5                 115357870.974 5
R15  21661580.760 5  21661584.381 7 115752924.282 5  90029913.070 7
R16  22326743.549 6  22326750.655 6 119265438.225 6  92762044.498 6
R17  20423999.069 8  20424000.985 7 109292942.686 8  85005628.599 7
R24  19530744.199 8  19530746.142 7 104439664.364 8  81230816.421 7
> 2025 06 15 09 51 45.0000000  0 24
C19  23662928.907 7                 123219083.023 7
C20  22778870.220 7                 118615545.443 7
C26  25792314.558 5                 134307244.72315
C29  22304615.259 7                 116145986.431 7
C35  21950122.247 8                 114300050.286 8
C47  24093281.257 5                 125460063.95015
E02  24560995.540 8  24560997.604 9 129068899.547 8  97639790.211 9
E10  26260560.837 5  26260563.471 6 138000261.880 5 104396216.54316
E11  24246870.770 7  24246869.663 8 127418163.310 7  96391006.984 8
E30  26810780.368 6  26810783.189 7 140891600.955 6 106583594.597 7
E36  23576250.483 8  23576253.233 9 123894031.645 8  93725040.833 9
G02  22332365.938 7  22332367.523 5                                 117357372.309 7  91447315.313 5                
G08  20461600.545 8                  20461607.139 8  20461603.945 9 107526438.333 8                  83786974.642 8  80295878.511 9
G10  20704873.548 8                  20704878.587 8  20704874.293 8 108804837.150 8                  84783018.330 8  81250417.840 8
G16  23877904.642 4                                                 125479189.00414                                
G23  22263494.830 5                  22263494.393 6  22263487.960 5 116995434.90915                  91165268.777 6  87366740.301 5
G27  20254985.041 8                  20254990.341 8  20254987.690 8 106440658.933 8                  82940797.298 8  79484917.337 8
R01  20042064.453 7                 107136288.011 7
R02  22664176.282 7  22664182.831 6 120940400.271 7  94064786.061 6
R08  21548975.903 5                 115393858.906 5
R15  21667791.585 5  21667791.918 6 115786098.062 5  90055714.675 6
R16  22322432.019 6  22322434.800 5 119242400.338 6  92744126.382 5
R17  20416960.065 8  20416961.529 7 109255270.244 8  84976327.785 7
R24  19533363.147 8  19533364.912 7 104453669.139 8  81241709.032 7
> 2025 06 15 09 52  0.0000000  0 23
C19  23654602.213 7                 123175724.960 7
C20  22778426.248 7                 118613234.665 7
C24  25309782.855 5                 131794846.09715
C29  22309660.747 7                 116172264.982 7
C35  21945878.046 8                 114277948.276 8
E02  24564122.575 8  24564124.724 9 129085332.962 8  97652221.979 9
E10  26266975.334 5  26266977.045 6 138033958.673 5 104421708.03616
E11  24250967.259 7  24250966.412 8 127439691.984 7  96407293.263 8
E25  26514448.755 5  26514451.432 5 139334604.37415 105405548.01415
E30  26805994.128 6  26805996.249 7 140866443.961 6 106564563.477 7
E36  23573645.729 8  23573648.314 9 123880341.884 8  93714684.619 9
G02  22325566.649 7  22325568.075 5                                 117321642.174 7  91419473.639 5                
G08  20457836.364 8                  20457843.152 8  20457839.872 9 107506657.512 8                  83771561.041 8  80281107.143 9
G10  20705317.001 8                  20705322.170 8  20705318.788 8 108807167.882 8                  84784834.506 8  81252158.333 8
G16  23888365.512 4                                                                                                
G23  22271238.947 4                  22271233.436 5  22271233.035 5 117036110.774 4                  91196963.982 5  87397114.844 5
G27  20258615.115 8                  20258620.835 8  20258617.617 8 106459736.664 8                  82955663.019 8  79499163.666 8
R01  20036827.056 7                 107108292.502 7
R02  22651472.894 7  22651478.441 7 120872610.478 7  94012060.752 7
R08  21555721.193 5                 115430002.091 5
R15  21674026.093 7  21674028.395 7 115819423.693 7  90081634.771 7
R17  20409929.796 8  20409932.106 8 109217653.531 8  84947070.385 8
R24  19535999.110 8  19536001.265 7 104467768.037 8  81252674.836 7
> 2025 06 15 09 52 15.0000000  0 22
C19  23646288.841 7                 123132433.955 7
C20  22778006.070 8                 118611046.850 8
C24  25310802.481 4                 131800001.57614
C29  22314718.727 7                 116198599.388 7
C35  21941644.479 8                 114255903.349 8
E02  24567267.542 8  24567269.077 9 129101857.866 8  97664722.942 9
E10  26273391.057 5  26273391.541 6 138067660.062 5 104447203.00516
E11  24255069.663 7  24255068.543 8 127461248.786 7  96423600.814 8
E25  26523107.103 5  26523112.596 4 139380120.927 5 105439980.849 4
E30  26801221.864 6  26801224.594 7 140841366.979 6 106545592.937 7
E36  23571048.308 8  23571051.126 9 123866693.245 8  93704359.509 9
G02  22318774.726 7  22318776.235 5                                 117285950.255 7  91391661.775 5                
G08  20454092.980 8                  20454099.434 7  20454096.232 9 107486986.223 8                  83756232.772 7  80266417.553 9
G10  20705782.869 8                  20705788.202 7  20705785.005 9 108809617.061 8                  84786742.956 7  81253987.256 9
G23  22278989.371 3                                  22278984.577 6 117076852.006 3                                  87427538.467 6
G27  20262267.735 8                  20262273.468 7  20262270.245 8 106478930.529 8                  82970619.271 7  79513496.752 8
R01  20031624.363 7                 107080479.123 7
R02  22638774.580 7  22638781.030 6 120804855.382 7  93959362.396 6
R15  21680291.316 7  21680293.970 6 115852899.057 7  90107671.197 6
R16  22313911.769 6                 119197050.61616
R17  20402910.449 8  20402912.514 8 109180090.711 8  84917854.844 8
R24  19538652.726 8  19538655.560 7 104481958.743 8  81263712.050 7
> 2025 06 15 09 52 30.0000000  0 21
C19  23637987.533 8                 123089206.743 8
C20  22777608.838 7                 118608978.522 7
C24  25311864.050 4                 131805523.90814
C29  22319786.580 7                 116224986.097 7
C35  21937421.223 8                 114233912.110 8
E02  24570428.771 8  24570430.082 9 129118470.565 8  97677290.320 9
E11  24259176.417 7  24259175.287 8 127482830.047 7  96439926.887 8
E30  26796465.219 6  26796467.452 7 140816366.823 6 106526680.430 7
E36  23568458.411 8  23568460.855 9 123853082.138 8  93694062.796 9
G02  22311989.182 7  22311990.885 6                                 117250293.210 7  91363877.123 6                
G08  20450369.859 8                  20450376.006 7  20450372.688 8 107467421.133 8                  83740987.234 7  80251807.251 8
G10  20706270.890 8                  20706276.373 8  20706272.555 8 108812181.010 8                  84788740.845 8  81255901.884 8
G23                                  22286759.108 5  22286750.238 6                                  91260499.85415  87458008.296 6
G27  20265941.566 8                  20265947.460 8  20265944.475 9 106498236.972 8                  82985663.237 8  79527913.901 9
R01  20026454.297 7                 107052844.372 7
R02  22626082.712 6  22626089.616 6 120737132.103 6  93906688.806 6
R08  21569315.247 5                                
R15  21686582.096 6  21686584.570 5 115886520.085 6  90133820.921 5
R16  22309697.003 6  22309723.059 5 119174546.276 6  92691339.35515
R17  20395900.091 8  20395902.980 8 109142578.165 8  84888678.469 8
R24  19541323.332 8  19541325.924 7 104496237.373 8  81274817.620 7
> 2025 06 15 09 52 45.0000000  0 22
C19  23629698.071 8                 123046043.493 8
C20  22777234.545 7                 118607029.479 7
C29  22324863.265 7                 116251424.905 7
C35  21933208.497 8                 114211974.571 8
C47  24122472.200 5                 125612010.67715
E02  24573606.181 8  24573608.006 9 129135170.797 8  97689923.903 9
E10                  26286218.543 6                 104498194.852 6
E11  24263287.769 7  24263286.680 8 127504435.550 7  96456271.288 8
E30  26791722.105 6  26791724.711 7 140791443.272 6 106507825.917 7
E36  23565875.004 8  23565877.622 9 123839508.418 8  93683794.345 9
G02  22305210.485 7  22305212.516 6                                 117214671.083 7  91336119.621 6                
G08  20446667.379 7                  20446673.012 7  20446669.908 9 107447962.206 7                  83725824.480 7  80237276.224 9
G10  20706780.196 8                  20706786.125 8  20706782.010 8 108814859.443 8                  84790827.907 8  81257902.014 8
G16  23919733.211 5                                                 125698823.61915                                
G23                                  22294527.991 4  22294526.779 6                                  91292342.39614  87488523.948 6
G27  20269637.161 8                  20269642.274 8  20269639.694 9 106517655.687 8                  83000794.674 8  79542414.854 9
R01  20021318.132 7                 107025388.458 7
R02  22613398.079 7  22613404.000 6 120669440.805 7  93854040.118 6
R15  21692903.168 7                 115920285.873 7
R16  22305516.334 6  22305516.817 5 119152216.813 6  92673972.08215
R17  20388899.969 8  20388901.925 8 109105116.217 8  84859541.382 8
R24  19544010.038 8  19544011.924 7 104510604.147 8  81285991.764 7
> 2025 06 15 09 53  0.0000000  0 24
C19  23621422.107 8                 123002946.915 8
C20  22776883.331 7                 118605202.119 7
C24  25314045.945 5                 131816887.11315
C29  22329951.837 7                 116277918.161 7
C35  21929006.414 8                 114190093.259 8
C47  24129776.400 5                 125650076.56315
E02  24576801.280 7  24576803.133 9 129151960.953 7  97702625.532 9
E10  26292634.855 5  26292632.384 6 138168786.44715 104523693.49216
E11  24267404.451 7  24267403.139 8 127526067.796 7  96472635.925 8
E25  26549104.380 6  26549119.110 4 139516444.94116 105543327.64414
E30  26787014.483 5  26786996.916 7 140766599.083 5 106489031.443 7
E36  23563299.459 8  23563302.233 9 123825974.535 8  93673556.078 9
G02  22298439.018 7  22298440.784 6                                 117179086.166 7  91308391.119 6                
G08  20442985.551 8                  20442991.270 7  20442988.087 9 107428612.186 8                  83710746.537 7  80222826.558 9
G10  20707312.550 8                  20707317.777 8  20707314.301 8 108817654.807 8                  84793006.084 8  81259989.458 8
G16  23930194.348 4                                                                                                
G27  20273354.392 8                  20273359.441 8  20273356.668 8 106537189.088 8                  83016015.533 8  79557001.490 8
R01  20016216.032 7                 106998114.101 7
R02  22600719.974 7  22600725.768 6 120601784.336 7  93801418.510 6
R08  21583019.676 4                                
R15  21699248.849 6  21699254.664 5 115954199.021 6  90186612.01115
R16  22301368.529 6  22301372.478 6 119130064.911 6  92656742.876 6
R17  20381909.184 8  20381911.371 8 109067707.406 8  84830445.690 8
R24  19546713.572 8  19546716.064 7 104525061.365 8  81297236.288 7
> 2025 06 15 09 53 15.0000000  0 23
C19  23613157.606 7                 122959912.587 7
C20  22776555.612 7                 118603491.775 7
C24  25315164.899 5                 131822720.352 5
C29  22335049.787 7                 116304461.352 7
C35  21924814.337 8                 114168263.649 8
C47  24137085.859 4                 125688160.884 4
E02  24580012.572 8  24580014.464 8 129168836.199 8  97715391.549 8
E10  26299043.432 5  26299045.094 5 138202491.336 5 104549190.92715
E11  24271525.473 7  24271523.753 8 127547721.984 7  96489017.137 8
E25  26557775.328 6                 139562002.995 6
E30  26782288.873 5  26782283.323 8 140741829.59615 106470293.584 8
E36  23560730.393 8  23560733.629 9 123812475.852 8  93663344.416 9
G02  22291674.066 7  22291675.549 5                                 117143533.846 7  91280688.034 5                
G08  20439323.123 7                  20439328.981 8  20439326.186 9 107409366.569 7                  83695749.916 8  80208454.816 9
G10  20707865.682 8                  20707870.946 8  20707867.893 9 108820562.271 8                  84795271.635 8  81262160.616 9
G23  22310119.304 5                                  22310112.869 6 117240452.19715                                  87549694.073 6
G27  20277092.420 8                  20277097.782 8  20277094.796 8 106556832.438 8                  83031322.036 8  79571670.215 8
R01  20011147.125 7                 106971017.049 7
R02  22588047.188 7  22588051.645 6 120534158.547 7  93748820.799 6
R15  21705618.604 6  21705624.761 4 115988253.472 6  90213098.729 4
R16  22297251.883 5  22297256.870 6 119108086.168 5  92639648.361 6
R17  20374927.426 8  20374929.391 8 109030347.025 8  84801387.639 8
R24  19549433.263 8  19549435.380 7 104539604.359 8  81308547.506 7
> 2025 06 15 09 53 30.0000000  0 24
C19  23604906.286 8                 122916943.315 8
C20  22776249.201 6                 118601901.057 6
C24  25316306.934 5                 131828657.386 5
C29  22340155.939 7                 116331056.731 7
C35  21920632.597 8                 114146488.478 8
E02  24583240.593 8  24583242.470 9 129185798.947 8  97728223.761 9
E10  26305456.604 5  26305457.419 5 138236197.298 5 104574689.102 5
E11  24275650.886 7  24275649.079 8 127569400.517 7  96505416.806 8
E25  26566444.780 6  26566465.722 5 139607571.002 6 105612261.93315
E30  26777580.068 5  26777584.533 8 140717137.740 5 106451614.354 8
E36  23558169.566 8  23558172.139 9 123799014.836 8  93653161.251 9
G02  22284915.222 7  22284916.821 5                                 117108016.868 7  91253012.461 5                
G08  20435681.255 7                  20435686.792 8  20435683.937 9 107390227.974 7                  83680836.719 8  80194163.013 9
G10  20708440.868 8                  20708445.501 8  20708442.690 9 108823584.200 8                  84797626.420 8  81264417.255 9
G16  23951119.889 5                                                 125863759.71215                                
G23  22317928.939 4                                  22317926.678 6 117281499.827 4                                  87580346.377 6
G27  20280851.793 8                  20280857.375 8  20280853.830 8 106576588.113 8                  83046716.047 8  79586422.820 8
R01  20006111.468 7                 106944100.000 7
R02  22575379.858 7  22575385.431 6 120466566.750 7  93696249.561 6
R08  21596806.598 5  21596813.371 5 115650013.24115  89949991.00115
R15  21712020.193 6                 116022452.063 6
R16  22293172.269 6  22293173.914 5 119086283.587 6  92622690.705 5
R17  20367955.474 8  20367957.039 8 108993037.993 8  84772369.463 8
R24  19552169.225 8  19552171.539 7 104554235.485 8  81319927.245 7
> 2025 06 15 09 53 45.0000000  0 24
C19  23596666.706 7                 122874039.368 7
C20  22775966.128 6                 118600429.785 6
C24  25317503.901 5                 131834698.32715
C29  22345273.024 7                 116357704.361 7
C35  21916461.241 8                 114124767.823 8
E02  24586485.279 8  24586487.200 9 129202849.111 8  97741122.082 9
E10  26311869.733 5  26311871.624 6 138269904.104 5 104600187.978 6
E11  24279780.509 8  24279779.044 8 127591103.432 8  96521834.912 8
E25  26575119.289 6  26575138.824 4 139653148.915 6 105646741.20214
E30  26772895.760 6  26772900.648 8 140692523.591 6 106432993.882 8
E36  23555615.102 8  23555617.775 9 123785591.531 8  93643006.601 9
G02  22278163.460 7  22278164.880 5                                 117072535.258 7  91225364.456 5                
G08  20432059.315 8                  20432065.271 7  20432062.218 9 107371196.682 8                  83666007.133 7  80179951.317 9
G10  20709037.661 8                  20709043.015 8  20709039.488 9 108826720.613 8                  84800070.389 8  81266759.374 9
G16  23961583.895 5                                                 125918748.679 5                                
G23  22325754.395 4                                  22325749.336 6 117322607.972 4                                  87611043.923 6
G27  20284632.091 8                  20284638.356 8  20284634.920 8 106596456.053 8                  83062197.541 8  79601259.280 8
R01  20001110.148 7                 106917363.282 7
R02  22562720.130 7  22562724.617 6 120399009.223 7  93643704.942 6
R08  21603750.370 5                 115687196.278 5
R15  21718448.465 6  21718485.492 5 116056794.155 6  90266403.94515
R16  22289123.333 6                 119064657.237 6
R17  20360992.246 8  20360994.434 7 108955780.407 8  84743391.363 7
R24  19554921.668 8  19554923.703 7 104568954.957 8  81331375.698 7
> 2025 06 15 09 54  0.0000000  0 24
C13  38401615.729 5                 199967307.73715
C19  23588440.491 7                 122831202.820 7
C20  22775707.725 7                 118599079.860 7
C24  25318672.583 5                 131840844.659 5
C29  22350401.238 7                 116384405.997 7
C35  21912301.195 8                 114103103.540 8
E02  24589746.260 7  24589748.857 9 129219988.475 7  97754087.855 9
E10  26318285.609 5  26318287.052 6 138303613.601 5 104625688.953 6
E11  24283915.595 8  24283913.972 8 127612832.431 8  96538272.751 8
E25  26583793.755 6                 139698738.225 6
E30  26768228.173 6  26768231.961 8 140667989.139 6 106414433.706 8
E36  23553068.454 8  23553071.032 9 123772207.738 8  93632881.844 9
G02  22271418.029 7  22271420.539 5                                 117037090.899 7  91197745.494 5                
G08  20428458.263 8                  20428464.834 8  20428461.555 9 107352274.630 8                  83651262.700 8  80165821.236 9
G10  20709656.379 8                  20709661.706 7  20709658.110 8 108829973.188 8                  84802604.852 7  81269188.233 8
G16  23972048.684 4                                                                                                
G23  22333590.108 3                                  22333583.119 5 117363778.31313                                  87641787.852 5
G27  20288434.498 8                  20288440.475 8  20288437.313 8 106616438.001 8                  83077767.862 8  79616180.842 8
R01  19996142.270 7                 106890809.047 7
R02  22550064.568 6  22550071.022 6 120331488.682 6  93591189.026 6
R15  21724912.267 5  21724927.180 5 116091280.69015  90293227.24015
R16  22285109.722 6  22285109.237 5 119043208.983 6  92589187.20815
R17  20354039.931 8  20354042.454 7 108918576.495 8  84714454.951 7
R24  19557691.667 8  19557693.602 7 104583764.631 8  81342894.305 7
> 2025 06 15 09 54 15.0000000  0 25
C13  38404222.891 5  38404223.827 4 199980886.846 5 154637891.14714
C19  23580227.619 7                 122788434.981 7
C20  22775471.615 6                 118597852.367 6
C24  25319854.257 4                 131847097.16614
C29  22355539.650 7                 116411162.691 7
C35  21908151.846 8                 114081496.954 8
C44  25040163.207 5                 130390695.98915
E02  24593025.299 8  24593027.747 9 129237217.925 8  97767121.822 9
E10  26324701.306 4  26324703.685 6 138337326.91914 104651192.729 6
E11  24288055.557 8  24288054.194 8 127634588.650 8  96554731.168 8
E25  26592472.330 6                 139744339.883 6
E30  26763575.567 6  26763578.612 8 140643535.585 6 106395934.781 8
E36  23550528.942 8  23550531.973 9 123758864.566 8  93622787.818 9
G02  22264680.686 7  22264683.105 6                                 117001685.139 7  91170156.571 6                
G08  20424878.545 8                  20424885.127 8  20424882.506 9 107333463.168 8                  83636604.462 8  80151773.731 9
G10  20710297.870 8                  20710302.788 7  20710299.932 8 108833342.933 8                  84805230.615 7  81271704.613 8
G16  23982514.885 4                                                 126028748.83814                                
G23                                  22341429.215 5  22341431.618 5                                  91484426.99515  87672578.615 5
G27  20292258.799 8                  20292264.402 8  20292261.613 8 106636534.964 8                  83093427.836 8  79631188.308 8
R01  19991209.714 7                 106864438.782 7
R02  22537419.812 7  22537425.352 6 120264006.419 7  93538702.889 6
R08  21617728.687 5                 115761996.15315
R15  21731383.348 5                 116125898.63515
R17  20347098.300 8  20347100.331 8 108881427.331 8  84685561.193 8
R24  19560477.859 8  19560480.547 7 104598665.487 8  81354483.842 7
> 2025 06 15 09 54 30.0000000  0 24
C13  38406827.555 5  38406831.355 4 199994461.811 5 154648388.254 4
C19  23572028.117 8                 122745737.287 8
C20  22775258.694 5                 118596748.435 5
C24  25321081.364 4                 131853456.93214
C29  22360688.700 7                 116437975.475 7
C35  21904013.659 8                 114059949.264 8
C44  25031460.995 5                 130345397.033 5
E02  24596321.600 8  24596323.811 9 129254538.546 8  97780224.746 9
E10  26331131.242 4  26331120.937 6                 104676700.24116
E11  24292200.854 8  24292199.713 8 127656373.075 8  96571210.924 8
E25  26601152.492 7                 139789954.733 7
E30  26758938.554 6  26758940.868 8 140619164.265 6 106377498.047 8
E36  23547997.580 8  23548000.700 9 123745563.112 8  93612725.367 9
G02  22257950.579 7  22257953.069 6                                 116966318.929 7  91142598.518 6                
G08  20421320.609 8                  20421326.700 8  20421323.770 9 107314763.584 8                  83622033.329 8  80137809.775 9
G10  20710961.473 8                  20710966.427 7  20710963.760 9 108836830.850 8                  84807948.489 7  81274309.218 9
G16  23992981.536 5                                                 126083761.517 5                                
G23                                  22349290.708 5  22349288.844 5                                  91516606.372 5  87703417.026 5
G27  20296105.272 8                  20296110.438 7  20296108.121 8 106656747.948 8                  83109178.215 7  79646282.402 8
R01  19986310.436 7                 106838253.677 7
R02  22524781.326 7  22524786.043 6 120196564.036 7  93486247.757 6
R15  21737891.400 6  21737895.158 6 116160677.192 6  90347248.31316
R17  20340166.477 8  20340168.241 8 108844334.457 8  84656711.207 8
R24  19563281.405 8  19563284.131 7 104613658.604 8  81366145.152 7
> 2025 06 15 09 54 45.0000000  0 23
C13  38409433.725 5  38409438.535 4 200008032.783 5 154658882.104 4
C19  23563841.440 7                 122703109.918 7
C20  22775074.497 6                 118595767.912 6
C29  22365848.609 7                 116464844.230 7
C35  21899887.230 8                 114038460.521 8
C44  25022764.943 5                 130300099.519 5
E02  24599634.787 7  24599637.005 9 129271950.077 7  97793396.425 9
E11  24296351.368 8  24296350.270 8 127678185.486 8  96587711.889 8
E25  26609835.031 6  26609842.228 6 139835582.355 6 105784750.47416
E30  26754316.260 7  26754318.765 8 140594875.095 7 106359123.554 8
E36  23545474.391 8  23545477.350 9 123732303.255 8  93602694.384 9
G02  22251228.435 7  22251230.450 6                                 116930992.467 7  91115071.414 6                
G08  20417783.686 8                  20417789.661 8  20417786.241 8 107296175.982 8                  83607549.458 8  80123929.408 8
G10  20711647.631 8                  20711652.506 7  20711650.179 9 108840436.755 8                  84810758.282 7  81277001.924 9
G16  24003454.096 4                                                                                                
G23                                  22357157.320 4  22357158.924 6                                  91548835.019 4  87734302.751 6
G27  20299973.964 8                  20299979.573 7  20299976.752 9 106677076.788 8                  83125018.857 7  79661463.005 9
R01  19981446.632 7                 106812254.190 7
R02  22512149.156 6  22512154.854 6 120129162.191 6  93433824.185 6
R08  21631799.922 5  21631803.621 5 115837404.08115  90095758.25715
R15  21744426.704 6  21744425.563 4 116195601.380 6  90374411.40314
R17  20333245.282 8  20333246.908 8 108807297.788 8  84627904.918 8
R24  19566102.781 8  19566105.087 7 104628744.139 8  81377878.320 7
> 2025 06 15 09 55  0.0000000  0 23
C13  38412041.884 5  38412044.763 3 200021606.626 5 154669378.190 3
C19  23555670.547 7                 122660560.186 7
C20  22774906.269 5                 118594917.655 5
C29  22371020.076 7                 116491776.021 7
C35  21895773.436 8                 114017037.941 8
C44  25014062.735 4                 130254810.833 4
C47  24188435.909 5                 125955603.25015
E02  24602966.861 8  24602968.764 9 129289459.630 8  97806642.243 9
E11  24300509.025 8  24300507.743 8 127700033.136 8  96604239.477 8
E25  26618520.682 6  26618528.082 6 139881229.863 6 105819282.485 6
E30  26749710.028 6  26749713.600 8 140570675.629 6 106340816.862 8
E36  23542960.922 8  23542963.458 9 123719092.218 8  93592700.315 9
G02  22244514.857 7  22244516.773 6                                 116895712.705 7  91087580.765 6                
G08  20414269.344 8                  20414274.981 8  20414272.012 8 107277707.620 8                  83593158.549 8  80110138.113 8
G10  20712357.799 8                  20712362.562 7  20712359.704 9 108844167.688 8                  84813665.490 7  81279788.001 9
G16  24013927.100 5                                                 126193818.47515                                
G27  20303865.884 8                  20303871.603 8  20303868.633 9 106697528.512 8                  83140955.271 8  79676735.398 9
R01  19976618.662 7                 106786447.846 7
R02  22499527.160 7  22499532.809 6 120061808.469 7  93381438.042 6
R15  21750988.709 5                 116230677.932 5
R16  22269403.644 5  22269390.250 5 118959199.96515  92523869.57115
R17  20326336.105 7  20326337.559 8 108770324.801 7  84599148.149 8
R24  19568942.398 8  19568944.055 7 104643929.222 8  81389688.973 7
> 2025 06 15 09 55 15.0000000  0 24
C13  38414652.796 5  38414649.378 3 200035181.987 5 154679877.40813
C19  23547514.405 8                 122618086.939 8
C20  22774769.465 5                 118594196.455 5
C29  22376203.977 7                 116518769.383 7
C35  21891671.504 8                 113995680.262 8
C44  25005371.245 5                 130209529.66715
C47  24195792.416 6                 125993930.854 6
E02  24606316.807 8  24606318.888 9 129307065.602 8  97819961.041 9
E11  24304672.918 7  24304671.327 8 127721914.458 7  96620792.539 8
E25  26627212.914 6  26627217.827 6 139926895.579 6 105853828.260 6
E30  26745122.370 7  26745125.361 8 140546564.572 7 106322577.025 8
E36  23540455.988 8  23540458.490 9 123705928.579 8  93582742.097 9
G02  22237809.783 7  22237811.505 5                                 116860478.456 7  91060125.540 5                
G08  20410777.633 8                  20410783.241 8  20410780.677 9 107259357.363 8                  83578859.659 8  80096435.003 9
G10  20713091.061 8                  20713096.251 7  20713092.910 9 108848022.113 8                  84816668.960 7  81282666.331 9
G16  24024402.456 4                                                 126248867.90614                                
G23                                  22372937.225 6  22372940.284 5                                  91613448.21116  87796230.110 5
G27  20307780.612 8                  20307786.647 8  20307783.568 9 106718101.656 8                  83156986.274 8  79692098.443 9
R01  19971827.529 7                 106760833.403 7
R02  22486914.531 7  22486920.582 6 119994502.314 7  93329088.891 6
R15  21757589.697 5  21757587.610 6 116265905.399 5  90428919.27016
R16  22265541.707 6                 118938669.561 6
R17  20319438.226 8  20319440.458 8 108733414.236 8  84570439.984 8
R24  19571800.653 8  19571802.923 7 104659212.302 8  81401575.860 7
> 2025 06 15 09 55 30.0000000  0 23
C13  38417257.978 5                 200048757.415 5
C19  23539371.579 7                 122575689.138 7
C20  22774655.555 6                 118593603.013 6
C29  22381399.763 7                 116545822.884 7
C35  21887582.660 8                 113974386.218 8
C44  24996676.228 5                 130164254.711 5
C47  24203156.697 6                 126032292.717 6
E02  24609685.507 7  24609687.357 9 129324766.516 7  97833351.681 9
E11  24308843.004 8  24308841.645 8 127743827.997 8  96637370.009 8
E25  26635905.567 6  26635910.685 6 139972577.828 6 105888386.503 6
E30  26740549.365 7  26740553.906 8 140522540.657 7 106304403.104 8
E36  23537959.720 8  23537962.186 9 123692810.890 8  93572818.659 9
G02  22231113.309 7  22231114.484 5                                 116825288.287 7  91032704.662 5                
G08  20407307.512 8                  20407313.614 8  20407310.430 9 107241123.971 8                  83564651.796 8  80082819.154 9
G10  20713847.784 8                  20713852.642 7  20713849.641 9 108851998.594 8                  84819767.537 7  81285635.781 9
G23                                  22380848.795 6  22380854.734 5                                  91645837.027 6  87827269.199 5
G27  20311718.362 8                  20311724.328 8  20311721.074 8 106738794.755 8                  83173110.739 8  79707551.046 8
R01  19967071.106 7                 106735409.520 7
R02  22474310.383 8  22474316.009 6 119927242.580 8  93276775.880 6
R15  21764223.409 5  21764209.581 6 116301289.06815  90456434.129 6
R16  22261734.678 6  22261766.953 6 118918325.372 6  92491930.48816
R17  20312552.494 8  20312554.007 8 108696565.159 8  84541779.558 8
R24  19574676.425 8  19574678.998 8 104674592.187 8  81413537.951 8
> 2025 06 15 09 55 45.0000000  0 23
C19  23531243.714 7                 122533363.298 7
C20  22774565.425 6                 118593133.475 6
C24  25327550.784 4                 131887182.81514
C29  22386606.239 7                 116572932.868 7
C35  21883504.475 8                 113953152.316 8
C44  24987979.732 5                 130118982.510 5
C47  24210529.143 5                 126070684.971 5
E02  24613070.940 7  24613073.273 9 129342558.562 7  97846811.245 9
E10                  26363226.239 5                 104804331.47815
E11  24313018.089 7  24313017.314 8 127765770.022 7  96653969.004 8
E25  26644600.661 6  26644606.454 6 140018272.744 6 105922954.329 6
E30  26735995.436 7  26735998.386 8 140498600.323 7 106286292.407 8
E36  23535471.139 8  23535473.959 9 123679735.481 8  93562927.181 9
G02  22224424.919 7  22224425.345 5                                 116790138.672 7  91005315.388 5                
G08  20403859.022 7                  20403865.806 8  20403862.523 9 107223003.885 7                  83550532.288 8  80069287.938 9
G10  20714626.906 8                  20714632.186 7  20714629.245 9 108856093.279 8                  84822958.165 7  81288693.492 9
G23  22388765.206 4                  22388768.757 5  22388787.661 4                                  91678274.859 5
G27  20315678.312 8                  20315683.982 8  20315680.719 8 106759603.896 8                  83189325.662 8  79723090.342 8
R01  19962350.326 7                 106710173.035 7
R02  22461713.926 7  22461718.842 6 119860026.017 7  93224496.332 6
R15  21770852.158 6                 116336809.867 6
R17  20305676.893 8  20305677.926 7 108659773.646 8  84513163.952 7
R24  19577570.352 8  19577572.154 8 104690064.809 8  81425572.156 8
> 2025 06 15 09 56  0.0000000  0 26
C13  38422474.685 4                 200075895.81314
C19  23523130.714 8                 122491114.502 8
C20  22774501.613 7                 118592792.525 7
C29  22391823.467 7                 116600104.002 7
C35  21879439.513 8                 113931983.368 8
C44  24979289.865 6                 130073717.813 6
C47  24217907.479 5                 126109112.208 5
E02  24616475.169 8  24616477.376 9 129360446.429 8  97860343.296 9
E10  26369651.671 5  26369651.159 5 138573482.17015 104829877.20615
E11  24317199.920 7  24317199.310 7 127787745.245 7  96670593.085 7
E25  26653298.921 6  26653305.859 6 140063984.832 6 105957535.147 6
E30  26731455.920 7  26731459.505 8 140474748.533 7 106268248.690 8
E36  23532992.150 8  23532994.692 9 123666707.115 8  93553071.319 9
G02  22217744.687 7  22217745.261 5                                 116755034.556 7  90977961.528 5                
G08  20400433.016 8                  20400439.908 7  20400436.524 9 107205002.071 8                  83536504.929 7  80055845.054 9
G10  20715429.609 8                  20715435.146 8  20715431.602 9 108860310.854 8                  84826244.587 8  81291842.971 9
G16  24055841.758 5                                                 126414069.91015                                
G23                                  22396706.019 5                                                  91710765.101 5
G27  20319661.729 8                  20319667.062 8  20319663.355 8 106780533.857 8                  83205634.715 8  79738719.855 8
R01  19957665.523 7                 106685128.908 7
R02  22449126.631 7  22449131.456 6 119792857.963 7  93172254.624 6
R08  21667511.581 5                 116028603.50115
R15  21777536.497 5                 116372479.478 5
R16  22254220.629 6  22254251.645 5 118878194.93416  92460713.27915
R17  20298812.751 8  20298815.112 8 108623044.866 8  84484597.126 8
R24  19580482.131 8  19580484.173 7 104705635.398 8  81437682.609 7
> 2025 06 15 09 56 15.0000000  0 26
C19  23515032.464 8                 122448945.110 8
C20  22774459.754 7                 118592582.201 7
C24  25330220.351 5                 131901067.84015
C26  25917596.263 5                 134959569.76715
C29  22397053.917 7                 116627338.333 7
C35  21875387.425 8                 113910881.657 8
C44  24970600.224 6                 130028462.956 6
C47  24225298.130 6                 126147576.802 6
E02  24619898.062 7  24619899.858 9 129378432.171 7  97873949.372 9
E11  24321388.440 7  24321387.649 7 127809755.774 7  96687243.905 7
E25  26662001.929 6  26662007.955 6 140109716.121 6 105992130.456 6
E30  26726934.154 6  26726937.762 8 140450987.603 6 106250273.699 8
E34  26888164.224 5  26888180.120 5 141298333.45315 106891263.06215
E36  23530522.090 8  23530524.821 9 123653727.970 8  93543252.685 9
G02  22211073.984 7  22211074.683 5                                 116719978.053 7  90950644.804 5                
G08  20397030.590 7                  20397037.126 7  20397033.505 8 107187120.972 7                  83522571.583 7  80042492.256 8
G10  20716256.108 8                  20716261.315 8  20716257.739 9 108864653.396 8                  84829628.379 8  81295085.738 9
G16  24066325.106 5                                                                                                
G23                                  22404651.880 5                                                  91743309.208 5
G27  20323667.562 8                  20323673.037 8  20323669.921 8 106801586.745 8                  83222039.538 8  79754441.133 8
R01  19953016.314 7                 106660279.689 7
R02  22436549.076 7  22436554.184 6 119725741.303 7  93120052.818 6
R08  21674742.271 4                                
R16  22250518.373 5  22250525.356 5 118858411.304 5  92445326.002 5
R17  20291961.285 8  20291963.680 8 108586381.161 8  84456080.921 8
R24  19583412.664 8  19583414.553 7 104721305.813 8  81449870.692 7
> 2025 06 15 09 56 30.0000000  0 25
C19  23506949.419 8                 122406858.563 8
C20  22774444.792 6                 118592505.881 6
C24  25331619.764 5                 131908323.46315
C29  22402296.886 7                 116654639.076 7
C35  21871348.324 8                 113889850.582 8
C44  24961912.183 6                 129983221.271 6
C47  24232691.161 6                 126186081.740 6
E02  24623339.517 7  24623341.472 9 129396518.904 7  97887631.816 9
E10                  26382517.360 5                 104880931.80415
E11  24325584.078 7  24325583.419 7 127831804.784 7  96703923.833 7
E25  26670708.876 6  26670714.962 6 140155469.470 6 106026742.463 6
E30  26722428.975 6  26722433.942 8 140427320.938 6 106232369.960 8
E34  26880992.424 5  26880995.670 6 141260618.544 5 106862730.57216
E36  23528062.339 8  23528065.091 9 123640801.277 8  93533473.718 9
G02  22204412.249 7  22204413.688 5                                 116684972.531 7  90923367.768 5                
G08  20393651.696 8                  20393657.626 8  20393654.630 8 107169363.857 8                  83508734.855 8  80029232.091 8
G10  20717106.614 8                  20717111.851 8  20717108.635 9 108869123.986 8                  84833111.948 8  81298424.163 9
G27  20327698.030 8                  20327703.108 8  20327700.431 9 106822765.563 8                  83238542.515 8  79770256.495 9
R01  19948405.081 7                 106635628.753 7
R02  22423981.937 8  22423986.890 6 119658679.557 8  93067893.782 6
R08  21681994.082 5  21681997.372 5 116106159.23315  90304736.11415
R15  21790962.990 6                 116444273.30116
R16  22246848.261 5  22246854.343 6 118838820.953 5  92430088.98816
R17  20285122.037 7  20285125.119 8 108549786.100 7  84427618.158 8
R24  19586361.980 8  19586364.042 7 104737079.560 8  81462139.128 7
> 2025 06 15 09 56 45.0000000  0 25
C19  23498883.240 8                 122364854.347 8
C20  22774457.854 6                 118592562.584 6
C29  22407552.339 7                 116682005.317 7
C35  21867323.024 8                 113868889.385 8
C44  24953227.962 6                 129937991.997 6
C47  24240098.292 6                 126224626.135 6
E02  24626800.344 7  24626802.191 9 129414705.634 7  97901389.934 9
E10                  26388951.903 4                 104906508.79914
E11  24329787.040 7  24329786.337 7 127853891.377 7  96720632.176 7
E25  26679419.144 5  26679425.099 6 140201243.839 5 106061370.452 6
E30  26717944.701 7  26717948.147 8 140403747.792 7 106214537.036 8
E34  26873817.315 6  26873822.262 6 141222921.421 6 106834213.06216
E36  23525611.955 8  23525615.132 9 123627926.186 8  93523733.776 9
G02  22197760.495 7  22197762.537 5                                 116650017.123 7  90896129.854 5                
G08  20390296.209 8                  20390302.412 8  20390298.814 9 107151730.162 8                  83494994.313 8  80016064.067 9
G10  20717981.893 8                  20717987.246 8  20717983.478 8 108873721.682 8                  84836694.561 8  81301857.540 8
G23  22420584.584 4                  22420638.220 4  22420589.391 6 117820978.87214                  91808593.78514  87983239.96816
G27  20331751.411 8                  20331757.100 8  20331754.296 9 106844069.468 8                  83255142.967 8  79786165.250 9
R01  19943830.868 7                 106611175.667 7
R02  22411424.456 8  22411430.423 6 119591672.644 8  93015777.417 6
R08  21689273.485 5  21689278.160 4 116145169.76615  90335077.87514
R15  21797730.603 5  21797754.793 5 116480399.216 5  90595894.54415
R16  22243224.349 6  22243223.711 5 118819424.021 6  92415002.416 5
R17  20278296.983 8  20278299.542 7 108513259.008 8  84399208.234 7
R24  19589331.139 8  19589333.429 7 104752955.690 8  81474487.271 7
> 2025 06 15 09 57  0.0000000  0 23
C19  23490830.739 7                 122322925.546 7
C20  22774491.246 7                 118592745.253 7
C29  22412818.768 7                 116709429.931 7
C35  21863309.667 8                 113847991.063 8
C44  24944541.116 6                 129892768.252 6
C47  24247500.545 5                 126263202.767 5
E02  24630279.369 8  24630280.561 9 129432985.033 8  97915218.156 9
E11  24333995.996 8  24333995.065 7 127876008.271 8  96737363.463 7
E25  26688132.361 6  26688137.602 6 140247032.021 6 106096008.745 6
E30  26713475.976 7  26713478.957 8 140380261.237 7 106196769.564 8
E34  26866645.284 6  26866659.423 5 141185235.144 6 106805704.21315
E36  23523170.657 8  23523173.612 9 123615095.479 8  93514027.444 9
G02  22191117.193 8  22191119.379 6                                 116615104.938 8  90868925.570 6                
G08  20386963.021 7                  20386968.696 8  20386965.337 9 107134212.829 7                  83481344.454 8  80002982.939 9
G10  20718880.149 8                  20718884.743 8  20718881.480 9 108878439.212 8                  84840370.557 8  81305380.360 9
G23  22428572.102 3                                  22428576.430 5 117862950.730 3                                  88014582.275 5
G27  20335827.849 8                  20335833.462 8  20335830.645 8 106865491.129 8                  83271835.150 8  79802161.937 8
R01  19939291.927 7                 106586913.427 7
R02  22398876.811 7  22398881.685 6 119524713.710 7  92963698.351 6
R15  21804529.443 5  21804512.823 5 116516669.618 5  90624104.67415
R16  22239625.815 6  22239624.532 5 118800213.02816  92400060.12215
R17  20271481.826 8  20271484.449 7 108476792.735 8  84370845.614 7
R24  19592317.742 8  19592320.308 7 104768926.897 8  81486909.334 7
> 2025 06 15 09 57 15.0000000  0 21
C19  23482794.973 8                 122281078.112 8
C20  22774550.638 6                 118593059.365 6
C24  25335929.195 4                 131931047.56014
C29  22418098.108 7                 116736918.480 7
C35  21859309.541 8                 113827161.399 8
C44  24935854.989 5                 129847555.822 5
E02  24633775.608 7  24633777.728 9 129451362.739 7  97929120.735 9
E11  24338211.690 8  24338210.516 7 127898161.156 8  96754121.971 7
E25  26696846.724 5  26696853.963 6 140292839.279 5 106130661.600 6
E30  26709022.415 6  26709027.210 8 140356866.979 6 106179071.996 8
E34  26859476.494 5                 141147565.444 5
E36  23520738.558 8  23520741.538 9 123602314.875 8  93504359.008 9
G02  22184482.621 8  22184484.340 5                                 116580241.632 8  90841759.360 5                
G08  20383652.670 7                  20383658.473 7  20383655.105 8 107116817.761 7                  83467789.835 7  79989993.126 8
G10  20719801.007 8                  20719806.101 8  20719803.104 8 108883282.092 8                  84844144.229 8  81308996.797 8
G27  20339927.615 8                  20339933.171 8  20339930.978 9 106887036.157 8                  83288623.477 8  79818250.743 9
R01  19934790.245 7                 106562847.980 7
R02  22386338.531 7  22386343.434 6 119457809.045 7  92911661.413 6
R15  21811336.225 6                 116553089.17116
R17  20264680.167 8  20264681.520 8 108440393.303 8  84342534.895 8
R24  19595323.320 8  19595325.301 7 104784998.906 8  81499409.724 7
> 2025 06 15 09 57 30.0000000  0 20
C19  23474775.448 8                 122239317.446 8
C20  22774637.504 6                 118593510.193 6
C29  22423390.006 7                 116764476.082 7
C35  21855324.088 8                 113806405.742 8
C44  24927184.885 6                 129802359.861 6
E02  24637292.749 7  24637294.858 8 129469843.799 7  97943101.554 8
E04  26068849.816 5  26068852.575 6 136992722.07115 103634065.30916
E11  24342435.129 8  24342433.689 7 127920355.109 8  96770911.548 7
E25  26705571.026 6  26705575.204 6 140338670.726 6 106165332.707 6
E30  26704590.918 7  26704594.048 8 140333570.520 7 106161448.369 8
E36  23518316.956 8  23518319.889 9 123589589.600 8  93494732.420 9
G02  22177858.708 7  22177860.508 5                                 116545432.446 7  90814635.302 5                
G08  20380366.577 8                  20380372.655 7  20380369.262 8 107099550.293 8                  83454334.704 7  79977098.585 8
G10  20720747.488 8                  20720752.663 8  20720749.019 8 108888255.513 8                  84848019.634 8  81312710.701 8
G27  20344052.228 8                  20344057.472 8  20344055.192 9 106908709.669 8                  83305511.896 8  79834435.475 9
R01  19930326.599 7                 106538985.063 7
R02  22373811.891 7  22373817.747 6 119390964.415 7  92859671.300 6
R16  22232539.425 5  22232544.515 6 118762374.24315  92370625.82916
R17  20257891.837 8  20257893.559 8 108404066.282 8  84314280.488 8
R24  19598348.938 8  19598351.266 7 104801176.995 8  81511992.691 7
> 2025 06 15 09 57 45.0000000  0 22
C19  23466771.522 8                 122197638.497 8
C20  22774750.501 6                 118594092.334 6
C29  22428694.360 7                 116792097.328 7
C35  21851351.737 8                 113785718.837 8
C44  24918502.404 6                 129757175.163 6
E02  24640827.642 8  24640830.538 9 129488422.784 8  97957156.396 9
E04  26064587.960 4  26064591.279 5 136970314.82314 103617114.48615
E11  24346665.405 8  24346663.722 7 127942584.786 8  96787728.151 7
E25  26714296.137 6  26714300.599 5 140384520.718 6 106200017.749 5
E30  26700175.524 7  26700178.401 8 140310366.604 7 106143894.746 8
E36  23515904.784 8  23515907.830 9 123576914.249 8  93485143.615 9
G02  22171244.199 7  22171245.918 5                                 116510672.021 7  90787549.275 5                
G08  20377103.495 8                  20377110.099 7  20377106.944 9 107082405.267 8                  83440974.955 7  79964295.477 9
G10  20721717.291 8                  20721723.441 8  20721719.195 8 108893353.955 8                  84851992.409 8  81316517.940 8
G23  22452633.126 5                                                 117989410.29115                                
G27  20348199.823 8                  20348205.162 7  20348202.470 8 106930506.169 8                  83322496.186 7  79850712.064 8
R01  19925899.153 7                 106515319.206 7
R02  22361295.029 7  22361300.405 7 119324174.999 7  92807724.028 7
R08  21718698.048 6  21718719.668 5 116302707.38716  90457609.44715
R16  22229050.166 5  22229053.123 6 118743744.51715  92356136.040 6
R17  20251115.002 7  20251117.802 8 108367806.041 7  84286078.176 8
R24  19601393.030 8  19601395.254 7 104817455.666 8  81524653.869 7
> 2025 06 15 09 58  0.0000000  0 22
C19  23458782.142 7                 122156037.895 7
C20  22774886.618 6                 118594802.146 6
C29  22434010.238 7                 116819778.663 7
C35  21847391.251 8                 113765097.254 8
C44  24909824.014 6                 129711998.262 6
E02  24644380.884 7  24644383.958 9 129507095.895 7  97971282.475 9
E04  26060341.275 5                 136947996.90715
E11  24350901.557 8  24350900.180 8 127964846.531 8  96804569.021 8
E25  26723022.903 6                 140430385.396 6
E30  26695776.740 7  26695780.050 8 140287251.825 7 106126408.550 8
E34  26837997.457 6  26837997.722 6 141034657.93616 106691804.00616
E36  23513502.020 8  23513504.586 9 123564285.257 8  93475589.852 9
G02  22164637.879 7  22164640.202 5                                 116475956.850 7  90760498.536 5                
G08  20373864.268 8                  20373870.474 8  20373867.620 9 107065379.277 8                  83427707.921 8  79951581.253 9
G10  20722710.746 8                  20722716.292 8  20722711.899 8 108898573.655 8                  84856059.695 8  81320415.793 8
G27  20352370.787 8                  20352376.212 8  20352373.197 8 106952421.938 8                  83339573.407 8  79867077.727 8
R01  19921507.870 6                 106491847.034 6
R02  22348788.367 7  22348793.365 7 119257437.640 7  92755817.245 7
R08  21726123.808 4  21726137.925 5 116342478.979 4  90488542.864 5
R15  21831956.112 6  21831997.044 5 116663254.68416  90738158.06315
R17  20244351.461 8  20244352.668 7 108331609.539 8  84257925.343 7
R24  19604455.917 8  19604457.560 7 104833831.498 8  81537390.618 7
> 2025 06 15 09 58 15.0000000  0 25
C13  38445964.002 5                 200197981.69215
C19  23450808.314 7                 122114515.267 7
C20  22775046.311 6                 118595638.835 6
C24  25341983.620 5                 131962326.05215
C29  22439337.364 7                 116847519.298 7
C35  21843442.627 8                 113744540.454 8
C44  24901150.807 6                 129666828.655 6
E02  24647952.385 7  24647955.163 9 129525862.371 7  97985479.166 9
E04  26056109.082 5  26056114.799 5 136925767.630 5 103583405.28415
E11  24355143.466 8  24355142.372 8 127987139.554 8  96821433.525 8
E25  26731753.344 6  26731760.863 5 140476263.845 6 106269423.66815
E30  26691394.428 7  26691398.249 8 140264225.574 7 106108989.352 8
E34  26830830.637 4  26830841.244 7 140997051.551 4 106663355.070 7
E36  23511107.332 8  23511110.042 9 123551701.868 8  93466070.612 9
G02  22158040.421 7  22158041.938 5                                 116441286.396 7  90733482.593 5                
G08  20370646.786 8                  20370653.121 8  20370649.667 9 107048471.746 8                  83414533.238 8  79938955.520 9
G10  20723727.181 8                  20723732.276 8  20723728.027 8 108903913.823 8                  84860220.873 8  81324403.604 8
G27  20356563.183 8                  20356569.195 8  20356566.012 8 106974456.207 8                  83356742.942 8  79883531.878 8
R01  19917152.689 6                 106468568.226 6
R02  22336291.398 7  22336296.828 7 119190751.915 7  92703950.683 7
R08  21733572.843 4                                
R15  21838869.953 6                 116700265.779 6
R16  22222182.087 5  22222185.170 6 118707057.92815  92327595.540 6
R17  20237598.372 8  20237600.827 8 108295475.989 8  84229821.497 8
R24  19607535.771 8  19607537.882 7 104850303.497 8  81550202.199 7
> 2025 06 15 09 58 30.0000000  0 26
C13  38448579.184 5  38448569.112 4 200211586.082 5 154816450.51014
C19  23442849.410 7                 122073074.703 7
C20  22775230.029 6                 118596606.202 6
C24  25343546.521 4                 131970489.46914
C29  22444676.795 7                 116875323.037 7
C35  21839508.689 8                 113724052.354 8
C44  24892476.965 6                 129621670.269 6
C47  24292105.483 5                 126495452.57415
E02  24651542.469 8  24651544.689 9 129544725.885 8  97999749.245 9
E10                  26434049.967 5                 105085735.84115
E11  24359392.529 8  24359391.344 8 128009467.628 8  96838324.549 8
E25  26740481.476 4  26740494.704 6                 106304143.435 6
E30  26687030.383 7  26687034.021 8 140241291.868 7 106091640.143 8
E34  26823682.458 5  26823687.697 7 140959461.21615 106634918.318 7
E36  23508722.008 8  23508724.952 9 123539167.934 8  93456588.767 9
G02  22151452.135 8  22151453.414 5                                 116406664.393 8  90706504.425 5                
G08  20367452.434 8                  20367459.258 8  20367455.414 9 107031686.710 8                  83401453.974 8  79926421.229 9
G10  20724767.147 8                  20724771.779 8  20724768.570 8 108909378.185 8                  84864478.843 8  81328484.158 8
G16  24160799.060 5                                                 126965794.96215                                
G23  22476766.329 5                                  22476778.092 5 118116353.35115                                  88203801.61815
G27  20360779.665 8                  20360785.268 8  20360782.646 8 106996612.614 8                  83374007.665 8  79900077.263 8
R01  19912834.882 7                 106445486.907 7
R02  22323805.455 8  22323810.225 7 119124122.657 8  92652127.938 7
R16  22218800.182 6  22218804.698 5 118688996.65616  92313547.929 5
R17  20230858.390 8  20230860.425 8 108259409.530 8  84201769.813 8
R24  19610635.065 8  19610637.459 7 104866875.892 8  81563091.819 7
> 2025 06 15 09 58 45.0000000  0 25
C19  23434907.646 7                 122031716.517 7
C20  22775444.425 7                 118597704.354 7
C29  22450028.691 8                 116903189.894 8
C35  21835586.567 7                 113703633.230 7
C44  24883807.758 6                 129576523.321 6
C47  24299562.872 6                 126534288.291 6
E02  24655151.303 8  24655152.638 9 129563686.493 8  98014092.783 9
E04                  26047704.905 5                 103549983.644 5
E10                  26440500.376 5                 105111381.595 5
E11  24363647.989 8  24363647.012 8 128031830.793 8  96855242.130 8
E25  26749216.632 5  26749230.945 6 140568072.83815 106338876.375 6
E30  26682683.358 6  26682687.487 8 140218451.013 6 106074361.179 8
E34  26816540.665 5  26816537.494 7 140921887.11815 106606493.865 7
E36  23506346.666 8  23506349.371 9 123526683.619 8  93447144.479 9
G02  22144872.787 8  22144874.623 5                                 116372091.247 8  90679564.288 5                
G08  20364281.737 8                  20364288.180 8  20364284.857 8 107015024.422 8                  83388470.412 8  79913978.639 8
G10  20725830.753 8                  20725835.696 7  20725832.167 8 108914966.771 8                  84868833.579 7  81332657.452 8
G16  24171306.299 5                                                 127021010.545 5                                
G27  20365019.364 8                  20365024.492 8  20365022.238 9 107018891.314 8                  83391367.696 8  79916713.931 9
R01  19908554.490 7                 106422603.376 7
R02  22311329.943 8  22311335.182 7 119057550.184 8  92600349.449 7
R15  21852803.544 6  21852807.932 5 116774725.54516  90824881.40415
R16  22215456.325 6  22215462.830 6 118671128.153 6  92299650.129 6
R17  20224131.485 7  20224133.647 8 108223410.665 7  84173770.700 8
R24  19613752.702 8  19613754.911 7 104883548.385 8  81576059.291 7
> 2025 06 15 09 59  0.0000000  0 26
C19  23426981.620 7                 121990444.640 7
C20  22775680.825 7                 118598936.979 7
C29  22455392.772 7                 116931123.494 7
C35  21831679.441 8                 113683286.825 8
C44  24875142.621 6                 129531391.589 6
C47  24307028.168 6                 126573164.486 6
E02  24658777.973 8  24658779.669 8 129582747.685 8  98028512.429 8
E04                  26043527.339 6                 103533381.367 6
E10                  26446950.703 5                 105137036.24315
E11  24367910.932 8  24367910.023 8 128054232.751 8  96872189.056 8
E25  26757963.729 5  26757971.439 6 140614006.66915 106373624.955 6
E30  26678355.827 7  26678359.365 8 140195706.773 7 106057155.349 8
E34  26809385.296 5  26809391.240 7 140884332.82015 106578084.463 7
E36  23503981.196 8  23503983.875 9 123514252.579 8  93437740.467 9
G02  22138304.491 7  22138305.630 5                                 116337570.592 7  90652665.071 5                
G08  20361135.328 8                  20361141.308 8  20361138.398 8 106998488.823 8                  83375585.520 8  79901630.612 8
G10  20726918.510 8                  20726923.306 7  20726919.761 8 108920683.097 8                  84873287.863 7  81336926.142 8
G16  24181815.668 5                                                 127076240.196 5                                
G27  20369282.469 8                  20369288.292 8  20369285.404 9 107041295.811 8                  83408825.710 8  79933444.522 9
R01  19904311.160 7                 106399921.513 7
R02  22298865.776 8  22298871.150 7 118991038.792 8  92548618.405 7
R08  21756139.935 5  21756171.992 5 116503328.27215  90613649.96015
R15  21859817.265 6  21859819.714 5 116812179.567 6  90854012.241 5
R16  22212147.766 6  22212159.108 5 118653455.598 6  92285904.906 5
R17  20217417.401 8  20217420.061 8 108187483.123 8  84145827.080 8
R24  19616890.049 8  19616892.269 7 104900324.854 8  81589107.639 7
> 2025 06 15 09 59 15.0000000  0 27
C19  23419070.996 7                 121949253.450 7
C20  22775941.427 6                 118600298.109 6
C24  25348384.645 5                 131995674.26515
C29  22460769.048 8                 116959118.033 8
C35  21827785.926 8                 113663007.470 8
C44  24866477.276 6                 129486269.474 6
C47  24314498.668 5                 126612075.101 5
E02  24662423.302 7  24662424.559 8 129601903.488 7  98043003.664 8
E04  26039363.056 5  26039369.280 6 136837823.12015 103516848.065 6
E10                  26453406.908 5                 105162701.03215
E11  24372180.524 8  24372179.353 8 128076667.517 8  96889160.792 8
E25  26766711.310 6  26766715.150 6 140659955.152 6 106408384.703 6
E30  26674044.738 7  26674048.509 8 140173053.528 7 106040018.310 8
E34  26802244.946 5  26802247.376 6 140846792.783 5 106549685.767 6
E36  23501624.814 8  23501627.337 9 123501868.931 8  93428372.316 9
G02  22131743.612 7  22131745.337 5                                 116303096.716 7  90625802.345 5                
G08  20358011.491 8                  20358017.749 8  20358014.576 9 106982074.141 8                  83362794.846 8  79889372.893 9
G10  20728029.405 8                  20728034.434 8  20728030.824 8 108926521.217 8                  84877837.046 8  81341285.759 8
G16  24192327.132 5                                                 127131477.69615                                
G27  20373568.965 8                  20373574.328 8  20373571.761 9 107063820.104 8                  83426377.109 8  79950264.586 9
R01  19900105.407 7                 106377435.932 7
R02  22286412.132 8  22286416.839 6 118924583.135 8  92496930.794 6
R08  21763684.989 6  21763711.310 5 116543849.086 6  90645166.143 5
R15  21866852.153 6  21866868.258 5 116849776.595 6
R16  22208873.960 5  22208907.500 4 118635974.106 5
R17  20210715.439 8  20210718.414 8 108151621.196 8  84117934.487 8
R24  19620046.024 8  19620048.128 7 104917199.433 8  81602232.314 7
> 2025 06 15 09 59 30.0000000  0 29
C19  23411176.222 7                 121908140.970 7
C20  22776227.301 6                 118601785.431 6
C24  25350039.409 5                 132004287.841 5
C26  26009712.664 4                 135439432.76414
C29  22466156.014 7                 116987171.046 7
C35  21823903.735 8                 113642792.979 8
C44  24857811.883 6                 129441154.680 6
C47  24321978.041 5                 126651018.052 5
E02  24666085.245 7  24666087.283 8 129621151.480 7  98057564.609 8
E04  26035225.005 6  26035226.288 6 136816056.741 6 103500382.050 6
E10                  26459864.101 5                 105188371.30115
E11  24376455.139 7  24376454.287 8 128099132.700 7  96906155.551 8
E25  26775455.481 5  26775461.302 6 140705915.811 5 106443153.536 6
E30  26669751.173 7  26669754.847 8 140150489.050 7 106022948.416 8
E34  26795099.799 5  26795105.458 6 140809264.409 5 106521295.959 6
E36  23499276.648 8  23499279.294 9 123489530.303 8  93419038.220 9
G02  22125191.903 7  22125193.828 5                                 116268667.297 7  90598974.276 5                
G08  20354910.382 8                  20354916.758 8  20354913.858 9 106965778.190 8                  83350096.709 8  79877203.844 9
G10  20729162.348 8                  20729167.366 7  20729164.423 8 108932478.650 8                  84882479.188 7  81345734.463 8
G16  24202839.308 6                                                 127186720.458 6                                
G23                                  22509159.799 4  22509181.457 5                                  92171248.78814  88330879.12215
G27  20377877.223 8                  20377883.140 8  20377880.053 9 107086461.752 8                  83444019.919 8  79967172.291 9
R01  19895934.822 7                 106355144.017 7
R02  22273967.805 7  22273973.410 6 118858181.239 7  92445285.003 6
R08  21771279.019 5                 116584514.437 5
R15  21873908.066 5  21873942.681 3 116887514.32115
R16  22205638.827 6                 118618680.879 6
R17  20204025.864 8  20204028.484 8 108115822.595 8  84090091.145 8
R24  19623219.467 8  19623221.217 7 104934169.763 8  81615431.447 7
> 2025 06 15 09 59 45.0000000  0 23
C19  23403295.812 8                 121867106.583 8
C20  22776536.374 6                 118603398.069 6
C29  22471554.883 7                 117015281.688 7
C35  21820033.858 8                 113622642.571 8
C44  24849149.950 5                 129396046.547 5
E02  24669764.730 7  24669767.676 8 129640490.628 7  98072194.526 8
E04  26031098.013 5  26031101.642 6 136794378.732 5 103483982.82016
E10                  26466322.034 5                 105214046.31015
E11  24380735.838 7  24380734.864 8 128121627.391 7  96923172.619 8
E30  26665473.155 7  26665477.774 8 140128012.593 7 106005945.122 8
E34  26787957.493 4  26787965.848 6 140771747.18614 106492914.48816
E36  23496937.054 8  23496939.710 9 123477235.857 8  93409737.561 9
G02  22118648.911 7  22118650.258 5                                 116234281.508 7  90572180.219 5                
G08  20351831.920 8                  20351838.407 8  20351835.413 9 106949600.316 8                  83337490.579 8  79865122.965 9
G10  20730318.762 8                  20730323.740 7  20730320.324 9 108938554.415 8                  84887213.547 7  81350271.537 9
G16  24213351.724 5                                                 127241967.149 5                                
G27  20382208.034 8                  20382213.827 8  20382210.752 8 107109219.784 8                  83461753.424 8  79984166.915 8
R01  19891800.113 7                 106333045.388 7
R02  22261534.693 7  22261539.581 7 118791833.147 7  92393680.935 7
R15  21880998.411 7  21881002.604 6 116925390.908 7  90941822.79316
R16  22202436.711 5                 118601575.166 5
R17  20197347.418 8  20197350.128 7 108080086.764 8  84062296.594 7
R24  19626410.557 8  19626412.411 7 104951234.708 8  81628704.160 7
> 2025 06 15 10 00  0.0000000  0 26
C13  38464262.984 5                 200293312.45415
C19  23395430.128 7                 121826150.099 7
C20  22776871.026 6                 118605135.479 6
C29  22476964.319 7                 117043449.472 7
C35  21816175.887 8                 113602556.074 8
C44  24840488.040 5                 129350944.718 5
C47  24336958.412 6                 126728999.02316
E02  24673463.004 7  24673465.461 8 129659920.426 7  98086893.027 8
E04  26026991.504 3  26026991.886 5                 103467649.955 5
E10                  26472781.452 5                 105239725.891 5
E11  24385021.745 7  24385021.038 8 128144151.095 7  96940211.630 8
E30  26661212.842 7  26661217.443 8 140105623.883 7 105989008.229 8
E34  26780823.143 5  26780830.517 6 140734240.27915 106464541.02116
E36  23494605.596 8  23494608.409 9 123464985.154 8  93400469.985 9
G02  22112113.806 7  22112114.829 5                                 116199939.135 7  90545419.913 5                
G08  20348776.087 8                  20348783.060 8  20348779.353 9 106933540.245 8                  83324976.241 8  79853130.056 9
G10  20731497.300 8                  20731502.963 8  20731499.356 9 108944747.921 8                  84892039.675 8  81354896.566 9
G16  24223866.122 4                                                                                                
G23                                  22525438.734 5  22525448.955 5                                  92237939.43415  88394710.66615
G27  20386560.650 8                  20386566.468 8  20386563.619 8 107132093.673 8                  83479577.238 8  80001248.040 8
R01  19887703.077 7                 106311139.998 7
R02  22249111.192 7  22249115.755 7 118725538.463 7  92342118.449 7
R15  21888112.448 6  21888115.125 5 116963405.455 6  90971389.501 5
R16  22199268.829 4  22199272.592 5 118584656.999 4  92232428.93115
R17  20190681.671 8  20190683.721 7 108044413.532 8  84034550.734 7
R24  19629619.678 8  19629621.881 7 104968393.981 8  81642050.282 7
> 2025 06 15 10 00 15.0000000  0 28
C13  38466871.240 4  38466874.745 4 200306915.48614 154890157.97914
C19  23387579.720 8                 121785269.950 8
C20  22777227.387 6                 118606995.868 6
C24  25355136.107 5                 132030791.88715
C29  22482384.079 7                 117071672.563 7
C35  21812331.020 8                 113582531.709 8
C44  24831826.825 5                 129305847.527 5
C47  24344450.391 5                 126768032.920 5
E02  24677177.587 7  24677179.916 8 129679438.845 7  98101658.572 8
E04  26022902.472 4  26022899.174 5 136751284.19114 103451382.52215
E10                  26479242.092 5                
E11  24389313.669 7  24389312.121 8 128166701.899 7  96957271.179 8
E25  26801699.962 4  26801712.267 6 140843846.72214 106547507.064 6
E30  26656969.860 7  26656973.482 8 140083321.239 7 105972136.445 8
E34  26773687.877 5  26773694.126 6 140696742.315 5 106436174.084 6
E36  23492282.524 8  23492285.117 9 123452776.382 8  93391234.124 9
G02  22105586.038 7  22105587.229 5                                 116165638.313 7  90518692.018 5                
G08  20345742.503 8                  20345748.479 8  20345745.874 9 106917596.313 8                  83312552.412 8  79841223.886 9
G10  20732698.364 8                  20732703.569 7  20732699.696 8 108951057.215 8                  84896956.021 7  81359608.060 8
G16  24234378.943 5                                                 127352468.02715                                
G27  20390935.425 8                  20390940.798 7  20390938.260 8 107155081.422 8                  83497489.743 7  80018414.213 8
R01  19883640.541 6                 106289425.919 6
R02  22236696.969 7  22236701.472 6 118659295.959 7  92290596.611 6
R08  21794218.384 5                 116707078.75315
R15  21895249.624 5  21895260.118 6 117001555.593 5  91001061.945 6
R16  22196137.334 5  22196141.325 5 118567921.64615  92219415.083 5
R17  20184026.569 7  20184028.585 7 108008801.029 7  84006852.141 7
R24  19632845.579 8  19632847.852 7 104985645.621 8  81655468.190 7
> 2025 06 15 10 00 30.0000000  0 25
C19  23379743.603 7                 121744467.426 7
C20  22777608.628 7                 118608980.192 7
C29  22487815.047 7                 117099951.816 7
C35  21808497.442 8                 113562570.565 8
C44  24823164.487 5                 129260756.120 5
C47  24351952.239 5                 126807096.645 5
E02  24680909.436 7  24680911.441 9 129699046.808 7  98116491.852 9
E04  26018825.887 4  26018825.821 5 136729867.830 4 103435181.24015
E11  24393609.734 7  24393608.758 8 128189280.829 7  96974351.968 8
E25  26810457.957 5  26810465.329 5 140889846.03115 106582305.229 5
E30  26652742.286 7  26652745.705 8 140061105.881 7 105955330.676 8
E34  26766555.025 5  26766560.028 6 140659254.121 5 106407814.586 6
E36  23489967.513 8  23489970.067 9 123440610.550 8  93382030.748 9
G02  22099066.923 7  22099067.974 5                                 116131380.131 7  90491997.366 5                
G08  20342730.392 8                  20342736.244 7  20342733.391 9 106901769.697 8                  83300219.987 7  79829405.319 9
G10  20733921.278 8                  20733926.008 7  20733922.805 9 108957483.260 8                  84901963.302 7  81364406.731 9
G16  24244891.892 5                                                 127407720.637 5                                
G27  20395331.936 8                  20395336.989 8  20395334.814 8 107178184.014 8                  83515491.730 8  80035666.135 8
R01  19879615.254 7                 106267904.612 7
R02  22224293.418 8  22224297.910 7 118593107.359 8  92239116.608 7
R08  21801918.699 4                 116748309.490 4
R15  21902421.689 4  21902445.835 5 117039842.48114
R16  22193040.982 5  22193071.857 5 118551375.977 5  92206561.29615
R17  20177382.794 8  20177385.288 8 107973250.561 8  83979201.782 8
R24  19636089.498 8  19636091.720 7 105002990.768 8  81668958.842 7
> 2025 06 15 10 00 45.0000000  0 24
C19  23371924.762 8                 121703750.395 8
C20  22778015.047 7                 118611095.832 7
C29  22493257.616 7                 117128294.857 7
C35  21804677.847 8                 113542680.486 8
C47  24359461.725 5                 126846197.741 5
E02  24684658.831 8  24684661.209 9 129718751.858 8  98131398.557 9
E04  26014767.057 5  26014770.884 5 136708547.077 5 103419052.080 5
E10                  26492172.360 5                 105316952.89115
E11  24397913.491 7  24397912.160 8 128211895.419 7  96991459.741 8
E25  26819213.692 5  26819221.772 5 140935862.001 5 106617115.93815
E30  26648532.463 7  26648536.126 8 140038985.578 7 105938596.812 8
E34  26759428.015 6  26759429.335 6 140621783.324 6 106379468.254 6
E36  23487661.710 8  23487664.697 9 123428495.277 8  93372865.639 9
G02  22092557.456 7  22092558.822 6                                 116097172.286 7  90465341.908 6                
G08  20339742.304 8                  20339748.438 8  20339745.191 8 106886068.214 8                  83287985.039 8  79817680.177 8
G10  20735167.600 8                  20735172.341 7  20735169.248 9 108964033.507 8                  84907067.403 7  81369298.163 9
G16  24255409.594 5                                                 127462982.09115                                
G27  20399751.252 8                  20399756.742 8  20399754.615 8 107201408.908 8                  83533589.078 8  80053009.401 8
R01  19875625.855 7                 106246583.872 7
R02  22211900.759 7  22211905.895 7 118526980.885 7  92187685.015 7
R15  21909616.882 6  21909619.161 5 117078272.41816  91061018.97115
R16  22189980.798 5  22189982.011 5 118535025.479 5  92193844.576 5
R17  20170752.892 8  20170754.735 8 107937770.316 8  83951606.061 8
R24  19639351.831 8  19639354.099 7 105020437.013 8  81682528.110 7
> 2025 06 15 10 01  0.0000000  0 24
C19  23364121.671 8                 121663117.240 8
C20  22778446.634 7                 118613341.144 7
C29  22498712.997 7                 117156699.936 7
C35  21800871.393 8                 113522859.811 8
C44  24805856.220 5                 129170615.95915
C47  24366982.999 5                 126885334.431 5
E02  24688426.159 7  24688428.947 9 129738552.048 7  98146377.256 9
E04  26010724.755 5  26010734.671 6 136687319.785 5 103402993.908 6
E10                  26498636.315 5                 105342656.873 5
E11  24402222.732 7  24402222.247 8 128234543.916 7  97008593.162 8
E25  26827973.910 5  26827980.901 5 140981892.453 5 106651937.63215
E30  26644340.565 7  26644344.384 8 140016958.690 7 105921933.646 8
E34  26752296.933 6  26752301.406 6 140584328.366 6 106351133.841 6
E36  23485365.994 8  23485368.457 9 123416428.827 8  93363737.446 9
G02  22086057.133 8  22086059.200 6                                 116063013.146 8  90438724.417 6                
G08  20336778.598 8                  20336784.091 8  20336781.134 8 106870490.262 8                  83275846.374 8  79806047.294 8
G10  20736437.493 8                  20736442.285 8  20736438.929 9 108970706.145 8                  84912266.843 8  81374280.969 9
G27  20404193.697 8                  20404199.390 8  20404196.336 8 107224754.276 8                  83551780.242 8  80070442.610 8
R01  19871674.493 7                 106225462.204 7
R02  22199520.094 7  22199524.482 7 118460915.113 7  92136300.568 7
R08  21817400.357 5  21817420.030 5 116831186.07815  90868662.28515
R15  21916824.980 5  21916831.301 5 117116844.16215
R17  20164135.326 8  20164137.386 8 107902358.303 8  83924063.341 8
R24  19642632.589 8  19642635.173 7 105037982.786 8  81696174.806 7
> 2025 06 15 10 01 15.0000000  0 24
C19  23356333.236 7                 121622565.332 7
C20  22778901.612 6                 118615713.099 6
C24  25362196.259 4                 132067610.90914
C29  22504177.920 6                 117185163.938 6
C35  21797077.892 8                 113503105.647 8
C44  24797201.257 5                 129125558.85015
E02  24692211.894 7  24692214.222 9 129758444.291 7  98161425.581 9
E04  26006705.356 6  26006706.510 6 136666161.57016 103387035.11016
E10                  26505102.513 5                 105368366.75815
E11  24406538.601 7  24406537.969 8 128257223.180 7  97025749.854 8
E25  26836735.752 6                 141027934.189 6
E30  26640167.083 7  26640169.921 8 139995022.416 7 105905339.010 8
E34  26745172.243 5  26745175.771 6 140546886.268 5 106322809.042 6
E36  23483078.465 8  23483080.922 9 123404408.193 8  93354643.921 9
G02  22079565.284 7  22079567.554 6                                 116028899.726 7  90412142.565 6                
G08  20333836.549 8                  20333842.942 8  20333839.447 8 106855033.017 8                  83263801.772 8  79794504.525 8
G10  20737729.501 8                  20737734.863 8  20737731.692 9 108977497.946 8                  84917559.160 8  81379352.794 9
G27  20408658.277 8                  20408663.964 8  20408661.084 8 107248216.955 8                  83570062.854 8  80087963.424 8
R01  19867760.031 7                 106204536.957 7
R02  22187150.615 7  22187154.919 7 118394907.662 7  92084961.545 7
R15  21924067.270 6  21924073.046 6 117155553.569 6  91121142.89116
R16  22183973.595 5  22183964.724 5 118502890.46115  92168858.830 5
R17  20157529.317 7  20157531.952 8 107867011.893 7  83896571.739 8
R24  19645931.936 8  19645934.084 7 105055624.754 8  81709896.341 7
> 2025 06 15 10 01 30.0000000  0 26
C13  38479936.121 4                 200374938.43214
C19  23348563.226 8                 121582102.450 8
C20  22779382.189 6                 118618219.172 6
C24  25364021.428 5                 132077100.03115
C29  22509654.821 6                 117213694.379 6
C35  21793298.487 8                 113483425.740 8
C44  24788552.987 5                 129080518.452 5
E02  24696016.099 7  24696018.574 8 129778436.059 7  98176549.216 8
E04  26002708.257 4  26002703.741 6 136645124.242 4 103371120.450 6
E10                  26511571.667 3                
E11  24410862.041 7  24410861.140 8 128279940.833 7  97042935.597 8
E25  26845501.873 6                 141073994.801 6
E30  26636011.410 7  26636014.444 8 139973184.536 7 105888818.799 8
E34  26738054.513 4  26738054.367 6 140509464.52714 106294499.762 6
E36  23480801.209 8  23480803.696 9 123392441.007 8  93345590.817 9
G02  22073084.217 7  22073085.537 5                                 115994839.844 7  90385602.379 5                
G08  20330919.720 8                  20330925.695 8  20330922.582 8 106839704.280 8                  83251857.286 8  79783057.752 8
G10  20739046.502 8                  20739051.780 8  20739048.402 9 108984416.497 8                  84922950.242 8  81384519.234 9
G16  24286966.091 4                                                 127628812.19114                                
G27  20413146.731 8                  20413152.782 8  20413149.630 8 107271804.513 8                  83588442.758 8  80105577.504 8
R01  19863884.077 7                 106183815.924 7
R02  22174792.754 7  22174797.825 7 118328966.957 7  92033674.369 7
R15  21931342.028 5  21931344.823 6 117194407.882 5  91151362.793 6
R16  22181024.373 5  22181016.119 6 118487121.936 5  92156594.44816
R17  20150937.749 8  20150940.554 8 107831738.998 8  83869137.324 8
R24  19649250.716 8  19649252.476 7 105073370.797 8  81723698.799 7
> 2025 06 15 10 01 45.0000000  0 22
C13  38482553.679 4  38482559.385 4 200388557.802 4 154953323.08714
C19  23340810.912 8                 121541731.880 8
C20  22779890.826 7                 118620862.286 7
C24  25365882.387 4                 132086708.15514
C29  22515148.937 6                 117242294.203 6
C35  21789534.267 8                 113463823.117 8
C44  24779909.244 6                 129035497.998 6
E02  24699839.339 7  24699842.460 9 129798530.275 7  98191750.322 9
E04  25998719.819 5  25998719.531 7 136624178.81615 103355282.771 7
E11  24415193.022 7  24415192.136 8 128302699.843 7  97060152.605 8
E25  26854271.151 6                 141120076.768 6
E30  26631875.696 7  26631878.241 8 139951448.177 7 105872375.396 8
E34  26730937.633 5  26730937.648 6 140472066.22215 106266208.174 6
E36  23478534.675 8  23478537.128 9 123380530.291 8  93336580.427 9
G02  22066613.351 7  22066614.313 5                                 115960836.490 7  90359106.295 5                
G08  20328027.707 8                  20328033.679 8  20328030.019 8 106824507.180 8                  83240015.379 8  79771709.258 8
G10  20740387.926 8                  20740392.558 7  20740389.024 9 108991464.659 8                  84928442.295 7  81389782.450 9
G27  20417659.299 8                  20417665.569 8  20417662.249 8 107295519.819 8                  83606922.186 8  80123286.943 8
R01  19860046.516 7                 106163302.337 7
R02  22162448.488 8  22162453.364 7 118263096.255 8  91982441.697 7
R17  20144361.038 8  20144362.417 8 107796543.053 8  83841762.653 8
R24  19652589.216 8  19652591.212 7 105091224.095 8  81737584.701 7
> 2025 06 15 10 02  0.0000000  0 26
C13  38485171.422 5  38485171.298 4 200402182.48615 154963858.39314
C19  23333074.574 8                 121501449.996 8
C20  22780423.237 6                 118623638.515 6
C29  22520655.135 6                 117270959.467 6
C35  21785783.917 8                 113444294.184 8
C44  24771271.730 6                 128990493.473 6
C47  24397116.370 5                 127042248.38915
E02  24703682.196 8  24703684.950 8 129818722.899 8  98207025.883 8
E04  25994757.937 4  25994753.233 6 136603341.373 4 103339519.344 6
E11  24419531.096 7  24419530.045 8 128325496.249 7  97077397.934 8
E25  26863044.637 6                 141166176.121 6
E30  26627756.482 7  26627760.728 8 139929809.607 7 105856005.948 8
E34  26723824.101 5  26723825.034 6 140434687.59815 106237931.444 6
E36  23476278.072 8  23476280.566 9 123368672.089 8  93327609.785 9
G02  22060153.294 7  22060153.800 5                                 115926885.827 7  90332651.224 5                
G08  20325159.909 8                  20325166.275 8  20325162.527 8 106809437.992 8                  83228273.166 8  79760456.297 8
G10  20741752.411 8                  20741757.451 7  20741754.619 9 108998638.362 8                  84934032.233 7  81395139.468 9
G23  22590928.347 5                                  22590934.201 5 118716135.76515                                  88651553.60615
G27  20422196.090 8                  20422201.574 8  20422198.929 8 107319358.849 8                  83625498.001 8  80141088.808 8
R01  19856246.784 7                 106142992.592 7
R02  22150116.901 7  22150121.548 7 118197292.296 7  91931260.896 7
R08  21848688.664 5                 116998747.09715
R15  21945964.942 7  21945974.060 6 117272554.06617  91212143.687 6
R16  22175222.161 6  22175222.683 6 118456166.45316  92132532.776 6
R17  20137797.314 8  20137799.362 7 107761420.160 8  83814444.832 7
R24  19655947.408 8  19655949.234 7 105109180.393 8  81751550.723 7
> 2025 06 15 10 02 15.0000000  0 26
C13  38487788.563 4  38487786.588 4                
C19  23325356.532 8                 121461258.130 8
C20  22780983.176 6                 118626548.931 6
C29  22526173.155 6                 117299691.331 6
C35  21782047.779 8                 113424840.150 8
C44  24762627.973 6                 128945506.351 6
E02  24707543.574 7  24707546.362 9 129839014.989 7  98222376.664 9
E04  25990803.946 5  25990806.924 6 136582608.00515 103323831.155 6
E10                  26530996.622 5                 105471304.28015
E11  24423876.233 7  24423875.389 8 128348331.164 7  97094672.383 8
E25  26871822.336 6                 141212293.842 6
E30  26623658.725 7  26623662.070 8 139908270.123 7 105839711.490 8
E34  26716720.997 4  26716716.643 5 140397329.74714 106209670.540 5
E36  23474030.887 8  23474034.269 9 123356867.611 8  93318679.794 9
G02  22053702.417 7  22053704.219 5                                 115892989.197 7  90306238.291 5                
G08  20322317.029 8                  20322323.613 7  20322320.432 8 106794498.064 8                  83216631.694 7  79749299.873 8
G10  20743142.011 8                  20743147.048 8  20743144.258 9 109005938.747 8                  84939720.832 8  81400591.027 9
G16  24318537.757 5                                                 127794732.39615                                
G27  20426756.672 8                  20426761.755 8  20426759.516 8 107343322.608 8                  83644171.114 8  80158983.841 8
R01  19852486.811 8                 106122888.036 8
R02  22137797.810 7  22137803.247 7 118131556.809 7  91880133.362 7
R08  21856582.537 5                 117041010.441 5
R15  21953316.724 6                 117311843.016 6
R16  22172380.529 6  22172386.268 7 118440995.770 6  92120733.384 7
R17  20131247.502 8  20131249.442 7 107726371.670 8  83787184.937 7
R24  19659324.950 8  19659326.311 7 105127241.085 8  81765597.909 7
> 2025 06 15 10 02 30.0000000  0 25
C13  38490415.216 4  38490400.862 3 200429450.09514 154984943.33213
C19  23317654.675 7                 121421155.146 7
C20  22781576.300 6                 118629592.329 6
C29  22531703.413 6                 117328488.268 6
C35  21778325.689 8                 113405459.711 8
C44  24753990.661 5                 128900535.293 5
E02  24711423.743 7  24711426.412 9 129859404.884 7  98237801.444 9
E04  25986878.892 5  25986879.292 7 136561968.037 5 103308217.151 7
E10                  26537479.183 5                 105497072.60215
E11  24428228.545 7  24428227.658 8 128371203.047 7  97111974.801 8
E25  26880600.158 6                 141258428.215 6
E30  26619578.284 7  26619581.921 8 139886828.412 7 105823490.986 8
E36  23471795.198 8  23471797.940 9 123345115.416 8  93309789.335 9
G02  22047262.373 7  22047264.320 6                                 115859145.262 7  90279866.382 6                
G08  20319498.591 7                  20319504.791 8  20319501.585 8 106779686.129 7                  83205089.919 8  79738239.001 8
G10  20744554.458 8                  20744560.078 7  20744557.106 9 109013364.117 8                  84945506.826 7  81406135.927 9
G16  24329066.595 5                                                 127850056.435 5                                
G27  20431340.166 8                  20431345.658 8  20431343.466 8 107367409.607 8                  83662940.152 8  80176970.836 8
R01  19848763.089 7                 106102987.288 7
R02  22125491.825 8  22125496.954 7 118065888.799 8  91829058.324 7
R08  21864503.019 5                 117083420.078 5
R15  21960703.716 4  21960696.878 4 117351274.02614  91273278.81114
R16  22169577.713 6  22169582.435 6 118426022.880 6  92109087.826 6
R17  20124711.986 8  20124713.590 8 107691396.254 8  83759981.832 8
R24  19662721.402 8  19662723.045 7 105145404.610 8  81779725.101 7
> 2025 06 15 10 02 45.0000000  0 25
C19  23309969.832 8                 121381136.562 8
C20  22782186.056 7                 118632763.581 7
C24  25373470.940 5                 132126278.41515
C29  22537248.041 6                 117357345.466 6
C35  21774616.858 8                 113386148.201 8
C44  24745358.014 6                 128855575.675 6
E02  24715322.285 8  24715324.100 9 129879887.671 8  98253296.502 9
E04  25982968.431 4  25982969.350 6 136541421.25814 103292673.848 6
E10                  26543963.543 5                 105522847.764 5
E11  24432587.261 7  24432586.039 8 128394107.064 7  97129301.513 8
E25  26889380.969 6                 141304574.235 6
E30  26615515.261 7  26615519.387 8 139865479.788 7 105807340.911 8
E36  23469567.574 8  23469570.636 9 123333410.649 8  93300934.754 9
G02  22040831.262 7  22040832.608 6                                 115825349.056 7  90253531.707 6                
G08  20316703.697 8                  20316709.320 8  20316706.071 8 106764997.464 8                  83193644.181 8  79727270.182 8
G10  20745990.511 8                  20745996.170 8  20745992.637 9 109020909.604 8                  84951386.391 8  81411770.517 9
G16  24339595.120 5                                                 127905383.465 5                                
G23  22615708.565 4                                  22615706.296 6 118846345.72914                                  88748771.189 6
G27  20435946.389 8                  20435951.968 7  20435948.981 8 107391614.854 8                  83681801.391 7  80195046.166 8
R01  19845077.648 7                 106083285.823 7
R02  22113197.373 8  22113202.331 7 118000283.660 8  91778032.212 7
R08  21872449.297 6                 117125970.655 6
R16  22166811.342 6  22166812.564 5 118411243.251 6  92097592.497 5
R17  20118188.403 8  20118190.814 7 107656489.294 8  83732832.019 7
R24  19666136.077 8  19666138.462 7 105163666.086 8  81793928.435 7
> 2025 06 15 10 03  0.0000000  0 25
C19  23302300.444 8                 121341200.738 8
C20  22782809.788 6                 118636060.742 6
C24  25375411.105 4                 132136448.24714
C29  22542796.532 6                 117386261.063 6
C35  21770921.689 8                 113366903.963 8
C44  24736728.267 6                 128810625.871 6
E02  24719237.548 8  24719239.029 9 129900461.367 8  98268860.348 9
E10                  26550449.689 4                 105548628.31614
E11  24436951.350 7  24436950.287 8 128417041.284 7  97146651.082 8
E25  26898164.960 6                 141350729.821 6
E30  26611470.963 7  26611474.132 8 139844222.590 7 105791259.994 8
E34  26695409.214 6  26695410.403 5 140285332.07816 106124963.342 5
E36  23467349.357 8  23467351.947 9 123321751.498 8  93292114.669 9
G02  22034408.543 7  22034410.220 6                                 115791598.914 7  90227232.913 6                
G08  20313931.707 8                  20313937.507 8  20313934.150 8 106750430.438 8                  83182293.237 8  79716392.200 8
G10  20747448.721 8                  20747454.172 7  20747450.890 8 109028573.124 8                  84957357.977 7  81417493.291 8
G23  22623987.433 4                                  22623989.051 5 118889860.998 4                                  88781266.157 5
G27  20440574.911 8                  20440580.349 7  20440577.601 8 107415936.427 8                  83700753.230 7  80213208.331 8
R01  19841428.930 7                 106063781.878 7
R02  22100914.401 8  22100919.968 7 117934740.369 8  91727054.156 7
R08  21880422.222 4                 117168659.741 4
R15  21975583.513 5  21975577.780 5 117430800.50915  91334969.26815
R16  22164079.565 6  22164082.264 6 118396654.723 6  92086245.897 6
R17  20111677.571 8  20111680.069 7 107621649.188 8  83705734.160 7
R24  19669569.213 8  19669571.696 8 105182023.728 8  81808206.618 8
> 2025 06 15 10 03 15.0000000  0 25
C19  23294646.617 8                 121301345.132 8
C20  22783461.532 4                 118639481.190 4
C24  25377401.499 5                 132146721.78415
C29  22548360.751 6                 117415232.116 6
C35  21767238.495 8                 113347724.321 8
C44  24728095.167 6                 128765683.136 6
E02  24723169.506 8  24723170.781 9 129921123.002 8  98284490.758 9
E04  25975200.507 5  25975200.803 6 136500489.40415 103261793.619 6
E10                  26556935.370 5                 105574412.36415
E11  24441320.820 7  24441319.933 7 128440002.884 7  97164021.397 7
E25  26906948.393 6  26906970.599 5 141396891.751 6 106965893.26115
E30  26607442.412 7  26607445.888 8 139823054.180 7 105775246.206 8
E34  26688308.000 6  26688310.116 5 140248031.003 6 106096745.525 5
E36  23465138.884 8  23465141.526 9 123310135.098 8  93283326.958 9
G02  22027994.446 7  22027996.654 6                                 115757892.156 7  90200967.902 6                
G08  20311181.954 8                  20311188.490 8  20311184.807 8 106735982.314 8                  83171034.970 8  79705603.037 8
G10  20748928.943 8                  20748934.344 8  20748931.354 9 109036351.822 8                  84963419.321 8  81423302.091 9
G23  22632278.729 4                  22632300.803 5  22632281.603 5 118933430.78214                  92675449.89015  88813801.937 5
G27  20445224.406 8                  20445230.094 8  20445226.857 8 107440371.286 8                  83719793.350 8  80231455.129 8
R01  19837817.012 7                 106044472.730 7
R02  22088643.482 8  22088648.400 7 117869256.642 8  91676122.368 7
R15  21982989.364 5  21982983.404 4 117470632.966 5  91365949.740 4
R16  22161384.277 7  22161387.799 5 118382254.560 7  92075045.712 5
R17  20105179.318 8  20105180.786 7 107586873.089 8  83678686.024 7
R24  19673019.705 8  19673021.888 7 105200474.516 8  81822557.152 7
> 2025 06 15 10 03 30.0000000  0 25
C19  23287007.921 8                 121261568.149 8
C20  22784148.909 6                 118643022.67116
C29  22553935.380 6                 117444256.887 6
C35  21763567.240 8                 113328607.539 8
C44  24719466.287 6                 128720745.611 6
C47  24442529.177 5                 127278738.42015
E02  24727117.524 8  24727119.097 9 129941870.591 8  98300186.150 9
E04  25971339.641 6  25971341.911 6 136480211.135 6 103246453.354 6
E10                  26563421.141 4                 105600198.22814
E11  24445695.308 7  24445694.189 7 128462989.905 7  97181410.909 7
E25  26915734.107 6  26915764.178 5 141443058.159 6 107000817.46515
E30  26603430.437 7  26603434.157 8 139801972.750 7 105759298.252 8
E34  26681212.695 6  26681212.911 5 140210738.104 6 106068533.746 5
E36  23462936.080 8  23462938.659 9 123298559.616 8  93274570.179 9
G02  22021587.822 7  22021590.399 6                                 115724226.929 7  90174735.297 6                
G08  20308455.136 8                  20308461.046 7  20308457.903 9 106721651.478 8                  83159868.077 7  79694901.403 9
G10  20750430.528 8                  20750436.161 8  20750432.853 9 109044243.650 8                  84969568.820 8  81429195.336 9
G23  22640577.668 4                  22640609.186 5  22640579.401 5 118977053.248 4                  92709441.48215  88846376.938 5
G27  20449894.929 8                  20449900.826 8  20449898.295 8 107464917.472 8                  83738920.239 8  80249785.073 8
R01  19834240.398 7                 106025356.729 7
R02  22076382.227 8  22076386.918 7 117803830.865 8  91625235.744 7
R15  21990461.672 5  21990466.602 5 117510593.773 5  91397030.141 5
R16  22158723.658 6  22158727.169 6 118368040.925 6  92063990.718 6
R17  20098691.880 8  20098693.282 7 107552159.376 8  83651686.490 7
R24  19676487.224 8  19676488.848 7 105219016.438 8  81836978.663 7
> 2025 06 15 10 03 45.0000000  0 26
C19  23279384.397 8                 121221872.130 8
C20  22784854.156 7                 118646687.305 7
C24  25381398.481 5                 132167582.27215
C29  22559519.703 7                 117473337.348 7
C35  21759908.216 8                 113309555.832 8
C44  24710836.524 6                 128675815.620 6
C47  24450117.826 5                 127318258.370 5
E02  24731082.076 8  24731084.202 9 129962706.098 8  98315948.067 9
E04  25967497.631 6  25967500.077 6 136460022.551 6 103231180.900 6
E10  26569909.873 4  26569908.383 5 139625823.41714 105625987.54915
E11  24450074.407 7  24450073.713 7 128486004.397 7  97198821.209 7
E25  26924518.636 5  26924550.276 5 141489230.939 5 107035746.83815
E30  26599435.897 7  26599439.485 8 139780980.562 7 105743417.799 8
E34  26674119.431 5  26674118.216 6 140173455.401 5 106040329.74516
E36  23460741.120 8  23460744.069 9 123287027.117 8  93265845.929 9
G02  22015190.533 7  22015191.591 5                                 115690605.539 7  90148536.796 5                
G08  20305750.802 8                  20305756.737 7  20305753.166 9 106707440.066 8                  83148794.257 7  79684288.997 9
G10  20751954.514 8                  20751960.400 8  20751956.415 8 109052250.566 8                  84975807.988 8  81435174.521 8
G23  22648885.564 4                  22648942.911 4  22648891.143 5 119020730.136 4                  92743475.51714  88878992.620 5
G27  20454587.706 8                  20454593.388 8  20454590.544 8 107489576.994 8                  83758135.433 8  80268199.635 8
R01  19830701.403 8                 106006436.098 8
R02  22064132.740 8  22064137.181 7 117738465.752 8  91574396.247 7
R15  21997967.215 5  21997966.581 4 117550684.420 5
R16  22156097.746 6  22156101.276 6 118354016.444 6  92053082.803 6
R17  20092217.269 8  20092218.339 7 107517510.547 8  83624737.382 7
R24  19679971.961 8  19679973.914 7 105237651.647 8  81851472.716 7
> 2025 06 15 10 04  0.0000000  0 25
C19  23271775.992 7                 121182256.054 7
C20  22785578.990 7                 118650474.031 7
C24  25383427.588 5                 132178166.914 5
C29  22565114.715 7                 117502472.125 7
C35  21756261.897 8                 113290568.044 8
C44  24702209.902 6                 128630892.133 6
C47  24457711.225 5                 127357805.945 5
E02  24735063.753 8  24735065.655 9 129983628.145 8  98331775.439 9
E04  25963671.168 5  25963674.292 6 136439922.395 5 103215975.34916
E10  26576396.852 4  26576396.387 5 139659917.32014 105651779.24915
E11  24454459.185 7  24454458.182 7 128509045.047 7  97216251.289 7
E25  26933310.659 6  26933337.165 5 141535408.45616 107070679.79115
E30  26595458.348 7  26595461.720 8 139760076.471 7 105727604.030 8
E36  23458554.542 8  23458557.468 9 123275536.363 8  93257153.253 9
G02  22008800.502 7  22008801.567 6                                 115657026.563 7  90122371.391 6                
G08  20303069.204 8                  20303074.946 8  20303071.137 8 106693347.022 8                  83137812.706 8  79673765.000 8
G10  20753499.758 8                  20753505.261 8  20753501.968 8 109060371.210 8                  84982135.728 8  81441238.622 8
G16  24392234.993 5                                                 128182009.34315                                
G23  22657207.763 5                  22657266.093 4  22657212.884 5 119064459.684 5                  92777550.67814  88911647.756 5
G27  20459301.580 8                  20459306.928 8  20459304.224 8 107514348.447 8                  83777437.873 8  80286697.799 8
R01  19827198.220 7                 105987709.825 7
R02  22051894.284 7  22051899.542 7 117673160.344 7  91523603.269 7
R16  22153507.544 7  22153509.762 6 118340179.797 7  92042320.874 6
R17  20085753.854 8  20085756.313 7 107482925.259 8  83597837.775 7
R24  19683474.247 8  19683476.522 7 105256378.938 8  81866038.431 7
> 2025 06 15 10 04 15.0000000  0 27
C19  23264185.082 7                 121142724.374 7
C20  22786331.562 7                 118654386.891 7
C29  22570720.739 7                 117531665.385 7
C35  21752628.701 8                 113271648.552 8
C44  24693585.537 6                 128585979.344 6
C47  24465311.955 5                 127397385.224 5
E02  24739062.203 8  24739064.252 9 130004640.758 8  98347671.338 9
E04  25959865.447 5  25959866.544 6 136419915.35615 103200840.01816
E10                  26582885.340 5                 105677576.55315
E11  24458849.645 7  24458848.466 7 128532116.002 7  97233704.299 7
E25  26942097.522 5  26942124.507 5 141581594.773 5 107105619.39015
E30  26591497.848 8  26591501.513 8 139739264.928 8 105711860.223 8
E34  26659937.110 6  26659945.099 6 140098927.17316 105983945.95916
E36  23456376.996 8  23456379.604 9 123264091.560 8  93248495.340 9
G02  22002419.501 7  22002420.333 5                                 115623494.378 7  90096242.393 5                
G08  20300410.724 8                  20300416.771 8  20300413.376 8 106679376.780 8                  83126926.805 8  79663332.676 8
G10  20755067.625 8                  20755072.933 7  20755069.479 8 109068609.623 8                  84988555.272 7  81447390.699 8
G16  24402759.308 4                                                 128237323.73614                                
G23  22665542.710 5                  22665594.034 5  22665546.619 5 119108246.004 5                  92811670.056 5  88944345.265 5
G27  20464037.417 8                  20464043.112 8  20464040.003 8 107539235.929 8                  83796830.696 8  80305282.599 8
R01  19823732.050 8                 105969182.542 8
R02  22039668.323 8  22039673.222 7 117607919.856 8  91472860.763 7
R08  21920672.134 5                 117384013.70415
R15  22013067.411 5                 117631250.58815
R16  22150953.071 6  22150956.377 6 118326535.430 6  92031708.625 6
R17  20079303.035 8  20079306.244 8 107448408.174 8  83570991.150 8
R24  19686994.175 8  19686996.486 7 105275202.582 8  81880679.025 7
> 2025 06 15 10 04 30.0000000  0 26
C19  23256610.514 8                 121103281.770 8
C20  22787106.127 5                 118658430.143 5
C29  22576338.930 7                 117560921.508 7
C35  21749009.526 8                 113252801.943 8
C44  24684971.527 6                 128541081.949 6
C47  24472919.710 5                 127437000.762 5
E02  24743078.638 8  24743080.845 9 130025748.372 8  98363639.087 9
E04  25956084.022 4  25956078.429 6 136400005.776 4 103185778.601 6
E10                  26589376.382 5                 105703382.903 5
E11  24463246.479 7  24463245.356 7 128555221.763 7  97251183.634 7
E25  26950889.350 5  26950915.565 4 141627794.173 5 107140568.85414
E30  26587556.049 7  26587559.696 8 139718550.514 7 105696189.922 8
E34  26652845.188 5  26652849.997 6 140061684.820 5 105955772.85416
E36  23454209.020 8  23454211.356 9 123252697.249 8  93239875.623 9
G02  21996047.793 7  21996050.069 5                                 115590013.660 7  90070153.578 5                
G08  20297776.220 8                  20297782.302 8  20297779.211 8 106665533.930 8                  83116140.153 8  79652995.495 8
G10  20756658.830 8                  20756663.423 7  20756660.225 8 109076970.233 8                  84995070.015 7  81453633.986 8
G16  24413287.145 5                                                                                                
G23  22673886.005 5                                  22673891.400 5 119152093.397 5                                  88977088.391 5
G27  20468796.801 8                  20468801.981 7  20468799.212 8 107564243.826 8                  83816317.343 7  80323957.282 8
R01  19820304.382 8                 105950858.855 8
R02  22027455.168 7  22027459.094 7 117542749.077 7  91422172.432 7
R15  22020633.345 6                 117671740.80916
R16  22148437.015 6  22148440.347 7 118313087.892 6  92021249.474 7
R17  20072866.927 8  20072869.226 8 107413963.920 8  83544201.159 8
R24  19690533.193 8  19690535.596 7 105294127.214 8  81895398.179 7
> 2025 06 15 10 04 45.0000000  0 26
C19  23249054.763 8                 121063929.224 8
C20  22787907.115 5                 118662604.311 5
C24  25389652.531 5                 132210293.71815
C29  22581969.989 7                 117590241.187 7
C35  21745404.216 8                 113234029.006 8
C44  24676344.622 5                 128496200.724 5
C47  24480535.285 5                 127476653.032 5
E02  24747112.722 7  24747115.654 9 130046951.485 7  98379679.099 9
E04                  25952308.978 6                 103170791.630 6
E10                  26595870.130 5                 105729198.679 5
E11  24467650.261 7  24467648.929 7 128578362.933 7  97268689.755 7
E25  26959682.204 5                 141674007.134 5
E30  26583633.036 7  26583636.561 8 139697934.075 7 105680593.733 8
E34  26645761.596 5  26645767.270 6 140024461.07215 105927613.29216
E36  23452049.952 8  23452052.764 9 123241354.104 8  93231294.604 9
G02  21989686.539 7  21989689.592 6                                 115556585.125 7  90044105.384 6                
G08  20295166.547 8                  20295172.502 8  20295169.117 8 106651819.391 8                  83105453.488 8  79642754.121 8
G10  20758272.883 8                  20758278.364 7  20758274.753 8 109085453.532 8                  85001680.369 7  81459968.945 8
G23  22682241.915 4                                  22682248.116 5 119196002.149 4                                  89009877.219 5
G27  20473578.832 8                  20473583.748 7  20473581.087 8 107589372.668 8                  83835898.263 7  80342722.326 8
R01  19816914.691 8                 105932739.683 8
R02  22015255.966 8  22015259.965 7 117477649.589 8  91371539.503 7
R15  22028225.716 6  22028223.611 5 117712364.071 6  91553970.04215
R16  22145955.651 6  22145958.208 6 118299838.357 6  92010944.143 6
R17  20066443.689 8  20066446.636 8 107379593.506 8  83517468.677 8
R24  19694091.382 8  19694093.125 7 105313153.409 8  81910196.247 7
> 2025 06 15 10 05  0.0000000  0 26
C19  23241512.094 8                 121024662.734 8
C20  22788734.312 6                 118666905.477 6
C24  25391762.799 4                                
C29  22587612.550 7                 117619620.229 7
C35  21741812.423 8                 113215325.758 8
C44  24667726.572 5                 128451331.682 5
C47  24488155.955 5                 127516338.017 5
E02  24751164.610 7  24751167.870 9 130068245.859 7  98395788.095 9
E04                  25948557.534 5                 103155876.117 5
E10                  26602366.391 5                 105755020.718 5
E11  24472059.705 7  24472058.399 7 128601535.294 7  97286219.476 7
E25  26968478.511 5                 141720229.287 5
E30  26579727.854 7  26579731.286 9 139677411.589 7 105665068.608 9
E34  26638682.697 6  26638686.371 5 139987251.642 6 105899464.60015
E36  23449900.354 8  23449903.039 9 123230057.932 8  93222749.115 9
G02  21983334.740 7  21983337.314 6                                 115523204.557 7  90018094.604 6                
G08  20292579.951 8                  20292586.431 8  20292582.661 8 106638229.033 8                  83094863.606 8  79632605.478 8
G10  20759909.500 8                  20759915.072 8  20759911.678 8 109094055.206 8                  85008382.992 8  81466392.283 8
G23  22690611.151 5                  22690645.609 5  22690616.127 5 119239967.718 5                  92914551.21715  89042708.592 5
G27  20478382.274 8                  20478387.878 7  20478385.169 8 107614618.166 8                  83855570.051 7  80361574.453 8
R01  19813562.528 7                 105914820.906 7
R02  22003068.534 8  22003073.259 7 117412617.285 8  91320958.917 7
R15  22035850.910 5  22035847.506 5 117753118.727 5  91585667.973 5
R16  22143509.021 5  22143515.327 5 118286781.08415  92000789.618 5
R17  20060033.975 8  20060036.007 8 107345293.078 8  83490790.562 8
R24  19697667.511 8  19697669.424 7 105332276.702 8  81925069.913 7
> 2025 06 15 10 05 15.0000000  0 25
C19  23233987.715 8                 120985480.833 8
C20  22789583.103 7                 118671331.820 7
C29  22593264.619 7                 117649056.711 7
C35  21738233.794 8                 113196690.531 8
C44  24659111.637 5                 128406473.161 5
C47  24495783.436 5                 127556053.707 5
E02  24755234.634 7  24755237.046 9 130089629.426 7  98411964.604 9
E04                  25944824.772 5                 103141030.68615
E10                  26608864.321 5                 105780847.65015
E11  24476474.815 7  24476473.344 7 128624736.978 7  97303771.395 7
E25  26977278.080 5                 141766458.526 5
E30  26575839.750 8  26575843.620 9 139656981.354 8 105649613.271 9
E34  26631603.823 6  26631606.228 5 139950054.780 6 105871325.49715
E36  23447759.435 8  23447762.068 9 123218806.876 8  93214237.775 9
G02  21976991.251 7  21976993.435 6                                 115489870.282 7  89992119.881 6                
G08  20290016.978 8                  20290023.698 8  20290019.645 8 106624761.258 8                  83084369.228 8  79622548.356 8
G10  20761569.226 8                  20761574.382 8  20761570.293 8 109102773.348 8                  85015176.310 8  81472902.547 8
G23  22698985.577 5                  22699017.807 5  22698990.397 4 119283987.979 5                  92948852.743 5  89075580.869 4
G27  20483208.112 8                  20483213.745 8  20483210.706 8 107639978.408 8                  83875331.236 8  80380512.275 8
R01  19810247.283 7                 105897100.901 7
R02  21990893.444 7  21990898.793 7 117347651.175 7  91270429.748 7
R15  22043500.444 5                 117794002.28015
R16  22141102.774 5  22141106.241 6 118273908.94015  91990784.106 6
R17  20053636.865 8  20053638.816 7 107311060.643 8  83464165.322 7
R24  19701261.429 8  19701263.539 7 105351495.579 8  81940017.971 7
> 2025 06 15 10 05 30.0000000  0 24
C19  23226479.967 7                 120946387.971 7
C20  22790457.875 7                 118675887.195 7
C29  22598929.512 7                 117678554.849 7
C35  21734668.919 8                 113178127.617 8
C44  24650502.326 6                 128361629.446 6
C47  24503424.872 5                 127595804.313 5
E02  24759321.517 8  24759323.857 9 130111106.384 8  98428211.779 9
E04                  25941107.052 5                 103126258.43415
E10  26615369.480 4  26615364.068 5 139864703.27514 105806682.68015
E11  24480896.150 7  24480894.877 7 128647972.233 7  97321348.694 7
E25  26986074.577 4  26986099.223 5 141812698.75514 107280446.55115
E30  26571970.702 8  26571974.279 9 139636647.851 8 105634231.092 9
E34  26624526.575 6  26624529.331 5 139912874.880 6 105843199.17315
E36  23445627.531 8  23445630.516 9 123207605.282 8  93205763.849 9
G02  21970657.599 7  21970659.354 6                                 115456586.838 7  89966184.764 6                
G08  20287478.444 8                  20287484.629 8  20287481.552 8 106611420.434 8                  83073973.798 8  79612586.066 8
G10  20763250.854 8                  20763255.988 8  20763252.138 8 109111612.002 8                  85022063.610 8  81479502.865 8
G27  20488056.237 8                  20488061.826 7  20488059.677 8 107665457.486 8                  83895185.042 7  80399538.842 8
R01  19806970.727 7                 105879584.036 7
R02  21978732.456 7  21978736.916 7 117282755.854 7  91219955.650 7
R15  22051180.257 6  22051177.301 5 117835019.536 6  91649366.92615
R16  22138731.213 6  22138735.294 6 118261241.36616  91980931.339 6
R17  20047252.875 8  20047255.791 7 107276900.880 8  83437596.634 7
R24  19704873.904 8  19704876.282 7 105370814.152 8  81955043.504 7
> 2025 06 15 10 05 45.0000000  0 24
C13  38524410.342 5                 200606540.79615
C19  23218989.981 7                 120907385.729 7
C20  22791359.019 7                 118680573.055 7
C29  22604606.447 7                 117708115.854 7
C35  21731118.308 8                 113159638.494 8
C44  24641888.727 5                 128316802.011 5
C47  24511064.277 4                 127635591.046 4
E02  24763426.061 7  24763428.334 8 130132677.921 7  98444530.458 8
E04                  25937410.773 6                 103111560.860 6
E10  26621873.571 4  26621865.516 5 139898866.65914 105832526.73415
E11  24485324.621 7  24485323.055 7 128671242.279 7  97338952.288 7
E30  26568119.537 7  26568123.378 8 139616412.428 7 105618923.121 8
E34  26617456.390 5  26617466.484 6 139875713.173 5 105815086.18716
E36  23443505.852 8  23443508.599 9 123196454.390 8  93197328.284 9
G02  21964334.006 7  21964335.318 6                                 115423355.435 7  89940290.141 6                
G08  20284964.434 8                  20284970.141 8  20284966.663 8 106598208.072 8                  83063678.445 8  79602719.674 8
G10  20764955.835 8                  20764960.855 8  20764957.118 8 109120572.437 8                  85029045.750 8  81486194.097 8
G27  20492927.851 8                  20492933.800 8  20492931.466 8 107691056.512 8                  83915132.372 8  80418655.009 8
R01  19803732.271 7                 105862271.923 7
R02  21966584.378 7  21966589.181 6 117217933.338 7  91169538.202 6
R15  22058879.374 5                 117876170.386 5
R16  22136399.813 7  22136401.300 6 118248771.630 7  91971232.684 6
R17  20040883.179 8  20040885.938 8 107242815.349 8  83411085.696 8
R24  19708505.721 8  19708507.688 7 105390234.021 8  81970147.829 7
> 2025 06 15 10 06  0.0000000  0 22
C19  23211519.352 8                 120868477.614 8
C20  22792284.055 7                 118685392.563 7
C29  22610295.189 6                 117737743.145 6
C35  21727582.296 8                 113141226.689 8
C44  24633287.775 6                 128271994.335 6
C47  24518706.891 4                 127675416.94814
E02  24767550.300 8  24767551.976 9 130154347.251 8  98460923.119 9
E04  25933732.904 5  25933734.160 6 136282732.59415 103096940.567 6
E10  26628372.217 4  26628369.304 4                
E11  24489759.440 7  24489758.233 7 128694550.452 7  97356584.766 7
E30  26564287.945 8  26564291.888 8 139596278.634 8 105603692.036 8
E34  26610389.288 6  26610398.715 6 139838573.208 6 105786990.092 6
E36  23441394.423 8  23441396.874 9 123185357.649 8  93188933.676 9
G02  21958020.408 6  21958021.773 6                                 115390179.428 6  89914438.733 6                
G08  20282475.682 8                  20282481.393 8  20282477.550 8 106585127.662 8                  83053485.904 8  79592951.830 8
G10  20766684.550 8                  20766689.597 7  20766686.539 8 109129657.839 8                  85036125.267 7  81492978.631 8
G27  20497822.998 8                  20497828.860 8  20497825.841 8 107716778.875 8                  83935175.736 8  80437863.214 8
R01  19800532.789 8                 105845168.443 8
R02  21954451.200 7  21954456.197 7 117153187.542 7  91119180.386 7
R16  22134102.688 7  22134102.107 6 118236503.050 7  91961690.600 6
R17  20034528.463 8  20034530.704 7 107208807.677 8  83384635.280 7
R24  19712156.542 8  19712159.269 7 105409758.189 8  81985333.303 7
> 2025 06 15 10 06 15.0000000  0 23
C19  23204066.572 8                 120829672.491 8
C20  22793236.701 7                 118690354.217 7
C29  22615999.831 6                 117767445.011 6
C35  21724063.330 8                 113122900.799 8
C44  24624688.615 6                 128227215.072 6
C47  24526363.221 5                 127715290.67215
E02  24771694.349 8  24771696.020 9 130176122.813 8  98477396.172 9
E04  25930074.348 5  25930077.025 6 136263517.138 5 103082404.226 6
E10  26634878.186 4  26634875.078 4 139967247.47014 105884255.91314
E11  24494204.075 7  24494202.527 7 128717905.274 7  97374252.520 7
E30  26560478.058 7  26560481.165 8 139576255.285 7 105588544.470 8
E34  26603327.162 5  26603336.450 6 139801463.579 5 105758917.002 6
E36  23439294.519 8  23439297.217 9 123174323.646 8  93180586.512 9
G02  21951719.843 7  21951720.736 6                                 115357067.724 7  89888637.391 6                
G08  20280013.361 8                  20280019.236 8  20280015.629 8 106572187.994 8                  83043403.044 8  79583289.100 8
G10  20768439.194 8                  20768444.089 7  20768440.963 9 109138876.711 8                  85043308.817 7  81499862.847 9
G27  20502742.599 8                  20502748.600 8  20502745.963 8 107742632.994 8                  83955321.760 8  80457169.848 8
R01  19797374.187 8                 105828282.190 8
R02  21942334.090 7  21942339.432 7 117088527.777 7  91068889.499 7
R08  21986374.764 5  21986388.178 4 117736155.13015  91572579.87214
R16  22131843.341 6  22131845.855 6 118224444.959 6  91952312.025 6
R17  20028189.452 8  20028191.297 7 107174887.021 8  83358252.554 7
R24  19715828.970 8  19715831.082 7 105429395.687 8  82000606.854 7
> 2025 06 15 10 06 30.0000000  0 22
C19  23196634.346 8                 120790972.731 8
C20  22794216.535 7                 118695460.053 7
C24  25404925.561 5                 132290038.62215
C29  22621718.087 6                 117797223.747 6
C35  21720561.062 8                 113104663.166 8
C44  24616094.528 6                 128182466.622 6
C47  24534031.527 6                 127755214.475 6
E02  24775858.496 8  24775860.494 9 130198006.701 8  98493951.188 9
E04  25926436.573 4  25926439.909 5 136244414.666 4 103067953.528 5
E11  24498657.382 7  24498656.262 7 128741308.960 7  97391957.246 7
E30  26556689.290 7  26556692.253 8 139556344.642 7 105573482.213 8
E34  26596271.562 6  26596280.975 5 139764386.478 6 105730868.507 5
E36  23437207.434 8  23437209.894 9 123163354.545 8  93172288.474 9
G02  21945431.773 7  21945432.901 6                                 115324022.461 7  89862887.873 6                
G08  20277578.248 8                  20277583.701 8  20277580.044 8 106559391.392 8                  83033431.666 8  79573733.210 8
G10  20770219.260 8                  20770224.288 8  20770221.270 9 109148231.020 8                  85050597.890 8  81506848.203 9
G27  20507688.079 7                  20507694.078 8  20507691.223 8 107768620.925 7                  83975572.092 8  80476576.386 8
R01  19794255.903 8                 105811615.517 8
R02  21930233.901 7  21930238.397 7 117023956.603 7  91018667.590 7
R08  21994708.749 5  21994723.810 5 117780788.555 5  91607294.71815
R17  20021867.653 7  20021870.370 8 107141055.498 7  83331939.133 8
R24  19719523.229 8  19719525.363 7 105449148.755 8  82015970.343 7
> 2025 06 15 10 06 45.0000000  0 24
C19  23189222.005 8                 120752374.520 8
C20  22795223.914 7                 118700706.024 7
C24  25407188.071 5                 132301875.92315
C29  22627451.268 6                 117827075.160 6
C35  21717074.279 8                 113086509.785 8
C44  24607506.500 6                 128137745.000 6
C47  24541706.036 6                 127795184.126 6
E02  24780042.128 7  24780044.796 9 130219994.631 7  98510584.901 9
E04  25922821.623 5                 136225369.69715
E11  24503118.981 7  24503118.435 7 128764757.325 7  97409695.766 7
E30  26552921.394 7  26552924.221 8 139536542.733 7 105558502.189 8
E34  26589220.156 5  26589223.397 5 139727337.821 5 105702842.90115
E36  23435131.799 8  23435133.986 9 123152446.267 8  93164036.438 9
G02  21939155.034 7  21939156.905 6                                 115291039.663 7  89837187.021 6                
G08  20275168.829 8                  20275175.106 8  20275171.098 8 106546733.913 8                  83023568.680 8  79564281.183 8
G10  20772023.964 8                  20772029.447 7  20772026.212 9 109157716.607 8                  85057989.235 7  81513931.580 9
G27  20512658.579 8                  20512664.270 7  20512660.945 8 107794738.370 8                  83995923.334 7  80496079.655 8
R01  19791178.225 7                 105795164.692 7
R02  21918148.680 7  21918153.555 7 116959470.383 7  90968511.688 7
R08  22003067.373 5                 117825568.726 5
R15  22089942.141 5  22089945.049 5 118042197.13215  91810566.57215
R16  22127445.276 5  22127451.750 6 118200961.22115  91934047.63516
R17  20015560.771 8  20015563.963 8 107107309.357 8  83305692.162 8
R24  19723237.556 8  19723240.080 7 105469012.894 8  82031420.260 7
> 2025 06 15 10 07  0.0000000  0 23
C19  23181828.655 8                 120713875.202 8
C20  22796257.133 7                 118706089.111 7
C24  25409487.598 5                 132313825.63315
C29  22633197.547 6                 117856996.239 6
C35  21713603.743 8                 113068437.999 8
C44  24598920.340 6                 128093047.506 6
C47  24549391.714 6                 127835196.518 6
E02  24784245.546 8  24784248.339 9 130242083.534 8  98527294.984 9
E11  24507590.079 7  24507588.474 7 128788247.435 7  97427465.837 7
E30  26549172.950 7  26549176.274 8 139516846.785 7 105543602.318 8
E34  26582175.334 6  26582180.060 6 139690314.692 6 105674835.332 6
E36  23433066.906 8  23433069.319 9 123141595.883 8  93155828.188 9
G02  21932890.665 7  21932891.562 6                                 115258116.526 7  89811532.641 6                
G08  20272786.488 8                  20272792.702 8  20272789.381 8 106534212.737 8                  83013811.915 8  79554930.952 8
G10  20773853.518 8                  20773858.870 7  20773855.576 9 109167330.323 8                  85065480.449 7  81521110.675 9
G27  20517652.216 8                  20517657.980 8  20517654.935 8 107820982.325 8                  84016373.147 8  80515677.420 8
R01  19788140.631 7                 105778926.590 7
R02  21906079.637 7  21906084.466 7 116895066.863 7  90918420.035 7
R08  22011454.358 4                                
R15  22097775.809 6  22097778.435 5 118084057.12716  91843124.344 5
R16  22125311.975 6  22125310.677 6 118189529.993 6  91925156.621 6
R17  20009269.497 8  20009272.269 8 107073645.695 8  83279509.355 8
R24  19726972.575 8  19726975.341 8 105488985.553 8  82046954.483 8
> 2025 06 15 10 07 15.0000000  0 24
C19  23174453.928 8                 120675473.797 8
C20  22797318.182 8                 118711608.010 8
C29  22638956.434 6                 117886985.820 6
C35  21710149.278 8                 113050446.639 8
C44  24590342.998 6                 128048372.867 6
C47  24557080.169 5                 127875250.464 5
E02  24788467.574 8  24788470.626 9 130264272.082 8  98544080.454 9
E04  25915661.099 4                 136187702.87314
E11  24512067.772 7  24512066.320 7 128811777.829 7  97445266.444 7
E25  27047776.685 5  27047774.231 6 142137045.53215 107525702.56316
E30  26545445.010 7  26545448.161 8 139497255.714 7 105528781.797 8
E34  26575134.715 6  26575139.415 7 139653316.112 6 105646846.167 7
E36  23431013.180 8  23431015.378 9 123130802.163 8  93147662.826 9
G02  21926635.938 8  21926637.117 6                                 115225251.816 8  89785923.782 6                
G08  20270429.731 8                  20270435.907 8  20270432.789 8 106521826.788 8                  83004160.563 8  79545681.706 8
G10  20775707.165 8                  20775712.293 8  20775709.121 8 109177070.892 8                  85073070.451 8  81528384.474 8
G23  22766464.394 4                                                 119638749.86514                                
G27  20522670.277 8                  20522676.417 8  20522672.386 8 107847351.429 8                  84036920.504 8  80535368.630 8
R01  19785142.722 7                 105762900.425 7
R02  21894025.688 7  21894030.842 7 116830745.142 7  90868392.145 7
R15  22105636.608 6  22105639.836 5 118126054.129 6  91875788.486 5
R16  22123211.975 5  22123208.819 6 118178303.02715  91916424.641 6
R17  20002994.127 8  20002996.819 8 107040063.669 8  83253389.963 8
R24  19730727.363 8  19730730.090 7 105509065.136 8  82062571.939 7
> 2025 06 15 10 07 30.0000000  0 21
C19  23167098.252 7                 120637172.126 7
C20  22798403.586 7                 118717264.306 7
C29  22644729.187 7                 117917045.489 7
C35  21706710.123 8                 113032537.490 8
C44  24581769.072 6                 128003723.052 6
E02  24792709.869 8  24792712.149 9 130286561.759 8  98560942.422 9
E11  24516553.177 7  24516552.294 7 128835350.313 7  97463098.867 7
E25  27056606.040 5  27056602.516 7 142183438.02715 107560798.124 7
E30  26541737.009 7  26541740.478 8 139477771.311 7 105514041.992 8
E34  26568095.737 5  26568104.363 7 139616343.687 5 105618876.752 7
E36  23428970.179 8  23428972.531 9 123120066.779 8  93139541.568 9
G02  21920393.569 7  21920394.109 6                                 115192447.374 7  89760361.850 6                
G08  20268098.686 8                  20268105.036 8  20268101.449 9 106509577.885 8                  82994615.975 8  79536534.809 9
G10  20777585.436 8                  20777590.128 7  20777586.566 8 109186939.753 8                  85080760.513 7  81535754.086 8
G27  20527712.334 8                  20527718.131 8  20527714.683 8 107873847.205 8                  84057566.536 8  80555154.432 8
R01  19782184.681 8                 105747087.705 8
R02  21881987.572 7  21881992.693 7 116766507.446 7  90818429.555 7
R15  22113522.086 5  22113525.827 6 118168189.145 5  91908560.218 6
R16  22121153.921 6  22121145.846 6 118167282.22916  91907852.921 6
R17  19996734.275 8  19996736.589 7 107006564.849 8  83227335.343 7
R24  19734502.834 8  19734505.057 7 105529253.273 8  82078273.839 7
> 2025 06 15 10 07 45.0000000  0 20
C19  23159761.621 8                 120598966.488 8
C20  22799515.989 7                 118723053.786 7
C29  22650516.065 7                 117947171.064 7
C35  21703285.788 8                 113014706.648 8
C44  24573198.084 6                 127959094.025 6
E02  24796969.762 8  24796972.186 9 130308948.306 8  98577877.679 9
E04  25908575.282 4  25908577.187 5 136150448.59014 102996877.95715
E11  24521046.202 7  24521045.120 7 128858960.701 7  97480959.930 7
E30  26538048.254 7  26538052.263 8 139458389.605 7 105499379.832 8
E34  26561066.844 5  26561072.934 7 139579393.219 5 105590923.947 7
E36  23426937.271 8  23426939.972 9 123109385.623 8  93131461.333 9
G02  21914162.010 7  21914163.041 5                                 115159699.035 7  89734843.725 5                
G08  20265793.426 8                  20265799.233 8  20265795.989 8 106497462.063 8                  82985175.087 8  79527487.287 8
G10  20779486.747 8                  20779491.778 7  20779488.572 8 109196932.688 8                  85088547.195 7  81543216.311 8
G27  20532777.419 8                  20532783.544 8  20532781.121 8 107900465.395 8                  84078307.949 8  80575031.624 8
R01  19779265.755 7                 105731484.667 7
R02  21869963.720 7  21869969.324 7 116702350.285 7  90768529.600 7
R15  22121431.154 4                                
R17  19990488.943 8  19990491.080 8 106973145.446 8  83201342.483 8
R24  19738297.582 8  19738300.573 7 105549545.915 8  82094056.979 7
> 2025 06 15 10 08  0.0000000  0 21
C19  23152445.178 8                 120560865.086 8
C20  22800655.073 7                 118728984.525 7
C29  22656312.932 7                 117977370.462 7
C35  21699878.100 8                 112996962.327 8
C44  24564632.904 6                 127914494.068 6
E02  24801249.599 8  24801252.279 9 130331439.698 8  98594892.266 9
E11  24525548.453 7  24525546.716 7 128882617.073 7  97498855.793 7
E25  27074269.667 5  27074268.238 7 142276274.72915 107631026.813 7
E30  26534381.384 7  26534385.268 8 139439118.879 7 105484801.655 8
E34  26554042.188 6  26554046.401 7 139542472.864 6 105562993.990 7
E36  23424917.070 8  23424919.163 9 123098766.808 8  93123428.272 9
G02  21907942.251 7  21907944.220 6                                 115127014.968 7  89709375.624 6                
G08  20263515.096 8                  20263521.081 8  20263517.223 8 106485487.634 8                  82975844.354 8  79518545.349 8
G10  20781413.403 8                  20781419.350 8  20781415.133 8 109207057.662 8                  85096436.791 8  81550777.165 8
G27  20537867.805 8                  20537873.893 8  20537871.733 9 107927213.992 8                  84099151.019 8  80595006.194 9
R01  19776387.714 7                 105716099.554 7
R02  21857958.368 7  21857962.545 7 116638282.550 7  90718699.184 7
R08  22045279.671 6                 118051561.99916
R16  22117176.913 6  22117137.270 6 118145861.53116  91891198.16516
R17  19984260.075 8  19984262.596 7 106939814.014 8  83175418.042 7
R24  19742113.529 8  19742116.608 7 105569951.244 8  82109927.802 7
> 2025 06 15 10 08 15.0000000  0 21
C19  23145148.049 8                 120522868.157 8
C20  22801821.148 7                 118735056.339 7
C29  22662127.208 7                 118007643.749 7
C35  21696486.757 8                 112979304.506 8
C44  24556070.340 5                 127869923.227 5
E02  24805549.556 8  24805552.167 9 130354035.796 8  98611986.041 9
E11  24530058.255 7  24530057.138 7 128906319.277 7  97516786.369 7
E25  27083108.959 5  27083107.608 6 142322724.53715 107666165.817 6
E30  26530734.955 7  26530739.240 8 139419959.189 7 105470307.484 8
E34  26547025.736 5  26547025.876 6 139505582.478 5 105535086.829 6
E36  23422907.768 8  23422910.332 9 123088210.317 8  93115442.367 9
G02  21901734.796 7  21901737.224 6                                 115094395.313 7  89683957.729 6                
G08  20261263.171 8                  20261269.116 8  20261265.499 8 106473654.631 8                  82966623.832 8  79509709.009 8
G10  20783365.250 8                  20783370.622 7  20783367.082 8 109217314.481 8                  85104429.102 7  81558436.479 8
G27  20542982.118 8                  20542988.273 7  20542986.128 9 107954092.804 8                  84120095.536 7  80615078.017 9
R01  19773550.342 7                 105700932.594 7
R02  21845968.500 8  21845972.504 7 116574304.404 8  90668938.458 7
R08  22053802.132 5  22053836.267 4 118097201.481 5  91853326.61614
R16  22115195.363 6  22115189.177 5 118135467.91916  91883111.304 5
R17  19978047.777 8  19978050.684 7 106906570.670 8  83149562.124 7
R24  19745950.533 8  19745952.938 7 105590469.306 8  82125886.285 7
> 2025 06 15 10 08 30.0000000  0 21
C19  23137869.726 8                 120484971.926 8
C20  22803013.595 7                 118741265.154 7
C29  22667957.142 7                 118037986.772 7
C35  21693112.298 8                 112961729.434 8
C44  24547515.780 5                                
E02  24809868.358 7  24809871.325 9 130376732.405 7  98629155.864 9
E04  25898092.183 6  25898096.455 6 136095350.53816 102955254.37616
E11  24534576.871 7  24534575.100 7 128930063.329 7  97534748.565 7
E30  26527110.340 7  26527113.575 8 139400906.698 7 105455894.419 8
E36  23420910.062 8  23420912.515 9 123077712.139 8  93107500.554 9
G02  21895539.445 7  21895541.382 5                                 115061836.057 7  89658586.890 5                
G08  20259037.790 8                  20259043.506 8  20259039.684 8 106461959.231 8                  82957510.522 8  79500975.416 8
G10  20785341.304 8                  20785346.186 7  20785342.874 8 109227699.004 8                  85112520.944 7  81566191.138 8
G27  20548121.310 8                  20548126.976 8  20548124.644 8 107981097.716 8                  84141138.303 8  80635244.006 8
R01  19770752.799 7                 105685979.790 7
R02  21833994.748 7  21833999.250 7 116510412.502 7  90619244.782 7
R08  22062352.843 5  22062381.079 5 118142982.287 5  91888932.80115
R15  22145321.784 5  22145319.994 5 118338102.72915  92040655.29015
R16  22113278.962 6  22113278.718 5 118125276.877 6  91875185.155 5
R17  19971851.249 8  19971852.887 7 106873411.547 8  83123771.712 7
R24  19749808.036 8  19749810.516 7 105611095.982 8  82141929.240 7
> 2025 06 15 10 08 45.0000000  0 20
C19  23130610.227 8                 120447168.631 8
C20  22804229.618 7                 118747602.957 7
C29  22673793.314 7                 118068391.575 7
C35  21689751.753 8                 112944229.176 8
C44  24538967.693 5                 127780849.63815
E02  24814204.744 7  24814208.011 9 130399521.333 7  98646395.522 9
E04  25894642.073 6  25894643.647 6 136077210.029 6 102941531.343 6
E11  24539101.877 7  24539099.875 7 128953841.042 7  97552736.265 7
E30  26523502.875 7  26523506.677 8 139381953.451 7 105441556.425 8
E36  23418921.885 8  23418924.493 9 123067264.197 8  93099596.749 9
G02  21889353.655 7  21889354.737 5                                 115029329.267 7  89633256.938 5                
G08  20256836.769 8                  20256842.774 8  20256839.399 8 106450393.443 8                  82948498.220 8  79492338.631 8
G10  20787340.490 8                  20787344.973 7  20787342.416 9 109238202.990 8                  85120705.867 7  81574035.011 9
G27  20553282.761 8                  20553288.543 8  20553285.663 8 108008220.503 8                  84162272.905 8  80655497.995 8
R01  19767994.501 7                 105671233.188 7
R02  21822036.402 7  21822041.338 7 116446599.016 7  90569612.188 7
R08  22070926.273 5                 118188895.417 5
R16  22111406.885 6  22111410.000 6 118115284.757 6  91867413.473 6
R17  19965669.260 8  19965670.587 7 106840328.470 8  83098040.433 7
R24  19753683.876 8  19753686.553 7 105631822.922 8  82158050.206 7
> 2025 06 15 10 09  0.0000000  0 20
C19  23123367.871 8                 120409454.196 8
C20  22805470.831 7                 118754065.304 7
C29  22679643.347 6                 118098853.702 6
C35  21686403.855 8                 112926799.577 8
E02  24818558.455 7  24818561.134 9 130422398.022 7  98663701.552 9
E04  25891207.871 6  25891209.744 6 136059165.105 6 102927880.545 6
E11  24543631.651 7  24543629.925 7 128977648.036 7  97570746.082 7
E30  26519914.466 7  26519917.993 8 139363095.165 7 105427290.248 8
E36  23416942.605 8  23416945.112 9 123056862.068 8  93091727.608 9
G02  21883176.410 7  21883177.583 5                                 114996870.704 7  89607964.544 5                
G08  20254659.179 8                  20254665.195 8  20254661.949 8 106438953.046 8                  82939583.640 8  79483795.506 8
G10  20789361.045 8                  20789366.221 8  20789362.926 8 109248821.900 8                  85128980.331 8  81581964.691 8
G27  20558465.493 8                  20558471.003 8  20558468.147 8 108035456.561 8                  84183495.782 8  80675836.585 8
G32  23267849.455 4                  23267855.550 5                                                  95277979.33115
R01  19765273.570 8                 105656688.422 8
R02  21810092.383 8  21810096.460 7 116382860.068 8  90520037.483 7
R08  22079523.565 5                 118234936.121 5
R15  22161366.025 6  22161366.102 5 118423865.00816  92107348.567 5
R17  19959500.205 8  19959502.290 7 106807317.401 8  83072365.130 7
R24  19757578.250 8  19757580.780 7 105652645.721 8  82174245.721 7
> 2025 06 15 10 09 15.0000000  0 21
C19  23116143.061 8                 120371831.734 8
C20  22806737.050 7                 118760654.894 7
C29  22685506.188 7                 118129375.973 7
C35  21683070.973 8                 112909443.614 8
C44  24521872.256 4                 127691834.45814
E02  24822928.325 7  24822931.531 8 130445365.250 7  98681076.032 8
E04  25887791.145 5  25887795.164 7 136041218.673 5 102914304.270 7
E11  24548167.709 7  24548166.542 7 129001487.115 7  97588780.174 7
E30  26516344.830 7  26516348.085 8 139344334.921 7 105413098.249 8
E36  23414972.626 8  23414974.943 9 123046508.691 8  93083895.337 9
G02  21877009.345 7  21877011.116 5                                 114964463.053 7  89582711.813 5                
G08  20252506.046 8                  20252512.929 8  20252508.917 8 106427641.047 8                  82930769.091 8  79475348.233 8
G10  20791404.266 8                  20791409.447 8  20791406.162 9 109259558.485 8                  85137346.488 8  81589982.267 9
G27  20563670.306 8                  20563675.824 8  20563673.344 8 108062808.691 8                  84204809.132 8  80696261.885 8
R01  19762590.903 8                 105642348.405 8
R02  21798161.338 7  21798167.346 7 116319199.145 7  90470523.436 7
R08  22088144.179 5                 118281106.900 5
R15  22169422.568 5  22169430.858 6 118466924.995 5  92140839.809 6
R16  22107775.248 5  22107779.347 6 118095895.14015  91852325.451 6
R17  19953345.600 8  19953348.187 8 106774381.444 8  83046748.314 8
R24  19761490.324 8  19761493.145 7 105673567.426 8  82190518.131 7
> 2025 06 15 10 09 30.0000000  0 22
C19  23108935.981 8                 120334304.652 8
C20  22808027.387 7                 118767374.994 7
C29  22691378.970 7                 118159961.563 7
C35  21679752.515 8                 112892164.629 8
C44  24513325.427 4                                
E02  24827317.217 7  24827319.797 8 130468426.077 7  98698521.363 8
E11  24552711.590 7  24552709.775 7 129025361.511 7  97606841.003 7
E25                  27127333.327 5                 107841982.45815
E30  26512794.283 7  26512797.548 8 139325676.095 7 105398982.977 8
E34  26511979.189 5  26511983.342 6 139321454.12515 105395776.743 6
E36  23413011.970 8  23413014.513 9 123036207.302 8  93076102.432 9
G02  21870852.621 7  21870854.263 5                                 114932109.862 7  89557501.585 5                
G08  20250379.194 8                  20250385.278 8  20250381.847 8 106416460.960 8                  82922057.324 8  79466999.435 8
G10  20793470.300 8                  20793475.425 7  20793472.359 9 109270415.852 8                  85145806.770 7  81598090.038 9
G27  20568898.229 8                  20568903.528 8  20568901.112 8 108090280.054 8                  84226215.390 8  80716776.189 8
G32  23251370.412 4                                                                                                
R01  19759947.396 8                 105628216.590 8
R02  21786246.862 7  21786252.157 7 116255620.092 7  90421073.152 7
R15  22177503.327 6  22177512.792 3 118510112.552 6
R16  22106010.601 5  22106018.858 6 118086494.79215  91845014.044 6
R17  19947205.074 8  19947207.308 8 106741524.048 8  83021192.588 8
R24  19765422.498 8  19765424.711 7 105694591.020 8  82206869.787 7
> 2025 06 15 10 09 45.0000000  0 23
C19  23101747.909 8                 120296874.517 8
C20  22809342.919 7                 118774226.736 7
C29  22697263.574 6                 118190611.648 6
C35  21676449.412 8                 112874964.060 8
C44  24504795.798 6                 127602902.52416
C47  24634435.181 6                 128278024.38216
E02  24831724.068 7  24831726.348 9 130491581.650 7  98716038.389 9
E11  24557261.871 7  24557259.995 7 129049272.455 7  97624929.480 7
E25  27136177.440 5  27136183.372 6 142601639.18015 107877166.451 6
E30  26509262.979 7  26509266.555 8 139307120.035 7 105384945.464 8
E34  26504983.729 6  26504984.665 6 139284680.129 6 105367957.432 6
E36  23411061.417 8  23411064.331 9 123025959.251 8  93068349.833 9
G02  21864706.897 7  21864708.200 5                                 114899812.715 7  89532334.994 5                
G08  20248277.252 8                  20248283.171 8  20248279.992 8 106405414.028 8                  82913449.357 8  79458750.140 8
G10  20795559.448 7                  20795564.257 7  20795561.022 8 109281395.140 7                  85154362.076 7  81606288.856 8
G16  24634577.161 5                                                 129455440.47415                                
G27  20574148.562 8                  20574153.648 7  20574151.229 8 108117871.765 8                  84247715.414 7  80737380.370 8
R01  19757342.905 8                 105614294.597 8
R02  21774347.781 7  21774352.230 7 116192124.689 7  90371687.894 7
R15  22185610.065 6  22185619.421 4 118553428.536 6  92208116.87714
R16  22104293.660 6  22104294.303 5 118077296.286 6  91837859.761 5
R17  19941080.316 8  19941081.430 7 106708746.810 8  82995699.133 7
R24  19769372.634 8  19769374.941 7 105715717.891 8  82223301.799 7
> 2025 06 15 10 10  0.0000000  0 23
C19  23094577.444 8                 120259536.389 8
C20  22810682.732 7                 118781204.916 7
C29  22703160.359 6                 118221321.130 6
C35  21673160.098 8                 112857836.874 8
C44  24496258.325 6                 127558460.555 6
C47  24642206.808 5                 128318501.176 5
E02  24836147.744 7  24836149.811 8 130514826.622 7  98733623.053 8
E11  24561817.804 7  24561816.102 7 129073214.740 7  97643041.645 7
E25  27145030.020 5  27145034.919 6 142648154.505 5 107912354.801 6
E30  26505750.105 8  26505754.002 8 139288661.726 8 105370981.878 8
E34  26497985.712 5  26497988.741 6 139247922.134 5 105340150.338 6
E36  23409121.055 8  23409123.340 9 123015759.256 8  93060633.617 9
G02  21858570.844 7  21858571.953 5                                 114867566.309 7  89507207.931 5                
G08  20246199.455 8                  20246205.262 8  20246202.085 9 106394495.338 8                  82904941.244 8  79450596.568 9
G10  20797671.160 8                  20797675.853 7  20797672.788 8 109292491.028 8                  85163008.196 7  81614574.712 8
G27  20579420.910 8                  20579426.676 8  20579424.157 8 108145578.432 8                  84269305.023 8  80758070.418 8
R01  19754777.162 8                 105600577.264 8
R02  21762463.798 7  21762468.615 7 116128708.355 7  90322364.178 7
R08  22114165.625 5                 118420396.80115
R15  22193738.886 5                 118596866.821 5
R16  22102608.718 6  22102609.977 5 118068294.793 6  91830858.496 5
R17  19934969.192 8  19934971.059 8 106676044.571 8  82970264.074 8
R24  19773342.341 8  19773344.391 7 105736943.021 8  82239810.239 7
> 2025 06 15 10 10 15.0000000  0 25
C19  23087425.372 8                 120222288.633 8
C20  22812046.785 7                 118788307.492 7
C24  25441320.918 5                 132479835.39415
C29  22709071.681 6                 118252088.087 6
C35  21669885.191 8                 112840781.341 8
C44  24487726.823 6                 127514032.873 6
C47  24649985.825 4                 128359008.233 4
E02  24840587.607 8  24840589.694 9 130538158.957 8  98751273.798 9
E11  24566379.453 7  24566377.917 7 129097186.369 7  97661176.032 7
E25  27153883.480 5  27153887.777 6 142694673.595 5 107947546.094 6
E30  26502256.500 8  26502259.683 8 139270299.424 8 105357090.935 8
E34  26490990.963 5  26490996.735 6 139211178.726 5 105312354.037 6
E36  23407188.986 8  23407191.154 9 123005605.510 8  93052952.373 9
G02  21852442.857 7  21852445.033 5                                 114835368.774 7  89482118.992 5                
G08  20244145.745 8                  20244151.213 8  20244148.003 8 106383703.061 8                  82896531.693 8  79442537.411 8
G10  20799803.788 8                  20799809.179 8  20799806.152 8 109303701.432 8                  85171743.553 8  81622946.093 8
G27  20584714.602 8                  20584720.874 8  20584718.242 8 108173398.078 8                  84290982.631 8  80778844.808 8
G32  23226732.004 5                  23226761.634 5                 122057202.58615                  95109596.79015
R01  19752248.746 7                 105587062.519 7
R02  21750593.759 8  21750598.581 7 116065369.428 8  90273100.624 7
R08  22122888.742 4                                
R15  22201890.586 6  22201907.757 5 118640424.988 6  92275584.74215
R16  22100962.094 7  22100963.315 6 118059487.721 7  91824008.686 6
R17  19928871.714 8  19928873.983 8 106643415.651 8  82944886.073 8
R24  19777329.168 8  19777332.047 7 105758264.173 8  82256393.331 7
> 2025 06 15 10 10 30.0000000  0 21
C13  38574462.203 4                 200867357.20214
C19  23080289.747 8                 120185136.605 8
C20  22813435.753 7                 118795539.561 7
C29  22714993.785 6                 118282917.451 6
C35  21666625.334 8                 112823802.667 8
C44  24479200.888 6                 127469624.782 6
E02  24845044.661 7  24845047.267 9 130561583.686 7  98768994.436 9
E11  24570946.665 7  24570946.438 7 129121192.485 7  97679336.519 7
E25  27162736.739 5  27162742.085 6 142741201.355 5 107982743.898 6
E30  26498781.829 8  26498784.574 8 139252038.429 8 105343276.605 8
E34  26484004.951 5  26484009.305 6 139174454.66915 105284572.477 6
E36  23405266.113 8  23405268.755 9 122995503.124 8  93045309.977 9
G02  21846326.382 7  21846329.061 5                                 114803225.453 7  89457072.261 5                
G08  20242116.556 8                  20242122.764 7  20242120.045 8 106373042.473 8                  82888224.769 7  79434576.603 8
G10  20801960.091 8                  20801965.664 8  20801962.084 8 109315031.321 8                  85180572.049 8  81631406.738 8
G27  20590031.370 8                  20590036.907 8  20590034.697 8 108201335.704 8                  84312752.179 8  80799707.292 8
R01  19749759.050 7                 105573756.047 7
R02  21738739.499 8  21738743.667 7 116002113.906 8  90223901.961 7
R16  22099345.089 6  22099350.615 5 118050881.148 6  91817314.716 5
R17  19922788.566 8  19922791.069 8 106610865.672 8  82919569.420 8
R24  19781335.452 8  19781338.059 7 105779686.699 8  82273055.267 7
> 2025 06 15 10 10 45.0000000  0 22
C19  23073174.816 8                 120148085.012 8
C20  22814850.571 8                 118802905.467 8
C29  22720925.676 7                 118313813.728 7
C35  21663379.773 8                 112806905.515 8
C44  24470676.804 6                 127425240.892 6
E02  24849519.960 7  24849523.358 9 130585105.151 7  98786788.255 9
E04                  25867708.192 6                 102834451.414 6
E11  24575522.735 6  24575522.074 7 129145237.553 6  97697526.475 7
E25  27171593.870 5  27171598.873 6 142787742.074 5 108017951.465 6
E30  26495326.571 8  26495329.802 8 139233883.345 8 105329542.410 8
E34  26477019.260 6  26477026.370 6 139137754.631 6 105256809.194 6
E36  23403354.329 8  23403357.047 9 122985456.674 8  93037709.890 9
G02  21840221.636 7  21840223.077 5                                 114771140.855 7  89432071.295 5                
G08  20240114.195 8                  20240120.053 7  20240116.268 8 106362518.313 8                  82880024.097 7  79426717.614 8
G10  20804139.457 8                  20804145.084 8  20804141.143 8 109326485.158 8                  85189497.111 8  81639959.921 8
G27  20595370.658 8                  20595376.775 7  20595374.121 8 108229395.699 8                  84334617.087 7  80820661.164 8
R01  19747309.784 7                 105560662.525 7
R02  21726902.100 8  21726906.455 7 115938946.862 8  90174772.100 7
R15  22218261.668 5  22218287.248 4 118727655.64515
R16  22097776.424 6  22097778.128 6 118042479.457 6  91810780.032 6
R17  19916721.358 8  19916723.373 7 106578399.277 8  82894317.798 7
R24  19785361.511 8  19785363.316 7 105801215.137 8  82289799.584 7
> 2025 06 15 10 11  0.0000000  0 23
C19  23066078.960 8                 120111140.316 8
C20  22816291.787 7                 118810411.355 7
C24  25449190.192 5                 132520727.90615
C29  22726875.389 7                 118344782.995 7
C35  21660151.568 8                 112790096.174 8
C44  24462158.537 6                 127380887.461 6
E02  24854015.532 7  24854019.274 9 130608729.542 7  98804659.889 9
E04                  25864430.459 6                 102821420.805 6
E11  24580106.114 7  24580106.388 7 129169327.933 7  97715750.613 7
E25  27180457.542 4  27180458.644 6 142834302.016 4 108053173.470 6
E30  26491893.028 7  26491896.483 8 139215840.610 7 105315893.157 8
E34  26470045.753 6  26470048.528 6 139101084.998 6 105229068.891 6
E36  23401454.117 8  23401457.142 9 122975472.346 8  93030156.820 9
G02  21834128.728 7  21834129.676 5                                 114739121.465 7  89407121.113 5                
G08  20238138.216 8                  20238144.690 7  20238141.245 8 106352136.893 8                  82871934.707 7  79418965.236 8
G10  20806344.413 8                  20806349.519 8  20806345.277 8 109338068.992 8                  85198523.458 8  81648610.184 8
G27  20600734.977 8                  20600740.950 7  20600738.368 8 108257584.112 8                  84356582.070 7  80841710.948 8
R01  19744901.211 7                 105547788.363 7
R02  21715082.066 7  21715086.893 7 115875875.023 7  90125716.270 7
R15  22226488.808 6  22226501.994 5 118771602.118 6
R16  22096241.771 7  22096243.048 5 118034288.880 7  91804409.49515
R17  19910671.489 8  19910673.042 7 106546023.114 8  82869136.367 7
R24  19789408.101 7  19789410.836 7 105822855.743 7  82306631.135 7
> 2025 06 15 10 11 15.0000000  0 24
C19  23059004.317 8                 120074297.986 8
C20  22817758.791 7                 118818052.385 7
C24  25451838.384 5                 132534594.54315
C29  22732834.840 6                 118375820.629 6
C35  21656939.786 8                 112773370.162 8
C44  24453645.038 5                 127336560.154 5
E02  24858529.966 7  24858533.517 9 130632451.944 7  98822605.657 9
E04                  25861173.137 6                 102808472.144 6
E11  24584699.041 6  24584698.175 7 129193458.669 6  97734005.364 7
E25  27189320.811 3  27189321.878 6 142880875.775 3 108088406.136 6
E30  26488479.866 8  26488483.544 8 139197905.557 8 105302325.422 8
E34  26463068.250 6  26463075.135 6 139064440.961 6 105201347.948 6
E36  23399565.706 8  23399568.082 9 122965545.477 8  93022647.206 9
G02  21828046.658 7  21828047.364 5                                 114707162.516 7  89382218.008 5                
G08  20236189.627 8                  20236195.119 7  20236191.640 8 106341893.664 8                  82863952.946 7  79411316.070 8
G10  20808572.265 8                  20808577.690 8  20808573.986 8 109349777.952 8                  85207647.316 8  81657353.877 8
G27  20606122.172 8                  20606128.183 8  20606125.679 8 108285896.151 8                  84378643.361 8  80862853.017 8
G32  23194081.447 4                                                 121885644.26314                                
R01  19742533.248 7                 105535128.699 7
R02  21703279.519 7  21703284.808 7 115812894.203 7  90076731.258 7
R08  22158012.857 5                 118655176.70115
R16  22094746.853 6  22094752.444 6 118026304.676 6  91798199.532 6
R17  19904637.088 8  19904639.195 8 106513732.482 8  82844021.395 8
R24  19793475.607 8  19793477.473 7 105844603.977 8  82323546.389 7
> 2025 06 15 10 11 30.0000000  0 24
C19  23051948.852 8                 120037554.789 8
C20  22819251.950 7                 118825824.972 7
C24  25454528.201 4                 132548569.31314
C29  22738805.128 6                 118406922.952 6
C35  21653743.153 8                 112756724.008 8
C44  24445138.046 6                 127292255.345 6
E02  24863063.698 7  24863065.762 9 130656268.535 7  98840622.741 9
E04                  25857935.830 5                 102795602.862 5
E11  24589298.526 7  24589297.020 7 129217626.215 7  97752287.925 7
E25  27198191.198 4  27198186.754 6 142927459.96114 108123646.604 6
E30  26485087.778 8  26485090.458 8 139180074.842 8 105288836.608 8
E34  26456093.971 5  26456106.100 7 139027819.168 5 105173643.837 7
E36  23397686.698 8  23397689.246 9 122955672.496 8  93015178.361 9
G02  21821975.542 7  21821976.070 5                                 114675260.393 7  89357359.215 5                
G08  20234266.412 8                  20234271.775 8  20234268.596 8 106331785.173 8                  82856076.183 8  79403767.517 8
G10  20810823.010 8                  20810828.959 7  20810824.834 8 109361608.326 8                  85216865.761 7  81666188.222 8
G27  20611533.114 8                  20611538.660 7  20611536.233 8 108314328.050 8                  84400798.104 7  80884084.609 8
G32  23185952.308 5                                                                                                
R01  19740204.713 7                 105522680.471 7
R02  21691493.538 7  21691498.530 7 115750001.327 7  90027814.572 7
R15  22243048.526 5                                
R16  22093293.349 7  22093293.151 6 118018523.330 7  91792147.439 6
R17  19898617.985 8  19898619.828 8 106481524.011 8  82818970.400 8
R24  19797561.721 8  19797564.203 7 105866455.770 8  82340542.223 7
> 2025 06 15 10 11 45.0000000  0 22
C19  23044911.332 8                 120000911.057 8
C20  22820769.854 7                 118833729.094 7
C29  22744791.695 6                 118438089.863 6
C35  21650561.494 8                 112740157.938 8
C44  24436638.072 4                 127247973.406 4
E02  24867613.385 8  24867615.786 9 130680179.313 8  98858711.063 9
E04  25854716.456 5  25854716.461 4 135867505.99215 102782813.09314
E11  24593904.669 6  24593902.989 7 129241830.588 6  97770598.372 7
E25  27207069.889 4  27207053.646 6 142974054.36814 108158894.714 6
E30  26481713.755 8  26481717.307 8 139162348.584 8 105275426.797 8
E34  26449136.887 6  26449141.252 7 138991219.661 6 105145956.489 7
E36  23395818.182 8  23395820.714 9 122945853.458 8  93007750.322 9
G02  21815916.067 7  21815917.102 5                                 114643415.423 7  89332544.948 5                
G08  20232368.209 8                  20232374.046 8  20232370.575 8 106321811.567 8                  82848304.566 8  79396319.703 8
G10  20813097.447 8                  20813103.206 8  20813099.492 9 109373559.958 8                  85226178.708 8  81675113.150 9
G27  20616966.720 8                  20616971.631 7  20616969.732 8 108342879.752 8                  84423046.172 7  80905405.662 8
R01  19737915.595 7                 105510443.527 7
R02  21679723.926 7  21679729.249 7 115687197.212 7  89978966.972 7
R15  22251337.011 5                                
R16  22091870.057 6  22091874.250 6 118010945.440 6  91786253.530 6
R17  19892614.639 8  19892616.357 7 106449398.017 8  82793983.513 7
R24  19801667.793 8  19801670.253 7 105888411.319 8  82357618.770 7
> 2025 06 15 10 12  0.0000000  0 22
C19  23037893.533 8                 119964367.417 8
C20  22822313.361 7                 118841765.237 7
C24  25459980.965 5                 132576844.86115
C29  22750789.101 6                 118469322.007 6
C35  21647395.611 8                 112723672.603 8
C44  24428131.322 5                 127203715.13515
E02  24872180.969 7  24872183.727 9 130704184.590 7  98876870.891 9
E11  24598517.544 6  24598516.041 7 129266072.230 6  97788937.006 7
E25  27215933.524 4  27215921.967 6 143020659.23414 108194150.737 6
E30  26478361.387 8  26478364.279 8 139144727.498 8 105262096.518 8
E34  26442176.446 6  26442180.763 6 138954642.869 6 105118286.415 6
E36  23393959.833 8  23393962.702 9 122936088.921 8  93000363.486 9
G02  21809866.864 7  21809868.923 5                                 114611628.245 7  89307775.689 5                
G08  20230495.970 8                  20230501.762 8  20230499.014 8 106311973.584 8                  82840638.578 8  79388973.151 8
G10  20815395.403 8                  20815400.431 7  20815397.089 8 109385633.296 8                  85235586.517 7  81684128.924 8
G27  20622422.527 8                  20622428.024 7  20622425.366 8 108371551.565 8                  84445387.812 7  80926816.427 8
G32  23169756.057 5                                                 121757801.27915                                
R01  19735665.934 7                 105498418.469 7
R02  21667971.252 8  21667976.243 7 115624482.609 8  89930189.063 7
R16  22090488.126 5                 118003571.010 5
R17  19886626.500 8  19886628.248 7 106417355.192 8  82769061.316 7
R24  19805792.700 8  19805795.095 7 105910471.181 8  82374776.430 7
> 2025 06 15 10 12 15.0000000  0 22
C13  38592976.632 4  38592976.206 5 200963855.13314 155397919.04615
C19  23030894.645 8                 119927920.825 8
C20  22823880.446 7                 118849929.853 7
C29  22756801.035 6                 118500616.050 6
C35  21644244.485 8                 112707264.714 8
C44  24419638.920 6                 127159476.857 6
E02  24876766.640 8  24876769.041 9 130728280.896 8  98895099.536 9
E11  24603137.549 6  24603135.427 7 129290347.770 6  97807301.257 7
E25  27224795.857 4  27224791.715 6 143067270.771 4 108229411.939 6
E30  26475027.827 8  26475030.483 8 139127208.207 8 105248843.284 8
E34  26435220.053 6  26435224.422 6 138918085.465 6 105090631.056 6
E36  23392111.187 8  23392114.418 9 122926375.407 8  92993015.289 9
G02  21803828.255 7  21803830.476 5                                 114579895.430 7  89283048.843 5                
G08  20228648.948 8                  20228654.944 7  20228652.162 8 106302267.906 8                  82833075.688 7  79381725.399 8
G10  20817715.736 8                  20817720.828 8  20817717.180 8 109397824.674 8                  85245086.332 8  81693232.905 8
G27  20627900.356 8                  20627906.359 7  20627904.015 8 108400339.966 8                  84467820.326 7  80948314.259 8
R01  19733454.783 7                 105486601.816 7
R02  21656235.215 7  21656239.674 7 115561854.531 7  89881478.428 7
R15  22267992.757 4  22267967.180 5                  92550464.11315
R16  22089149.874 7  22089152.456 6 117996397.017 7  91774938.04916
R17  19880653.796 8  19880655.896 8 106385392.461 8  82744201.443 8
R24  19809937.055 8  19809939.790 7 105932631.862 8  82392012.466 7
> 2025 06 15 10 12 30.0000000  0 22
C13  38595629.554 4  38595627.838 5 200977652.18714 155408587.88915
C19  23023912.941 8                 119891566.150 8
C20  22825471.503 7                 118858217.508 7
C29  22762822.127 6                 118531966.362 6
C35  21641107.784 8                 112690929.136 8
C44  24411146.434 6                 127115253.684 6
E02  24881368.355 8  24881370.588 9 130752462.663 8  98913392.839 9
E11  24607762.047 6  24607760.250 7 129314651.683 6  97825687.027 7
E25  27233654.113 4  27233661.928 6 143113883.662 4 108264674.028 6
E30  26471711.749 8  26471715.162 8 139109785.508 8 105235663.149 8
E34  26428262.851 5  26428270.102 6 138881542.203 5 105062986.311 6
E36  23390271.397 8  23390274.639 9 122916707.617 8  92985701.680 9
G02  21797799.364 7  21797800.514 5                                 114548211.710 7  89258360.261 5                
G08  20226826.523 8                  20226832.310 8  20226829.114 9 106292689.233 8                  82825611.828 8  79374572.502 9
G10  20820056.741 7                  20820062.557 8  20820058.739 8 109410128.748 7                  85254673.848 8  81702420.980 8
G27  20633400.000 8                  20633405.466 8  20633403.580 8 108429239.476 8                  84490339.432 8  80969895.060 8
R01  19731282.450 7                 105474988.699 7
R02  21644513.701 8  21644517.952 7 115499308.245 8  89832831.395 7
R15  22276367.455 5                 119037920.10315
R16  22087841.694 5  22087845.801 7 117989417.675 5  91769509.678 7
R17  19874694.760 8  19874696.696 8 106353504.370 8  82719399.597 8
R24  19814098.858 8  19814101.861 7 105954887.854 8  82409322.660 7
> 2025 06 15 10 12 45.0000000  0 22
C19  23016948.834 8                 119855305.922 8
C20  22827088.527 8                 118866630.335 8
C29  22768851.356 5                 118563375.240 5
C35  21637985.111 8                 112674668.191 8
C44  24402657.268 6                 127071048.005 6
E02  24885986.195 8  24885988.658 9 130776731.955 8  98931752.383 9
E04  25842043.022 5                 135800874.01015
E11  24612392.415 6  24612390.719 7 129338986.319 6  97844095.955 7
E25  27242523.343 3  27242532.630 6 143160499.62313 108299938.649 6
E30  26468415.320 8  26468418.517 8 139092461.797 8 105222557.886 8
E34  26421300.413 4  26421318.609 6 138845015.06514 105035353.858 6
E36  23388441.499 8  23388443.925 9 122907087.825 8  92978424.356 9
G01  23975312.689 4                  23975323.473 5  23975325.134 5                                  98174974.74515
G02  21791780.010 7  21791780.606 6                                 114516579.381 7  89233711.728 6                
G08  20225028.213 8                  20225034.139 8  20225031.140 8 106283240.036 8                  82818248.809 8  79367516.283 8
G10  20822419.834 8                  20822425.257 8  20822421.855 8 109422547.421 8                  85264350.727 8  81711694.664 8
G27  20638920.853 7                  20638926.849 7  20638924.406 8 108458252.167 7                  84512946.686 7  80991560.336 8
G32  23145551.158 5                                                 121630617.10515                                
R01  19729148.386 7                 105463580.988 7
R02  21632808.263 8  21632813.513 7 115436846.493 8  89784250.096 7
R17  19868750.248 8  19868752.067 8 106321693.503 8  82694657.810 8
R24  19818279.741 8  19818281.688 7 105977241.365 8  82426708.718 7
> 2025 06 15 10 13  0.0000000  0 22
C19  23010004.088 7                 119819140.815 7
C20  22828727.983 8                 118875168.835 8
C29  22774904.984 4                 118594843.35314
C35  21634877.336 8                 112658482.588 8
C44  24394175.415 5                 127026860.430 5
E02  24890621.334 8  24890623.690 9 130801089.157 8  98950178.460 9
E04  25838921.897 6                 135784472.388 6
E11  24617028.951 6  24617027.714 7 129363352.014 6  97862528.438 7
E25                  27251403.955 6                 108335205.998 6
E30  26465137.212 7  26465140.945 8 139075237.767 7 105209528.006 8
E36  23386619.737 8  23386622.560 9 122897516.537 8  92971183.732 9
G02  21785770.062 7  21785771.163 6                                 114484999.271 7  89209103.872 6                
G08  20223254.839 8                  20223260.814 8  20223257.521 8 106273920.933 8                  82810987.178 8  79360557.234 8
G10  20824804.600 8                  20824809.810 7  20824807.122 8 109435081.174 8                  85274117.311 7  81721054.289 8
G27  20644463.854 7                  20644469.092 8  20644467.055 9 108487378.412 7                  84535642.459 8  81013310.422 9
R01  19727053.011 7                 105452379.798 7
R02  21621118.819 8  21621122.725 7 115374470.215 8  89735735.307 7
R08  22220439.189 5                 118989294.04915
R15  22293118.681 6  22293118.850 6 119127894.30616  92654958.26716
R16  22085339.187 6  22085343.335 7 117976047.94016  91759113.339 7
R17  19862820.267 8  19862821.617 7 106289960.683 8  82669976.729 7
R24  19822477.973 8  19822480.259 7 105999693.247 8  82444171.306 7
> 2025 06 15 10 13 15.0000000  0 23
C19  23003076.465 8                 119783067.190 8
C20  22830390.723 8                 118883828.947 8
C35  21631781.679 8                 112642368.548 8
C44  24385683.964 5                 126982687.438 5
E02  24895272.695 8  24895274.734 9 130825530.258 8  98968667.972 9
E04  25835817.839 5  25835823.454 5 135768167.104 5 102707688.15715
E11  24621671.451 6  24621669.597 7 129387744.946 6  97880981.500 7
E25                  27260275.457 5                 108370472.93015
E30  26461877.670 7  26461881.642 8 139058109.581 7 105196570.664 8
E34  26407422.300 6  26407426.221 7 138772002.03316 104980124.661 7
E36  23384807.009 8  23384809.799 9 122887989.850 8  92963976.849 9
G01  23956567.905 5                  23956573.849 4                 125892505.53915                  98098229.49014
G02  21779770.339 7  21779771.613 6                                 114453467.312 7  89184533.517 6                
G08  20221505.653 8                  20221511.118 8  20221507.828 8 106264728.162 8                  82803823.969 8  79353692.472 8
G10  20827210.845 8                  20827215.913 7  20827213.215 8 109447725.911 8                  85283970.350 7  81730496.772 8
G27  20650026.905 8                  20650033.039 8  20650030.223 8 108516614.167 8                  84558423.525 8  81035142.285 8
R01  19724995.673 8                 105441380.937 8
R02  21609445.247 8  21609450.035 7 115312176.296 8  89687284.606 7
R08  22229436.782 5                 119037527.253 5
R15  22301548.612 5  22301546.954 6 119172925.350 5  92689982.451 6
R16  22084145.677 7  22084148.018 7 117969657.564 7  91754142.908 7
R17  19856904.139 8  19856906.176 7 106258302.076 8  82645353.367 7
R24  19826693.608 8  19826696.610 7 106022239.229 8  82461707.061 7
> 2025 06 15 10 13 30.0000000  0 23
C19  23295960.337 8                 121308188.985 8
C20  23131870.172 7                 120453711.351 7
C35  21928494.502 8                 114187428.617 8
C44  24677003.147 5                 128499633.214 5
E02  25199732.392 8  25199734.683 9 132425476.762 8 100179017.093 9
E04  26132528.248 5  26132532.384 5 137327382.699 5 103887224.62115
E11  24926110.797 6  24926109.495 7 130987586.808 6  99091251.408 7
E25  27568971.123 4  27568939.252 5 144875795.57814 109597534.42315
E30  26758429.854 7  26758433.908 8 140616501.825 7 106375484.260 8
E34  26700275.241 6  26700277.041 7 140310943.952 6 106144324.273 7
E36  23682795.320 8  23682798.723 9 124453931.703 8  94148601.704 9
G01  24246994.069 6                                                 127418707.998 6                                
G02  22073572.712 7  22073574.311 6                                 115997409.077 7  90387605.012 6                
G08  20519573.111 8                  20519578.954 7  20519575.957 8 107831085.729 8                  84024362.317 7  80523375.069 8
G10  21129431.711 8                  21129436.338 7  21129433.350 8 111035903.915 8                  86521511.669 7  82916473.868 8
G27  20955403.819 8                  20955410.105 8  20955407.095 8 110121380.599 8                  85808890.893 8  82233506.816 8
G32  23421266.262 5                                                                                                
R01  20022768.867 8                 107033151.319 8
R02  21897580.404 8  21897585.256 7 116849722.374 8  90883153.818 7
R08  22538253.799 6                 120691253.62316
R16  22382777.087 6  22382779.867 7 119564902.138 6  92994888.758 7
R17  20150795.284 8  20150797.299 8 107830973.418 8  83868542.164 8
R24  20130720.627 8  20130723.440 7 107648005.995 8  83726192.347 7
> 2025 06 15 10 13 45.0000000  0 23
C19  23289069.489 8                 121272307.711 8
C20  23133581.711 8                 120462623.172 8
C35  21925429.392 8                 114171466.807 8
C44  24668523.466 5                 128455497.995 5
E02  25204416.524 8  25204419.379 9 132450093.887 8 100197639.766 9
E04  26129466.225 5  26129467.839 5 137311279.301 5 103875042.510 5
E11  24930764.954 6  24930763.201 7 131012042.802 6  99109752.156 7
E25                  27577812.348 5                 109632806.668 5
E30  26755208.251 7  26755212.849 8 140599574.444 7 106362678.796 8
E34  26693335.493 6  26693338.476 7 140274482.063 6 106116741.104 7
E36  23681001.556 8  23681004.496 9 124444502.982 8  94141468.936 9
G01  24237631.638 6                  24237647.301 5  24237641.404 5 127369506.489 6                  99249105.38315  95113653.30715
G02  22067592.481 7  22067593.592 6                                 115965982.426 7  90363116.728 6                
G08  20517873.747 8                  20517879.701 7  20517876.954 8 107822154.650 8                  84017403.039 7  80516705.760 8
G10  21131881.651 8                  21131886.914 7  21131883.786 8 111048778.852 8                  86531544.097 7  82926088.281 8
G27  20961010.978 8                  20961016.361 8  20961013.778 8 110150843.625 8                  85831849.076 8  82255508.398 8
G32  23413267.650 5                                  23413276.193 5 123037480.78515                                  91878709.66915
R01  20020789.061 7                 107022566.409 7
R02  21885939.357 8  21885944.309 7 116787603.057 8  90834838.819 7
R15  22618263.633 5  22618257.089 5 120865331.31115  94006297.697 5
R16  22381652.117 5  22381657.812 6 119558908.191 5  92990226.869 6
R17  20144908.882 8  20144910.901 8 107799472.753 8  83844041.696 8
R24  20134973.355 8  20134975.880 7 107670748.912 8  83743881.222 7
> 2025 06 15 10 14  0.0000000  0 21
C19  23282199.599 8                 121236533.412 8
C20  23135319.578 8                 120471671.197 8
C29  23098983.642 5                 120282360.40815
C35  21922380.321 8                 114155591.734 8
C44  24660055.534 6                 128411392.432 6
E02  25209119.778 8  25209122.641 9 132474809.329 8 100216336.804 9
E04  26126419.165 5  26126426.146 5 137295287.45815 103862944.85015
E11  24935427.163 6  24935424.973 7 131036540.660 6  99128284.690 7
E30  26752008.532 7  26752012.764 8 140582758.209 7 106349957.456 8
E34  26686403.836 6  26686405.680 7 140238048.282 6 106089179.162 7
E36  23679218.650 8  23679221.563 9 124435133.832 8  94134381.219 9
G01  24228274.389 5                  24228302.809 5  24228284.351 5 127320334.064 5                  99210789.26215  95076933.639 5
G02  22061624.303 8  22061625.425 6                                 115934619.149 8  90338677.823 6                
G08  20516201.447 8                  20516207.116 8  20516204.299 8 107813365.216 8                  84010554.148 8  80510142.212 8
G10  21134355.479 8                  21134360.523 8  21134357.311 8 111061779.271 8                  86541674.263 8  82935796.363 8
G27  20966640.933 8                  20966646.660 7  20966644.297 9 110180430.592 8                  85854903.856 7  82277602.537 9
R01  20018849.532 7                 107012199.434 7
R02  21874316.961 8  21874321.513 7 116725582.849 8  90786600.970 7
R16  22380574.167 6  22380575.473 6 119553123.559 6  92985727.619 6
R17  20139038.546 8  20139040.853 7 107768062.242 8  83819611.327 7
R24  20139247.243 8  20139249.212 7 107693601.139 8  83761655.203 7
> 2025 06 15 10 14 15.0000000  0 21
C19  23275350.005 8                 121200866.552 8
C20  23137082.724 8                 120480855.411 8
C35  21919348.185 8                 114139803.783 8
C44  24651597.930 6                 128367316.805 6
E02  25213841.659 8  25213844.597 9 132499623.146 8 100235108.250 9
E04  26123397.571 5  26123404.468 4 137279407.972 5 103850932.284 4
E11  24940096.323 6  24940094.804 7 131061080.792 6  99146849.104 7
E30  26748829.922 7  26748833.912 8 140566053.390 7 106337320.405 8
E34  26679475.479 6  26679478.150 7 140201642.806 6 106061638.649 7
E36  23677447.307 8  23677449.916 9 124425824.420 8  94127338.707 9
G02  22055667.695 7  22055670.202 6                                 115903319.634 7  90314288.602 6                
G08  20514555.908 8                  20514561.716 8  20514558.282 8 107804717.686 8                  84003815.804 8  80503684.635 8
G10  21136853.067 8                  21136858.390 7  21136855.091 8 111074905.091 8                  86551902.194 7  82945598.100 8
G27  20972294.601 7                  20972300.459 7  20972297.962 8 110210141.557 7                  85878055.218 7  82299789.288 8
G32  23397323.935 5                  23397350.682 5                 122953672.76415                  95808145.55915
R01  20016950.851 7                 107002050.479 7
R02  21862712.561 7  21862717.037 7 116663662.091 7  90738440.454 7
R08  22565495.738 5                 120837060.38515
R15  22635269.685 5  22635270.061 5 120956228.91615  94076998.589 5
R17  20133185.900 8  20133187.661 8 107736742.172 8  83795251.244 8
R24  20143541.147 8  20143543.389 7 107716562.738 8  83779514.225 7
> 2025 06 15 10 14 30.0000000  0 22
C19  23268521.791 8                 121165308.990 8
C20  23138872.508 7                 120490177.443 7
C29  23111235.527 4                 120346254.82914
C35  21916333.685 8                 114124104.746 8
C44  24643136.139 6                 128323273.081 6
E02  25218582.651 8  25218585.390 9 132524536.896 8 100253955.298 9
E04  26120397.580 5  26120402.535 5 137263642.382 5 103839005.85015
E11  24944774.339 6  24944772.996 7 131085664.713 6  99165446.668 7
E30  26745672.833 7  26745676.442 8 140549461.955 7 106324769.097 8
E34  26672555.529 6  26672556.210 7 140165267.425 6 106034120.950 7
E36  23675687.629 8  23675690.139 9 124416576.466 8  94120342.704 9
G01  24209587.155 5                  24209585.312 6  24209598.870 4                                  99134181.31716  95003561.32014
G02  22049724.903 7  22049726.108 6                                 115872085.533 7  90289950.321 6                
G08  20512937.486 8                  20512943.452 8  20512939.745 8 107796213.929 8                  83997189.508 8  80497334.435 8
G10  21139375.532 8                  21139380.691 7  21139377.100 9 111088157.942 8                  86562229.061 7  82955494.696 9
G23  23316872.662 5                                  23316877.650 5 122531148.45115                                  91500501.89615
G27  20977972.188 8                  20977978.294 8  20977975.483 8 110239978.095 8                  85901304.429 8  82322069.803 8
R01  20015093.485 8                 106992121.459 8
R02  21851127.856 7  21851132.164 7 116601843.175 7  90690359.222 7
R08  22574619.759 4                                
R17  20127349.960 8  20127351.925 8 107705514.550 8  83770963.098 8
R24  20147855.852 8  20147857.686 7 107739635.492 8  83797459.658 7
> 2025 06 15 10 14 45.0000000  0 23
C19  23261713.843 8                 121129859.276 8
C20  23140689.392 8                 120499635.503 8
C24  25791129.257 5                 134301060.42615
C35  21913336.310 8                 114108493.045 8
C44  24634698.473 5                 128279259.659 5
E02  25223342.428 8  25223344.912 9 132549548.665 8 100272876.518 9
E11  24949459.946 6  24949458.962 7 131110290.616 6  99184076.031 7
E30  26742536.989 7  26742540.347 8 140532982.201 7 106312302.269 8
E34  26665636.847 6  26665638.897 7 140128920.303 6 106006624.691 7
E36  23673938.903 8  23673941.733 9 124407388.286 8  94113391.905 9
G01  24200244.146 4                  24200245.187 6  24200240.911 5 127173000.27014                  99095935.389 6  94966979.30415
G02  22043792.836 7  22043793.340 6                                 115840915.349 7  90265661.875 6                
G08  20511346.917 8                  20511352.537 8  20511348.898 8 107787852.353 8                  83990673.956 8  80491090.383 8
G10  21141920.996 8                  21141926.147 7  21141922.620 8 111101535.920 8                  86572653.427 7  82965484.724 8
G16  25145115.525 4                                                 132138492.82814                                
G27  20983673.372 7                  20983679.635 7  20983676.957 9 110269938.305 7                  85924650.049 7  82344442.662 9
G32  23381432.210 5                  23381444.926 5                 122870188.73415                  95743109.06315
R01  20013277.158 8                 106982410.858 8
R02  21839562.088 8  21839565.904 7 116540124.856 8  90642356.118 7
R15  22652381.908 6                 121047635.37516
R16  22377557.288 4  22377562.154 5 119537026.62614  92973209.300 5
R17  20121531.490 8  20121533.700 8 107674377.825 8  83746745.650 8
R24  20152191.436 8  20152194.008 7 107762817.511 8  83815490.133 7
> 2025 06 15 10 15  0.0000000  0 23
C19  23254926.848 8                 121094516.350 8
C20  23142531.716 8                 120509228.277 8
C35  21910354.486 8                 114092967.615 8
C44  24626242.652 4                 128235275.37714
E02  25228120.843 8  25228122.840 9 132574657.066 8 100291870.851 9
E04                  26114466.271 4                 103815407.04414
E11  24954153.986 6  24954152.998 7 131134957.307 6  99202736.269 7
E25                  27622214.930 5                 109809436.78915
E30  26739421.930 7  26739425.174 8 140516613.032 7 106299919.112 8
E34  26658724.583 5  26658727.207 7 140092600.501 5 105979149.043 7
E36  23672201.669 8  23672204.382 9 124398258.649 8  94106485.395 9
G02  22037873.466 7  22037874.172 6                                 115809807.906 7  90241422.335 6                
G08  20509781.306 8                  20509788.114 8  20509784.837 9 107779631.785 8                  83984268.317 8  80484951.659 9
G10  21144490.119 8                  21144495.364 7  21144491.797 9 111115037.659 8                  86583174.263 7  82975567.152 9
G16  25155638.387 5                                                 132193819.70315                                
G27  20989398.263 8                  20989404.234 7  20989401.122 8 110300020.801 8                  85948090.910 7  82366906.834 8
G32  23373516.145 4                                                 122828585.50614                                
R01  20011500.963 8                 106972917.243 8
R02  21828014.523 7  21828019.242 7 116478506.460 7  90594430.717 7
R15  22660950.541 6  22660959.486 5 121093521.995 6  94183852.12615
R16  22376635.008 6  22376633.470 5 119532079.774 6  92969361.82415
R17  20115730.187 8  20115731.195 8 107643330.953 8  83722598.059 8
R24  20156546.724 7  20156549.611 7 107786107.858 7  83833604.828 7
> 2025 06 15 10 15 15.0000000  0 22
C19  23248159.055 8                 121059275.736 8
C20  23144398.433 8                 120518950.799 8
C29  23129646.460 5                 120442220.95215
C35  21907388.357 8                 114077523.791 8
E02  25232915.760 8  25232918.286 9 132599857.151 8 100310934.511 9
E11  24958854.493 6  24958853.903 7 131159659.952 6  99221423.660 7
E25                  27631102.579 5                 109844765.582 5
E30  26736326.529 7  26736330.374 8 140500349.711 7 106287616.040 8
E34  26651815.881 5  26651819.861 7 140056303.115 5 105951690.356 7
E36  23670474.024 8  23670477.267 9 124389182.690 8  94099619.483 9
G02  22031964.527 7  22031966.860 6                                 115778758.358 7  90217227.889 6                
G08  20508243.132 8                  20508249.641 8  20508246.258 8 107771547.519 8                  83977968.915 8  80478914.711 8
G10  21147081.853 8                  21147086.851 7  21147084.080 8 111128658.049 8                  86593787.568 7  82985738.236 8
G27  20995145.187 7                  20995150.651 8  20995147.637 8 110330220.555 7                  85971623.190 8  82389458.588 8
G32  23365623.188 5                                                 122787063.277 5                                
R01  20009765.017 8                 106963635.989 8
R02  21816484.946 7  21816489.923 7 116416983.556 7  90546579.700 7
R08  22602135.038 5                                
R15  22669562.737 6  22669568.716 6 121139525.593 6  94219632.681 6
R16  22375742.058 5  22375747.027 5 119527336.173 5  92965671.31315
R17  20109943.978 8  20109946.017 8 107612369.243 8  83698516.793 8
R24  20160921.128 7  20160924.406 7 107809501.309 7  83851799.670 7
> 2025 06 15 10 15 30.0000000  0 23
C19  23241410.345 8                 121024135.382 8
C20  23146289.770 8                 120528800.829 8
C29  23135796.719 5                 120474336.663 5
C35  21904437.871 8                 114062159.466 8
E02  25237728.067 8  25237730.682 9 132625146.450 8 100330065.679 9
E04  26108609.885 6                 137201677.09916
E11  24963560.337 6  24963560.925 7 131184396.305 6  99240136.484 7
E25                  27639990.461 5                 109880097.63115
E30  26733251.951 7  26733255.405 8 140484190.148 7 106275391.438 8
E34  26644916.114 4  26644916.703 7                 105924246.887 7
E36  23668757.205 8  23668759.996 9 124380158.201 8  94092792.519 9
G02  22026067.091 7  22026068.970 6                                 115747764.494 7  90193076.854 6                
G08  20506730.109 8                  20506736.800 8  20506733.608 8 107763597.475 8                  83971774.052 8  80472977.980 8
G10  21149695.824 8                  21149701.201 7  21149697.727 8 111142394.809 8                  86604491.517 7  82995996.187 8
G27  21000913.670 8                  21000919.049 7  21000916.975 9 110360535.204 8                  85995244.967 7  82412096.136 9
G32  23357750.786 4                                                 122745620.160 4                                
R01  20008068.190 7                 106954564.687 7
R02  21804973.032 7  21804978.434 7 116355554.899 7  90498801.870 7
R08  22611349.941 5                 121082697.17315
R15  22678192.536 6  22678198.105 6 121185643.585 6  94255502.149 6
R16  22374896.184 7  22374898.069 6 119522793.585 7  92962138.262 6
R17  20104173.229 8  20104175.205 7 107581490.681 8  83674500.131 7
R24  20165315.399 7  20165317.633 7 107832995.400 7  83870072.862 7
> 2025 06 15 10 15 45.0000000  0 20
C19  23234681.456 8                 120989094.991 8
C20  23148206.213 8                 120538777.645 8
C29  23141964.099 5                 120506512.93815
C35  21901502.555 8                 114046874.181 8
E02  25242557.471 8  25242559.739 8 132650524.276 8 100349263.829 8
E11  24968274.276 6  24968274.371 7 131209165.637 6  99258874.316 7
E25                  27648878.932 6                 109915432.363 6
E30  26730196.990 7  26730200.109 8 140468133.880 7 106263244.977 8
E36  23667049.673 8  23667052.324 9 124371184.604 8  94086004.056 9
G01  24162922.304 5                  24162928.181 5  24162930.783 7 126976888.06315                  98943146.147 5  94820556.263 7
G02  22020179.586 7  22020180.666 6                                 115716826.021 7  90168968.977 6                
G08  20505242.926 8                  20505249.588 8  20505246.211 8 107755781.168 8                  83965683.429 8  80467141.118 8
G10  21152331.822 8                  21152337.533 8  21152333.583 8 111156247.151 8                  86615285.544 8  83006340.468 8
G27  21006703.770 8                  21006709.336 8  21006707.382 8 110390964.026 8                  86018955.703 8  82434818.934 8
R01  20006410.251 8                 106945703.011 8
R02  21793479.042 7  21793483.752 7 116294219.517 7  90451096.682 7
R15  22686845.678 5  22686849.962 5 121231874.626 5  94291459.449 5
R16  22374081.332 6  22374087.148 6 119518451.474 6  92958760.909 6
R17  20098418.429 8  20098420.514 7 107550694.832 8  83650547.804 7
R24  20169727.326 7  20169729.437 7 107856589.754 7  83888424.030 7
> 2025 06 15 10 16  0.0000000  0 23
C19  23227970.897 8                 120954151.556 8
C20  23150146.015 8                 120548877.970 8
C29  23148162.663 6                 120538746.874 6
C35  21898581.609 8                 114031664.904 8
E02  25247403.221 8  25247405.036 9 132675987.263 8 100368526.385 9
E04  26102830.317 4                                
E11  24972994.564 6  24972993.413 7 131233964.761 6  99277634.677 7
E25                  27657767.515 6                 109950767.170 6
E30  26727160.532 7  26727163.915 8 140452177.843 7 106251174.333 8
E34  26631116.265 5  26631120.537 7 139947544.57915 105869402.352 7
E36  23665351.102 8  23665353.742 9 124362258.759 8  94079251.699 9
G01  24153603.835 6                  24153611.517 6  24153612.625 7 126927918.562 6                  98904988.158 6  94783988.215 7
G02  22014301.591 7  22014303.393 6                                 115685939.821 7  90144901.822 6                
G08  20503780.687 8                  20503787.329 8  20503783.962 9 107748095.529 8                  83959694.605 8  80461401.834 9
G10  21154989.671 8                  21154995.232 8  21154991.460 9 111170211.654 8                  86626167.004 8  83016768.522 9
G23  23369815.677 5                                                 122809384.18615                                
G27  21012515.547 8                  21012520.921 7  21012519.014 8 110421503.646 8                  86042752.792 7  82457624.477 8
R01  20004791.054 8                 106937047.808 8
R02  21782001.573 8  21782005.754 7 116232975.254 8  90403462.361 7
R15  22695517.065 6  22695515.617 4 121277939.69416
R16  22373305.523 6  22373307.561 6 119514306.578 6  92955537.111 6
R17  20092678.581 8  20092680.098 8 107519978.744 8  83626657.518 8
R24  20174157.104 7  20174160.286 7 107880281.024 7  83906850.547 7
> 2025 06 15 10 16 15.0000000  0 22
C19  23221278.756 8                 120919304.631 8
C20  23152108.983 8                 120559101.005 8
C29  23154364.116 6                 120571037.554 6
C35  21895674.872 8                 114016531.162 8
E02  25252264.645 8  25252266.588 9 132701534.550 8 100387852.720 9
E11  24977719.471 6  24977718.035 7 131258792.915 6  99296417.001 7
E25                  27666656.099 6                 109986101.389 6
E30  26724142.664 7  26724146.378 8 140436321.428 7 106239179.037 8
E34  26624227.702 5  26624227.469 6 139911319.44215 105841998.311 6
E36  23663661.672 8  23663664.231 9 124353379.884 8  94072534.907 9
G01  24144288.743 6                  24144294.669 6  24144297.541 7 126878966.600 6                  98866843.783 6  94747433.181 7
G02  22008434.286 7  22008435.314 6                                 115655105.164 7  90120874.844 6                
G08  20502343.356 8                  20502349.442 7  20502346.036 8 107740539.926 8                  83953807.115 7  80455759.655 8
G10  21157667.878 8                  21157673.810 7  21157670.342 9 111184287.536 8                  86637135.173 7  83027279.712 9
G27  21018348.023 8                  21018353.801 7  21018351.277 8 110452153.184 8                  86066635.540 7  82480512.080 8
G32  23334162.417 4                                                 122622028.03514                                
R01  20003210.700 7                 106928598.073 7
R02  21770541.438 8  21770546.669 7 116171821.738 8  90355898.625 7
R15  22704209.895 5  22704215.410 6 121324387.870 5  94363628.12916
R16  22372564.650 6  22372569.427 6 119510358.020 6  92952465.999 6
R17  20086952.976 8  20086954.581 7 107489341.840 8  83602828.825 7
R24  20178605.357 7  20178608.055 7 107904068.585 7  83925351.918 7
> 2025 06 15 10 16 30.0000000  0 21
C19  23214607.005 8                 120884562.463 8
C20  23154097.235 8                 120569454.677 8
C29  23160573.943 6                 120603392.957 6
C35  21892785.405 8                 114001481.003 8
E02  25257143.259 8  25257145.893 8 132727174.052 8 100407248.821 8
E11  24982450.851 6  24982449.375 7 131283658.212 6  99315227.399 7
E25                  27675545.779 6                 110021441.021 6
E30  26721146.086 7  26721149.504 8 140420572.824 7 106227265.326 8
E34  26617334.783 5  26617338.620 6 139875118.298 5 105814612.381 6
E36  23661982.425 8  23661985.185 9 124344556.161 8  94065859.809 9
G01  24134978.255 4                  24134983.595 6  24134986.947 7 126830040.151 4                  98828719.370 6  94710897.301 7
G02  22002577.382 7  22002578.982 6                                 115624330.248 7  90096894.368 6                
G08  20500931.283 8                  20500938.020 8  20500934.360 8 107733122.592 8                  83948027.384 8  80450220.734 8
G10  21160369.851 8                  21160374.765 8  21160371.362 9 111198482.723 8                  86648196.349 8  83037880.016 9
G27  21024202.778 7                  21024208.457 8  21024206.007 8 110482920.581 7                  86090610.146 8  82503487.728 8
R01  20001669.815 8                 106920362.288 8
R02  21759100.006 7  21759104.701 7 116110767.855 7  90308412.348 7
R15  22712922.969 6  22712930.972 6 121370951.903 6  94399844.579 6
R16  22371861.943 5  22371868.751 6 119506614.176 5  92949554.121 6
R17  20081243.460 8  20081245.983 8 107458792.617 8  83579068.337 8
R24  20183073.798 7  20183075.748 7 107927960.419 7  83943934.435 7
> 2025 06 15 10 16 45.0000000  0 21
C19  23207954.162 8                 120849921.519 8
C20  23156110.206 8                 120579935.040 8
C29  23166796.489 4                 120635809.136 4
C35  21889910.243 8                 113986510.866 8
E02  25262039.107 8  25262041.868 9 132752901.829 8 100426711.724 9
E04  26094317.209 5  26094318.464 5 137126562.62815 103735314.58615
E11  24987189.389 6  24987187.381 7 131308556.729 6  99334062.964 7
E25  27684429.248 5  27684436.151 6 145482706.80715 110056783.031 6
E30  26718169.557 7  26718172.385 8 140404928.432 7 106215430.427 8
E36  23660313.084 8  23660315.835 9 124335783.758 8  94059223.539 9
G01  24125671.834 5                  24125677.708 5  24125679.727 6 126781133.71315                  98790612.006 5  94674377.813 6
G02  21996732.292 7  21996733.411 5                                 115593611.220 7  90072957.506 5                
G08  20499545.919 8                  20499552.107 8  20499548.201 8 107725839.866 8                  83942352.557 8  80444782.344 8
G10  21163092.602 8                  21163098.003 7  21163094.639 9 111212793.215 8                  86659347.391 7  83048566.403 9
G27  21030079.453 8                  21030085.576 8  21030082.501 8 110513801.898 8                  86114673.502 8  82526548.444 8
R01  20000168.536 8                 106912336.881 8
R02  21747676.357 8  21747681.276 7 116049810.035 8  90261000.797 7
R15  22721657.397 6  22721663.743 6 121417627.417 6  94436147.592 6
R16  22371202.884 7  22371206.744 6 119503071.275 7  92946798.648 6
R17  20075550.803 8  20075553.188 7 107428327.510 8  83555373.264 7
R24  20187560.439 7  20187562.552 7 107951952.760 7  83962595.140 7
> 2025 06 15 10 17  0.0000000  0 23
C19  23201322.801 8                 120815388.005 8
C20  23158147.852 8                 120590548.079 8
C29  23173035.114 5                 120668292.24215
C35  21887051.881 8                 113971626.826 8
C44  24558843.132 5                 127884543.36715
E02  25266953.123 8  25266955.715 9 132778723.762 8 100446245.825 9
E04  26091512.635 4  26091520.947 5 137111860.78414 103724192.86915
E11  24991933.481 6  24991933.024 7 131333494.529 6  99352928.236 7
E25  27693322.453 5  27693328.225 6 145529434.102 5 110092131.807 6
E30  26715213.334 7  26715216.571 8 140389394.361 7 106203679.012 8
E36  23658654.564 8  23658657.345 9 124327068.750 8  94052630.687 9
G01  24116369.593 5                  24116376.954 6  24116379.025 6 126732257.417 5                  98752526.621 6  94637879.310 6
G02  21990898.716 7  21990899.762 6                                 115562954.341 7  90049069.020 6                
G08  20498186.597 8                  20498192.852 8  20498189.728 8 107718697.897 8                  83936787.373 8  80439449.044 8
G10  21165838.557 8                  21165843.921 8  21165841.284 9 111227224.867 8                  86670592.811 8  83059343.264 9
G27  21035978.867 8                  21035985.057 8  21035982.058 8 110544802.990 8                  86138830.154 8  82549698.591 8
G32  23310781.804 4                                                                                                
R01  19998707.709 7                 106904527.672 7
R02  21736272.114 8  21736276.955 7 115988954.974 8  90213669.182 7
R15  22730414.392 6  22730419.489 6 121464419.722 6  94472541.646 6
R16  22370576.520 6  22370581.941 6 119499735.369 6  92944204.109 6
R17  20069874.298 7  20069876.551 8 107397952.638 7  83531748.369 8
R24  20192066.434 7  20192069.699 7 107976051.847 7  83981338.855 7
> 2025 06 15 10 17 15.0000000  0 22
C19  23194711.152 8                 120780959.782 8
C20  23160211.004 8                 120601291.288 8
C24  25821750.433 5                 134460677.03615
C35  21884209.428 8                 113956826.733 8
E02  25271884.166 7  25271886.591 9 132804637.304 7 100465849.245 9
E04  26088741.944 5  26088744.124 5 137097267.530 5 103713153.26715
E11  24996686.897 6  24996685.740 6 131358469.218 6  99371821.408 6
E25  27702212.541 5  27702221.622 6 145576167.676 5 110127485.378 6
E30  26712278.014 7  26712281.012 8 140373968.330 7 106192009.301 8
E34  26596690.664 6                 139766553.23916
E36  23657006.368 8  23657009.397 9 124318408.776 8  94046079.467 9
G01  24107074.942 5                  24107081.355 6  24107083.331 7 126683407.046 5                  98714461.416 6  94601400.154 7
G02  21985076.047 7  21985077.631 6                                 115532357.362 7  90025227.245 6                
G08  20496854.505 8                  20496860.147 8  20496856.892 8 107711694.420 8                  83931330.103 8  80434219.166 8
G10  21168607.764 8                  21168612.630 8  21168609.899 9 111241775.178 8                  86681930.722 8  83070208.763 9
G27  21041900.532 8                  21041906.241 8  21041903.806 8 110575921.303 8                  86163078.174 8  82572936.281 8
R01  19997286.624 8                 106896932.537 8
R02  21724886.662 7  21724891.287 7 115928201.105 7  90166416.280 7
R15  22739194.842 6  22739197.942 6 121511326.257 6  94509024.518 6
R16  22369991.501 6  22369995.264 6 119496603.997 6  92941768.500 6
R17  20064215.029 8  20064216.677 8 107367666.070 8  83508192.103 8
R24  20196592.554 7  20196595.371 7 108000255.001 7  84000163.555 7
> 2025 06 15 10 17 30.0000000  0 23
C19  23188118.753 8                 120746632.000 8
C20  23162298.372 8                 120612159.462 8
C24  25824921.729 5                 134477228.51915
C29  23185554.376 5                 120733178.29115
C35  21881382.321 8                 113942105.649 8
C44  24542013.921 5                 127796755.10215
E02  25276831.342 7  25276834.439 9 132830637.229 7 100485517.986 9
E11  25001445.705 6  25001444.049 6 131383475.611 6  99390738.646 6
E25  27711105.843 5  27711114.558 6 145622902.295 5 110162839.692 6
E30  26709361.062 7  26709365.121 8 140358645.388 7 106180417.623 8
E34  26589820.942 6  26589825.900 7 139730441.518 6 105705134.41917
E36  23655368.055 8  23655371.020 9 124309798.724 8  94039566.043 9
G01  24097783.834 5                  24097788.277 6  24097792.375 7 126634577.548 5                  98676412.455 6  94564936.553 7
G02  21979264.321 7  21979265.639 6                                 115501815.307 7  90001428.239 6                
G08  20495546.749 8                  20495552.718 8  20495549.228 8 107704824.457 8                  83925976.880 8  80429088.991 8
G10  21171397.755 8                  21171403.021 8  21171399.950 8 111256438.939 8                  86693357.003 8  83081158.933 8
G27  21047842.965 8                  21047848.784 7  21047847.286 8 110607151.672 8                  86187413.491 7  82596257.629 8
R01  19995904.620 8                 106889546.273 8
R02  21713519.588 8  21713524.309 7 115867543.425 8  90119238.099 7
R15  22747992.010 6  22747996.517 6 121558341.124 6  94545591.542 6
R16  22369441.025 5  22369446.079 6 119493672.136 5  92939488.331 6
R17  20058571.085 8  20058572.603 8 107337462.724 8  83484700.654 8
R24  20201137.555 7  20201140.590 7 108024557.205 7  84019065.230 7
> 2025 06 15 10 17 45.0000000  0 23
C19  23181544.926 8                 120712401.168 8
C20  23164408.841 8                 120623148.735 8
C24  25828121.823 5                 134493878.866 5
C29  23191824.811 5                 120765840.507 5
C35  21878569.786 8                 113927459.839 8
C44  24533618.243 6                 127753024.72416
E02  25281795.131 7  25281797.941 9 132856719.571 7 100505249.057 9
E04                  26083248.982 4                 103691306.60314
E11  25006208.905 6  25006208.021 6 131408509.969 6  99409676.936 6
E25  27719998.315 5  27720007.474 6 145669633.944 5 110198191.814 6
E30  26706464.592 7  26706467.943 8 140343421.793 7 106168901.081 8
E34  26582954.193 6  26582957.110 7 139694345.015 6 105677827.671 7
E36  23653738.451 8  23653741.430 9 124301234.854 8  94033087.524 9
G02  21973461.850 7  21973463.435 6                                 115471324.384 7  89977669.118 6                
G08  20494264.381 8                  20494270.473 8  20494266.681 8 107698084.252 8                  83920724.798 8  80424055.726 8
G10  21174209.741 8                  21174214.260 7  21174210.222 8 111271212.041 8                  86704868.523 7  83092190.813 8
G27  21053806.857 7                  21053812.450 7  21053810.325 8 110638490.038 7                  86211833.002 7  82619659.620 8
R01  19994561.293 7                 106882365.211 7
R02  21702170.154 8  21702174.459 7 115806978.799 8  90072132.362 7
R15  22756811.847 6  22756813.925 6 121605459.679 6  94582239.274 6
R16  22368931.338 6  22368935.735 7 119490936.126 6  92937360.221 7
R17  20052941.552 8  20052943.402 8 107307339.083 8  83461271.171 8
R24  20205699.858 7  20205702.807 7 108048954.558 7  84038040.914 7
> 2025 06 15 10 18  0.0000000  0 23
C19  23174988.751 8                 120678262.668 8
C20  23166541.256 8                 120634254.288 8
C24  25831337.270 5                 134510623.110 5
C29  23198108.118 5                 120798553.194 5
C35  21875771.528 8                 113912884.749 8
C44  24525220.615 6                 127709308.360 6
E02  25286773.041 7  25286775.822 9 132882879.280 7 100525038.715 9
E11  25010977.188 6  25010975.977 6 131433567.342 6  99428632.649 6
E25  27728883.248 4  27728898.246 5 145716357.593 4 110233537.89815
E30  26703586.130 6  26703588.780 8 140328292.950 6 106157456.220 8
E34  26576086.595 7  26576090.411 7 139658258.953 7 105650528.801 7
E36  23652116.695 8  23652119.609 9 124292712.343 8  94026640.292 9
G02  21967668.069 7  21967670.807 6                                 115440879.914 7  89953946.204 6                
G08  20493005.789 8                  20493011.334 8  20493008.247 8 107691469.240 8                  83915570.208 8  80419115.919 8
G10  21177040.734 8                  21177045.278 7  21177041.833 8 111286089.626 8                  86716461.424 7  83103300.700 8
G27  21059790.320 8                  21059795.568 7  21059793.341 8 110669931.460 8                  86236332.806 7  82643138.599 8
G32  23279711.338 5                                                 122335851.69015                                
R01  19993255.437 8                 106875384.242 8
R02  21690836.613 8  21690841.070 7 115746502.728 8  90025095.467 7
R15  22765645.491 5  22765650.865 7 121652677.058 5  94618963.709 7
R16  22368454.848 6  22368457.384 6 119488390.589 6  92935380.324 6
R17  20047326.234 8  20047328.014 8 107277290.345 8  83437899.930 8
R24  20210279.666 8  20210282.672 7 108073442.048 8  84057086.722 7
> 2025 06 15 10 18 15.0000000  0 22
C19  23168452.047 8                 120644224.942 8
C20  23168697.774 7                 120645484.129 7
C35  21872987.586 8                 113898388.684 8
C44  24516826.664 6                 127665614.313 6
E02  25291767.223 7  25291770.079 9 132909124.500 7 100544893.043 9
E11  25015751.885 6  25015750.307 6 131458656.036 6  99447612.027 6
E25  27737777.738 4  27737789.389 5 145763081.292 4 110268883.97115
E30  26700726.844 7  26700729.539 8 140313267.218 7 106146089.315 8
E34  26569222.728 7  26569227.356 7 139622191.594 7 105623244.043 7
E36  23650504.231 8  23650507.281 9 124284239.404 8  94020230.577 9
G02  21961885.917 7  21961887.387 6                                 115410490.354 7  89930266.018 6                
G08  20491771.441 8                  20491777.690 8  20491774.645 8 107684987.625 8                  83910519.605 8  80414275.766 8
G10  21179893.089 8                  21179897.939 7  21179894.499 8 111301079.716 8                  86728142.017 7  83114494.592 8
G27  21065793.768 8                  21065800.074 7  21065797.020 8 110701483.983 8                  86260919.170 7  82666700.530 8
G32  23271992.466 5                  23272000.733 5  23272011.342 5 122295287.104 5                  95294981.98815  91324342.03715
R01  19991989.006 7                 106868612.024 7
R02  21679521.330 8  21679525.838 7 115686124.376 8  89978134.611 7
R08  22714223.737 4  22714245.386 4 121633620.00114  94603961.77914
R15  22774502.026 6  22774506.894 7 121700000.605 6  94655770.922 7
R16  22368012.446 6  22368017.964 6 119486043.927 6  92933555.195 6
R17  20041726.334 8  20041729.211 8 107247325.231 8  83414593.749 8
R24  20214877.059 8  20214879.827 7 108098027.961 8  84076209.114 7
> 2025 06 15 10 18 30.0000000  0 21
C19  23161935.010 8                 120610287.803 8
C20  23170878.664 7                 120656837.706 7
C29  23210708.004 5                 120864156.05115
C35  21870218.429 8                 113883971.441 8
C44  24508436.513 6                 127621942.334 6
E02  25296777.548 7  25296780.602 8 132935454.715 7 100564811.626 8
E11  25020532.509 6  25020530.624 6 131483775.553 6  99466614.734 6
E25  27746669.244 4  27746680.725 5 145809804.66614 110304229.72015
E30  26697887.780 7  26697889.863 8 140298344.181 7 106134800.154 8
E34  26562363.496 7  26562367.907 7 139586142.551 7 105595973.188 7
E36  23648901.583 8  23648904.361 9 124275815.708 8  94013858.113 9
G02  21956112.750 7  21956114.398 6                                 115380155.110 7  89906628.191 6                
G08  20490564.081 8                  20490569.444 8  20490566.239 8 107678639.209 8                  83905572.774 8  80409535.070 8
G10  21182766.681 8                  21182771.657 7  21182768.151 9 111316181.773 8                  86739909.826 7  83125772.065 9
G27  21071819.318 8                  21071825.270 8  21071822.041 8 110733147.149 8                  86285591.724 8  82690345.053 8
R01  19990760.958 7                 106862048.071 7
R02  21668225.139 8  21668229.401 7 115625843.608 8  89931249.620 7
R15  22783379.333 6  22783381.074 6 121747429.479 6  94692660.033 6
R16  22367613.727 7  22367616.353 7 119483896.137 7  92931884.620 7
R17  20036142.005 8  20036144.492 8 107217443.533 8  83391352.460 8
R24  20219493.334 8  20219496.098 7 108122712.132 8  84095407.897 7
> 2025 06 15 10 18 45.0000000  0 22
C19  23155436.567 8                 120576447.400 8
C20  23173081.145 7                 120668310.954 7
C29  23217014.821 4                 120897040.01714
C35  21867464.794 8                 113869629.041 8
C44  24500055.146 5                 127578288.511 5
E02  25301803.844 7  25301806.501 8 132961865.615 7 100584791.275 8
E11  25025317.770 6  25025315.780 6 131508921.819 6  99485637.708 6
E25  27755563.089 5  27755570.852 5 145856523.00215 110339571.65715
E30  26695066.394 7  26695069.112 8 140283520.038 7 106123585.793 8
E34  26555503.130 6  26555510.552 7 139550107.795 6 105568713.171 7
E36  23647306.972 8  23647309.941 9 124267437.201 8  94007519.810 9
G01  24051375.156 5                  24051374.449 5  24051380.104 5 126390954.44215                  98486367.39515  94382810.195 5
G02  21950349.974 7  21950351.319 6                                 115349870.492 7  89883029.762 6                
G08  20489379.984 8                  20489386.277 8  20489382.369 9 107672420.024 8                  83900726.653 8  80404890.874 9
G10  21185661.166 8                  21185666.305 8  21185662.578 9 111331391.535 8                  86751761.583 8  83137129.989 9
G27  21077865.421 8                  21077871.393 8  21077867.680 8 110764916.635 8                  86310347.120 8  82714068.976 8
R01  19989571.237 8                 106855688.286 8
R02  21656945.995 8  21656950.776 7 115565656.853 8  89884437.776 7
R15  22792270.513 6  22792277.105 7 121794959.114 6  94729627.494 7
R16  22367246.610 7  22367250.155 7 119481942.702 7  92930365.303 7
R17  20030572.979 8  20030575.216 7 107187641.297 8  83368172.939 7
R24  20224126.742 7  20224129.857 7 108147490.217 7  84114679.771 7
> 2025 06 15 10 19  0.0000000  0 23
C19  23148956.583 8                 120542704.788 8
C20  23175307.966 7                 120679904.522 7
C35  21864724.284 8                 113855362.390 8
C44  24491676.236 5                 127534653.949 5
E02  25306845.612 7  25306847.643 8 132988357.863 7 100604832.455 8
E11  25030109.258 7  25030106.618 7 131534095.594 7  99504681.436 7
E25  27764458.347 4  27764461.081 4 145903237.27514 110374910.51914
E30  26692264.169 7  26692266.924 8 140268795.600 7 106112446.845 8
E34  26548649.975 6  26548655.924 7 139514087.983 6 105541464.555 7
E36  23645721.730 8  23645724.134 9 124259104.605 8  94001216.276 9
G01  24042097.072 5                                  24042114.353 4 126342235.05915                                
G02  21944596.455 7  21944598.961 6                                 115319637.067 7  89859471.297 6                
G08  20488221.555 8                  20488227.529 8  20488223.782 8 107666330.920 8                  83895981.904 8  80400343.812 8
G10  21188576.142 8                  21188581.320 8  21188577.464 9 111346709.629 8                  86763697.761 8  83148568.841 9
G27  21083931.780 8                  21083936.825 7  21083934.322 8 110796793.021 8                  86335185.874 7  82737872.777 8
G32  23248914.044 5                  23248947.656 5                 122174068.87315                  95200526.609 5
R01  19988419.659 8                 106849533.610 8
R02  21645685.054 8  21645689.056 7 115505565.604 8  89837700.247 7
R08  22742736.790 5                 121786235.94415
R15  22801183.480 5  22801189.593 6 121842589.897 5  94766673.519 6
R16  22366918.839 7  22366921.657 7 119480184.548 7  92928997.910 7
R17  20025018.569 8  20025020.150 7 107157919.445 8  83345055.913 7
R24  20228778.168 7  20228781.106 7 108172362.938 7  84134025.232 7
>                              2  1
              *** Start of Kinematic Data ***               COMMENT             
