     3.04           OBSERVATION DATA    Mixed(MIXED)        RINEX VERSION / TYPE
cnvtToRINEX 3.14.0  convertToRINEX OPR  20250615 162112 UTC PGM / RUN BY / DATE 
----------------------------------------------------------- COMMENT             
1007                                                        MARKER NAME         
1007                                                        MARKER NUMBER       
GEODETIC                                                    MARKER TYPE         
GNSS Observer       Trimble                                 OBSERVER / AGENCY   
6337S22116          Geo Explorer 3      6.26                REC # / TYPE / VERS 
                    UNKNOWN EXT     NONE                    ANT # / TYPE        
  3916204.7729  1193207.6745  4875194.2397                  APPROX POSITION XYZ 
        1.2670        0.0000        0.0000                  ANTENNA: DELTA H/E/N
R    4 C1C C2C L1C L2C                                      SYS / # / OBS TYPES 
G    8 C1C C2W C2X C5X L1C L2W L2X L5X                      SYS / # / OBS TYPES 
C    4 C2I C7I L2I L7I                                      SYS / # / OBS TYPES 
E    4 C1X C8X L1X L8X                                      SYS / # / OBS TYPES 
    15.000                                                  INTERVAL            
  2025     6    15    13    50    0.0000000     GPS         TIME OF FIRST OBS   
  2025     6    15    14    17   30.0000000     GPS         TIME OF LAST OBS    
     0                                                      RCV CLOCK OFFS APPL 
  8 R02 -4 R03  5 R04  6 R05  1 R12 -1 R18 -3 R19  3 R20  2 GLONASS SLOT / FRQ #
R L2C -0.25000                                              SYS / PHASE SHIFT   
G L2X -0.25000                                              SYS / PHASE SHIFT   
    18                                                      LEAP SECONDS        
    39                                                      # OF SATELLITES     
   C05   109   107   108   106                              PRN / # OF OBS      
   C06   110   110   110   110                              PRN / # OF OBS      
   C09   110   110   110   110                              PRN / # OF OBS      
   C11   110   110   110   110                              PRN / # OF OBS      
   C12   110   110   110   110                              PRN / # OF OBS      
   C16   110   110   110   110                              PRN / # OF OBS      
   C19    52     0    51     0                              PRN / # OF OBS      
   C21   110     0   110     0                              PRN / # OF OBS      
   C22   110     0   110     0                              PRN / # OF OBS      
   C34   110     0   110     0                              PRN / # OF OBS      
   C35    30     0    30     0                              PRN / # OF OBS      
   C39   110     0   110     0                              PRN / # OF OBS      
   C43    64     0    64     0                              PRN / # OF OBS      
   C44   110     0   110     0                              PRN / # OF OBS      
   E03   110   110   110   110                              PRN / # OF OBS      
   E05   110   110   110   110                              PRN / # OF OBS      
   E06    17    21    17    21                              PRN / # OF OBS      
   E09   110   110   110   110                              PRN / # OF OBS      
   E15   110   110   110   110                              PRN / # OF OBS      
   E34   110   110   110   110                              PRN / # OF OBS      
   E36   110   110   110   110                              PRN / # OF OBS      
   G01   110     0   110   110   110     0   110   110      PRN / # OF OBS      
   G02   110   110     0     0   110   110     0     0      PRN / # OF OBS      
   G03   110     0   110   110   110     0   110   110      PRN / # OF OBS      
   G04   110     0   110   110   110     0   110   110      PRN / # OF OBS      
   G06    37     0    37    37    36     0    37    37      PRN / # OF OBS      
   G09    69     0    66    67    62     0    66    67      PRN / # OF OBS      
   G17   109     0   108     0   106     0   108     0      PRN / # OF OBS      
   G19   110   110     0     0   110   110     0     0      PRN / # OF OBS      
   G28   110     0   110   110   110     0   110   110      PRN / # OF OBS      
   G31   110     0   110     0   110     0   110     0      PRN / # OF OBS      
   R02    75    67    75    66                              PRN / # OF OBS      
   R03   110   110   110   110                              PRN / # OF OBS      
   R04   110   110   110   110                              PRN / # OF OBS      
   R05    20     6    20     5                              PRN / # OF OBS      
   R12   102    93   100    88                              PRN / # OF OBS      
   R18   110   110   110   110                              PRN / # OF OBS      
   R19   110   110   110   110                              PRN / # OF OBS      
   R20    99    99    99    99                              PRN / # OF OBS      
DBHZ                                                        SIGNAL STRENGTH UNIT
                                                            END OF HEADER       
>                              2  1
              *** Start of Kinematic Data ***               COMMENT             
> 2025 06 15 13 50  0.0000000  0 33
C05  39304228.867 5  39304223.569 6 204667443.52215 158261822.79416
C06  38740784.456 6  38740780.522 7 201733432.23816 155993077.95017
C09  39373537.421 6  39373535.772 7 205028348.13816 158540923.18717
C11  24601522.452 7  24601520.127 8 128106828.98617  99060118.33418
C12  22229463.619 7  22229460.791 8 115754652.85617  89508795.55218
C16  39232039.352 7  39232041.658 7 204291508.87717 157971155.35817
C19  25288948.025 6                 131686193.50516
C21  23355782.919 8                 121619692.24418
C22  21673095.919 8                 112857495.11118
C34  22827128.156 7                 118866844.34017
C35  25910060.841 5                 134920493.77715
C39  39009767.659 7                 203134090.71217
C44  22597811.529 8                 117672731.46818
E03  26058870.084 7  26058874.443 8 136940288.94417 103594455.29318
E05  22228192.012 8  22228194.059 9 116809934.42918  88365966.76819
E06  27768449.588 6  27768454.913 6 145924182.72916 110390666.97316
E09  25968995.545 7  25968998.590 9 136467991.60517 103237159.23719
E15  25263484.054 7  25263487.827 9 132760503.28817 100432472.41019
E34  23441186.850 8  23441189.122 9 123184269.10018  93188105.38719
E36  26177874.513 7  26177879.645 7 137565660.45117 104067545.77217
G01  20543628.620 7                  20543631.563 8  20543633.526 9 107957488.80117                  84122734.08518  80617628.44719
G02  22578951.561 7  22578952.729 5                                 118653182.47017  92456825.56415                
G03  20045312.325 8                  20045317.820 8  20045316.021 9 105338823.34418                  82082260.93318  78662196.91719
G04  22096767.070 7                  22096772.712 7  22096773.274 8 116119295.55417                  90482593.59717  86712486.75218
G17  22443099.921 7                  22443103.619 7                 117939230.06917                  91900757.91717
G19  22766813.135 7  22766815.583 5                                 119640407.08317  93226313.54115                
G28  23294299.767 7                  23294303.991 7  23294307.069 8 122412367.67217                  95386307.22117  91411903.26218
G31  22927575.538 7                  22927580.062 7                 120485217.77317                  93884782.79417
R02  22931932.229 6  22931935.617 5 122369184.51016  95176049.83115
R03  19461320.796 8  19461322.462 7 104177971.69318  81027273.88617
R04  20390490.584 8  20390493.046 7 109190139.16118  84925676.97817
R18  20048067.026 8  20048069.750 7 107017941.76518  83236024.11417
R19  19824549.658 8  19824550.208 7 106047975.88418  82481916.19517
>                              3  5
              *** Start of Occupation ***                   COMMENT             
1007                                                        MARKER NAME         
1007                                                        MARKER NUMBER       
  3916204.7729  1193207.6745  4875194.2397                  APPROX POSITION XYZ 
        1.2670        0.0000        0.0000                  ANTENNA: DELTA H/E/N
> 2025 06 15 13 50 30.0000000  0 34
C05  39303905.170 5  39303901.403 6 204665765.14615 158260524.93816
C06  38735587.959 6  38735583.759 7 201706371.083 6 155972152.551 7
C09  39365787.928 6  39365786.310 7 204987996.733 6 158509720.949 7
C11  24586698.932 7  24586696.968 8 128029638.540 7  99000429.825 8
C12  22231876.470 7  22231873.978 8 115767217.322 7  89518511.165 8
C16  39227792.435 6  39227794.991 7 204269394.920 6 157954055.475 7
C19  25305317.004 6                 131771431.92916
C21  23342923.943 7                 121552731.370 7
C22  21676842.625 8                 112877005.070 8
C34  22820240.485 8                 118830979.895 8
C35  25929909.918 6                 135023847.762 6
C39  39008209.350 7                 203125973.665 7
C44  22609791.923 8                 117735117.946 8
E03  26042167.134 7  26042171.833 8 136852516.604 7 103528056.139 8
E05  22224434.503 8  22224436.960 9 116790190.310 8  88351030.482 9
E06  27784113.734 6  27784117.986 5 146006497.757 6 110452934.63715
E09  25980988.758 7  25980991.315 9 136531014.230 7 103284835.399 9
E15  25250696.922 7  25250700.671 8 132693306.533 7 100381638.533 8
E34  23442802.367 8  23442804.642 9 123192758.577 8  93194527.601 9
E36  26192080.298 8  26192085.054 8 137640310.879 8 104124018.209 8
G01  20550738.485 7                  20550741.556 8  20550743.233 9 107994851.106 7                  84151847.547 8  80645528.865 9
G02  22593944.688 7  22593945.623 5                                 118731972.746 7  92518220.562 5                
G03  20042720.297 8                  20042725.849 8  20042724.191 9 105325203.009 8                  82071647.691 8  78652025.896 9
G04  22079029.577 7                  22079035.144 7  22079035.698 8 116026084.523 7                  90409961.699 7  86642881.216 8
G17  22443960.282 6                  22443964.315 7                 117943750.967 6                  91904280.725 7
G19  22756215.139 7  22756217.990 5                                 119584714.852 7  93182917.049 5                
G28  23293369.858 7                  23293374.448 7  23293377.140 8 122407482.28317                  95382500.419 7  91408255.063 8
G31  22916013.249 7                  22916019.365 7                 120424463.447 7                  93837441.879 7
R02  22953234.050 7  22953237.645 6 122482853.067 7  95264458.56316
R03  19467233.501 8  19467235.721 8 104209624.330 8  81051892.631 8
R04  20375983.177 8  20375985.531 7 109112455.669 8  84865256.552 7
R12  23737076.697 6  23737083.367 5 126799271.89616  98621816.74415
R18  20062180.336 8  20062182.276 8 107093278.615 8  83294619.396 8
R19  19814584.023 8  19814584.694 8 105994667.878 8  82440454.426 8
> 2025 06 15 13 50 45.0000000  0 34
C05  39303742.059 5  39303738.765 7 204664917.535 5 158259869.557 7
C06  38732999.103 6  38732995.011 7 201692892.104 6 155961729.775 7
C09  39361920.506 6  39361919.305 7 204967860.205 6 158494150.156 7
C11  24579307.220 7  24579305.267 8 127991147.674 7  98970666.287 8
C12  22233117.537 7  22233114.817 8 115773679.684 7  89523508.266 8
C16  39225678.564 6  39225681.671 7 204258389.718 6 157945545.537 7
C19  25313506.140 6                 131814071.288 6
C21  23336512.207 7                 121519344.995 7
C22  21678739.215 8                 112886880.628 8
C34  22816828.797 7                 118813213.038 7
C35  25939835.276 5                 135075535.691 5
C39  39007440.526 7                 203121970.198 7
C44  22615808.698 8                 117766447.571 8
E03  26033827.325 7  26033831.695 8 136808688.932 7 103494900.844 8
E05  22222582.666 8  22222584.703 9 116780456.827 8  88343667.174 9
E06  27791951.956 5  27791954.072 5 146047686.988 5 110484093.92015
E09  25987000.529 7  25987003.573 8 136562608.272 7 103308736.064 8
E15  25244313.199 7  25244317.142 8 132659761.035 7 100356261.608 8
E34  23443631.589 8  23443633.734 9 123197115.881 8  93197823.885 9
E36  26199193.030 7  26199198.780 8 137677692.688 7 104152297.307 8
G01  20554325.739 7                  20554328.637 8  20554330.402 9 108013701.223 7                  84166535.915 8  80659605.228 9
G02  22601460.035 7  22601461.470 6                                 118771464.973 7  92548993.658 6                
G03  20041451.226 7                  20041456.667 7  20041454.887 9 105318532.766 7                  82066450.125 7  78647044.873 9
G04  22070182.284 7                  22070187.524 7  22070187.630 7 115979591.109 7                  90373733.071 7  86608162.134 7
G17  22444427.926 7                  22444432.340 7                 117946208.001 7                  91906195.256 7
G19  22750954.372 6  22750957.421 5                                 119557071.596 6  93161376.857 5                
G28  23292946.456 6                  23292950.502 7  23292953.235 8 122405253.678 6                  95380763.854 7  91406590.861 8
G31  22910268.058 7                  22910273.163 7                 120394267.217 7                  93813912.368 7
R02  22963888.609 7  22963892.204 6 122539710.796 7  95308681.209 6
R03  19470227.183 8  19470229.424 7 104225648.737 8  81064356.083 7
R04  20368762.928 8  20368765.080 7 109073789.638 8  84835183.013 7
R12  23730641.358 6  23730647.114 5 126764890.460 6  98595075.630 5
R18  20069278.850 8  20069280.478 7 107131170.671 8  83324090.965 7
R19  19809646.732 8  19809647.151 7 105968256.323 8  82419912.099 7
> 2025 06 15 13 51  0.0000000  0 34
C05  39303576.691 5                 204664068.09615
C06  38730416.930 6  38730413.056 7 201679447.436 6 155951333.531 7
C09  39358058.620 6  39358057.228 7 204947749.821 6 158478599.550 7
C11  24571928.864 7  24571926.946 8 127952726.636 7  98940956.751 8
C12  22234381.853 7  22234378.730 8 115780262.088 7  89528598.210 8
C16  39223572.369 7  39223574.627 7 204247418.913 7 157937062.227 7
C19  25321696.965 6                 131856723.674 6
C21  23330112.849 7                 121486021.330 7
C22  21680650.757 8                 112896836.278 8
C34  22813437.825 7                 118795556.537 7
C35  25949762.731 6                 135127230.554 6
C39  39006678.485 7                 203118003.353 7
C44  22621842.487 7                 117797867.789 7
E03  26025494.676 7  26025499.043 8 136764900.358 7 103461775.095 8
E05  22220747.863 8  22220750.052 9 116770815.655 8  88336373.671 9
E06  27799795.889 5  27799803.625 5 146088896.993 5 110515269.49715
E09  25993023.023 8  25993026.062 8 136594257.098 8 103332678.179 8
E15  25237936.736 7  25237940.268 8 132626250.893 7 100330911.418 8
E34  23444474.873 8  23444477.258 9 123201548.231 8  93201176.921 9
E36  26206314.339 7  26206319.500 8 137715112.010 7 104180604.710 8
G01  20557933.910 8                  20557937.294 8  20557938.990 9 108032663.770 8                  84181311.931 8  80673765.550 9
G02  22608987.442 7  22608989.743 6                                 118811021.515 7  92579816.904 6                
G03  20040199.312 7                  20040204.986 8  20040203.172 9 105311955.759 7                  82061325.179 8  78642133.489 9
G04  22061349.092 7                  22061354.646 7  22061355.276 8 115933172.622 7                  90337562.856 7  86573499.013 8
G17  22444920.445 6                  22444924.349 7                 117948795.839 6                  91908211.773 7
G19  22745720.317 7  22745722.446 5                                 119529563.575 7  93139942.014 5                
G28  23292549.387 6                  23292553.587 7  23292556.881 8 122403167.803 6                  95379138.520 7  91405033.245 8
G31  22904544.996 7                  22904549.494 7                 120364191.787 7                  93790477.013 7
R02  22974547.124 7  22974551.111 6 122596583.717 7  95352915.642 6
R03  19473245.063 8  19473247.474 8 104241805.022 8  81076922.044 8
R04  20361564.060 8  20361566.512 7 109035240.781 8  84805200.578 7
R12  23724231.719 6  23724234.397 4 126730647.691 6  98568442.52614
R18  20076404.905 8  20076407.343 7 107169211.292 8  83353678.100 7
R19  19804739.882 8  19804740.119 7 105942006.983 8  82399495.937 7
> 2025 06 15 13 51 15.0000000  0 34
C05  39303411.287 5  39303408.643 7 204663204.150 5 158258537.55817
C06  38727841.305 6  38727836.612 7 201666032.264 6 155940960.079 7
C09  39354201.303 6  39354199.262 7 204927660.753 6 158463065.399 7
C11  24564562.884 7  24564560.927 8 127914370.859 7  98911297.662 8
C12  22235667.830 7  22235664.893 8 115786959.646 7  89533777.180 8
C16  39221471.118 7  39221473.540 7 204236477.675 7 157928601.768 7
C19  25329887.813 6                 131899384.191 6
C21  23323724.171 7                 121452755.559 7
C22  21682577.386 8                 112906867.070 8
C34  22810067.631 8                 118778005.711 8
C35  25959691.344 7                 135178927.257 7
C39  39005923.131 7                 203114068.192 7
C44  22627892.597 7                 117829373.601 7
E03  26017168.569 7  26017172.837 8 136721146.169 7 103428675.344 8
E05  22218929.885 8  22218932.063 9 116761261.827 8  88329146.284 9
E06  27807643.667 5  27807648.342 5 146130122.65015 110546456.474 5
E09  25999055.517 8  25999058.151 8 136625955.646 8 103356657.900 8
E15  25231565.420 7  25231569.350 8 132592771.414 7 100305584.435 8
E34  23445331.690 8  23445334.088 9 123206050.794 8  93204583.066 9
E36  26213441.232 7  26213446.450 8 137752563.840 7 104208936.721 8
G01  20561562.854 7                  20561565.960 8  20561567.871 9 108051733.833 7                  84196171.736 8  80688006.182 9
G02  22616525.908 7  22616528.312 6                                 118850637.323 7  92610686.372 6                
G03  20038964.807 8                  20038970.021 8  20038968.684 9 105305467.080 8                  82056269.068 8  78637288.053 9
G04  22052529.384 7                  22052534.339 7  22052535.479 8 115886824.413 7                  90301447.412 7  86538888.391 8
G17  22445436.079 6                  22445441.098 6                 117951509.700 6                  91910326.463 6
G19  22740510.032 7  22740512.646 5                                 119502186.381 7  93118609.204 5                
G28  23292178.790 6                  23292182.793 7  23292186.015 8 122401219.893 6                  95377620.597 7  91403578.592 8
G31  22898843.855 7                  22898848.384 7                 120334232.707 7                  93767132.269 7
R02  22985204.675 6  22985210.940 6 122653466.413 6  95397157.725 6
R03  19476286.525 8  19476288.602 7 104258087.592 8  81089586.270 7
R04  20354386.026 8  20354388.459 7 108996804.242 8  84775305.511 7
R12  23717845.048 4  23717851.352 5 126696539.252 4  98541913.746 5
R18  20083558.306 8  20083560.319 7 107207395.298 8  83383376.726 7
R19  19799862.323 8  19799862.626 7 105915915.289 8  82379202.412 7
> 2025 06 15 13 51 30.0000000  0 34
C05  39303244.178 5  39303241.423 7 204662331.571 5 158257862.816 7
C06  38725270.782 6  38725266.662 7 201652648.667 6 155930611.042 7
C09  39350347.933 6  39350345.900 7 204907595.080 6 158447549.354 7
C11  24557210.162 7  24557207.924 8 127876082.615 7  98881690.764 8
C12  22236976.421 7  22236973.765 8 115793774.435 7  89539046.807 8
C16  39219376.435 7  39219378.472 7 204225568.039 7 157920165.768 7
C19  25338082.976 6                 131942054.693 6
C21  23317347.668 7                 121419549.844 7
C22  21684518.497 8                 112916974.861 8
C34  22806717.582 7                 118760562.709 7
C35  25969619.429 6                 135230627.599 6
C39  39005173.963 7                 203110166.837 7
C44  22633959.974 7                 117860966.763 7
E03  26008849.646 7  26008853.778 8 136677428.536 7 103395603.287 8
E05  22217128.789 8  22217131.051 9 116751797.458 8  88321986.540 9
E06  27815490.448 5  27815496.634 5 146171365.93215 110577656.794 5
E09  26005097.363 7  26005100.101 8 136657705.763 7 103380676.634 8
E15  25225200.946 7  25225204.689 9 132559324.768 7 100280282.271 9
E34  23446202.473 8  23446204.676 9 123210625.640 8  93208043.911 9
E36  26220575.377 8  26220579.849 8 137790050.204 8 104237294.839 8
G01  20565212.708 7                  20565215.952 8  20565217.567 8 108070913.415 7                  84211116.821 8  80702328.585 8
G02  22624076.205 7  22624079.056 6                                 118890314.318 7  92641603.483 6                
G03  20037747.003 8                  20037752.709 8  20037750.977 9 105299068.828 8                  82051283.418 8  78632510.122 9
G04  22043722.983 7                  22043728.141 7  22043729.517 8 115840548.764 7                  90265388.465 7  86504331.934 8
G17  22445977.095 6                  22445980.916 6                 117954351.734 6                  91912541.023 6
G19  22735325.524 6  22735328.736 5                                 119474942.181 6  93097379.974 5                
G28  23291834.562 7                  23291838.123 7  23291841.873 8 122399411.905 7                  95376211.790 7  91402228.475 8
G31  22893165.017 7                  22893169.533 7                 120304392.305 7                  93743880.021 7
R02  22995865.344 6  22995873.100 6 122710360.750 6  95441408.837 6
R03  19479352.271 8  19479355.024 8 104274498.641 8  81102350.438 8
R04  20347229.785 8  20347232.184 7 108958482.354 8  84745499.619 7
R12  23711484.870 6                 126662565.61616
R18  20090738.509 8  20090741.174 7 107245724.457 8  83413188.279 7
R19  19795014.519 8  19795014.812 7 105889983.726 8  82359033.440 7
> 2025 06 15 13 51 45.0000000  0 34
C05  39303076.798 5  39303073.669 6 204661458.757 5 158257187.904 6
C06  38722707.942 6  38722704.705 7 201639304.872 6 155920292.776 7
C09  39346500.204 6  39346498.343 7 204887561.143 6 158432057.840 7
C11  24549871.547 7  24549869.866 8 127837870.555 7  98852142.784 8
C12  22238308.854 7  22238306.763 8 115800714.714 7  89544413.450 8
C16  39217288.771 7  39217291.160 7 204214698.324 7 157911760.615 7
C19  25346281.864 6                 131984743.328 6
C21  23310983.784 8                 121386412.533 8
C22  21686475.908 8                 112927167.901 8
C34  22803390.482 8                 118743236.000 8
C35  25979550.989 6                 135282339.729 6
C39  39004433.004 7                 203106307.493 7
C44  22640045.540 8                 117892655.453 8
E03  26000539.083 7  26000543.122 8 136633755.988 7 103362565.322 8
E05  22215346.544 8  22215348.588 9 116742430.876 8  88314900.785 9
E06  27823341.234 5  27823348.903 6 146212635.104 5 110608876.681 6
E09  26011150.101 7  26011153.303 8 136689515.621 7 103404740.565 8
E15  25218844.673 7  25218847.891 8 132525919.538 7 100255011.451 8
E34  23447088.183 8  23447090.597 9 123215281.228 8  93211565.834 9
E36  26227716.940 7  26227721.461 8 137827579.373 7 104265685.384 8
G01  20568884.626 8                  20568888.015 8  20568889.677 8 108090210.827 8                  84226153.786 8  80716738.979 8
G02  22631639.817 7  22631642.445 6                                 118930060.752 7  92672574.683 6                
G03  20036548.506 8                  20036553.955 7  20036552.162 9 105292769.289 8                  82046374.688 7  78627805.927 9
G04  22034932.760 7                  22034937.908 7  22034938.486 8 115794354.308 7                  90229392.843 7  86469836.123 8
G17  22446544.028 6                  22446547.091 6                 117957329.999 6                  91914861.814 6
G19  22730168.578 6  22730171.345 5                                 119447839.660 6  93076261.130 5                
G28  23291518.425 7                  23291522.755 7  23291525.915 8 122397752.278 7                  95374918.588 7  91400989.168 8
G31  22887511.220 7                  22887515.494 7                 120274679.308 7                  93720727.067 7
R02  23006534.378 6  23006538.225 6 122767274.998 6  95485675.467 6
R03  19482443.628 8  19482446.075 8 104291045.997 8  81115220.568 8
R04  20340096.653 8  20340099.111 7 108920283.669 8  84715789.512 7
R12  23705154.875 6  23705158.308 5 126628739.480 6  98488969.20315
R18  20097947.858 8  20097950.249 7 107284206.993 8  83443119.104 7
R19  19790199.042 8  19790199.042 8 105864220.998 8  82338995.778 8
> 2025 06 15 13 52  0.0000000  0 34
C05  39302908.957 5  39302905.303 7 204660582.936 5 158256510.689 7
C06  38720152.813 6  38720148.866 7 201625998.262 6 155910003.262 7
C09  39342658.171 6  39342656.579 7 204867556.009 6 158416588.618 7
C11  24542547.938 7  24542545.787 8 127799731.999 7  98822651.657 8
C12  22239665.585 7  22239662.870 8 115807777.618 7  89549874.938 8
C16  39215208.247 7  39215210.790 7 204203865.749 7 157903384.174 7
C19  25354481.640 6                 132027447.121 6
C21  23304632.614 8                 121353340.892 8
C22  21688449.059 8                 112937443.226 8
C34  22800084.833 8                 118726022.946 8
C35  25989482.859 6                 135334060.552 6
C39  39003699.292 7                 203102487.348 7
C44  22646148.847 8                 117924436.647 8
E03  25992236.957 7  25992240.364 8 136590125.846 7 103329559.435 8
E05  22213581.884 8  22213584.272 9 116733159.245 8  88307886.858 9
E06  27831199.347 5  27831204.088 6 146253926.977 5 110640113.842 6
E09  26017214.363 7  26017217.321 8 136721382.220 7 103428847.432 8
E15  25212494.851 7  25212498.477 8 132492553.053 7 100229769.927 8
E34  23447988.666 8  23447991.400 9 123220014.772 8  93215146.728 9
E36  26234865.708 7  26234870.684 8 137865148.494 7 104294106.097 8
G01  20572578.877 8                  20572582.209 8  20572583.897 8 108109623.180 8                  84241280.285 8  80731235.218 8
G02  22639216.246 7  22639219.204 6                                 118969873.678 7  92703597.687 6                
G03  20035368.296 8                  20035373.464 8  20035371.757 9 105286565.685 8                  82041540.712 8  78623173.367 9
G04  22026157.603 7                  22026162.380 7  22026162.382 7 115748238.455 7                  90193458.427 7  86435398.982 7
G17  22447135.869 6                  22447139.871 6                 117960441.583 6                  91917286.431 6
G19  22725037.402 7  22725040.117 5                                 119420876.135 7  93055250.601 5                
G28  23291230.641 7                  23291234.823 7  23291237.541 8 122396238.280 7                  95373738.882 7  91399858.631 8
G31  22881880.592 7                  22881885.441 7                 120245091.103 7                  93697671.342 7
R02  23017204.305 6  23017207.184 6 122824205.812 6  95529954.924 6
R03  19485559.773 8  19485562.433 7 104307726.925 8  81128194.630 7
R04  20332985.646 8  20332988.152 7 108882205.550 8  84686173.238 7
R12  23698848.746 6  23698853.779 5 126595056.530 6  98462771.345 5
R18  20105185.157 8  20105187.045 7 107322839.810 8  83473166.840 7
R19  19785413.516 8  19785413.800 7 105838624.541 8  82319087.435 7
> 2025 06 15 13 52 15.0000000  0 34
C05  39302738.453 5  39302736.458 7 204659702.52015 158255829.90717
C06  38717603.752 6  38717600.401 7 201612727.236 6 155899741.240 7
C09  39338821.978 6  39338820.592 7 204847578.480 6 158401140.736 7
C11  24535237.328 7  24535235.491 8 127761665.807 7  98793216.503 8
C12  22241045.056 7  22241042.602 8 115814961.736 7  89555430.138 8
C16  39213135.066 7  39213137.116 7 204193068.850 7 157895035.354 7
C19  25362685.533 6                 132070164.508 6
C21  23298293.990 8                 121320333.526 8
C22  21690437.807 8                 112947799.282 8
C34  22796800.846 8                 118708922.241 8
C35  25999416.510 6                 135385788.452 6
C39  39002973.175 7                 203098705.007 7
C44  22652269.568 8                 117956308.730 8
E03  25983941.841 7  25983945.671 8 136546536.849 7 103296584.682 8
E05  22211835.541 8  22211837.728 9 116723981.127 8  88300943.680 9
E06  27839061.100 5  27839065.029 6 146295240.106 5 110671366.932 6
E09  26023289.051 7  26023291.802 8 136753303.892 7 103452995.957 8
E15  25206152.351 7  25206156.192 8 132459223.973 7 100204556.715 8
E34  23448904.230 8  23448906.688 9 123224824.904 8  93218785.553 9
E36  26242022.688 8  26242027.136 8 137902755.972 8 104322555.888 8
G01  20576294.366 8                  20576297.824 8  20576299.443 8 108129149.026 8                  84256495.200 8  80745816.185 8
G02  22646804.746 7  22646807.151 6                                 119009751.354 7  92734671.173 6                
G03  20034205.672 8                  20034210.546 7  20034209.229 9 105280456.546 8                  82036780.359 7  78618611.357 9
G04  22017396.390 7                  22017401.676 7  22017401.942 8 115702199.940 7                  90157584.296 7  86401019.602 8
G17  22447753.185 6                  22447757.484 7                 117963685.229 6                  91919813.887 7
G19  22719932.273 7  22719934.967 5                                 119394050.431 7  93034347.494 5                
G28  23290970.207 7                  23290974.035 7  23290976.516 8 122394868.540 7                  95372671.544 7  91398835.754 8
G31  22876273.731 7                  22876278.558 7                 120215626.683 7                  93674712.062 7
R02  23027876.011 7  23027879.294 6 122881151.706 7  95574246.135 6
R03  19488700.770 8  19488702.878 7 104324539.463 8  81141271.027 7
R04  20325897.220 8  20325900.194 7 108844246.639 8  84656649.671 7
R12  23692569.623 6  23692574.947 5 126561515.831 6  98436683.981 5
R18  20112449.990 8  20112451.997 7 107361621.069 8  83503330.046 7
R19  19780659.265 8  19780660.222 7 105813193.173 8  82299307.489 7
> 2025 06 15 13 52 30.0000000  0 34
C05  39302570.986 5  39302567.637 7 204658824.738 5 158255151.144 7
C06  38715063.733 6  38715060.262 7 201599498.985 6 155889512.336 7
C09  39334991.953 6  39334990.686 7 204827635.554 6 158385719.639 7
C11  24527942.510 7  24527940.565 8 127723679.368 7  98763842.986 8
C12  22242449.554 7  22242447.031 8 115822274.146 7  89561084.562 8
C16  39211069.499 7  39211071.937 7 204182314.730 7 157886719.577 7
C19  25370892.778 6                 132112902.436 6
C21  23291968.974 8                 121287397.631 8
C22  21692443.678 8                 112958243.034 8
C34  22793539.580 8                 118691941.154 8
C35  26009353.224 6                 135437530.187 6
C39  39002255.161 7                 203094967.504 7
C44  22658408.919 8                 117988278.632 8
E03  25975656.126 7  25975660.167 8 136502996.313 7 103263646.580 8
E05  22210108.112 8  22210110.315 9 116714903.672 8  88294076.645 9
E06  27846931.251 5  27846932.435 6 146336581.323 5 110702641.278 6
E09  26029375.008 7  26029378.108 8 136785287.660 7 103477191.429 8
E15  25199818.511 7  25199822.278 9 132425939.665 7 100179377.368 9
E34  23449835.378 8  23449838.009 9 123229718.821 8  93222487.771 9
E36  26249187.306 8  26249192.044 8 137940408.918 8 104351040.043 8
G01  20580033.056 7                  20580036.478 8  20580037.992 9 108148795.400 7                  84271804.044 8  80760487.177 9
G02  22654406.585 7  22654408.844 6                                 119049700.884 7  92765800.655 6                
G03  20033062.051 8                  20033067.586 8  20033066.140 9 105274449.079 8                  82032099.230 8  78614125.262 9
G04  22008652.034 7                  22008656.989 7  22008657.587 8 115656246.231 7                  90121776.265 7  86366703.557 8
G17  22448397.811 6                  22448401.795 7                 117967067.877 6                  91922449.703 7
G19  22714855.180 6  22714857.733 5                                 119367370.129 6  93013557.646 5                
G28  23290738.145 7                  23290742.375 7  23290744.137 8 122393650.196 7                  95371722.167 7  91397925.932 8
G31  22870691.820 7                  22870697.060 7                 120186293.504 7                  93651855.064 7
R02  23038552.643 7  23038554.542 6 122938119.546 7  95618554.387 6
R03  19491867.413 8  19491869.375 7 104341490.500 8  81154455.178 7
R04  20318832.262 8  20318834.629 7 108806414.320 8  84627224.543 7
R12  23686318.763 6  23686318.917 4 126528125.070 6
R18  20119744.504 8  20119746.337 7 107400557.800 8  83533614.131 7
R19  19775937.470 8  19775938.379 7 105787934.838 8  82279662.145 7
> 2025 06 15 13 52 45.0000000  0 34
C05  39302401.045 5  39302398.613 7 204657944.005 5 158254470.144 7
C06  38712530.666 6  38712527.104 7 201586307.949 6 155879312.170 7
C09  39331168.294 7  39331166.180 7 204807721.787 7 158370321.071 7
C11  24520661.577 7  24520660.087 8 127685767.387 7  98734527.044 8
C12  22243877.366 7  22243875.009 8 115829709.263 7  89566833.872 8
C16  39209010.907 7  39209013.775 7 204171597.871 7 157878432.620 7
C19  25379103.559 6                 132155655.238 6
C21  23285656.811 8                 121254527.685 8
C22  21694465.052 8                 112968768.779 8
C34  22790300.395 7                 118675074.272 7
C35  26019291.022 6                 135489280.009 6
C39  39001545.117 7                 203091269.264 7
C44  22664565.759 7                 118020340.540 7
E03  25967378.420 7  25967382.818 8 136459498.768 7 103230740.989 8
E05  22208398.889 8  22208400.968 9 116705921.234 8  88287281.495 9
E06  27854801.960 4  27854803.072 6 146377944.889 4 110733932.540 6
E09  26035472.235 7  26035475.123 8 136817327.654 7 103501429.470 8
E15  25193492.115 7  25193495.947 8 132392694.684 7 100154227.763 8
E34  23450781.445 8  23450784.153 9 123234690.969 8  93226249.163 9
E36  26256360.135 7  26256364.775 8 137978101.691 7 104379554.332 8
G01  20583793.348 8                  20583797.007 8  20583798.657 9 108168556.648 8                  84287202.430 8  80775243.948 9
G02  22662021.829 7  22662023.975 6                                 119089716.511 7  92796981.651 6                
G03  20031937.148 8                  20031942.740 8  20031941.063 9 105268537.671 8                  82027492.920 8  78609710.893 9
G04  21999922.276 7                  21999927.432 7  21999927.816 8 115610371.868 7                  90086030.061 7  86332446.765 8
G17  22449065.806 6                  22449070.670 7                 117970583.719 6                  91925189.338 7
G19  22709805.273 7  22709807.068 5                                 119340829.688 7  92992876.816 5                
G28  23290533.985 7                  23290537.968 7  23290540.068 8 122392577.698 7                  95370886.465 7  91397125.031 8
G31  22865133.860 7                  22865138.762 7                 120157086.350 7                  93629096.270 7
R02  23049230.098 6  23049233.411 6 122995102.998 6  95662874.849 6
R03  19495058.479 8  19495060.555 7 104358574.159 8  81167742.454 7
R04  20311790.217 8  20311792.030 7 108768703.232 8  84597893.700 7
R12  23680095.010 6  23680099.622 5 126494878.772 6  98384855.47515
R18  20127066.480 8  20127068.503 7 107439644.093 8  83564014.557 7
R19  19771247.215 8  19771247.526 7 105762843.924 8  82260146.970 7
> 2025 06 15 13 53  0.0000000  0 34
C05  39302232.577 5  39302229.707 7 204657064.142 5 158253789.746 7
C06  38710005.310 6  38710001.641 7 201573157.876 6 155869143.712 7
C09  39327351.610 7  39327348.079 7 204787840.967 7 158354947.978 7
C11  24513396.646 7  24513394.307 8 127647933.773 7  98705271.733 8
C12  22245329.718 7  22245326.983 8 115837270.818 7  89572680.936 8
C16  39206961.048 6  39206963.716 7 204160921.967 6 157870177.349 7
C19  25387317.074 6                 132198426.386 6
C21  23279357.757 8                 121221727.550 8
C22  21696502.707 8                 112979380.199 8
C34  22787084.290 7                 118658325.460 7
C35  26029231.092 6                 135541041.416 6
C39  39000843.023 7                 203087614.007 7
C44  22670741.695 8                 118052498.063 8
E03  25959110.064 7  25959114.449 8 136416048.144 7 103197870.885 8
E05  22206708.335 8  22206710.455 9 116697037.600 8  88280561.089 9
E09  26041580.332 7  26041583.502 8 136849427.521 7 103525712.784 8
E15  25187174.082 7  25187177.754 8 132359492.946 7 100129110.886 8
E34  23451743.268 8  23451745.950 9 123239745.176 8  93230072.630 9
E36  26263540.996 7  26263545.820 8 138015837.943 7 104408101.518 8
G01  20587576.653 7                  20587579.982 8  20587581.562 9 108188436.531 7                  84302693.239 8  80790089.307 9
G02  22669649.668 7  22669652.155 6                                 119129801.777 7  92828216.877 6                
G03  20030831.261 7                  20030836.986 8  20030835.014 9 105262726.071 7                  82022964.401 8  78605371.068 9
G04  21991208.383 7                  21991213.511 7  21991214.215 8 115564580.953 7                  90050348.875 7  86298252.296 8
G17  22449761.268 6                  22449765.570 7                 117974236.667 6                  91928035.766 7
G19  22704782.446 7  22704783.809 5                                 119314433.202 7  92972308.116 5                
G28  23290358.065 6                  23290362.491 7  23290364.719 8 122391654.875 6                  95370167.371 7  91396435.914 8
G31  22859600.520 7                  22859605.388 7                 120128009.271 7                  93606438.858 7
R02  23059909.144 6  23059915.419 6 123052105.856 6  95707210.444 6
R03  19498275.568 8  19498277.653 7 104375794.066 8  81181135.719 7
R04  20304771.008 8  20304773.687 7 108731117.195 8  84568660.142 7
R12  23673898.305 6  23673903.911 6 126461781.468 6  98359113.070 6
R18  20134417.244 8  20134418.865 7 107478883.467 8  83594534.026 7
R19  19766588.552 8  19766589.339 7 105737924.725 8  82240765.368 7
R20  23716323.536 5  23716330.837 7 126821827.51715  98639240.23617
> 2025 06 15 13 53 15.0000000  0 34
C05  39302062.958 5  39302059.975 7 204656181.503 5 158253107.249 7
C06  38707486.984 6  38707483.167 7 201560045.354 6 155859004.274 7
C09  39323539.415 6  39323535.964 7 204767989.622 6 158339597.669 7
C11  24506144.994 7  24506143.313 8 127610175.365 7  98676074.580 8
C12  22246805.300 7  22246802.666 8 115844955.417 7  89578623.149 8
C16  39204918.487 7  39204920.609 7 204150283.580 7 157861951.106 7
C19  25395533.131 6                 132241212.356 6
C21  23273071.791 8                 121188993.777 8
C22  21698556.066 8                 112990073.674 8
C34  22783889.576 7                 118641691.458 7
C35  26039172.718 6                 135592810.841 6
C39  39000148.552 7                 203083998.282 7
C44  22676934.957 7                 118084747.513 7
E03  25950849.790 7  25950854.452 8 136372641.093 7 103165033.780 8
E05  22205036.202 8  22205038.087 9 116688249.289 8  88273912.791 9
E09  26047699.392 7  26047702.632 8 136881583.521 7 103550038.587 8
E15  25180863.490 7  25180867.199 9 132326331.138 7 100104024.213 9
E34  23452720.190 8  23452722.700 9 123244878.035 8  93233955.604 9
E36  26270729.245 7  26270734.460 8 138053614.134 7 104436678.929 8
G01  20591381.560 7                  20591385.074 8  20591386.447 9 108208431.452 7                  84318273.687 8  80805020.555 9
G02  22677289.972 7  22677292.404 6                                 119169953.118 7  92859503.601 6                
G03  20029743.834 8                  20029749.509 8  20029747.478 9 105257010.785 8                  82018510.948 8  78601103.162 9
G04  21982509.584 7                  21982514.764 7  21982515.671 8 115518870.179 7                  90014730.110 7  86264117.676 8
G17  22450481.948 6                  22450485.598 6                 117978023.211 6                  91930986.303 6
G19  22699785.791 7  22699787.161 5                                 119288177.324 7  92951849.022 5                
G28  23290210.989 6                  23290214.602 7  23290217.587 8 122390878.248 6                  95369562.207 7  91395855.959 8
G31  22854091.653 7                  22854095.739 7                 120099059.119 7                  93583880.292 7
R02  23070595.244 6  23070601.423 5 123109124.391 6  95751558.086 5
R03  19501516.813 8  19501519.193 7 104393146.458 8  81194632.020 7
R04  20297774.907 8  20297777.087 7 108693652.639 8  84539521.048 7
R12  23667730.037 7  23667734.469 5 126428829.727 7  98333483.993 5
R18  20141796.073 8  20141798.503 7 107518271.992 8  83625169.532 7
R19  19761962.138 8  19761962.356 8 105713174.020 8  82221514.825 8
R20  23704131.927 4  23704139.555 7 126756632.038 4  98588532.604 7
> 2025 06 15 13 53 30.0000000  0 35
C05  39301892.122 5  39301888.918 6 204655290.89815 158252418.63316
C06  38704974.634 6  38704971.214 7 201546965.041 6 155848889.745 7
C09  39319730.630 6  39319728.157 7 204748162.466 6 158324266.086 7
C11  24498907.768 7  24498905.354 8 127572487.156 7  98646931.702 8
C12  22248303.329 7  22248300.878 8 115852757.553 7  89584656.239 8
C16  39202881.634 7  39202884.152 7 204139677.437 7 157853749.785 7
C19  25403751.776 6                 132284007.616 6
C21  23266797.051 8                 121156321.103 8
C22  21700624.333 8                 113000843.683 8
C34  22780716.207 7                 118625167.011 7
C35  26049115.097 6                 135644582.522 6
C39  38999461.117 7                 203080416.715 7
C44  22683144.463 7                 118117083.347 7
E03  25942597.234 7  25942601.638 8 136329272.346 7 103132225.635 8
E05  22203380.632 8  22203382.848 9 116679550.857 8  88267332.488 9
E06  27878438.110 5  27878442.364 6 146502176.35715 110827911.357 6
E09  26053827.953 7  26053831.418 8 136913790.107 7 103574402.623 8
E15  25174559.292 7  25174563.267 8 132293203.998 7 100078963.778 8
E34  23453711.044 8  23453713.405 9 123250084.146 8  93237893.991 9
E36  26277924.230 7  26277929.554 8 138091424.729 7 104465282.370 8
G01  20595207.427 7                  20595210.642 8  20595212.068 9 108228535.946 7                  84333939.518 8  80820033.663 9
G02  22684941.838 7  22684944.203 6                                 119210164.891 7  92890837.432 6                
G03  20028673.603 8                  20028678.943 8  20028677.059 9 105251386.437 8                  82014128.345 8  78596903.159 9
G04  21973825.544 7                  21973830.464 7  21973831.309 8 115473234.418 7                  89979169.803 7  86230039.049 8
G17  22451226.985 6                  22451230.560 6                 117981937.791 6                  91934036.637 6
G19  22694815.345 7  22694815.863 5                                 119262056.800 7  92931495.425 5                
G28  23290089.931 6                  23290093.803 7  23290096.769 8 122390242.412 6                  95369066.723 7  91395381.138 8
G31  22848605.552 7                  22848609.708 6                 120070230.858 7                  93561416.746 6
R02  23081283.730 6  23081289.723 5 123166152.778 6  95795913.340 5
R03  19504782.295 8  19504784.262 7 104410625.500 8  81208226.834 7
R04  20290800.247 8  20290802.741 7 108656304.362 8  84510472.426 7
R12  23661588.040 6  23661593.229 5 126396018.822 6  98307964.398 5
R18  20149202.040 8  20149204.343 7 107557804.089 8  83655916.674 7
R19  19757365.728 8  19757365.842 7 105688586.575 8  82202391.279 7
R20  23691944.104 5  23691950.867 7 126691455.850 5  98537840.055 7
> 2025 06 15 13 53 45.0000000  0 35
C05  39301720.442 5  39301716.247 7 204654391.831 5 158251723.390 7
C06  38702469.013 6  38702465.723 7 201533916.476 6 155838799.786 7
C09  39315927.078 6  39315925.011 7 204728359.058 6 158308952.835 7
C11  24491683.335 7  24491681.302 8 127534868.901 7  98617842.903 8
C12  22249824.678 7  22249821.817 8 115860676.890 7  89590779.958 8
C16  39200851.425 7  39200853.420 7 204129103.041 7 157845572.993 7
C19  25411971.875 6                 132326811.624 6
C21  23260534.325 8                 121123709.163 8
C22  21702707.450 8                 113011689.721 8
C34  22777564.222 7                 118608751.886 7
C35  26059058.077 6                 135696355.993 6
C39  38998779.494 7                 203076868.872 7
C44  22689371.014 7                 118149504.959 7
E03  25934351.831 7  25934355.897 8 136285941.723 7 103099446.292 8
E05  22201742.641 8  22201744.646 9 116670941.879 8  88260819.856 9
E06  27886326.337 5  27886328.482 6 146543620.853 5 110859263.789 6
E09  26059966.299 7  26059969.710 8 136946046.635 7 103598804.451 8
E15  25168262.600 7  25168265.934 8 132260111.329 7 100053929.392 8
E34  23454715.587 8  23454717.958 9 123255363.179 8  93241887.550 9
E36  26285126.015 7  26285131.272 8 138129269.302 7 104493911.490 8
G01  20599053.779 7                  20599057.055 8  20599058.760 9 108248749.563 7                  84349690.382 8  80835128.234 9
G02  22692605.596 7  22692608.235 6                                 119250436.565 7  92922217.896 6                
G03  20027620.555 8                  20027625.982 8  20027624.226 9 105245852.590 8                  82009816.260 8  78592770.757 9
G04  21965155.629 7                  21965160.837 7  21965161.361 8 115427673.465 7                  89943667.752 7  86196016.282 8
G17  22451996.250 6                  22451999.414 6                 117985980.141 6                  91937186.470 6
G19  22689870.268 7  22689871.173 5                                 119236071.597 7  92911247.233 5                
G28  23289995.274 6                  23289999.731 7  23290002.089 8 122389747.001 6                  95368680.714 7  91395011.189 8
G31  22843142.869 7                  22843146.784 6                 120041524.268 7                  93539047.978 6
R02  23091972.490 6  23091977.053 5 123223189.967 6  95840275.500 5
R03  19508070.688 8  19508073.315 7 104428230.369 8  81221919.522 7
R04  20283847.299 8  20283850.193 8 108619072.184 8  84481514.106 8
R12  23655471.877 7  23655477.316 5 126363348.463 7  98282554.217 5
R18  20156634.387 8  20156636.260 7 107597478.962 8  83686774.877 7
R19  19752799.728 8  19752799.832 7 105664162.601 8  82183394.846 7
R20  23679758.816 5  23679766.562 7 126626299.065 5  98487162.646 7
> 2025 06 15 13 54  0.0000000  0 35
C05  39301545.678 5  39301542.271 7 204653484.634 5 158251021.884 7
C06  38699969.500 6  38699965.862 7 201520900.000 6 155828734.639 7
C09  39312128.692 6  39312126.728 7 204708579.699 6 158293658.189 7
C11  24484473.054 7  24484470.276 8 127497321.162 7  98588808.630 8
C12  22251368.013 7  22251365.112 8 115868713.641 7  89596994.482 8
C16  39198826.695 7  39198828.569 7 204118560.720 7 157837421.017 7
C19  25420193.545 6                 132369624.546 6
C21  23254283.658 8                 121091158.266 8
C22  21704804.908 8                 113022611.936 8
C34  22774432.561 7                 118592446.460 7
C35  26069001.187 6                 135748131.152 6
C39  38998104.779 6                 203073354.969 6
C44  22695613.468 8                 118182012.399 8
E03  25926113.576 7  25926117.613 8 136242649.523 7 103066696.062 8
E05  22200121.231 8  22200123.495 9 116662422.589 8  88254375.071 9
E06  27894215.577 6  27894217.953 6 146585081.508 6 110890628.464 6
E09  26066114.194 7  26066117.521 8 136978353.180 7 103623244.117 8
E15  25161971.420 7  25161975.160 8 132227053.504 7 100028921.357 8
E34  23455734.111 8  23455736.449 9 123260715.433 8  93245936.492 9
E36  26292334.270 7  26292339.343 8 138167147.992 7 104522566.425 8
G01  20602921.198 7                  20602924.408 8  20602925.982 9 108269072.495 7                  84365526.421 8  80850304.443 9
G02  22700280.458 7  22700282.747 6                                 119290768.240 7  92953645.147 6                
G03  20026584.673 8                  20026590.106 8  20026588.654 9 105240409.525 8                  82005574.907 8  78588706.125 9
G04  21956499.657 7                  21956504.778 7  21956506.132 8 115382187.786 7                  89908224.430 7  86162049.740 8
G17  22452789.803 7                  22452792.993 6                 117990150.085 7                  91940435.852 6
G19  22684950.853 7  22684952.531 5                                 119210222.238 7  92891104.876 5                
G28  23289927.630 7                  23289932.605 7  23289934.437 8 122389392.391 7                  95368404.374 7  91394746.350 8
G31  22837703.749 7                  22837707.776 6                 120012939.898 7                  93516774.454 6
R02  23102663.303 6  23102667.456 6 123280236.571 6  95884645.031 6
R03  19511382.774 8  19511386.024 7 104445961.183 8  81235710.147 7
R04  20276916.377 8  20276919.167 7 108581956.284 8  84452646.236 7
R12  23649382.396 6  23649386.502 5 126330819.420 6  98257253.928 5
R18  20164093.504 8  20164095.475 7 107637296.483 8  83717744.077 7
R19  19748264.887 8  19748265.318 7 105639902.422 8  82164525.844 7
R20  23667578.206 5  23667584.988 7 126561162.573 5  98436500.985 7
> 2025 06 15 13 54 15.0000000  0 35
C05  39301370.560 5  39301366.927 7 204652572.589 5 158250316.635 7
C06  38697476.150 6  38697473.005 7 201507918.913 6 155818696.843 7
C09  39308336.033 6  39308333.686 7 204688827.806 6 158278384.770 7
C11  24477276.827 7  24477273.857 8 127459847.501 7  98559831.632 8
C12  22252934.369 7  22252931.682 8 115876871.085 7  89603302.318 8
C16  39196809.212 7  39196810.590 7 204108053.729 7 157829296.364 7
C19  25428418.658 6                 132412449.542 6
C21  23248044.613 8                 121058671.834 8
C22  21706917.648 8                 113033613.489 8
C34  22771323.160 8                 118576254.219 8
C35  26078944.871 6                 135799911.138 6
C39  38997437.103 6                 203069878.325 6
C44  22701873.389 8                 118214608.800 8
E03  25917883.546 7  25917887.382 8 136199399.274 7 103033977.571 8
E05  22198518.061 8  22198520.050 9 116653996.354 8  88248000.672 9
E06  27902109.386 6  27902111.135 5 146626561.457 6 110922007.673 5
E09  26072272.504 7  26072275.364 8 137010712.896 7 103647724.007 8
E15  25155687.956 7  25155691.773 8 132194034.048 7 100003942.379 8
E34  23456766.921 8  23456769.546 9 123266144.323 8  93250043.403 9
E36  26299549.676 8  26299554.666 8 138205064.058 8 104551249.663 8
G01  20606809.819 7                  20606813.315 8  20606814.829 9 108289507.997 7                  84381450.205 8  80865564.717 9
G02  22707967.279 7  22707969.620 6                                 119331163.209 7  92985121.705 6                
G03  20025566.889 8                  20025572.305 8  20025570.823 9 105235060.584 8                  82001406.892 8  78584711.782 9
G04  21947859.203 7                  21947864.243 7  21947865.431 8 115336780.954 7                  89872842.529 7  86128142.108 8
G17  22453607.956 6                  22453612.185 6                 117994451.316 6                  91943787.396 6
G19  22680058.188 7  22680060.664 5                                 119184512.178 7  92871071.067 5                
G28  23289887.358 7                  23289892.176 7  23289894.552 8 122389181.828 7                  95368240.330 7  91394589.159 8
G31  22832288.063 7                  22832292.509 7                 119984481.466 7                  93494599.072 7
R02  23113356.891 6  23113360.390 6 123337295.101 6  95929023.771 6
R03  19514719.754 8  19514721.773 8 104463821.124 8  81249601.193 8
R04  20270007.256 8  20270010.542 7 108544960.430 8  84423871.700 7
R12  23643320.026 7  23643323.065 5 126298435.495 7  98232066.478 5
R18  20171579.893 8  20171582.137 7 107677259.836 8  83748826.654 7
R19  19743760.327 8  19743761.194 8 105615809.737 8  82145787.119 8
R20  23655401.901 5  23655408.767 7 126496050.105 5  98385858.012 7
> 2025 06 15 13 54 30.0000000  0 35
C05  39301194.702 5  39301190.148 7 204651652.332 5 158249605.006 7
C06  38694989.523 6  38694986.158 7 201494969.865 6 155808683.842 7
C09  39304547.806 6  39304545.207 7 204669100.008 6 158263130.008 7
C11  24470093.390 7  24470090.933 8 127422444.796 7  98530909.509 8
C12  22254523.479 7  22254520.658 8 115885145.834 7  89609700.873 8
C16  39194797.659 7  39194799.060 7 204097578.763 7 157821196.452 7
C19  25436644.684 6                 132455283.072 6
C21  23241817.512 8                 121026246.537 8
C22  21709044.984 8                 113044690.880 8
C34  22768234.634 7                 118560171.941 7
C35  26088888.455 6                 135851692.347 6
C39  38996775.922 6                 203066435.583 6
C44  22708149.640 8                 118247290.601 8
E03  25909660.159 7  25909664.535 8 136156187.796 7 103001288.400 8
E05  22196931.562 8  22196933.647 9 116645659.735 8  88241694.087 9
E06  27910004.866 5  27910008.238 5 146668057.165 5 110953398.835 5
E09  26078440.013 7  26078442.644 8 137043122.183 7 103672241.412 8
E15  25149411.223 7  25149415.121 9 132161049.716 7  99978989.958 9
E34  23457813.871 8  23457816.559 9 123271646.495 8  93254205.762 9
E36  26306771.564 8  26306776.439 8 138243014.063 8 104579958.541 8
G01  20610719.388 7                  20610722.760 8  20610724.386 9 108310052.672 7                  84397459.017 8  80880906.507 9
G02  22715665.848 7  22715667.947 6                                 119371617.736 7  93016644.685 6                
G03  20024566.509 8                  20024571.734 8  20024569.994 9 105229802.322 8                  81997309.561 8  78580785.172 9
G04  21939232.891 7                  21939237.987 7  21939238.850 8 115291449.868 7                  89837519.615 7  86094290.992 8
G17  22454451.690 6                  22454454.902 6                 117998880.202 6                  91947238.469 6
G19  22675192.177 6  22675194.530 5                                 119158938.489 6  92851143.493 5                
G28  23289874.334 7                  23289878.506 7  23289881.580 8 122389112.027 7                  95368185.920 7  91394537.059 8
G31  22826895.941 7                  22826900.651 7                 119956145.879 7                  93472519.450 7
R02  23124053.249 6  23124055.284 6 123394362.079 6  95973409.152 6
R03  19518079.413 8  19518082.012 8 104481806.393 8  81263589.743 8
R04  20263120.460 8  20263122.945 8 108508081.072 8  84395187.771 8
R12  23637284.327 6  23637287.683 5 126266193.831 6  98206989.581 5
R18  20179092.942 8  20179094.720 7 107717365.336 8  83780019.796 7
R19  19739287.287 8  19739287.812 8 105591881.575 8  82127176.331 8
R20  23643228.494 5  23643236.348 7 126430958.443 5  98335231.275 7
> 2025 06 15 13 54 45.0000000  0 35
C05  39301014.964 5  39301011.980 7 204650724.038 5 158248887.188 7
C06  38692509.560 7  38692505.489 7 201482053.077 7 155798695.749 7
C09  39300763.646 6  39300761.259 7 204649396.521 6 158247894.029 7
C11  24462924.899 7  24462922.058 8 127385113.492 7  98502042.633 8
C12  22256135.246 7  22256132.369 8 115893538.081 7  89616190.281 8
C16  39192791.815 7  39192793.240 7 204087136.004 7 157813121.419 7
C19  25444871.028 6                 132498125.172 6
C21  23235602.304 8                 120993882.646 8
C22  21711186.752 8                 113055844.239 8
C34  22765167.399 7                 118544199.965 7
C35  26098833.272 6                 135903474.733 6
C39  38996121.365 6                 203063026.933 6
C44  22714442.101 7                 118280057.827 7
E03  25901445.685 7  25901448.995 8 136113015.350 7 102968628.773 8
E05  22195362.099 8  22195364.312 9 116637412.933 8  88235455.443 9
E06  27917904.434 5  27917908.912 5 146709568.609 5 110984801.836 5
E09  26084616.370 7  26084619.337 8 137075581.048 7 103696796.335 8
E15  25143141.206 7  25143145.182 9 132128100.883 7  99954064.407 9
E34  23458875.010 8  23458877.565 9 123277222.202 8  93258423.749 9
E36  26313999.279 8  26314004.559 8 138280998.094 8 104608693.181 8
G01  20614649.880 7                  20614653.133 8  20614654.782 9 108330706.604 7                  84413552.979 8  80896329.888 9
G02  22723375.163 7  22723377.462 6                                 119412131.896 7  93048214.115 6                
G03  20023582.791 8                  20023588.522 8  20023586.658 9 105224635.024 8                  81993283.090 8  78576926.474 9
G04  21930621.141 7                  21930626.120 7  21930627.197 8 115246194.942 7                  89802256.033 7  86060496.743 8
G17  22455318.729 7                  22455321.834 6                 118003436.768 7                  91950789.017 6
G19  22670351.963 7  22670353.799 5                                 119133501.350 7  92831322.339 5                
G28  23289887.849 7                  23289891.712 7  23289895.568 8 122389183.173 7                  95368241.372 7  91394590.201 8
G31  22821526.905 7                  22821532.154 7                 119927933.700 7                  93450535.936 7
R02  23134745.541 5  23134750.486 6 123451436.955 5  96017800.771 6
R03  19521462.638 8  19521464.942 7 104499916.685 8  81277675.502 7
R04  20256255.395 8  20256257.842 7 108471318.749 8  84366594.857 7
R12  23631275.593 6  23631280.806 5 126234094.753 6  98182023.783 5
R18  20186633.292 8  20186634.980 7 107757612.903 8  83811323.408 7
R19  19734845.116 8  19734845.198 7 105568118.371 8  82108693.816 7
R20  23631060.488 5  23631067.538 7 126365888.642 5  98284621.497 7
> 2025 06 15 13 55  0.0000000  0 34
C05  39300835.329 5  39300831.721 7 204649786.637 5 158248162.334 7
C06  38690035.239 7  38690031.109 7 201469167.419 7 155788731.758 7
C09  39296983.518 6  39296982.098 7 204629716.308 6 158232676.063 7
C11  24455768.602 7  24455766.728 8 127347852.804 7  98473230.330 8
C12  22257769.268 7  22257766.324 8 115902046.738 7  89622769.698 8
C16  39190792.550 7  39190793.863 6 204076724.329 7 157805070.474 6
C19  25453101.417 6                 132540974.626 6
C21  23229398.959 8                 120961579.142 8
C22  21713343.051 8                 113067072.286 8
C34  22762121.155 7                 118528337.289 7
C35  26108777.478 6                 135955256.984 6
C39  38995473.100 6                 203059651.207 6
C44  22720750.769 8                 118312909.124 8
E03  25893237.352 8  25893240.560 8 136069881.049 8 102935997.985 8
E05  22193809.537 8  22193811.859 9 116629254.821 8  88229283.886 9
E09  26090802.187 7  26090805.147 8 137108088.229 7 103721387.778 8
E15  25136877.470 7  25136881.795 8 132095186.616 7  99929165.001 8
E34  23459949.897 8  23459952.364 9 123282870.399 8  93262696.566 9
E36  26321234.017 8  26321239.002 8 138319015.013 8 104637452.677 8
G01  20618600.924 7                  20618603.872 8  20618605.342 8 108351468.656 7                  84429731.172 8  80911833.988 8
G02  22731095.914 7  22731098.391 6                                 119452704.469 7  93079829.066 6                
G03  20022616.588 8                  20022622.200 8  20022620.443 9 105219557.553 8                  81989326.611 8  78573134.839 9
G04  21922023.953 7                  21922028.907 7  21922029.433 8 115201015.265 7                  89767051.147 7  86026758.711 8
G17  22456208.885 7                  22456212.724 6                 118008119.986 7                  91954438.311 6
G19  22665537.001 7  22665538.577 5                                 119108199.829 7  92811606.924 5                
G28  23289927.887 7                  23289932.586 7  23289935.656 8 122389394.275 7                  95368405.862 7  91394747.794 8
G31  22816181.947 7                  22816186.981 7                 119899844.116 7                  93428648.026 7
R02  23145444.817 7  23145448.173 6 123508519.005 7  96062197.873 6
R03  19524869.016 8  19524871.515 8 104518150.958 8  81291857.713 8
R04  20249412.153 8  20249414.106 7 108434672.454 8  84338092.209 7
R12  23625293.060 6  23625297.614 6 126202137.759 6  98157168.368 6
R18  20194199.088 8  20194201.402 7 107798000.968 8  83842736.356 7
R19  19730433.610 8  19730433.693 7 105544519.327 8  82090339.010 7
R20  23618895.894 5  23618902.570 7 126300839.508 5  98234027.827 7
> 2025 06 15 13 55 15.0000000  0 35
C05  39300654.843 5  39300650.596 7 204648842.606 5 158247432.392 7
C06  38687566.835 6  38687562.713 7 201456315.458 6 155778793.807 7
C09  39293209.267 6  39293207.194 7 204610061.860 6 158217478.009 7
C11  24448627.345 7  24448624.989 8 127310665.429 7  98444474.701 8
C12  22259426.144 7  22259423.325 8 115910674.158 7  89629440.968 8
C16  39188799.338 7  39188801.206 7 204066346.287 7 157797045.518 7
C19  25461332.292 5                 132583833.691 5
C21  23223207.715 8                 120929338.567 8
C22  21715514.056 8                 113078377.401 8
C34  22759095.988 7                 118512586.647 7
C35  26118723.895 6                 136007041.270 6
C39  38994831.455 6                 203056310.887 6
C44  22727076.331 8                 118345846.808 8
E03  25885036.226 7  25885040.105 8 136026787.495 7 102903398.051 8
E05  22192274.530 8  22192276.791 9 116621187.893 8  88223181.314 9
E06                  27933716.950 5                 111047642.53415
E09  26096997.776 7  26097000.685 8 137140646.023 7 103746017.520 8
E15  25130621.610 7  25130625.526 9 132062309.592 7  99904293.765 9
E34  23461038.837 8  23461041.467 9 123288593.643 8  93267026.156 9
E36  26328474.810 8  26328480.183 8 138357067.193 8 104666238.865 8
G01  20622572.646 7                  20622575.728 8  20622577.508 9 108372341.224 7                  84445995.515 8  80927420.641 9
G02  22738828.024 7  22738831.171 5                                 119493337.847 7  93111491.398 5                
G03  20021668.045 8                  20021673.594 7  20021671.729 9 105214572.393 8                  81985442.067 7  78569412.158 9
G04  21913440.839 7                  21913446.180 7  21913447.056 8 115155913.607 7                  89731907.021 7  85993078.943 8
G17  22457125.392 6                  22457128.176 6                 118012932.363 6                  91958188.215 6
G19  22660747.986 7  22660749.661 5                                 119083036.872 7  92791999.447 5                
G28  23289995.394 7                  23289999.769 7  23290002.852 8 122389747.753 7                  95368681.289 7  91395011.759 8
G31  22810860.704 7                  22810865.289 7                 119871880.138 7                  93406857.901 7
R02  23156143.775 7  23156147.343 6 123565610.319 7  96106602.038 6
R03  19528298.826 8  19528301.040 8 104536511.081 8  81306137.826 8
R04  20242590.749 8  20242593.251 8 108398144.854 8  84309681.895 8
R12  23619337.514 6  23619340.688 5 126170325.637 6  98132425.646 5
R18  20201791.898 8  20201794.124 7 107838531.947 8  83874260.407 7
R19  19726053.414 8  19726053.559 7 105521087.479 8  82072114.269 7
R20  23606735.720 5  23606742.322 7 126235814.384 5  98183452.813 7
> 2025 06 15 13 55 30.0000000  0 35
C05  39300472.166 5  39300468.034 7 204647891.526 5 158246696.974 7
C06  38685105.474 6  38685101.094 7 201443496.639 6 155768881.509 7
C09  39289439.548 6  39289438.080 7 204590432.758 6 158202299.554 7
C11  24441499.833 7  24441498.057 8 127273551.132 7  98415775.549 8
C12  22261105.880 7  22261102.895 8 115919419.891 7  89636203.713 8
C16  39186812.489 7  39186814.541 7 204056001.383 7 157789046.195 7
C19  25469567.918 5                 132626701.793 5
C21  23217027.905 8                 120897160.509 8
C22  21717699.870 8                 113089758.979 8
C34  22756092.795 7                 118496947.587 7
C35  26128668.182 6                 136058827.077 6
C39  38994197.102 6                 203053005.487 6
C44  22733418.320 8                 118378870.190 8
E03  25876843.468 8  25876847.376 8 135983734.429 8 102870828.707 8
E05  22190756.840 8  22190758.965 9 116613211.641 8  88217147.346 9
E06                  27941624.583 5                 111079081.46015
E09  26103202.605 7  26103205.730 8 137173253.769 7 103770685.027 8
E15  25124372.582 7  25124376.364 9 132029469.493 7  99879450.441 9
E34  23462142.128 8  23462144.775 9 123294391.472 8  93271412.183 9
E36  26335722.553 8  26335727.647 8 138395154.096 8 104695051.338 8
G01  20626565.413 7                  20626568.643 8  20626570.744 9 108393323.770 7                  84462345.547 8  80943089.422 9
G02  22746571.685 7  22746574.715 6                                 119534031.385 7  93143200.590 6                
G03  20020737.028 8                  20020742.383 8  20020740.665 9 105209679.042 8                  81981629.074 8  78565758.033 9
G04  21904873.485 7                  21904878.426 7  21904879.295 8 115110889.684 7                  89696823.500 7  85959457.211 8
G17  22458065.677 6                  22458069.250 6                 118017873.311 6                  91962038.332 6
G19  22655986.352 7  22655987.509 5                                 119058012.102 7  92772499.648 5                
G28  23290089.615 7                  23290094.221 7  23290096.930 8 122390243.136 7                  95369067.318 7  91395381.708 8
G31  22805562.800 7                  22805567.131 7                 119844041.229 7                  93385165.290 7
R02  23166843.123 7  23166847.280 5 123622709.929 7  96151012.728 5
R03  19531751.915 8  19531754.334 8 104554996.573 8  81320515.410 8
R04  20235791.337 8  20235794.503 7 108361735.362 8  84281363.432 7
R12  23613407.649 6  23613413.966 5 126138658.462 6  98107795.665 5
R18  20209411.288 8  20209413.797 7 107879204.973 8  83905894.960 7
R19  19721704.076 8  19721704.536 8 105497822.542 8  82054019.325 8
R20  23594579.976 6  23594586.771 7 126170813.414 6  98132896.593 7
> 2025 06 15 13 55 45.0000000  0 34
C05  39300289.139 5  39300285.242 7 204646940.365 5 158245961.482 7
C06  38682651.493 6  38682647.031 7 201430718.156 6 155759000.391 7
C09  39285676.268 6  39285674.697 7 204570836.166 6 158187146.225 7
C11  24434388.150 7  24434386.117 8 127236517.307 7  98387138.684 8
C12  22262809.563 7  22262806.316 8 115928291.049 7  89643063.438 8
C16  39184833.569 7  39184836.141 7 204045696.712 7 157781077.988 7
C21  23210862.005 8                 120865052.110 8
C22  21719901.506 8                 113101224.005 8
C34  22753112.498 7                 118481427.417 7
C35  26138614.265 6                 136110621.140 6
C39  38993569.929 6                 203049742.117 6
C44  22739777.780 8                 118411986.179 8
E03  25868659.807 7  25868663.848 8 135940729.122 7 102838295.502 8
E05  22189257.519 8  22189259.689 9 116605333.230 8  88211187.375 9
E06                  27949537.519 5                 111110537.89315
E09  26109418.541 7  26109421.728 8 137205918.359 7 103795395.577 8
E15  25118131.975 7  25118135.505 9 131996673.611 7  99854640.593 9
E34  23463261.279 8  23463263.623 9 123300271.134 8  93275860.115 9
E36  26342978.318 8  26342983.337 8 138433282.782 8 104723895.421 8
G01  20630580.928 7                  20630583.772 8  20630585.730 9 108414423.432 7                  84478786.826 8  80958845.643 9
G02  22754328.226 7  22754330.920 6                                 119574791.999 7  93174962.104 6                
G03  20019824.603 7                  20019829.868 8  20019828.421 9 105204884.707 7                  81977893.215 8  78562177.853 9
G04  21896321.900 7                  21896327.055 7  21896327.844 8 115065950.927 7                  89661806.298 7  85925899.080 8
G17  22459031.356 6                  22459034.966 6                 118022949.753 6                  91965993.992 6
G19  22651252.095 7  22651253.854 5                                 119033132.961 7  92753113.304 5                
G28  23290212.460 7                  23290216.184 7  23290219.441 8 122390887.705 7                  95369569.613 7  91395863.051 8
G31  22800290.810 7                  22800295.119 7                 119816334.928 7                  93363575.938 7
R02  23177547.537 6  23177550.354 6 123679824.938 6  96195435.368 6
R03  19535229.915 8  19535232.109 7 104573614.788 8  81334996.249 7
R04  20229016.002 8  20229018.740 8 108325451.657 8  84253142.780 8
R12  23607507.595 6  23607513.720 5 126107143.977 6  98083284.218 5
R18  20217058.765 8  20217060.860 7 107920027.099 8  83937645.472 7
R19  19717387.658 8  19717387.659 7 105474732.365 8  82036060.311 7
R20  23582430.403 6  23582437.485 7 126105843.354 6  98082364.376 7
> 2025 06 15 13 56  0.0000000  0 34
C05  39300106.101 5  39300102.466 7 204645987.891 5 158245224.982 7
C06  38680205.489 6  38680200.489 7 201417978.686 6 155749149.432 7
C09  39281919.097 6  39281917.123 7 204551270.698 6 158172016.973 7
C11  24427291.089 7  24427288.842 7 127199562.797 7  98358563.130 7
C12  22264536.692 7  22264533.560 8 115937286.245 7  89650019.089 8
C16  39182862.268 7  39182864.324 7 204035430.896 7 157773139.807 7
C21  23204708.804 8                 120833012.085 8
C22  21722118.732 8                 113112770.905 8
C34  22750154.524 7                 118466024.839 7
C35  26148562.261 6                 136162421.905 6
C39  38992950.897 7                 203046519.344 7
C44  22746154.796 8                 118445193.221 8
E03  25860485.034 7  25860489.111 8 135897770.357 7 102805797.497 8
E05  22187776.462 8  22187778.813 9 116597551.210 8  88205300.331 9
E06                  27957453.112 5                 111142010.57615
E09  26115645.396 7  26115648.143 8 137238638.282 7 103820147.976 8
E15  25111899.636 7  25111902.879 9 131963920.768 7  99829863.287 9
E34  23464395.358 8  23464397.833 9 123306231.292 8  93280368.927 9
E36  26350241.936 8  26350246.698 8 138471451.835 8 104752770.035 8
G01  20634617.744 8                  20634620.991 8  20634622.716 9 108435638.681 8                  84495318.183 8  80974688.193 9
G02  22762097.544 7  22762099.615 6                                 119615618.152 7  93206774.664 6                
G03  20018930.858 7                  20018936.442 8  20018934.663 9 105200187.967 7                  81974233.441 8  78558670.555 9
G04  21887786.130 7                  21887791.490 7  21887792.163 8 115021096.177 7                  89626854.585 7  85892403.664 8
G17  22460022.481 6                  22460027.391 6                 118028160.283 6                  91970054.158 6
G19  22646545.112 7  22646547.105 5                                 119008398.215 7  92733839.478 5                
G28  23290363.392 7                  23290367.082 7  23290370.134 8 122391680.037 7                  95370187.067 7  91396454.738 8
G31  22795043.184 7                  22795047.687 7                 119788760.113 7                  93342089.097 7
R02  23188252.675 5  23188256.796 6 123736953.439 5  96239868.613 6
R03  19538732.325 8  19538734.731 8 104592363.426 8  81349578.524 8
R04  20222263.440 8  20222266.246 8 108289292.535 8  84225019.046 8
R12  23601639.703 6  23601642.407 5 126075780.972 6  98058891.003 5
R18  20224733.469 8  20224735.777 7 107960996.486 8  83969510.521 7
R19  19713103.395 8  19713103.746 7 105451815.743 8  82018236.265 7
R20  23570286.557 5  23570293.879 7 126040904.206 5  98031856.209 7
> 2025 06 15 13 56 15.0000000  0 33
C05  39299924.445 5  39299920.469 7 204645040.007 5 158244492.000 7
C06  38677767.268 6  38677762.875 7 201405284.061 6 155739333.164 7
C09  39278169.156 6  39278167.104 7 204531742.304 6 158156916.384 7
C11  24420210.750 7  24420208.876 8 127162693.898 7  98330053.752 8
C12  22266289.127 7  22266286.084 8 115946411.310 7  89657075.179 8
C16  39180899.961 7  39180901.498 7 204025209.963 7 157765236.353 7
C21  23198570.498 8                 120801046.443 8
C22  21724353.426 8                 113124405.629 8
C34  22747220.120 7                 118450746.049 7
C35  26158512.474 6                 136214235.116 6
C39  38992341.065 7                 203043343.138 7
C44  22752550.856 8                 118478497.106 8
E03  25852319.476 7  25852324.481 8 135854864.288 7 102773339.359 8
E05  22186315.144 8  22186317.450 9 116589871.643 8  88199490.797 9
E09  26121883.419 7  26121886.156 8 137271419.396 7 103844946.668 8
E15  25105676.282 7  25105679.546 9 131931217.147 7  99805123.231 9
E34  23465545.981 8  23465548.509 9 123312278.020 8  93284943.232 9
E36  26357513.671 7  26357519.127 8 138509667.193 7 104781679.669 8
G01  20638678.092 7                  20638681.232 8  20638683.113 9 108456975.546 7                  84511944.318 8  80990621.573 9
G02  22769880.326 7  22769881.795 5                                 119656515.712 7  93238642.895 5                
G03  20018056.707 8                  20018062.386 8  20018060.316 9 105195594.889 8                  81970654.424 8  78555240.655 9
G04  21879267.876 7                  21879273.038 7  21879273.544 8 114976331.673 7                  89591973.206 7  85858975.664 8
G17  22461041.157 6                  22461045.114 7                 118033510.836 6                  91974223.452 7
G19  22641866.881 7  22641868.996 5                                 118983814.151 7  92714683.050 5                
G28  23290543.435 6                  23290547.531 7  23290550.203 8 122392626.252 6                  95370924.313 7  91397161.276 8
G31  22789822.021 7                  22789826.631 7                 119761323.330 7                  93320709.775 7
R02  23198960.815 6  23198967.115 6 123794101.379 6  96284317.169 6
R03  19542260.313 8  19542262.551 7 104611248.604 8  81364266.980 7
R04  20215534.706 8  20215537.639 7 108253263.947 8  84196996.813 7
R12  23595796.936 6  23595802.586 6 126044576.141 6  98034620.542 6
R18  20232437.206 8  20232439.201 7 108002119.139 8  84001494.774 7
R19  19708853.041 8  19708853.881 7 105429078.920 8  82000552.088 7
R20  23558149.149 5  23558156.444 7 125976002.120 5  97981376.856 7
> 2025 06 15 13 56 30.0000000  0 33
C05  39299741.761 5  39299738.355 7 204644090.842 5 158243758.073 7
C06  38675336.611 6  38675332.448 7 201392628.460 6 155729547.063 7
C09  39274424.512 6  39274423.567 7 204512245.116 6 158141839.943 7
C11  24413145.916 7  24413143.735 8 127125904.845 7  98301606.176 8
C12  22268065.243 7  22268062.300 8 115955660.377 7  89664227.141 8
C16  39178944.734 7  39178946.581 7 204015027.893 7 157757362.947 7
C21  23192445.096 8                 120769149.335 8
C22  21726603.615 8                 113136122.060 8
C34  22744308.891 7                 118435585.175 7
C35  26168464.055 6                 136266054.591 6
C39  38991738.878 7                 203040207.515 7
C44  22758963.924 8                 118511891.635 8
E03  25844163.843 7  25844168.669 8 135812005.041 7 102740916.681 8
E05  22184872.052 8  22184874.429 9 116582288.515 8  88193754.211 9
E09  26128131.454 7  26128134.607 8 137304255.467 7 103869786.917 8
E15  25099461.040 7  25099464.526 9 131898556.900 7  99780415.978 9
E34  23466712.038 8  23466714.533 9 123318405.364 8  93289578.520 9
E36  26364793.884 7  26364799.092 8 138547922.755 7 104810619.729 8
G01  20642760.084 7                  20642763.521 8  20642765.381 9 108478427.954 7                  84528660.479 8  81006641.209 9
G02  22777675.208 7  22777677.475 6                                 119697478.549 7  93270561.926 6                
G03  20017201.251 7                  20017206.775 8  20017204.974 9 105191099.436 7                  81967151.479 8  78551883.680 9
G04  21870765.393 7                  21870770.955 8  21870771.316 8 114931651.642 7                  89557157.603 8  85825610.728 8
G17  22462084.908 6                  22462088.763 7                 118038995.536 6                  91978497.215 7
G19  22637217.035 7  22637218.790 5                                 118959375.020 7  92695639.570 5                
G28  23290751.313 7                  23290755.754 7  23290758.154 8 122393720.297 7                  95371776.759 7  91397978.211 8
G31  22784626.321 7                  22784631.603 7                 119734018.757 7                  93299433.520 7
R02  23209675.394 7  23209677.797 6 123851262.630 7  96328775.925 6
R03  19545812.694 8  19545814.990 7 104630263.856 8  81379056.634 7
R04  20208830.638 8  20208832.978 8 108217360.283 8  84169071.778 8
R12  23589984.636 6  23589989.631 6 126013523.576 6  98010468.590 6
R18  20240168.721 8  20240170.513 7 108043388.449 8  84033593.094 7
R19  19704635.487 8  19704635.684 8 105406516.470 8  81983003.506 8
R20  23546017.829 6  23546025.437 7 125911131.545 6  97930922.065 7
> 2025 06 15 13 56 45.0000000  0 34
C05  39299560.028 5  39299555.771 7 204643141.049 5 158243023.606 7
C06  38672914.238 6  38672909.620 7 201380012.534 6 155719791.651 7
C09  39270686.632 6  39270685.275 7 204492779.898 6 158126788.237 7
C11  24406096.092 7  24406094.163 8 127089196.556 7  98273221.035 8
C12  22269864.992 7  22269862.593 8 115965034.015 7  89671475.418 8
C16  39176996.969 7  39176998.618 7 204004885.407 7 157749520.126 7
C19  25510772.334 5                 132841405.82015
C21  23186332.555 8                 120737321.440 8
C22  21728869.170 8                 113147920.699 8
C34  22741420.123 8                 118420543.049 8
C35  26178416.781 6                 136317880.721 6
C39  38991144.866 7                 203037113.159 7
C44  22765394.534 8                 118545377.265 8
E03  25836017.538 7  25836021.677 8 135769193.497 7 102708530.057 8
E05  22183447.791 8  22183449.870 9 116574802.414 8  88188091.049 9
E09  26134390.506 7  26134393.645 8 137337147.005 7 103894669.127 8
E15  25093254.167 7  25093257.899 9 131865940.876 7  99755742.185 9
E34  23467893.462 8  23467896.003 9 123324614.036 8  93294275.336 9
E36  26372081.474 7  26372086.764 8 138586219.093 7 104839590.614 8
G01  20646864.576 7                  20646867.908 8  20646869.800 9 108499996.465 7                  84545467.098 8  81022747.556 9
G02  22785482.896 7  22785485.070 5                                 119738507.114 7  93302532.212 5                
G03  20016364.801 7                  20016370.286 8  20016368.583 9 105186702.299 7                  81963725.140 8  78548600.094 9
G04  21862279.236 7                  21862284.495 7  21862285.475 8 114887056.997 7                  89522408.538 7  85792309.542 8
G17  22463153.981 6                  22463157.944 7                 118044614.989 6                  91982875.937 7
G19  22632593.755 7  22632595.732 5                                 118935081.696 7  92676709.718 5                
G28  23290987.646 7                  23290992.330 7  23290993.874 8 122394962.771 7                  95372744.953 7  91398906.079 8
G31  22779455.887 7                  22779460.832 7                 119706847.451 7                  93278261.066 7
R02  23220388.658 7  23220393.002 5 123908437.497 7  96373245.118 5
R03  19549388.910 8  19549391.124 8 104649409.671 8  81393947.808 8
R04  20202149.322 8  20202152.109 7 108181582.013 8  84141244.242 7
R12  23584200.046 7  23584202.905 6 125982624.628 7  97986436.093 6
R18  20247927.267 8  20247929.444 7 108084804.886 8  84065805.854 7
R19  19700450.016 8  19700450.419 7 105384129.197 8  81965591.193 7
R20  23533892.620 5  23533899.998 7 125846293.649 5  97880492.577 7
> 2025 06 15 13 57  0.0000000  0 34
C05  39299377.057 5  39299373.416 7 204642191.646 5 158242289.463 7
C06  38670499.275 6  38670494.719 7 201367437.469 6 155710067.815 7
C09  39266954.811 6  39266953.268 7 204473347.773 6 158111762.096 7
C11  24399062.948 7  24399060.237 8 127052570.522 7  98244899.493 8
C12  22271689.202 7  22271686.834 8 115974533.360 7  89678820.912 8
C16  39175056.360 7  39175058.545 7 203994783.688 7 157741708.856 7
C19  25519021.604 5                 132884369.620 5
C21  23180234.043 8                 120705564.035 8
C22  21731150.819 8                 113159802.621 8
C34  22738554.469 7                 118405620.921 7
C35  26188370.999 6                 136369714.501 6
C39  38990558.653 7                 203034061.206 7
C44  22771842.735 8                 118578954.982 8
E03  25827879.779 7  25827884.110 8 135726430.926 7 102676180.499 8
E05  22182042.049 8  22182044.012 9 116567414.528 8  88182502.171 9
E09  26140660.594 7  26140663.442 8 137370094.940 7 103919594.017 8
E15  25087055.988 7  25087059.907 9 131833370.375 7  99731102.839 9
E34  23469090.462 8  23469093.183 9 123330905.257 8  93299034.606 9
E36  26379377.258 7  26379382.272 8 138624557.341 7 104868593.207 8
G01  20650991.697 7                  20650994.512 8  20650996.391 9 108521682.211 7                  84562365.045 8  81038941.431 9
G02  22793302.750 7  22793305.216 6                                 119779602.571 7  93334554.595 6                
G03  20015546.633 8                  20015552.098 8  20015550.465 9 105182404.605 8                  81960376.301 8  78545390.789 9
G04  21853809.574 7                  21853814.886 7  21853816.048 8 114842549.114 7                  89487727.096 7  85759073.171 8
G17  22464249.764 6                  22464252.872 6                 118050370.208 6                  91987360.510 6
G19  22627998.757 7  22628000.262 5                                 118910935.561 7  92657894.534 5                
G28  23291252.808 7                  23291256.955 7  23291258.548 8 122396354.976 7                  95373829.797 7  91399945.729 8
G31  22774311.052 7                  22774316.051 7                 119679810.873 7                  93257193.634 7
R02  23231106.156 6                 123965626.657 6
R03  19552990.490 8  19552992.960 7 104668686.865 8  81408941.174 7
R04  20195491.785 8  20195494.058 8 108145930.618 8  84113515.420 8
R12  23578443.652 6  23578444.834 5 125951880.683 6  97962524.20915
R18  20255713.848 8  20255715.895 7 108126369.432 8  84098133.815 7
R19  19696298.298 8  19696298.700 8 105361918.636 8  81948316.306 8
R20  23521774.317 5  23521782.423 7 125781489.966 5  97830089.780 7
> 2025 06 15 13 57 15.0000000  0 33
C05  39299195.184 5  39299191.105 7 204641242.27115 158241555.34117
C06  38668092.048 7  38668087.749 7 201354902.732 7 155700375.159 7
C09  39263229.172 7  39263227.805 7 204453948.248 7 158096761.167 7
C11  24392044.788 7  24392042.375 8 127016026.385 7  98216641.281 8
C12  22273537.529 7  22273535.207 8 115984157.840 7  89686263.169 8
C16  39173124.432 7  39173126.592 7 203984722.124 7 157733928.644 7
C21  23174148.912 8                 120673876.591 8
C22  21733448.684 8                 113171767.149 8
C34  22735711.842 7                 118390818.450 7
C35  26198326.780 6                 136421555.158 6
C39  38989980.963 7                 203031051.065 7
C44  22778308.497 8                 118612624.026 8
E03  25819751.523 7  25819755.959 8 135683716.939 7 102643867.660 8
E05  22180654.441 8  22180656.735 9 116560124.285 8  88176987.159 9
E09  26146941.075 7  26146943.809 8 137403098.555 7 103944561.021 8
E15  25080867.114 8  25080870.509 9 131800845.036 8  99706497.663 9
E34  23470303.524 8  23470306.000 9 123337278.543 8  93303855.947 9
E36  26386679.407 7  26386685.574 8 138662936.841 7 104897627.005 8
G01  20655140.159 7                  20655143.192 8  20655145.478 9 108543484.536 7                  84579353.867 8  81055222.388 9
G02  22801135.509 7  22801139.103 6                                 119820763.998 7  93366628.412 6                
G03  20014747.941 8                  20014753.196 8  20014751.385 9 105178205.849 8                  81957104.546 8  78542255.364 9
G04  21845356.525 7                  21845361.682 7  21845362.633 8 114798127.671 7                  89453113.021 7  85725901.353 8
G17  22465370.774 6                  22465373.942 7                 118056260.458 6                  91991950.306 7
G19  22623431.679 7  22623432.630 5                                 118886936.181 7  92639193.787 5                
G28  23291546.343 6                  23291550.418 7  23291552.091 8 122397896.360 6                  95375030.871 7  91401096.763 8
G31  22769191.968 7                  22769196.333 7                 119652908.794 7                  93236231.001 7
R02  23241825.730 6                 124022829.442 6
R03  19556615.393 8  19556618.147 7 104688094.812 8  81424036.253 7
R04  20188857.329 8  20188859.542 7 108110405.585 8  84085884.848 7
R12  23572716.686 6  23572721.502 5 125921291.803 6  97938732.802 5
R18  20263527.832 8  20263530.145 8 108168081.096 8  84130576.188 8
R19  19692179.286 8  19692179.554 8 105339884.739 8  81931178.830 8
R20  23509661.795 5  23509669.255 7 125716720.079 5  97779713.214 7
> 2025 06 15 13 57 30.0000000  0 34
C05  39299013.609 5  39299009.379 7 204640296.965 5 158240824.362 7
C06  38665693.737 7  38665688.985 7 201342412.431 7 155690716.866 7
C09  39259511.062 7  39259509.569 7 204434585.483 7 158081788.647 7
C11  24385043.101 7  24385041.358 8 126979568.593 7  98188449.829 8
C12  22275410.826 7  22275407.764 8 115993911.529 7  89693805.319 8
C16  39171200.603 7  39171202.666 7 203974704.896 7 157726182.701 7
C19  25535531.811 5                 132970343.45715
C21  23168077.609 8                 120642263.311 8
C22  21735762.931 8                 113183818.243 8
C34  22732893.218 8                 118376139.875 8
C35  26208284.319 6                 136473406.471 6
C39  38989411.475 7                 203028086.857 7
C44  22784792.781 8                 118646388.296 8
E03  25811633.625 7  25811637.845 8 135641055.825 7 102611594.878 8
E05  22179286.335 8  22179288.821 9 116552935.826 8  88171549.152 9
E09  26153232.840 7  26153235.556 8 137436161.798 7 103969573.142 8
E15  25074686.918 7  25074690.505 9 131768369.200 7  99681929.920 9
E34  23471532.972 8  23471535.205 9 123343738.063 8  93308742.530 9
E36  26393990.941 6  26393997.400 8 138701361.755 6 104926695.092 8
G01  20659311.869 7                  20659314.889 8  20659316.890 8 108565407.553 7                  84596436.716 8  81071593.438 8
G02  22808981.752 7  22808985.032 6                                 119861995.421 7  93398756.755 6                
G03  20013968.378 8                  20013973.797 8  20013972.080 9 105174110.164 8                  81953913.102 8  78539196.897 9
G04  21836920.910 7                  21836925.308 7  21836927.099 8 114753797.068 7                  89418569.722 7  85692797.368 8
G17  22466517.704 7                  22466521.026 7                 118062290.036 7                  91996648.702 7
G19  22618893.403 7  22618894.199 5                                 118863088.076 7  92620610.855 5                
G28  23291868.716 7                  23291873.343 7  23291874.993 8 122399591.057 7                  95376351.370 7  91402362.276 8
G31  22764098.356 7                  22764103.376 7                 119626145.586 7                  93215376.610 7
R02  23252546.260 4  23252557.705 5 124080049.41914  96506794.56115
R03  19560266.462 8  19560268.562 7 104707637.428 8  81439236.046 7
R04  20182247.731 8  20182250.065 7 108075011.319 8  84058355.992 7
R12  23567019.605 6  23567022.191 4 125890862.276 6  97915065.570 4
R18  20271370.387 8  20271372.407 7 108209943.807 8  84163136.063 7
R19  19688094.015 8  19688094.502 7 105318031.713 8  81914182.063 7
R20  23497556.175 5  23497563.749 7 125651988.726 5  97729366.661 7
> 2025 06 15 13 57 45.0000000  0 33
C05  39298832.605 5  39298828.405 7 204639353.454 5 158240094.807 7
C06  38663302.894 6  38663298.463 7 201329964.311 6 155681091.191 7
C09  39255798.410 7  39255797.517 7 204415257.249 7 158066842.820 7
C11  24378058.301 7  24378056.228 8 126943195.116 7  98160323.573 8
C12  22277308.397 7  22277305.103 8 116003792.111 7  89701445.617 8
C16  39169284.861 7  39169287.061 7 203964729.691 7 157718469.259 7
C19  25543792.927 5                 133013358.083 5
C21  23162020.293 7                 120610721.965 7
C22  21738093.450 8                 113195953.543 8
C34  22730097.465 8                 118361583.000 8
C39  38988850.694 7                 203025166.273 7
C44  22791294.711 8                 118680245.348 8
E03  25803524.883 7  25803529.242 8 135598445.497 7 102579360.462 8
E05  22177937.806 8  22177939.806 9 116545846.835 8  88166186.369 9
E09  26159535.337 7  26159538.211 8 137469282.218 7 103994628.498 8
E15  25068516.303 8  25068519.605 9 131735940.718 8  99657397.998 9
E34  23472778.247 8  23472780.370 9 123350281.618 8  93313692.684 9
E36  26401312.602 7  26401317.591 8 138739829.585 7 104955795.719 8
G01  20663506.703 7                  20663509.623 8  20663511.532 8 108587448.848 7                  84613611.757 8  81088052.857 8
G02  22816840.574 7  22816843.934 6                                 119903294.469 7  93430937.772 6                
G03  20013208.027 8                  20013213.660 8  20013212.051 9 105170115.232 8                  81950800.180 8  78536213.675 9
G04  21828501.983 7                  21828506.584 7  21828508.377 8 114709555.225 7                  89384095.590 7  85659759.666 8
G17  22467691.246 6                  22467694.494 7                 118068456.427 6                  92001453.696 7
G19  22614383.863 7  22614384.612 5                                 118839388.891 7  92602143.985 5                
G28  23292219.611 7                  23292224.357 7  23292226.935 8 122401436.749 7                  95377789.581 7  91403740.550 8
G31  22759031.643 7                  22759036.087 7                 119599519.375 7                  93194628.927 7
R02  23263271.862 5  23263280.274 5 124137295.71215  96551310.724 5
R03  19563942.033 8  19563944.312 7 104727311.793 8  81454538.327 7
R04  20175662.484 8  20175664.646 7 108039745.657 8  84030927.140 7
R12  23561353.446 5  23561357.066 5 125860590.411 5  97891520.80115
R18  20279240.178 8  20279242.325 7 108251954.954 8  84195811.376 7
R19  19684042.464 8  19684042.336 7 105296357.767 8  81897324.561 7
R20  23485458.172 6  23485465.667 7 125587293.976 6  97679048.548 7
> 2025 06 15 13 58  0.0000000  0 33
C05  39298651.315 5  39298646.998 7 204638408.24815 158239363.91317
C06  38660919.938 6  38660915.370 7 201317554.860 6 155671495.431 7
C09  39252093.649 6  39252091.697 7 204395960.012 6 158051920.988 7
C11  24371088.604 7  24371086.703 8 126906902.604 7  98132259.933 8
C12  22279229.599 7  22279226.377 8 116013796.070 7  89709181.320 8
C16  39167377.123 7  39167378.777 7 203954793.079 7 157710785.642 7
C19  25552056.847 5                 133056385.719 5
C21  23155976.326 7                 120579249.116 7
C22  21740439.423 8                 113208169.351 8
C34  22727324.562 7                 118347144.495 7
C39  38988297.385 7                 203022285.862 7
C44  22797813.749 8                 118714191.443 8
E03  25795425.912 8  25795429.807 8 135555882.529 8 102547161.874 8
E05  22176606.820 8  22176609.014 9 116538853.727 8  88160896.155 9
E09  26165848.346 7  26165851.039 8 137502456.035 7 104019724.270 8
E15  25062353.424 7  25062356.974 9 131703556.208 7  99632899.354 9
E34  23474038.372 8  23474040.886 9 123356905.673 8  93318703.738 9
E36  26408640.616 7  26408645.492 8 138778336.750 7 104984926.065 8
G01  20667722.733 7                  20667725.623 8  20667727.378 9 108609604.852 7                  84630876.146 8  81104597.908 9
G02  22824711.636 7  22824714.506 6                                 119944657.426 7  93463168.596 6                
G03  20012466.688 7                  20012471.914 8  20012470.222 9 105166217.539 7                  81947763.013 8  78533303.070 9
G04  21820099.615 7                  21820103.767 7  21820105.342 8 114665398.842 7                  89349688.033 7  85626785.765 8
G17  22468889.870 6                  22468893.590 7                 118074756.018 6                  92006362.451 7
G19  22609901.850 7  22609902.292 5                                 118815835.547 7  92583790.753 5                
G28  23292598.999 6                  23292603.270 7  23292606.516 8 122403429.951 6                  95379342.734 7  91405229.007 8
G31  22753989.865 7                  22753994.800 7                 119573026.830 7                  93173985.378 7
R02  23274001.065 6  23274006.492 5 124194541.45516  96595835.614 5
R03  19567641.034 8  19567643.774 8 104747113.924 8  81469939.982 8
R04  20169099.942 8  20169102.388 7 108004605.045 8  84003595.566 7
R12  23555712.435 5  23555722.281 5 125830473.004 5  97868096.082 5
R18  20287137.805 8  20287139.225 7 108294110.649 8  84228599.134 7
R19  19680023.192 8  19680024.079 8 105274859.462 8  81880603.652 8
R20  23473365.921 6  23473373.958 7 125522632.944 6  97628756.679 7
> 2025 06 15 13 58 15.0000000  0 33
C05  39298469.416 5  39298464.838 7 204637460.727 5 158238631.250 7
C06  38658543.990 6  38658539.449 7 201305183.448 6 155661929.085 7
C09  39248393.043 6  39248391.503 7 204376693.158 6 158037022.660 7
C11  24364134.608 7  24364132.782 8 126870690.710 7  98104258.620 8
C12  22281174.375 7  22281171.111 8 116023922.746 7  89717011.896 8
C16  39165475.604 7  39165477.630 7 203944894.340 7 157703131.328 7
C19  25560321.807 5                 133099425.529 5
C21  23149945.084 8                 120547844.203 8
C22  21742800.282 8                 113220464.957 8
C34  22724574.549 7                 118332823.849 7
C39  38987751.499 6                 203019444.880 6
C44  22804349.702 8                 118748225.744 8
E03  25787335.901 8  25787339.148 8 135513366.398 8 102514998.733 8
E05  22175293.854 8  22175296.378 9 116531955.854 8  88155677.965 9
E09  26172170.978 7  26172173.797 8 137535682.466 7 104044859.823 8
E15  25056198.857 7  25056202.654 9 131671215.219 7  99608433.626 9
E34  23475314.159 8  23475316.633 9 123363609.648 8  93323775.250 9
E36  26415975.623 7  26415980.309 7 138816882.474 7 105014085.643 7
G01  20671959.875 8                  20671963.303 8  20671965.242 9 108631874.834 8                  84648229.376 8  81121228.073 9
G02  22832594.776 7  22832596.997 6                                 119986083.318 7  93495448.510 6                
G03  20011743.000 8                  20011748.541 8  20011746.926 9 105162416.418 8                  81944801.113 8  78530464.575 9
G04  21811712.890 7                  21811717.225 7  21811718.283 8 114621327.493 7                  89315346.740 7  85593875.380 8
G17  22470114.249 6                  22470117.400 7                 118081188.035 6                  92011374.420 7
G19  22605447.285 7  22605448.409 5                                 118792427.511 7  92565550.735 5                
G28  23293006.502 7                  23293009.847 7  23293013.811 8 122405570.001 7                  95381010.349 7  91406827.103 8
G31  22748974.215 7                  22748978.878 7                 119546667.646 7                  93153445.760 7
R02  23284730.342 5  23284736.636 5 124251797.683 5  96640368.137 5
R03  19571364.014 8  19571366.349 7 104767043.453 8  81485440.699 7
R04  20162560.537 8  20162563.253 7 107969589.007 8  83976360.920 7
R12  23550105.522 6  23550111.913 5 125800509.653 6  97844791.213 5
R18  20295061.682 8  20295063.652 7 108336409.925 8  84261498.553 7
R19  19676037.441 8  19676038.021 8 105253536.670 8  81864019.249 8
R20  23461280.433 6  23461288.147 7 125458005.324 6  97578490.806 7
> 2025 06 15 13 58 30.0000000  0 34
C05  39298286.526 5  39298282.072 7 204636509.184 5 158237895.451 7
C06  38656175.502 7  38656170.794 7 201292848.484 7 155652390.926 7
C09  39244698.706 6  39244696.866 7 204357455.167 6 158022146.641 7
C11  24357195.440 7  24357193.587 8 126834558.064 7  98076318.583 8
C12  22283142.295 7  22283139.047 8 116034170.380 7  89724936.021 8
C16  39163581.983 7  39163583.861 7 203935031.846 7 157695505.057 7
C19  25568589.849 5                 133142475.938 5
C21  23143926.831 7                 120516505.619 7
C22  21745176.902 8                 113232838.529 8
C34  22721846.777 7                 118318619.542 7
C39  38987213.471 6                 203016641.679 6
C44  22810902.293 8                 118782346.401 8
E03  25779253.783 7  25779257.266 8 135470895.611 7 102482869.893 8
E05  22173999.301 8  22174001.532 9 116525151.532 8  88150530.527 9
E09  26178503.492 7  26178506.224 8 137568959.601 7 104070033.754 8
E15  25050052.267 8  25050056.375 9 131638916.229 8  99583999.676 9
E34  23476604.876 8  23476607.251 9 123370391.921 8  93328906.003 9
E36  26423316.759 7  26423322.458 7 138855465.085 7 105043273.094 7
G01  20676219.004 8                  20676222.389 8  20676224.323 8 108654257.036 8                  84665670.037 8  81137942.051 8
G02  22840489.631 7  22840491.852 6                                 120027570.484 7  93527776.140 6                
G03  20011037.601 8                  20011043.350 8  20011041.532 9 105158710.220 8                  81941913.153 8  78527696.949 9
G04  21803341.969 7                  21803346.744 7  21803348.331 8 114577339.730 7                  89281070.603 7  85561027.408 8
G09  24615452.473 6                  24615461.976 4  24615461.063 6 129355065.51616                 100796188.29414  96596351.19716
G17  22471362.350 6                  22471366.328 7                 118087750.793 6                  92016488.220 7
G19  22601020.780 7  22601021.825 5                                 118769163.362 7  92547422.824 5                
G28  23293441.212 6                  23293445.372 7  23293448.742 8 122407855.322 6                  95382791.097 7  91408533.619 8
G31  22743983.423 7                  22743988.112 7                 119520440.364 7                  93133008.960 7
R02  23295462.554 6  23295468.924 6 124309061.903 6  96684906.935 6
R03  19575110.338 8  19575112.796 8 104787097.818 8  81501038.532 8
R04  20156044.684 8  20156047.647 7 107934695.777 8  83949221.766 7
R12  23544527.051 6  23544531.155 5 125770699.069 6  97821605.211 5
R18  20303012.289 8  20303014.138 7 108378850.725 8  84294508.011 7
R19  19672083.804 8  19672084.407 8 105232388.005 8  81847570.285 8
R20  23449201.085 5  23449208.605 7 125393409.658 5  97528249.803 7
> 2025 06 15 13 58 45.0000000  0 34
C05  39298103.564 5  39298099.224 7 204635557.062 5 158237159.229 7
C06  38653814.310 7  38653809.595 7 201280553.300 7 155642883.514 7
C09  39241010.489 6  39241008.469 7 204338249.326 6 158007295.498 7
C11  24350272.486 7  24350270.882 8 126798508.308 7  98048442.621 8
C12  22285133.858 7  22285130.944 8 116044542.358 7  89732956.283 8
C16  39161696.029 7  39161697.033 7 203925208.990 7 157687909.409 7
C19  25576859.100 4                 133185539.96314
C21  23137922.330 7                 120485236.737 7
C22  21747568.774 8                 113245293.386 8
C34  22719142.027 7                 118304535.034 7
C39  38986682.954 6                 203013879.628 6
C44  22817472.084 8                 118816556.575 8
E03  25771180.500 7  25771184.659 8 135428473.671 7 102450778.019 8
E05  22172722.855 8  22172725.153 9 116518444.096 8  88145456.410 9
E09  26184845.890 7  26184848.977 8 137602290.688 7 104095248.490 8
E15  25043914.590 7  25043918.711 9 131606662.808 7  99559600.191 9
E34  23477910.672 8  23477913.435 9 123377255.935 8  93334098.578 9
E36  26430666.921 7  26430672.239 7 138894087.816 7 105072490.918 7
G01  20680500.475 8                  20680503.781 8  20680505.569 9 108676754.798 8                  84683200.762 8  81154742.306 9
G02  22848396.992 7  22848398.986 6                                 120069122.140 7  93560154.020 6                
G03  20010351.372 8                  20010356.740 8  20010354.854 9 105155102.301 8                  81939101.793 8  78525002.739 9
G04  21794987.944 7                  21794992.728 7  21794994.414 8 114533439.160 7                  89246862.400 7  85528244.568 8
G09  24604400.659 5                  24604410.676 5  24604408.982 5 129296990.429 5                 100750935.066 5  96552983.46215
G17  22472637.628 6                  22472640.750 7                 118094447.620 6                  92021706.476 7
G19  22596621.588 7  22596622.826 5                                 118746046.686 7  92529409.851 5                
G28  23293904.224 6                  23293908.584 7  23293911.612 8 122410289.123 6                  95384687.613 7  91410351.097 8
G31  22739019.203 7                  22739023.030 7                 119494348.695 7                  93112677.812 7
R02  23306196.455 6  23306201.635 6 124366337.180 6  96729454.329 6
R03  19578880.896 8  19578882.934 8 104807280.489 8  81516736.170 8
R04  20149552.727 8  20149555.084 7 107899929.095 8  83922181.021 7
R12  23538975.441 6  23538977.160 4 125741045.160 6  97798541.245 4
R18  20310989.881 8  20310992.596 7 108421436.318 8  84327630.104 7
R19  19668163.641 8  19668163.953 7 105211417.149 8  81831259.646 7
R20  23437127.704 6  23437135.520 7 125328850.326 6  97478037.021 7
> 2025 06 15 13 59  0.0000000  0 34
C05  39297921.128 5  39297916.587 7 204634606.502 5 158236424.205 7
C06  38651461.356 6  38651456.701 7 201268300.158 6 155633408.631 7
C09  39237328.908 6  39237327.241 7 204319078.041 6 157992471.050 7
C11  24343365.903 7  24343364.038 8 126762543.914 7  98020632.690 8
C12  22287150.193 7  22287147.234 8 116055040.924 7  89741074.419 8
C16  39159818.012 7  39159818.195 7 203915428.035 7 157680346.148 7
C19  25585137.560 5                 133228619.71815
C21  23131931.119 8                 120454039.945 8
C22  21749976.372 8                 113257831.604 8
C34  22716460.682 7                 118290572.731 7
C39  38986160.748 6                 203011160.931 6
C44  22824059.446 8                 118850858.252 8
E03  25763117.589 7  25763121.742 8 135386103.032 7 102418724.946 8
E05  22171465.241 8  22171467.648 9 116511835.820 8  88140457.296 9
E09  26191199.211 7  26191202.349 8 137635677.778 7 104120505.592 8
E15  25037786.306 7  25037790.142 9 131574457.392 7  99535237.016 9
E34  23479233.346 8  23479235.595 9 123384204.007 8  93339354.755 9
E36  26438024.669 7  26438029.941 7 138932752.923 7 105101740.790 7
G01  20684804.011 8                  20684807.621 8  20684809.299 9 108699370.278 8                  84700823.211 8  81171630.484 9
G02  22856316.953 7  22856319.045 6                                 120110740.383 7  93592583.740 6                
G03  20009684.102 8                  20009689.443 8  20009687.611 9 105151594.951 8                  81936368.812 8  78522383.626 9
G04  21786651.029 7                  21786655.562 7  21786657.541 8 114489628.289 7                  89212724.091 7  85495528.702 8
G09  24593353.264 6                  24593363.839 5  24593361.386 5 129238937.125 6                 100705698.742 5  96509632.008 5
G17  22473937.359 6                  22473941.324 7                 118101280.625 6                  92027030.893 7
G19  22592250.827 7  22592252.512 5                                 118723080.109 7  92511513.826 5                
G28  23294395.582 6                  23294400.623 7  23294402.950 8 122412873.851 6                  95386701.632 7  91412281.267 8
G31  22734079.580 7                  22734084.620 7                 119468395.155 7                  93092454.345 7
R02  23316932.236 6  23316938.038 6 124423625.906 6  96774012.181 6
R03  19582675.153 8  19582677.621 8 104827593.531 8  81532535.210 8
R04  20143084.532 8  20143086.252 7 107865291.489 8  83895240.680 7
R12  23533453.057 6                 125711550.581 6
R18  20318995.177 8  20318997.134 7 108464168.466 8  84360866.186 7
R19  19664277.024 8  19664277.447 8 105190626.576 8  81815089.205 8
R20  23425061.876 6  23425069.148 7 125264329.384 6  97427854.142 7
> 2025 06 15 13 59 15.0000000  0 34
C05  39297739.733 5  39297735.337 7 204633662.216 5 158235694.038 7
C06  38649116.954 6  38649112.386 7 201256093.665 6 155623969.803 7
C09  39233654.130 7  39233652.758 7 204299945.803 7 157977676.814 7
C11  24336477.005 7  24336474.603 8 126726669.707 7  97992892.514 8
C12  22289191.421 7  22289188.386 8 116065670.458 7  89749293.824 8
C16  39157948.180 7  39157948.876 7 203905693.529 7 157672818.830 7
C19  25593413.261 5                 133271719.731 5
C21  23125954.910 8                 120422919.847 8
C22  21752401.085 8                 113270457.600 8
C34  22713803.643 7                 118276737.318 7
C39  38985647.932 7                 203008490.156 7
C44  22830665.129 8                 118885255.857 8
E03  25755065.477 7  25755069.563 8 135343788.448 7 102386714.282 8
E05  22170227.505 8  22170229.881 9 116505331.271 8  88135536.645 9
E09  26197563.972 7  26197567.236 8 137669125.315 7 104145808.411 8
E15  25031667.929 7  25031671.743 9 131542304.773 7  99510913.776 9
E34  23480572.181 8  23480574.641 9 123391240.783 8  93344678.028 9
E36  26445391.733 8  26445396.700 7 138971464.929 8 105131026.142 7
G01  20689130.969 8                  20689134.485 8  20689136.223 9 108722108.023 8                  84718540.899 8  81188609.954 9
G02  22864249.613 7  22864251.564 6                                 120152429.622 7  93625068.828 6                
G03  20009036.335 8                  20009042.011 8  20009040.191 9 105148192.761 8                  81933717.752 8  78519843.043 9
G04  21778332.291 7                  21778336.516 7  21778338.338 8 114445911.921 7                  89178659.467 7  85462883.407 8
G09  24582311.311 5                  24582321.152 5  24582321.072 5 129180910.405 5                 100660483.183 5  96466300.361 5
G17  22475264.627 7                  22475268.304 7                 118108254.358 7                  92032464.944 7
G19  22587909.783 7  22587911.552 5                                 118700268.261 7  92493738.352 5                
G28  23294917.413 7                  23294922.070 7  23294924.318 8 122415614.000 7                  95388836.808 7  91414327.501 8
G31  22729168.480 7                  22729173.302 7                 119442585.057 7                  93072342.581 7
R02  23327672.947 6  23327676.694 6 124480932.481 6  96818583.860 6
R03  19586494.979 8  19586497.404 7 104848041.110 8  81548438.864 7
R04  20136640.417 8  20136643.047 8 107830787.524 8  83868404.274 8
R12  23527959.135 5  23527968.068 6 125682220.650 5  97752783.99116
R18  20327028.469 8  20327030.816 7 108507051.763 8  84394219.829 7
R19  19660425.092 8  19660425.295 7 105170021.337 8  81799062.906 7
R20  23413004.126 6  23413011.939 7 125199852.469 6  97377705.437 7
> 2025 06 15 13 59 30.0000000  0 34
C05  39297559.426 6  39297555.473 7 204632725.141 6 158234969.393 7
C06  38646781.246 6  38646777.375 7 201243934.684 6 155614567.712 7
C09  39229988.418 7  39229986.330 7 204280853.617 7 157962913.534 7
C11  24329604.941 7  24329602.773 8 126690886.856 7  97965222.976 8
C12  22291257.892 7  22291254.987 8 116076431.974 7  89757615.298 8
C16  39156087.502 7  39156088.710 7 203896006.399 7 157665328.116 7
C19  25601689.640 4                 133314840.68814
C21  23119993.514 8                 120391877.419 8
C22  21754842.947 8                 113283172.162 8
C34  22711171.280 7                 118263029.873 7
C39  38985144.307 6                 203005868.177 6
C44  22837289.234 8                 118919750.085 8
E03  25747024.815 7  25747028.122 8 135301530.953 7 102354746.832 8
E05  22169009.937 8  22169012.004 9 116498931.345 8  88130695.156 9
E09  26203940.244 7  26203943.770 8 137702634.005 7 104171157.497 8
E15  25025559.717 7  25025563.572 9 131510206.027 7  99486631.321 9
E34  23481928.731 8  23481930.793 9 123398367.245 8  93350069.151 9
E36  26452767.015 7  26452772.434 7 139010224.678 7 105160347.605 7
G01  20693481.156 8                  20693484.622 8  20693486.495 9 108744968.903 8                  84736354.560 8  81205681.389 9
G02  22872196.755 7  22872198.118 6                                 120194190.698 7  93657609.888 6                
G03  20008408.943 8                  20008414.845 8  20008412.602 9 105144896.693 8                  81931149.385 8  78517381.688 9
G04  21770031.206 7                  21770035.970 7  21770037.434 8 114402291.271 7                  89144669.350 7  85430309.579 8
G09  24571274.581 5                  24571280.654 4  24571284.229 5 129122911.382 5                 100615289.22614  96422989.482 5
G17  22476618.343 7                  22476622.607 7                 118115369.664 7                  92038009.341 7
G19  22583598.863 7  22583600.355 5                                 118677612.378 7  92476084.434 5                
G28  23295469.241 6                  23295472.998 7  23295475.567 8 122418510.593 6                  95391093.919 7  91416490.536 8
G31  22724284.781 7                  22724288.846 7                 119416919.072 7                  93052343.120 7
R02  23338415.244 6  23338419.174 6 124538257.269 6  96863169.758 6
R03  19590340.182 8  19590342.369 7 104868624.279 8  81564448.012 7
R04  20130222.076 8  20130224.603 7 107796418.391 8  83841672.790 7
R12  23522504.057 6  23522508.279 6 125653056.271 6  97730100.555 6
R18  20335090.655 8  20335093.095 7 108550086.633 8  84427691.393 7
R19  19656607.865 8  19656608.219 7 105149603.042 8  81783182.020 7
R20  23400955.765 6  23400963.106 7 125135420.962 6  97327592.126 7
> 2025 06 15 13 59 45.0000000  0 33
C05  39297379.675 5  39297375.878 7 204631790.513 5 158234246.678 7
C06  38644454.825 6  38644450.513 7 201231818.729 6 155605198.904 7
C09  39226328.428 7  39226326.831 7 204261796.916 7 157948177.714 7
C11  24322750.022 7  24322747.748 8 126655191.043 7  97937620.725 8
C12  22293348.906 7  22293346.369 8 116087320.799 7  89766035.231 8
C16  39154234.972 7  39154236.679 7 203886362.029 7 157657870.503 7
C21  23114046.080 8                 120360908.097 8
C22  21757300.698 8                 113295970.602 8
C34  22708562.384 7                 118249445.928 7
C39  38984649.293 6                 203003290.431 6
C44  22843931.269 8                 118954336.132 8
E03  25738992.622 7  25738996.689 8 135259326.131 7 102322819.199 8
E05  22167810.871 8  22167813.172 9 116492631.445 8  88125929.320 9
E09  26210327.360 7  26210330.978 8 137736199.056 7 104196549.207 8
E15  25019461.169 7  25019464.823 9 131478156.710 7  99462386.230 9
E34  23483300.863 8  23483303.104 9 123405578.833 8  93355524.668 9
E36  26460151.449 7  26460156.274 7 139049027.470 7 105189701.604 7
G01  20697853.764 8                  20697857.477 8  20697859.185 9 108767948.180 8                  84754260.510 8  81222841.223 9
G02  22880155.961 7  22880158.138 6                                 120236018.744 7  93690203.141 6                
G03  20007801.295 8                  20007806.689 8  20007804.764 9 105141702.088 8                  81928660.083 8  78514996.098 9
G04  21761747.606 7                  21761752.195 7  21761754.225 8 114358761.892 7                  89110750.371 7  85397803.908 8
G09  24560242.465 5                                  24560252.701 5 129064935.707 5                                  96379696.022 5
G17  22477998.396 6                  22478002.811 7                 118122622.014 6                  92043660.500 7
G19  22579316.114 7  22579318.172 5                                 118655107.978 7  92458548.584 5                
G28  23296048.946 6                  23296053.208 7  23296055.314 7 122421558.932 6                  95393469.267 7  91418766.907 7
G31  22719426.797 7                  22719431.214 7                 119391392.984 7                  93032452.665 7
R02  23349160.467 6  23349165.021 6 124595595.588 6  96907766.190 6
R03  19594210.017 8  19594211.985 7 104889337.722 8  81580558.463 7
R04  20123828.421 8  20123830.744 7 107762179.487 8  83815042.526 7
R12  23517076.038 6  23517077.634 6 125624053.342 6  97707542.715 6
R18  20343179.985 8  20343182.370 7 108593268.279 8  84461277.046 7
R19  19652825.298 8  19652825.331 8 105129366.856 8  81767442.760 8
R20  23388914.536 5  23388921.090 7 125071030.304 5  97277510.510 7
> 2025 06 15 14 00  0.0000000  0 33
C05  39297200.525 5  39297196.338 7 204630854.499 5 158233522.897 7
C06  38642135.837 6  38642131.234 7 201219741.809 6 155595860.285 7
C09  39222674.627 7  39222673.171 7 204242771.759 7 157933466.255 7
C11  24315910.976 7  24315908.483 8 126619578.583 7  97910082.939 8
C12  22295464.209 7  22295461.207 8 116098332.930 7  89774550.494 8
C16  39152390.761 7  39152392.133 7 203876756.500 7 157650442.904 7
C21  23108111.796 8                 120330008.022 8
C22  21759773.693 8                 113308848.823 8
C34  22705976.769 8                 118235981.627 8
C39  38984162.113 6                 203000752.902 6
C44  22850590.155 8                 118989009.843 8
E03  25730970.820 7  25730974.703 8 135217170.088 7 102290928.468 8
E05  22166630.161 8  22166632.613 9 116486427.467 8  88121236.063 9
E09  26216725.003 7  26216728.075 8 137769816.228 7 104221980.384 8
E15  25013371.078 7  25013374.659 9 131446152.982 7  99438175.639 9
E34  23484688.302 8  23484690.863 9 123412871.556 8  93361041.563 9
E36  26467542.752 7  26467547.578 7 139087869.195 7 105219085.056 7
G01  20702248.376 7                  20702252.075 8  20702253.946 9 108791041.816 7                  84772255.524 8  81240086.440 9
G02  22888128.076 7  22888130.672 6                                 120277909.619 7  93722845.336 6                
G03  20007211.737 8                  20007217.150 8  20007215.756 9 105138604.922 8                  81926246.723 8  78512683.291 9
G04  21753480.970 7                  21753485.295 7  21753487.464 8 114315320.013 7                  89076899.565 7  85365363.575 8
G09  24549213.750 5                                  24549223.885 5 129006979.58015                                  96336417.225 5
G17  22479403.996 6                  22479408.090 7                 118130007.342 6                  92049415.266 7
G19  22575061.690 7  22575064.692 5                                 118632751.322 7  92441127.808 5                
G28  23296657.175 6                  23296661.670 7  23296663.192 8 122424754.989 6                  95395959.730 7  91421153.609 8
G31  22714595.274 7                  22714599.560 7                 119366003.161 7                  93012668.422 7
R02  23359904.540 5  23359910.734 6 124652942.861 5  96952369.655 6
R03  19598102.722 8  19598105.065 7 104910176.973 8  81596766.771 7
R04  20117458.224 8  20117460.601 7 107728066.915 8  83788510.521 7
R12  23511673.556 6  23511677.085 5 125595208.148 6  97685107.546 5
R18  20351295.780 8  20351298.563 7 108636592.193 8  84494973.424 7
R19  19649075.519 8  19649075.556 7 105109309.280 8  81751842.437 7
R20  23376879.662 5  23376886.832 7 125006677.015 5  97227458.044 7
> 2025 06 15 14 00 15.0000000  0 33
C05  39297020.491 5  39297016.467 7 204629918.23615 158232798.91517
C06  38639823.882 6  38639819.797 7 201207705.092 6 155586552.743 7
C09  39219027.402 7  39219025.835 7 204223779.251 7 157918780.068 7
C11  24309088.049 7  24309085.692 8 126584050.784 7  97882610.604 8
C12  22297602.553 7  22297599.581 8 116109469.473 7  89783161.970 8
C16  39150553.755 7  39150555.364 7 203867190.971 7 157643046.238 7
C21  23102191.156 8                 120299178.391 8
C22  21762262.585 8                 113321807.838 8
C34  22703414.381 7                 118222638.235 7
C39  38983682.777 7                 202998256.755 7
C44  22857265.957 8                 119023772.130 8
E03  25722958.524 7  25722962.106 8 135175064.119 7 102259075.626 8
E05  22165468.163 8  22165470.511 9 116480320.596 8  88116616.244 9
E09  26223132.382 7  26223135.227 8 137803486.534 7 104247451.718 8
E15  25007289.829 7  25007293.495 9 131414196.175 7  99414000.549 9
E34  23486092.169 8  23486094.315 9 123420246.629 8  93366620.756 9
E36  26474941.700 7  26474946.586 7 139126750.927 7 105248498.795 7
G01  20706665.627 7                  20706668.571 8  20706670.578 9 108814250.854 7                  84790340.467 8  81257417.854 9
G02  22896111.411 7  22896114.241 6                                 120319864.378 7  93755537.327 6                
G03  20006641.338 8                  20006646.795 8  20006645.121 9 105135606.348 8                  81923910.159 8  78510444.091 9
G04  21745231.966 7                  21745235.633 7  21745237.507 8 114271966.979 7                  89043118.034 7  85332989.615 8
G09  24538188.037 5                  24538199.332 5  24538198.790 6 128949044.402 5                 100479798.88015  96293154.070 6
G17  22480834.585 7                  22480838.276 6                 118137526.615 7                  92055274.484 6
G19  22570835.496 7  22570839.259 5                                 118610543.635 7  92423823.127 5                
G28  23297293.318 6                  23297298.353 7  23297299.847 8 122428100.038 6                  95398566.267 7  91423651.520 8
G31  22709789.713 7                  22709794.374 7                 119340751.043 7                  92992991.445 7
R02  23370655.256 6  23370660.439 5 124710300.150 6  96996980.838 5
R03  19602019.591 8  19602021.623 7 104931143.229 8  81613073.836 7
R04  20111111.879 8  20111114.530 7 107694081.937 8  83762077.797 7
R12  23506300.807 4  23506309.160 5                  97662796.433 5
R18  20359439.024 8  20359441.267 7 108680059.175 8  84528781.037 7
R19  19645360.124 8  19645359.705 7 105089431.703 8  81736382.091 7
R20  23364852.282 5  23364859.708 7 124942363.048 5  97177436.063 7
> 2025 06 15 14 00 30.0000000  0 33
C05  39296841.018 5  39296836.214 7 204628981.558 5 158232074.620 7
C06  38637520.429 6  38637515.912 7 201195708.415 6 155577276.173 7
C09  39215386.879 7  39215384.794 7 204204819.449 7 157904119.167 7
C11  24302281.989 7  24302279.263 8 126548607.896 7  97855203.938 8
C12  22299765.078 7  22299762.195 8 116120730.185 7  89791869.479 8
C16  39148724.615 7  39148725.743 7 203857665.267 7 157635680.372 7
C21  23096284.372 8                 120268419.118 8
C22  21764766.391 8                 113334847.355 8
C34  22700874.879 8                 118209415.766 8
C39  38983211.032 6                 202995801.802 6
C44  22863958.641 8                 119058622.652 8
E03  25714955.307 8  25714959.044 8 135133008.289 8 102227260.685 8
E05  22164324.596 8  22164326.871 9 116474310.614 8  88112069.753 9
E09  26229549.611 7  26229552.452 8 137837209.591 7 104272963.004 8
E15  25001217.538 7  25001221.239 9 131382286.317 7  99389860.961 9
E34  23487510.753 8  23487513.389 9 123427703.966 8  93372262.175 9
E36  26482348.050 7  26482353.361 7 139165672.465 7 105277942.604 7
G01  20711104.110 7                  20711106.964 8  20711109.246 9 108837575.033 7                  84808515.167 8  81274835.254 9
G02  22904107.403 7  22904110.431 6                                 120361882.572 7  93788278.723 6                
G03  20006089.323 8                  20006094.992 8  20006093.077 9 105132706.229 8                  81921650.327 8  78508278.427 9
G04  21736998.569 7                  21737003.130 7  21737004.396 8 114228702.936 7                  89009405.811 7  85300682.071 8
G09  24527166.277 5                  24527179.145 5  24527177.598 6 128891130.369 5                 100434671.136 5  96249906.661 6
G17  22482291.176 7                  22482294.557 6                 118145179.371 7                  92061237.680 6
G19  22566637.844 7  22566641.289 5                                 118588485.028 7  92406634.613 5                
G28  23297958.225 6                  23297962.502 7  23297964.642 8 122431593.819 6                  95401288.659 7  91426260.502 8
G31  22705010.906 7                  22705015.602 7                 119315636.764 7                  92973421.926 7
R02  23381407.275 6  23381411.569 5 124767666.815 6  97041599.392 5
R03  19605959.950 8  19605962.021 7 104952236.115 8  81629479.413 7
R04  20104789.160 8  20104791.776 7 107660224.397 8  83735744.172 7
R12  23500964.115 6  23500967.300 6 125537995.93716  97640609.225 6
R18  20367608.394 8  20367610.624 7 108723668.826 8  84562699.604 7
R19  19641677.420 8  19641677.519 8 105069734.227 8  81721061.843 8
R20  23352832.984 5  23352840.237 7 124878088.366 5  97127444.707 7
> 2025 06 15 14 00 45.0000000  0 33
C05  39296660.018 5  39296656.036 7 204628040.425 5 158231346.883 7
C06  38635223.400 7  38635219.100 7 201183747.791 7 155568027.482 7
C09  39211751.040 7  39211749.398 7 204185888.147 7 157889480.308 7
C11  24295491.242 7  24295488.430 8 126513245.999 7  97827859.909 8
C12  22301950.824 7  22301948.034 8 116132110.960 7  89800669.816 8
C16  39146902.287 7  39146903.458 7 203848175.354 7 157628342.188 7
C21  23090390.421 8                 120237726.183 8
C22  21767285.480 8                 113347963.207 8
C34  22698358.420 8                 118196310.232 8
C39  38982746.673 7                 202993383.923 7
C44  22870667.349 8                 119093557.141 8
E03  25706961.003 8  25706964.760 8 135090998.553 8 102195480.640 8
E05  22163198.599 8  22163200.866 9 116468393.423 8  88107593.435 9
E09  26235975.974 7  26235978.962 8 137870981.136 7 104298510.953 8
E15  24995153.535 7  24995157.142 9 131350419.435 7  99365753.904 9
E34  23488944.807 8  23488947.340 9 123435239.478 8  93377962.735 9
E36  26489761.669 7  26489766.481 7 139204629.571 7 105307413.375 7
G01  20715563.536 8                  20715566.521 8  20715568.715 9 108861010.211 8                  84826776.339 8  81292335.535 9
G02  22912114.478 7  22912117.671 5                                 120403959.870 7  93821066.170 5                
G03  20005555.375 7                  20005560.969 8  20005559.163 9 105129900.477 7                  81919464.040 8  78506183.230 9
G04  21728781.936 7                  21728786.466 7  21728787.690 8 114185523.951 7                  88975759.880 7  85268438.045 8
G09  24516148.953 5                  24516162.361 5  24516160.578 6 128833233.53015                 100389556.783 5  96206672.065 6
G17  22483771.751 6                  22483775.786 6                 118152961.443 6                  92067301.629 6
G19  22562468.387 7  22562470.777 5                                 118566571.511 7  92389559.145 5                
G28  23298650.882 6                  23298654.673 7  23298657.545 8 122435232.199 6                  95404123.752 7  91428977.485 8
G31  22700257.354 7                  22700262.062 7                 119290656.679 7                  92953956.941 7
R02  23392157.476 6  23392158.624 4 124825038.868 6
R03  19609922.855 8  19609925.260 7 104973450.816 8  81645979.759 7
R04  20098489.525 8  20098491.652 7 107626490.347 8  83709506.593 7
R12  23495652.559 6  23495655.886 6 125509625.228 6  97618543.191 6
R18  20375803.838 8  20375806.316 7 108767416.663 8  84596725.691 7
R19  19638028.215 8  19638028.417 8 105050212.898 8  81705878.591 8
R20  23340820.061 5  23340826.942 7 124813849.035 5  97077480.794 7
> 2025 06 15 14 01  0.0000000  0 34
C05  39296478.323 5  39296474.606 7 204627096.690 5 158230617.128 7
C06  38632934.060 6  38632929.431 7 201171824.971 6 155558808.029 7
C09  39208121.785 7  39208119.492 7 204166987.342 7 157874865.029 7
C11  24288715.985 7  24288713.547 7 126477967.168 7  97800580.106 7
C12  22304159.901 7  22304156.876 8 116143613.638 7  89809564.410 8
C16  39145087.540 7  39145088.484 7 203838723.054 7 157621033.096 7
C19  25651432.508 5                 133573839.34315
C21  23084509.158 8                 120207101.472 8
C22  21769819.250 8                 113361157.088 8
C34  22695864.185 8                 118183323.604 8
C39  38982289.855 6                 202991004.988 6
C44  22877392.781 8                 119128577.215 8
E03  25698975.933 7  25698979.797 8 135049037.012 7 102163737.033 8
E05  22162090.559 8  22162092.866 9 116462570.838 8  88103188.691 9
E09  26242411.910 7  26242415.167 8 137904802.865 7 104324096.853 8
E15  24989098.206 7  24989101.643 9 131318597.605 7  99341680.905 9
E34  23490394.027 8  23490396.522 9 123442855.056 8  93383723.873 9
E36  26497182.387 7  26497186.970 7 139243624.024 7 105336912.385 7
G01  20720044.323 8                  20720047.551 8  20720049.556 9 108884558.138 8                  84845125.345 8  81309920.022 9
G02  22920133.456 7  22920135.654 5                                 120446098.119 7  93853901.156 5                
G03  20005040.045 8                  20005045.114 8  20005043.464 9 105127190.883 8                  81917352.692 8  78504159.856 9
G04  21720581.711 7                  21720586.287 7  21720587.561 8 114142432.094 7                  88942181.837 7  85236259.100 8
G09  24505135.500 5                  24505146.870 5  24505146.459 6 128775355.93015                 100344457.354 5  96163451.832 6
G17  22485277.645 7                  22485281.933 6                 118160874.644 7                  92073467.735 6
G19  22558326.172 7  22558328.709 5                                 118544805.253 7  92372598.484 5                
G28  23299370.740 7                  23299375.135 7  23299377.958 8 122439017.088 7                  95407073.029 7  91431803.835 8
G31  22695529.238 7                  22695534.064 7                 119265812.683 7                  92934598.053 7
R02  23402910.546 7                 124882417.266 7
R03  19613909.123 8  19613911.286 7 104994789.038 8  81662576.122 7
R04  20092213.281 8  20092214.960 7 107592881.851 8  83683366.668 7
R12  23490370.021 6  23490375.953 5 125481412.451 6  97596600.160 5
R18  20384025.553 8  20384028.643 7 108811304.153 8  84630860.384 7
R19  19634412.013 8  19634412.582 7 105030869.995 8  81690834.142 7
R20  23328814.886 5  23328821.883 7 124749647.624 5  97027546.424 7
> 2025 06 15 14 01 15.0000000  0 34
C05  39296298.335 5  39296293.792 7 204626156.274 5 158229889.943 7
C06  38630652.608 6  38630648.550 7 201159945.990 6 155549622.453 7
C09  39204498.980 7  39204497.077 7 204148123.056 7 157860277.993 7
C11  24281958.423 7  24281955.741 8 126442777.753 7  97773369.411 8
C12  22306393.291 7  22306390.202 8 116155244.178 7  89818557.843 8
C16  39143280.550 7  39143281.363 7 203829314.353 7 157613757.703 7
C19  25659730.346 5                 133617050.195 5
C21  23078641.966 8                 120176551.050 8
C22  21772368.908 8                 113374434.845 8
C34  22693394.332 7                 118170462.026 7
C39  38981841.568 7                 202988670.966 7
C44  22884135.557 8                 119163688.621 8
E03  25691000.515 7  25691005.136 8 135007129.769 7 102132034.500 8
E05  22161001.790 8  22161003.988 9 116456848.864 8  88098860.057 9
E09  26248858.294 7  26248862.027 8 137938680.606 7 104349725.113 8
E15  24983052.557 7  24983055.858 9 131286827.011 7  99317646.674 9
E34  23491859.615 8  23491862.124 9 123450556.814 8  93389550.197 9
E36  26504611.027 7  26504615.579 7 139282661.831 7 105366444.201 7
G01  20724547.622 8                  20724551.272 8  20724553.025 8 108908224.774 8                  84863566.880 8  81327593.156 8
G02  22928164.686 7  22928166.676 5                                 120488303.219 7  93886788.192 5                
G03  20004543.763 8                  20004549.084 7  20004547.487 9 105124583.561 8                  81915320.990 7  78502212.801 9
G04  21712399.223 7                  21712403.840 7  21712404.962 8 114099433.650 7                  88908676.595 7  85204149.896 8
G09  24494126.491 5                  24494137.467 5  24494136.757 6                                 100299377.867 5  96120250.551 6
G17  22486809.649 6                  22486814.082 6                 118168924.888 6                  92079740.702 6
G19  22554213.559 6  22554216.351 5                                 118523192.507 6  92355757.370 5                
G28  23300120.182 6                  23300124.438 7  23300127.529 8 122442954.408 6                  95410141.104 7  91434744.086 8
G31  22690828.463 7                  22690833.379 7                 119241111.260 7                  92915350.205 7
R02  23413666.179 7                 124939808.508 7
R03  19617919.409 8  19617921.396 7 105016256.577 8  81679273.115 7
R04  20085961.571 8  20085964.059 8 107559404.853 8  83657329.025 8
R12  23485118.787 5  23485124.983 6 125453364.223 5  97574784.865 6
R18  20392274.769 8  20392276.890 7 108855337.356 8  84665108.400 7
R19  19630831.014 8  19630830.905 7 105011712.227 8  81675933.627 7
R20  23316817.030 5  23316823.519 7 124685490.868 5  96977646.789 7
> 2025 06 15 14 01 30.0000000  0 34
C05  39296116.500 5  39296112.727 7 204625212.910 5 158229160.461 7
C06  38628378.461 6  38628374.306 7 201148104.561 6 155540465.926 7
C09  39200882.321 7  39200880.046 7 204129288.903 7 157845714.243 7
C11  24275216.704 7  24275214.389 8 126407671.606 7  97746223.111 8
C12  22308650.197 7  22308647.174 8 116166996.110 7  89827645.170 8
C16  39141480.626 7  39141481.900 7 203819942.936 7 157606511.160 7
C19  25668030.450 5                 133660270.854 5
C21  23072788.304 8                 120146068.639 8
C22  21774933.645 8                 113387790.023 8
C34  22690947.150 7                 118157719.270 7
C39  38981400.587 7                 202986375.478 7
C44  22890894.740 8                 119198884.849 8
E03  25683034.440 7  25683039.607 8 134965270.593 7 102100368.333 8
E05  22159930.778 8  22159933.056 9 116451221.068 8  88094602.673 9
E09  26255314.620 7  26255318.239 8 137972607.761 7 104375390.766 8
E15  24977015.487 7  24977018.610 9 131255101.462 7  99293646.507 9
E34  23493340.385 8  23493342.927 9 123458338.396 8  93395436.918 9
E36  26512046.392 7  26512051.131 7 139321736.498 7 105396003.871 7
G01  20729072.822 8                  20729076.164 8  20729078.263 9 108932003.671 8                  84882095.877 8  81345350.087 9
G02  22936207.551 7  22936209.748 6                                 120530568.510 7  93919722.141 6                
G03  20004065.800 8                  20004071.180 8  20004069.689 9 105122072.049 8                  81913363.957 8  78500337.327 9
G04  21704233.486 7                  21704238.278 7  21704239.364 8 114056522.455 7                  88875239.313 7  85172105.844 8
G09  24483122.736 5                  24483131.749 5  24483130.880 6 128659670.97015                 100254313.46515  96077063.857 6
G17  22488366.756 6                  22488370.969 6                 118177105.935 6                  92086115.478 6
G19  22550128.639 7  22550131.691 5                                 118501727.009 7  92339031.048 5                
G28  23300896.902 6                  23300901.271 7  23300904.932 8 122447037.865 6                  95413323.035 7  91437793.436 8
G31  22686154.055 7                  22686158.862 7                 119216546.218 7                  92896208.646 7
R02  23424421.617 6                 124997205.420 6
R03  19621952.579 8  19621954.928 7 105037846.622 8  81696065.350 7
R04  20079733.303 8  20079735.345 7 107526053.390 8  83631389.023 7
R12  23479900.056 6  23479904.251 6 125425474.512 6  97553092.830 6
R18  20400549.354 8  20400551.777 7 108899509.197 8  84699464.264 7
R19  19627282.666 8  19627283.055 7 104992733.047 8  81661172.069 7
R20  23304826.841 5  23304833.079 7 124621372.352 5  96927776.893 7
> 2025 06 15 14 01 45.0000000  0 35
C05  39295935.632 5  39295931.060 7 204624267.017 5 158228429.060 7
C06  38626112.086 6  38626107.667 7 201136301.121 6 155531338.763 7
C09  39197271.029 7  39197268.863 7 204110485.422 7 157831174.198 7
C11  24268490.638 7  24268488.588 8 126372649.456 7  97719141.789 8
C12  22310930.229 7  22310927.600 8 116178869.854 7  89836826.715 8
C16  39139687.701 7  39139689.501 7 203810609.270 7 157599293.785 7
C19  25676331.357 5                 133703501.551 5
C21  23066947.240 8                 120115654.721 8
C22  21777513.438 8                 113401222.947 8
C34  22688523.391 8                 118145095.884 8
C39  38980967.188 7                 202984118.940 7
C43  26142183.737 6                 136129209.08816
C44  22897669.962 8                 119234166.144 8
E03  25675078.533 7  25675083.241 8 134923460.092 7 102068738.999 8
E05  22158877.793 8  22158880.126 9 116445687.923 8  88090416.887 9
E09  26261780.467 7  26261783.857 8 138006584.622 7 104401094.000 8
E15  24970986.745 7  24970990.085 9 131223421.521 7  99269680.865 9
E34  23494836.268 8  23494838.980 9 123466200.300 8  93401384.392 9
E36  26519489.279 7  26519493.599 7 139360848.396 7 105425591.744 7
G01  20733619.137 8                  20733622.572 8  20733624.670 9 108955895.173 8                  84900712.626 8  81363191.135 9
G02  22944261.958 7  22944263.704 6                                 120572894.213 7  93952703.184 6                
G03  20003606.342 7                  20003611.526 8  20003609.825 9 105119656.805 7                  81911481.975 8  78498533.764 9
G04  21696084.648 7                  21696089.474 7  21696090.617 8 114013699.158 7                  88841870.524 7  85140127.431 8
G09  24472121.435 5                  24472130.262 5  24472129.170 5 128601858.332 5                 100209264.726 5  96033892.192 5
G17  22489948.440 7                  22489952.522 6                 118185417.945 7                  92092592.376 6
G19  22546072.176 7  22546075.026 5                                 118480409.457 7  92322419.972 5                
G28  23301702.579 6                  23301706.441 7  23301710.039 8 122451267.908 6                  95416619.146 7  91440952.204 8
G31  22681505.710 7                  22681510.457 7                 119192118.381 7                  92877173.981 7
R02  23435177.569 6  23435183.996 5 125054608.411 6  97264561.63615
R03  19626008.601 8  19626010.889 7 105059559.829 8  81712953.405 7
R04  20073529.041 8  20073530.926 7 107492827.632 8  83605546.765 7
R12  23474708.168 6  23474712.651 6 125397743.720 6  97531524.463 6
R18  20408850.335 8  20408852.424 7 108943819.940 8  84733928.116 7
R19  19623768.099 8  19623768.991 8 104973933.317 8  81646550.070 8
R20  23292843.800 5  23292850.006 6 124557293.351 5  96877937.731 6
> 2025 06 15 14 02  0.0000000  0 35
C05  39295753.992 5  39295749.690 7 204623322.633 5 158227698.788 7
C06  38623853.533 6  38623848.630 7 201124539.711 6 155522244.099 7
C09  39193666.288 7  39193664.192 7 204091716.544 7 157816660.941 7
C11  24261781.865 7  24261780.177 8 126337715.521 7  97692128.665 8
C12  22313234.798 7  22313232.217 8 116190869.373 7  89846105.506 8
C16  39137903.658 6  39137904.846 7 203801317.298 6 157592108.664 7
C19  25684635.766 5                 133746746.371 5
C21  23061121.100 8                 120085313.348 8
C22  21780108.677 8                 113414737.485 8
C34  22686122.733 7                 118132596.007 7
C39  38980542.110 7                 202981905.364 7
C43  26133433.365 6                 136083646.128 6
C44  22904462.748 8                 119269536.255 8
E03  25667132.608 7  25667137.222 8 134881702.456 7 102037149.648 8
E05  22157843.743 8  22157845.998 9 116440253.380 8  88086305.691 9
E09  26268256.403 7  26268259.655 8 138040614.992 7 104426837.732 8
E15  24964967.873 7  24964971.042 9 131191791.399 7  99245752.914 9
E34  23496348.695 8  23496351.124 9 123474146.597 8  93407395.708 9
E36  26526939.426 7  26526944.645 7 139400001.439 7 105455210.739 7
G01  20738188.047 7                  20738191.092 8  20738193.191 9 108979903.233 7                  84919420.177 8  81381119.206 9
G02  22952328.458 7  22952330.715 5                                 120615284.326 7  93985734.389 5                
G03  20003165.763 7                  20003171.101 8  20003169.334 9 105117341.875 7                  81909678.155 8  78496805.091 9
G04  21687953.314 7                  21687958.000 7  21687959.180 8 113970967.969 7                  88808573.527 7  85108217.831 8
G09  24461124.109 6                  24461130.454 4  24461132.133 5 128544070.033 6                 100164234.82914  95990738.592 5
G17  22491555.677 6                  22491559.493 6                 118193864.898 6                  92099174.478 6
G19  22542044.572 7  22542047.281 5                                 118459244.006 7  92305927.415 5                
G28  23302536.275 7                  23302540.004 7  23302543.187 8 122455648.474 7                  95420032.542 7  91444223.401 8
G31  22676884.139 7                  22676888.714 7                 119167831.820 7                  92858249.420 7
R02  23445937.909 7  23445943.608 6 125112021.188 7  97309216.013 6
R03  19630088.250 8  19630090.627 7 105081399.720 8  81729939.968 7
R04  20067348.067 8  20067350.477 7 107459731.932 8  83579805.707 7
R12  23469544.929 6  23469551.697 6 125370176.810 6  97510083.582 6
R18  20417177.808 8  20417180.306 7 108988273.309 8  84768502.967 7
R19  19620288.025 8  19620288.655 7 104955317.353 8  81632071.002 7
R20  23280868.437 5  23280874.923 7 124493258.379 5  96828132.812 7
> 2025 06 15 14 02 15.0000000  0 35
C05  39295571.815 5  39295567.428 6 204622372.48615 158226963.82516
C06  38621601.261 6  38621597.101 7 201112813.981 6 155513177.024 7
C09  39190067.544 7  39190065.854 7 204072976.126 7 157802169.691 7
C11  24255089.040 7  24255087.026 8 126302863.735 7  97665179.066 8
C12  22315561.968 7  22315559.542 8 116202988.372 7  89855476.679 8
C16  39136125.931 7  39136127.182 7 203792060.814 7 157584950.970 7
C19  25692942.526 5                 133789998.681 5
C21  23055306.731 8                 120055038.358 8
C22  21782718.312 8                 113428327.232 8
C34  22683744.777 7                 118120213.487 7
C39  38980124.828 7                 202979728.482 7
C43  26124692.399 6                 136038129.257 6
C44  22911271.206 8                 119304988.703 8
E03  25659195.729 7  25659199.947 8 134839991.451 7 102005595.588 8
E05  22156826.955 8  22156829.416 9 116434911.106 8  88082264.308 9
E09  26274740.860 7  26274744.379 8 138074692.353 7 104452617.013 8
E15  24958957.177 8  24958960.331 9 131160205.019 8  99221858.025 9
E34  23497875.665 8  23497878.125 9 123482171.000 8  93413466.114 9
E36  26534396.928 7  26534402.152 7 139439189.317 7 105484856.011 7
G01  20742777.405 7                  20742780.895 8  20742782.662 9 109004021.412 7                  84938213.564 8  81399129.522 9
G02  22960405.977 7  22960408.840 5                                 120657732.304 7  94018810.689 5                
G03  20002742.894 8                  20002748.484 8  20002746.982 9 105115120.956 8                  81907947.546 8  78495146.587 9
G04  21679838.018 7                  21679842.592 7  21679843.733 8 113928322.871 7                  88775343.603 7  85076372.485 8
G09  24450130.768 6                  24450136.434 4  24450139.205 6 128486299.924 6                 100119219.35414  95947598.602 6
G17  22493187.802 6                  22493191.174 6                 118202440.376 6                  92105856.611 6
G19  22538044.549 7  22538047.504 5                                 118438224.521 7  92289548.579 5                
G28  23303397.052 7                  23303400.828 7  23303403.727 8 122460173.201 7                  95423558.334 7  91447602.279 8
G31  22672288.242 7                  22672293.005 7                 119143680.673 7                  92839430.379 7
R02  23456699.232 7  23456703.501 6 125169437.206 7  97353872.849 6
R03  19634191.115 8  19634193.030 7 105103359.209 8  81747019.595 7
R04  20061190.871 8  20061193.437 7 107426759.970 8  83554160.845 7
R12  23464415.069 6  23464419.752 5 125342767.551 6  97488765.242 5
R18  20425531.148 8  20425532.940 7 109032862.546 8  84803183.443 7
R19  19616841.231 8  19616841.820 7 104936878.996 8  81617730.046 7
R20  23268900.281 5  23268907.372 7 124429261.065 5  96778357.140 7
> 2025 06 15 14 02 30.0000000  0 35
C05  39295388.166 5  39295383.465 6 204621415.56415 158226223.61616
C06  38619356.032 7  38619351.553 7 201101122.040 7 155504136.078 7
C09  39186474.258 7  39186471.915 7 204054262.255 7 157787698.954 7
C11  24248411.601 7  24248409.620 8 126268092.516 7  97638291.760 8
C12  22317911.936 7  22317909.256 8 116215224.785 7  89864938.634 8
C16  39134354.712 7  39134355.849 7 203782837.818 7 157577819.172 7
C19  25701249.992 5                 133833256.534 5
C21  23049504.822 8                 120024827.800 8
C22  21785342.324 8                 113441990.097 8
C34  22681388.583 8                 118107946.445 8
C39  38979713.512 7                 202977586.245 7
C43  26115959.973 7                 135992656.738 7
C44  22918094.470 8                 119340521.345 8
E03  25651266.734 7  25651271.143 8 134798325.285 7 101974075.447 8
E05  22155827.895 8  22155829.981 9 116429659.042 8  88078291.155 9
E09  26281233.894 7  26281237.654 8 138108814.549 7 104478430.223 8
E15  24952954.469 8  24952957.555 9 131128660.493 8  99197994.805 9
E34  23499417.064 8  23499419.593 9 123490271.559 8  93419594.130 9
E36  26541860.391 7  26541865.696 7 139478409.831 7 105514526.025 7
G01  20747387.622 8                  20747390.989 8  20747393.231 9 109028247.654 8                  84957091.159 8  81417220.545 9
G02  22968494.313 7  22968496.948 5                                 120700236.057 7  94051930.461 5                
G03  20002337.944 7                  20002343.538 8  20002341.801 9 105112991.983 7                  81906288.625 8  78493556.785 9
G04  21671738.732 7                  21671743.547 7  21671744.676 8 113885762.023 7                  88742179.333 7  85044590.075 8
G09  24439140.916 6                                  24439149.356 6 128428546.300 6                                  95904471.000 6
G17  22494843.870 6                  22494847.104 6                 118211142.334 6                  92112637.367 6
G19  22534071.659 7  22534074.922 5                                 118417349.229 7  92273282.128 5                
G28  23304285.593 7                  23304289.152 7  23304291.967 8 122464840.137 7                  95427194.912 7  91451087.342 8
G31  22667718.057 7                  22667722.357 7                 119119663.245 7                  92820715.521 7
R02  23467459.389 7  23467463.543 7 125226854.048 7  97398530.336 7
R03  19638314.969 8  19638316.966 7 105125436.068 8  81764190.471 7
R04  20055055.792 8  20055058.613 7 107393909.825 8  83528610.753 7
R12  23459313.726 6  23459315.743 5 125315514.087 6  97467568.130 5
R18  20433908.908 8  20433911.587 7 109077585.431 8  84837967.893 7
R19  19613427.374 8  19613428.268 8 104918616.702 8  81603526.045 8
R20  23256939.660 6  23256946.739 7 124365300.079 6  96728609.753 7
> 2025 06 15 14 02 45.0000000  0 35
C05  39295203.002 5  39295199.326 7 204620453.933 5 158225480.091 7
C06  38617117.615 6  38617112.915 7 201089464.833 6 155495121.979 7
C09  39182884.894 7  39182883.425 7 204035575.810 7 157773249.437 7
C11  24241749.923 7  24241747.703 8 126233402.963 7  97611467.640 8
C12  22320284.625 7  22320281.873 8 116227579.512 7  89874492.085 8
C16  39132589.784 6  39132591.531 7 203773649.247 6 157570713.989 7
C19  25709559.426 5                 133876520.608 5
C21  23043716.309 8                 119994682.644 8
C22  21787980.468 8                 113455726.872 8
C34  22679055.550 8                 118095795.978 8
C39  38979308.682 7                 202975479.570 7
C43  26107236.005 7                 135947229.804 7
C44  22924933.692 8                 119376134.849 8
E03  25643346.581 7  25643351.040 8 134756705.054 7 101942590.026 8
E05  22154845.635 8  22154847.898 9 116424498.137 8  88074386.980 9
E09  26287736.036 7  26287739.622 8 138142982.344 7 104504277.899 8
E15  24946960.035 8  24946962.981 9 131097158.913 8  99174164.101 9
E34  23500973.247 8  23500975.758 9 123498449.271 8  93425780.509 9
E36  26549330.824 7  26549335.727 8 139517663.858 7 105544221.394 8
G01  20752018.292 7                  20752021.610 8  20752023.907 9 109052582.810 7                  84976053.578 8  81435392.867 9
G02  22976593.352 7  22976595.560 6                                 120742796.182 7  94085094.170 6                
G03  20001950.721 8                  20001955.854 8  20001954.126 9 105110955.922 8                  81904702.080 8  78492036.355 9
G04  21663656.141 7                  21663660.525 7  21663661.853 8 113843286.613 7                  88709081.636 7  85012871.465 8
G09  24428154.259 6                  24428159.981 5  24428163.128 6 128370810.330 6                 100029232.48915  95861356.566 6
G17  22496523.497 6                  22496527.826 6                 118219971.421 6                  92119517.212 6
G19  22530127.108 7  22530129.710 5                                 118396619.241 7  92257128.938 5                
G28  23305200.777 7                  23305204.677 7  23305207.346 8 122469650.160 7                  95430943.037 7  91454679.299 8
G31  22663173.743 7                  22663177.830 7                 119095780.700 7                  92802105.770 7
R02  23478219.604 7  23478223.785 6 125284272.617 7  97443189.172 6
R03  19642461.509 8  19642463.352 7 105147631.360 8  81781453.452 7
R04  20048945.008 8  20048947.444 7 107361182.506 8  83503156.192 7
R12  23454241.362 6  23454243.461 4 125288417.973 6  97446493.224 4
R18  20442312.396 8  20442314.829 7 109122442.359 8  84872856.569 7
R19  19610046.969 8  19610046.715 8 104900531.684 8  81589459.920 8
R20  23244985.788 6  23244992.395 7 124301376.768 6  96678891.675 7
> 2025 06 15 14 03  0.0000000  0 35
C05  39295016.728 5  39295013.229 7 204619485.012 5 158224730.847 7
C06  38614885.300 6  38614880.562 7 201077840.908 6 155486133.626 7
C09  39179301.670 7  39179299.937 7 204016915.434 7 157758820.087 7
C11  24235103.229 7  24235101.422 8 126198793.917 7  97584705.727 8
C12  22322679.222 7  22322676.921 8 116240051.043 7  89884135.858 8
C16  39130831.558 7  39130832.990 7 203764493.702 7 157563634.331 7
C19  25717864.651 4                 133919789.33014
C21  23037939.575 8                 119964601.552 8
C22  21790632.204 8                 113469536.008 8
C34  22676744.249 8                 118083760.711 8
C39  38978910.268 7                 202973407.041 7
C43  26098520.935 6                 135901847.295 6
C44  22931788.211 7                 119411827.601 7
E03  25635434.812 7  25635439.364 8 134715129.413 7 101911138.352 8
E05  22153880.563 8  22153882.895 9 116419426.937 8  88070550.645 9
E09  26294246.635 7  26294249.980 8 138177194.088 7 104530158.835 8
E15  24940973.477 8  24940976.360 9 131065699.091 8  99150364.949 9
E34  23502543.741 8  23502546.353 9 123506702.726 8  93432024.190 9
E36  26556805.970 7  26556811.710 7 139556949.876 7 105573940.985 7
G01  20756669.929 7                  20756673.004 8  20756675.214 9 109077025.313 7                  84995099.684 8  81453645.380 9
G02  22984702.715 7  22984704.743 5                                 120785410.964 7  94118300.462 5                
G03  20001580.324 8                  20001585.927 8  20001584.112 9 105109011.322 8                  81903186.814 8  78490584.218 9
G04  21655589.644 7                  21655593.641 7  21655595.037 8 113800895.448 7                  88676049.577 7  84981215.730 8
G09  24417170.783 6                  24417177.548 5  24417178.882 6 128313090.787 6                  99984256.271 5  95818254.418 6
G17  22498227.483 5                  22498232.574 6                 118228926.33815                  92126495.117 6
G19  22526209.540 7  22526212.149 5                                 118376033.390 7  92241088.043 5                
G28  23306142.800 7                  23306146.782 7  23306149.181 8 122474601.916 7                  95434801.535 7  91458377.012 8
G31  22658654.753 7                  22658658.638 7                 119072031.852 7                  92783600.241 7
R02  23488979.070 6  23488983.154 6 125341690.944 6  97487847.792 6
R03  19646629.091 8  19646631.293 7 105169943.179 8  81798807.088 7
R04  20042855.263 8  20042858.625 8 107328576.881 8  83477796.315 8
R12  23449198.270 6  23449199.496 5 125261478.011 6
R18  20450740.272 8  20450742.945 7 109167431.602 8  84907848.159 7
R19  19606699.003 8  19606698.884 7 104882622.696 8  81575530.718 7
R20  23233037.959 5  23233045.446 7 124237490.159 5  96629202.142 7
> 2025 06 15 14 03 15.0000000  0 34
C05  39294829.296 5  39294825.684 7 204618508.474 5 158223975.744 7
C06  38612658.518 6  38612654.564 7 201066249.945 6 155477170.770 7
C09  39175723.367 6  39175721.102 7 203998280.808 6 157744410.639 7
C11  24228471.475 7  24228470.423 8 126164265.234 7  97558005.978 8
C12  22325096.856 7  22325094.163 8 116252639.037 7  89893869.686 8
C16  39129079.965 7  39129081.232 7 203755370.786 7 157556579.939 7
C19  25726178.023 5                 133963062.191 5
C21  23032174.736 8                 119934584.231 8
C22  21793298.088 8                 113483417.033 8
C34  22674455.494 8                 118071840.451 8
C39  38978518.877 7                 202971368.315 7
C43  26089813.551 6                 135856509.118 6
C44  22938657.805 7                 119447599.051 7
E03  25627531.854 7  25627536.079 8 134673598.183 7 101879720.282 8
E05  22152932.516 8  22152934.865 9 116414444.996 8  88066781.848 9
E09  26300765.498 7  26300768.573 8 138211449.263 7 104556072.605 8
E15  24934994.490 8  24934997.621 9 131034280.781 8  99126597.223 9
E34  23504128.680 8  23504131.287 9 123515031.595 8  93438324.938 9
E36  26564287.436 7  26564293.444 7 139596267.500 7 105603684.491 7
G01  20761341.358 7                  20761344.635 8  20761346.484 8 109101574.782 7                  85014229.137 8  81471977.764 8
G02  22992821.866 7  22992824.714 6                                 120828080.098 7  94151549.107 6                
G03  20001227.585 8                  20001233.330 8  20001231.258 9 105107157.827 8                  81901742.538 8  78489200.126 9
G04  21647538.341 7                  21647542.913 7  21647544.173 8 113758588.316 7                  88643082.999 7  84949622.780 8
G09  24406189.811 6                  24406198.640 5  24406197.807 6 128255387.608 6                  99939292.762 5  95775164.466 6
G17  22499955.916 5                  22499960.011 6                 118238006.808 5                  92133570.797 6
G19  22522319.823 7  22522322.338 5                                 118355591.478 7  92225159.276 5                
G28  23307112.084 6                  23307116.010 7  23307118.135 8 122479694.884 6                  95438770.073 7  91462180.222 8
G31  22654160.208 7                  22654164.518 7                 119048416.637 7                  92765198.758 7
R03  19650819.308 8  19650821.223 7 105192370.726 8  81816250.744 7
R04  20036789.722 8  20036792.178 7 107296092.420 8  83452530.622 7
R12  23444182.917 7  23444189.729 6 125234694.072 7  97404708.33716
R18  20459193.227 8  20459195.283 7 109212552.466 8  84942942.135 7
R19  19603383.569 8  19603384.040 7 104864889.532 8  81561738.274 7
R20  23221097.903 6  23221104.891 7 124173640.186 6  96579541.057 7
> 2025 06 15 14 03 30.0000000  0 35
C05  39294642.014 5  39294637.836 7 204617531.094 5 158223219.957 7
C06  38610440.914 6  38610436.322 7 201054698.597 6 155468238.544 7
C09  39172150.921 6  39172148.187 7 203979678.590 6 157730026.259 7
C11  24221858.159 7  24221856.127 8 126129823.852 7  97531373.733 8
C12  22327537.753 7  22327535.204 8 116265349.997 7  89903698.591 8
C16  39127335.711 7  39127336.679 7 203746287.184 7 157549555.914 7
C19  25734490.048 5                 134006346.022 5
C21  23026423.659 8                 119904637.354 8
C22  21795978.500 8                 113497376.430 8
C34  22672189.447 8                 118060041.930 8
C39  38978135.378 7                 202969369.992 7
C43  26081117.305 6                 135811222.227 6
C44  22945543.241 7                 119483455.560 7
E03  25619638.332 7  25619642.503 8 134632118.183 7 101848340.965 8
E05  22152002.753 8  22152005.080 9 116409559.017 8  88063085.641 9
E09  26307293.457 7  26307296.630 8 138245754.327 7 104582024.151 8
E15  24929025.065 8  24929028.059 9 131002910.873 8  99102866.104 9
E34  23505729.306 8  23505731.874 9 123523442.653 8  93444687.848 9
E36  26571776.562 7  26571782.766 7 139635623.286 7 105633456.862 7
G01  20766034.533 8                  20766037.923 8  20766040.063 9 109126237.792 8                  85033447.044 8  81490394.935 9
G02  23000953.556 7  23000955.879 5                                 120870810.162 7  94184845.219 5                
G03  20000893.640 8                  20000899.153 8  20000897.261 9 105105402.116 8                  81900374.458 8  78487889.051 9
G04  21639504.924 7                  21639509.103 7  21639510.867 8 113716372.139 7                  88610187.328 7  84918097.749 8
G09  24395213.390 6                  24395222.172 5  24395221.601 6 128197707.726 6                  99894347.498 5  95732091.874 6
G17  22501708.636 5                  22501712.749 6                 118247218.81215                  92140749.020 6
G19  22518458.666 7  22518461.264 5                                 118335300.217 7  92209347.929 5                
G28  23308109.085 6                  23308113.366 7  23308114.878 8 122484935.844 6                  95442853.917 7  91466093.894 8
G31  22649692.878 7                  22649697.668 7                 119024942.055 7                  92746906.891 7
R02  23510495.350 5  23510504.832 6 125456542.16015  97577167.956 6
R03  19655031.503 8  19655033.491 7 105214920.690 8  81833789.618 7
R04  20030747.156 8  20030749.784 7 107263736.386 8  83427364.854 7
R12  23439201.849 7  23439205.972 6 125208073.500 7  97384003.374 6
R18  20467671.464 8  20467674.137 8 109257811.538 8  84978143.601 8
R19  19600103.089 8  19600103.632 8 104847339.421 8  81548088.198 8
R20  23209165.880 6  23209171.961 7 124109834.004 6  96529914.117 7
> 2025 06 15 14 03 45.0000000  0 35
C05  39294453.348 5  39294449.654 7 204616550.651 5 158222461.814 7
C06  38608229.631 6  38608224.919 7 201043184.642 6 155459335.240 7
C09  39168583.844 6  39168581.787 7 203961106.652 6 157715665.275 7
C11  24215260.396 7  24215258.606 8 126095467.853 7  97504807.528 8
C12  22330002.259 7  22329999.287 8 116278181.699 7  89913620.870 8
C16  39125598.331 7  39125599.429 7 203737240.716 7 157542560.604 7
C19  25742804.704 4                                
C21  23020686.038 8                 119874758.756 8
C22  21798673.750 8                 113511411.913 8
C34  22669946.505 8                 118048363.116 8
C39  38977758.641 6                 202967409.849 6
C43  26072429.282 6                 135765984.625 6
C44  22952445.486 8                 119519394.798 8
E03  25611754.225 7  25611758.419 8 134590687.375 7 101816998.854 8
E05  22151090.523 8  22151093.126 9 116404766.735 8  88059460.320 9
E09  26313830.781 7  26313833.664 8 138280106.925 7 104608011.661 8
E15  24923064.624 8  24923067.364 9 130971587.352 8  99079170.081 9
E34  23507345.282 8  23507347.700 9 123531933.724 8  93451111.281 9
E36  26579273.319 6  26579278.824 7 139675015.027 6 105663256.412 7
G01  20770748.619 8                  20770752.169 8  20770754.263 8 109151012.040 8                  85052751.638 8  81508895.172 8
G02  23009095.905 7  23009098.982 5                                 120913598.779 7  94218186.920 5                
G03  20000577.796 8                  20000583.306 8  20000581.633 9 105103742.017 8                  81899080.862 8  78486649.354 9
G04  21631488.358 7                  21631492.978 7  21631494.289 8 113674244.964 7                  88577360.976 7  84886639.188 8
G09  24384241.416 6                  24384249.496 5  24384249.310 7 128140049.079 6                  99849418.847 5  95689035.199 7
G17  22503486.868 6                  22503489.647 6                 118256560.484 6                  92148028.286 6
G19  22514625.895 7  22514628.424 5                                 118315157.762 7  92193652.480 5                
G28  23309134.172 7                  23309138.493 7  23309139.834 8 122490322.463 7                  95447051.289 7  91470116.378 8
G31  22645252.232 7                  22645257.302 7                 119001606.098 7                  92728723.055 7
R02  23521259.564 6  23521266.969 6 125513968.607 6  97621832.908 6
R03  19659266.536 8  19659268.982 7 105237590.277 8  81851421.506 7
R04  20024728.648 8  20024730.748 7 107231506.085 8  83402296.853 7
R12  23434245.730 7  23434252.989 6 125181614.366 7  97363424.062 6
R18  20476175.814 8  20476177.846 7 109303206.085 8  85013450.470 7
R19  19596855.902 8  19596856.381 7 104829970.543 8  81534579.062 7
R20  23197241.311 6  23197248.423 7 124046070.313 6  96480320.202 7
> 2025 06 15 14 04  0.0000000  0 34
C05  39294264.905 5  39294260.183 7 204615565.841 5 158221700.310 7
C06  38606025.651 6  38606021.022 7 201031707.002 6 155450460.025 7
C09  39165023.001 6  39165020.810 7 203942563.838 6 157701326.793 7
C11  24208679.112 7  24208677.137 8 126061196.283 7  97478306.616 8
C12  22332489.437 7  22332486.315 8 116291132.886 7  89923635.543 8
C16  39123867.887 7  39123869.118 7 203728230.168 7 157535593.077 7
C21  23014960.913 8                 119844947.422 8
C22  21801383.610 8                 113525522.133 8
C34  22667726.728 8                 118036802.896 8
C39  38977389.477 6                 202965486.702 6
C43  26063751.525 6                 135720795.439 6
C44  22959362.715 7                 119555415.319 7
E03  25603879.530 7  25603883.506 8 134549304.669 7 101785693.143 8
E05  22150196.364 8  22150198.779 9 116400066.954 8  88055904.966 9
E09  26320376.513 7  26320379.454 8 138314505.674 7 104634034.078 8
E15  24917112.120 7  24917115.264 9 130940309.154 7  99055508.351 9
E34  23508975.841 8  23508978.485 9 123540503.641 8  93457594.366 9
E36  26586775.820 6  26586781.505 7 139714441.429 6 105693082.168 7
G01  20775484.322 7                  20775487.513 8  20775489.529 8 109175896.234 7                  85072141.921 8  81527477.528 8
G02  23017249.080 7  23017252.343 5                                 120956444.580 7  94251573.187 5                
G03  20000279.692 8                  20000285.189 8  20000283.678 9 105102176.289 8                  81897860.827 8  78485480.145 9
G04  21623488.339 7                  21623492.792 7  21623494.684 8 113632205.813 7                  88544603.215 7  84855246.346 8
G09  24373273.182 6                  24373281.847 6  24373281.526 7 128082410.707 6                  99804505.948 6  95645993.633 7
G17  22505289.070 6                  22505291.932 5                 118266030.629 6                  92155407.640 5
G19  22510820.444 7  22510823.213 5                                 118295162.981 7  92178072.156 5                
G28  23310187.115 7                  23310190.780 7  23310192.869 8 122495853.582 7                  95451361.285 7  91474246.751 8
G31  22640838.091 7                  22640842.548 7                 118978407.820 7                  92710646.526 7
R02  23532022.332 6  23532028.842 6 125571396.920 6  97666499.355 6
R03  19663523.252 8  19663525.278 7 105260378.189 8  81869145.444 7
R04  20018733.161 8  20018735.352 8 107199400.816 8  83377326.076 8
R12  23429326.546 7  23429329.678 6 125155315.812 7  97342969.651 6
R18  20484704.492 8  20484707.005 7 109348734.704 8  85048861.571 7
R19  19593642.863 8  19593642.864 7 104812781.905 8  81521210.147 7
R20  23185324.840 6  23185331.606 7 123982348.300 6  96430758.690 7
> 2025 06 15 14 04 15.0000000  0 34
C05  39294075.402 5  39294071.202 7 204614579.94315 158220938.98617
C06  38603828.475 6  38603824.198 7 201020268.783 6 155441615.270 7
C09  39161468.142 6  39161465.730 7 203924053.325 6 157687013.309 7
C11  24202113.975 7  24202112.438 8 126027012.534 7  97451873.575 8
C12  22335000.262 7  22334997.194 8 116304206.719 7  89933745.059 8
C16  39122144.629 7  39122146.428 7 203719258.705 7 157528655.764 7
C21  23009249.324 8                 119815206.451 8
C22  21804108.468 8                 113539710.129 8
C34  22665529.998 8                 118025364.556 8
C39  38977027.359 6                 202963603.665 6
C43  26055083.321 7                 135675658.070 7
C44  22966296.268 8                 119591520.106 8
E03  25596014.820 7  25596018.374 8 134507973.449 7 101754426.375 8
E05  22149319.992 8  22149322.620 9 116395462.777 8  88052421.943 9
E09  26326931.697 7  26326934.588 8 138348953.566 7 104660093.669 8
E15  24911169.395 8  24911172.489 9 130909079.680 8  99031883.470 9
E34  23510622.323 8  23510624.934 9 123549155.633 8  93464139.535 9
E36  26594285.170 6  26594291.416 7 139753905.466 6 105722936.420 7
G01  20780240.770 8                  20780244.322 8  20780246.229 8 109200893.507 8                  85091620.292 8  81546144.301 8
G02  23025413.688 7  23025416.612 6                                 120999350.667 7  94285006.489 6                
G03  20000000.626 8                  20000005.812 8  20000003.988 9 105100708.102 8                  81896716.794 8  78484383.779 9
G04  21615506.270 7                  21615510.804 7  21615512.050 8 113590258.029 7                  88511916.677 7  84823921.758 8
G09  24362309.350 5                  24362318.289 6  24362317.457 7 128024796.118 5                  99759611.502 6  95602969.834 7
G17  22507116.128 6                  22507119.930 6                 118275632.050 6                  92162889.309 6
G19  22507044.209 7  22507046.397 5                                 118275319.305 7  92162609.573 5                
G28  23311267.417 7                  23311271.049 7  23311274.004 8 122501532.291 7                  95455786.279 7  91478487.395 8
G31  22636450.226 7                  22636454.905 7                 118955350.831 7                  92692680.083 7
R02  23542784.814 6  23542791.601 6 125628829.714 6  97711169.319 6
R03  19667802.201 8  19667804.953 7 105283287.292 8  81886963.604 7
R04  20012761.642 8  20012763.884 7 107167423.769 8  83352455.092 7
R12  23424432.232 7  23424435.466 6 125129181.407 7  97322642.896 6
R18  20493259.209 8  20493261.561 7 109394400.242 8  85084379.193 7
R19  19590464.047 8  19590463.994 8 104795776.670 8  81507983.857 8
R20  23173417.275 6  23173423.765 7 123918671.820 6  96381232.592 7
> 2025 06 15 14 04 30.0000000  0 34
C05  39293884.756 5  39293881.052 7 204613589.354 5 158220172.984 7
C06  38601638.692 7  38601634.907 7 201008866.453 7 155432798.266 7
C09  39157918.687 6  39157916.708 7 203905571.604 6 157672722.083 7
C11  24195566.039 7  24195564.184 8 125992913.272 7  97425505.905 8
C12  22337533.778 7  22337530.617 8 116317399.479 7  89943946.544 8
C16  39120428.908 7  39120430.267 7 203710322.788 7 157521745.934 7
C21  23003550.847 8                 119785532.377 8
C22  21806847.362 8                 113553972.229 8
C34  22663355.837 7                 118014044.635 7
C39  38976672.517 6                 202961757.207 6
C43  26046424.366 7                 135630569.187 7
C44  22973245.274 8                 119627705.284 8
E03  25588158.600 8  25588162.404 8 134466690.217 8 101723195.905 8
E05  22148461.511 8  22148463.960 9 116390950.607 8  88049008.522 9
E09  26333495.540 7  26333498.332 8 138383446.794 7 104686187.551 8
E15  24905235.523 8  24905238.352 9 130877895.493 8  99008292.840 9
E34  23512283.716 8  23512286.303 9 123557886.146 8  93470744.109 9
E36  26601800.118 6  26601807.481 7 139793403.639 6 105752816.438 7
G01  20785018.476 8                  20785022.006 8  20785024.029 8 109226000.108 8                  85111183.854 8  81564892.709 8
G02  23033589.481 7  23033592.086 5                                 121042313.022 7  94318483.623 5                
G03  19999738.868 8                  19999744.412 8  19999742.526 9 105099333.868 8                  81895645.957 8  78483357.563 9
G04  21607540.228 7                  21607545.010 7  21607546.337 8 113548398.290 7                  88479298.721 7  84792662.894 8
G09  24351348.941 5                  24351358.932 6  24351358.016 7 127967201.778 5                  99714732.943 6  95559961.193 7
G17  22508968.074 6                  22508971.715 6                 118285361.009 6                  92170470.297 6
G19  22503296.905 7  22503298.441 5                                 118255623.394 7  92147262.093 5                
G28  23312375.162 7                  23312379.230 7  23312382.411 8 122507355.051 7                  95460323.484 7  91482835.553 8
G31  22632088.606 7                  22632093.569 7                 118932431.677 7                  92674821.045 7
R02  23553548.747 6  23553554.160 5 125686263.580 6  97755840.144 5
R03  19672104.165 8  19672106.524 7 105306313.532 8  81904872.922 7
R04  20006813.092 8  20006815.906 7 107135571.521 8  83327681.128 7
R12  23419569.223 6  23419573.940 6 125103207.963 6  97302441.358 6
R18  20501838.954 8  20501841.397 7 109440198.669 8  85120000.147 7
R19  19587318.792 8  19587318.651 7 104778951.763 8  81494897.808 7
R20  23161517.505 6  23161523.496 7 123855036.896 6  96331738.803 7
> 2025 06 15 14 04 45.0000000  0 34
C05  39293695.763 5  39293691.165 7 204612601.683 5 158219409.237 7
C06  38599457.955 7  38599453.243 7 200997507.568 7 155424014.865 7
C09  39154376.027 6  39154374.432 7 203887126.199 6 157658458.964 7
C11  24189035.160 7  24189033.339 8 125958906.370 7  97399209.623 8
C12  22340091.436 7  22340088.403 8 116330718.774 7  89954245.846 8
C16  39118720.674 7  39118722.997 7 203701430.004 7 157514869.452 7
C21  22997866.674 8                 119755932.827 8
C22  21809601.763 8                 113568315.888 8
C34  22661206.394 8                 118002850.821 8
C39  38976327.083 6                 202959954.822 6
C43  26037776.300 6                 135585536.724 6
C44  22980210.988 8                 119663978.317 8
E03  25580313.714 8  25580317.020 8 134425462.802 8 101692007.674 8
E05  22147622.112 8  22147624.284 9 116386538.061 8  88045670.473 9
E09  26340069.129 7  26340072.342 8 138417992.921 7 104712321.405 8
E15  24899311.340 7  24899314.314 9 130846764.398 7  98984742.386 9
E34  23513961.414 8  23513964.098 9 123566702.881 8  93477413.894 9
E36  26609324.977 6  26609331.753 7 139832943.387 6 105782727.993 7
G01  20789818.544 7                  20789821.997 8  20789823.915 8 109251223.654 7                  85130838.564 8  81583728.460 8
G02  23041777.168 7  23041779.589 5                                 121085339.158 7  94352010.432 5                
G03  19999496.622 8                  19999502.352 8  19999500.531 9 105098061.230 8                  81894654.281 8  78482407.217 9
G04  21599592.839 7                  21599597.740 7  21599598.908 8 113506634.521 7                  88446755.529 7  84761475.658 8
G09  24340394.732 5                  24340404.371 6  24340403.247 7 127909635.789 5                  99669876.388 6  95516973.677 7
G17  22510845.137 5                  22510848.280 6                 118295225.002 5                  92178156.502 6
G19  22499577.988 7  22499580.318 5                                 118236082.900 7  92132035.788 5                
G28  23313511.727 7                  23313516.358 7  23313518.922 8 122513329.464 7                  95464978.877 7  91487296.965 8
G31  22627755.235 7                  22627759.766 7                 118909658.262 7                  92657075.550 7
R02  23564313.408 6  23564319.080 4 125743705.913 6  97800517.42314
R03  19676429.625 8  19676431.235 7 105329464.800 8  81922879.469 7
R04  20000889.854 8  20000892.441 7 107103851.678 8  83303010.171 7
R12  23414740.301 6  23414744.735 6 125077403.469 6  97282371.345 6
R18  20510445.049 8  20510447.720 7 109486137.420 8  85155730.261 7
R19  19584208.896 8  19584209.149 7 104762315.414 8  81481958.439 7
R20  23149626.172 6  23149633.090 7 123791452.354 6  96282284.178 7
> 2025 06 15 14 05  0.0000000  0 34
C05  39293505.634 5  39293501.383 7 204611612.807 5 158218644.591 7
C06  38597284.159 7  38597279.416 7 200986188.045 7 155415261.892 7
C09  39150840.301 6  39150838.330 7 203868713.115 6 157644220.826 7
C11  24182521.549 7  24182519.664 8 125924988.002 7  97372981.813 8
C12  22342672.853 7  22342670.045 8 116344160.358 7  89964639.725 8
C16  39117020.103 7  39117022.323 7 203692576.230 7 157508023.176 7
C21  22992195.619 8                 119726403.739 8
C22  21812371.150 8                 113582736.811 8
C34  22659080.307 8                 117991779.117 8
C39  38975988.799 6                 202958192.437 6
C43  26029138.318 7                 135540556.811 7
C44  22987192.827 8                 119700334.829 8
E03  25572478.557 8  25572481.504 8 134384287.171 8 101660858.611 8
E05  22146800.553 8  22146802.759 9 116382220.903 8  88042404.582 9
E09  26346652.712 7  26346655.515 8 138452587.500 7 104738491.968 8
E15  24893396.828 7  24893399.647 9 130815682.445 7  98961229.093 9
E34  23515655.028 8  23515657.503 9 123575601.689 8  93484145.791 9
E36  26616857.432 6  26616862.942 7 139872520.463 6 105812667.734 7
G01  20794639.810 8                  20794643.012 8  20794645.345 8 109276559.823 8                  85150581.029 8  81602648.329 8
G02  23049976.047 7  23049978.816 5                                 121128424.721 7  94385583.551 5                
G03  19999272.936 8                  19999278.604 8  19999276.791 9 105096886.039 8                  81893738.551 8  78481529.639 9
G04  21591663.070 7                  21591667.564 7  21591669.079 8 113464962.609 7                  88414283.970 7  84730357.093 8
G09  24329444.629 5                  24329454.642 6  24329452.994 7 127852094.089 5                  99625038.729 6  95474004.308 7
G17  22512746.592 5                  22512749.826 6                                                  92185944.646 6
G19  22495888.518 7  22495890.718 5                                 118216693.904 7  92116927.525 5                
G28  23314677.238 7                  23314681.570 7  23314683.879 8 122519451.308 7                  95469749.105 7  91491868.446 8
G31  22623448.524 7                  22623453.290 7                 118887026.795 7                  92639440.678 7
R02  23575080.886 6                 125801152.147 6
R03  19680776.604 8  19680778.877 7 105352736.359 8  81940979.564 7
R04  19994990.732 8  19994992.587 7 107072260.349 8  83278439.148 7
R12  23409939.819 6  23409944.065 6 125051764.033 6  97262429.564 6
R18  20519076.533 8  20519079.000 7 109532211.949 8  85191565.971 7
R19  19581133.319 8  19581133.025 7 104745863.318 8  81469162.365 7
R20  23137744.842 6  23137751.004 7 123727914.533 6  96232865.949 7
> 2025 06 15 14 05 15.0000000  0 34
C05  39293315.721 5  39293312.171 7 204610626.323 5 158217881.802 7
C06  38595118.996 6  38595114.100 7 200974911.437 6 155406542.118 7
C09  39147311.249 7  39147309.166 7 203850335.928 7 157630010.440 7
C11  24176025.775 7  24176023.732 8 125891161.952 7  97346825.388 8
C12  22345278.436 7  22345275.398 8 116357727.741 7  89975130.873 8
C16  39115328.920 7  39115330.402 7 203683764.999 7 157501209.788 7
C21  22986539.139 8                 119696948.762 8
C22  21815156.253 8                 113597238.475 8
C34  22656978.194 8                 117980833.192 8
C39  38975658.243 6                 202956473.461 6
C43  26020510.969 7                 135495633.239 7
C44  22994191.730 8                 119736778.162 8
E03  25564653.407 8  25564656.613 8 134343167.088 8 101629751.569 8
E05  22145997.565 8  22146000.101 9 116378002.733 8  88039213.570 9
E09  26353245.697 7  26353248.680 8 138487233.912 7 104764701.751 8
E15  24887491.797 7  24887494.980 9 130784653.347 7  98937755.806 9
E34  23517364.639 8  23517367.197 9 123584586.247 8  93490942.540 9
E36  26624395.763 6  26624402.448 7 139912138.398 6 105842638.424 7
G01  20799483.496 7                  20799486.610 8  20799488.762 8 109302012.170 7                  85170414.019 8  81621654.937 8
G02  23058187.229 7  23058189.691 5                                 121171573.172 7  94419205.681 5                
G03  19999068.580 8                  19999074.196 8  19999072.042 9 105095811.854 8                  81892901.534 8  78480727.481 9
G04  21583751.436 7                  21583756.281 7  21583757.353 8 113423386.484 7                  88381887.020 7  84699310.026 8
G09  24318500.672 5                  24318510.155 7  24318507.995 7 127794580.537 5                  99580223.010 7  95431055.959 7
G17  22514674.946 6                  22514677.004 6                 118315349.18216                  92193837.460 6
G19  22492228.395 7  22492230.526 5                                 118197460.283 7  92101940.256 5                
G28  23315870.456 7                  23315875.310 7  23315877.758 8 122525724.216 7                  95474637.013 7  91496552.718 8
G31  22619169.885 7                  22619174.275 7                 118864541.085 7                  92621919.399 7
R02  23585847.099 6  23585851.630 5 125858605.396 6  97889884.26715
R03  19685146.949 8  19685149.280 7 105376131.364 8  81959175.661 7
R04  19989115.770 8  19989118.099 8 107040801.201 8  83253970.972 8
R12  23405171.395 6  23405176.442 6 125026293.724 6  97242619.272 6
R18  20527733.620 8  20527735.972 7 109578425.528 8  85227509.840 7
R19  19578093.040 8  19578092.911 7 104729599.582 8  81456512.796 7
R20  23125872.132 6  23125879.206 7 123664426.908 6  96183486.704 7
> 2025 06 15 14 05 30.0000000  0 34
C05  39293127.558 5  39293123.082 7 204609642.765 5 158217121.235 7
C06  38592961.318 7  38592956.775 7 200963678.362 7 155397856.029 7
C09  39143789.514 7  39143787.054 7 203831995.256 7 157615828.293 7
C11  24169547.538 7  24169545.777 8 125857429.045 7  97320740.971 8
C12  22347907.817 7  22347905.110 8 116371421.494 7  89985719.730 8
C16  39113645.006 7  39113646.858 7 203674996.944 7 157494429.785 7
C21  22980897.203 8                 119667568.501 8
C22  21817956.594 8                 113611821.321 8
C34  22654900.518 8                 117970013.737 8
C39  38975336.185 6                 202954798.701 6
C43  26011894.611 7                 135450766.946 7
C44  23001207.096 8                 119773308.689 8
E03  25556838.936 8  25556842.402 8 134302103.245 8 101598687.076 8
E05  22145213.755 8  22145216.368 9 116373884.109 8  88036097.858 9
E09  26359848.490 7  26359851.791 8 138521932.683 7 104790951.110 8
E15  24881597.560 8  24881600.529 9 130753677.941 8  98914323.128 9
E34  23519090.732 8  23519093.355 9 123593657.134 8  93497804.616 9
E36  26631942.551 6  26631949.642 7 139951797.735 6 105872640.423 7
G01  20804348.962 7                  20804352.064 8  20804354.332 9 109327581.146 7                  85190337.912 8  81640748.634 9
G02  23066410.087 7  23066411.950 5                                 121214784.950 7  94452877.146 5                
G03  19998883.497 8                  19998888.858 8  19998887.252 9 105094839.274 8                  81892143.693 8  78480001.219 9
G04  21575858.333 7                  21575863.258 7  21575864.353 8 113381906.963 7                  88349565.321 7  84668335.064 8
G09  24307562.056 5                  24307571.081 7  24307568.833 7 127737095.874 5                  99535429.941 7  95388129.257 7
G17  22516627.380 6                  22516629.976 6                 118325613.152 6                  92201835.356 6
G19  22488598.188 7  22488600.222 5                                 118178382.798 7  92087074.704 5                
G28  23317093.210 7                  23317097.535 7  23317100.326 8 122532148.520 7                  95479642.975 7  91501350.121 8
G31  22614918.750 7                  22614923.147 7                 118842202.039 7                  92604512.318 7
R02  23596614.292 6  23596621.387 6 125916066.367 6  97934576.172 6
R03  19689540.580 8  19689542.495 7 105399650.693 8  81977468.461 7
R04  19983266.031 8  19983267.446 7 107009475.069 8  83229606.203 7
R12  23400434.781 6  23400440.845 5 125000993.501 6  97222941.426 5
R18  20536416.894 8  20536419.049 7 109624778.561 8  85263562.160 7
R19  19575087.610 8  19575088.604 7 104713525.022 8  81444010.386 7
R20  23114008.908 6  23114015.920 7 123600990.796 6  96134147.575 7
> 2025 06 15 14 05 45.0000000  0 34
C05  39292940.038 5  39292934.848 7 204608660.891 5 158216362.005 7
C06  38590812.669 7  38590807.847 7 200952487.548 7 155389202.590 7
C09  39140274.189 7  39140271.410 7 203813689.832 7 157601673.386 7
C11  24163086.975 7  24163085.408 8 125823788.137 7  97294727.712 8
C12  22350561.901 7  22350558.462 8 116385240.134 7  89996405.188 8
C16  39111968.544 7  39111970.844 7 203666270.747 7 157487682.146 7
C21  22975268.997 8                 119638261.728 8
C22  21820772.456 8                 113626483.925 8
C34  22652846.859 8                 117959319.553 8
C39  38975022.905 6                 202953166.635 6
C43  26003289.719 7                 135405956.736 7
C44  23008238.475 7                 119809924.917 7
E03  25549035.045 7  25549038.771 8 134261094.462 7 101567664.240 8
E05  22144449.030 8  22144451.301 9 116369863.649 8  88033056.409 9
E09  26366461.093 7  26366464.494 8 138556682.189 7 104817238.878 8
E15  24875713.098 8  24875716.099 9 130722755.044 8  98890930.164 9
E34  23520833.136 8  23520835.657 9 123602813.118 8  93504731.057 9
E36  26639497.643 6  26639503.858 7 139991497.135 6 105902672.602 7
G01  20809236.580 7                  20809239.883 8  20809241.781 8 109353265.383 7                  85210351.563 8  81659928.400 8
G02  23074644.944 7  23074646.607 6                                 121258058.555 7  94486596.784 6                
G03  19998717.339 8                  19998723.221 8  19998721.542 9 105093966.971 8                  81891463.968 8  78479349.834 9
G04  21567983.165 7                  21567987.678 7  21567988.881 8 113340522.839 7                  88317317.994 7  84637431.368 8
G09  24296627.577 5                  24296637.065 6  24296634.571 7 127679639.148 5                  99490658.572 6  95345223.408 7
G17  22518605.084 6                  22518609.018 6                 118336010.616 6                  92209937.249 6
G19  22484997.708 7  22484999.650 5                                 118159460.138 7  92072329.781 5                
G28  23318344.344 7                  23318348.393 7  23318351.367 8 122538723.107 7                  95484766.052 7  91506259.691 8
G31  22610695.374 7                  22610700.036 7                 118820008.500 7                  92587218.711 7
R02  23607384.317 6  23607389.944 5 125973533.448 6  97979272.667 5
R03  19693956.796 8  19693958.768 7 105423292.002 8  81995856.159 7
R04  19977440.413 8  19977442.773 7 106978280.695 8  83205343.911 7
R12  23395728.649 6  23395735.693 5 124975862.281 6  97203395.002 5
R18  20545126.327 8  20545129.035 7 109671269.190 8  85299721.530 7
R19  19572118.014 8  19572118.401 7 104697638.645 8  81431654.292 7
R20  23102155.653 6  23102162.458 7 123537605.322 6  96084847.778 7
> 2025 06 15 14 06  0.0000000  0 34
C05  39292751.543 5  39292747.414 7 204607685.326 5 158215607.631 7
C06  38588672.060 6  38588667.828 7 200941343.560 6 155380585.366 7
C09  39136766.340 7  39136764.219 7 203795424.231 7 157587549.271 7
C11  24156645.186 7  24156643.592 8 125790244.214 7  97268789.439 8
C12  22353240.440 7  22353237.035 8 116399188.271 7  90007190.753 8
C16  39110301.749 7  39110303.850 7 203657590.982 7 157480970.420 7
C21  22969655.723 8                 119609033.074 8
C22  21823604.527 8                 113641230.736 8
C34  22650818.384 8                 117948755.370 8
C39  38974718.805 7                 202951581.888 7
C43  25994695.922 7                 135361207.598 7
C44  23015287.986 8                 119846631.171 8
E03  25541242.489 7  25541246.484 8 134220145.576 7 101536686.721 8
E05  22143703.289 8  22143705.796 9 116365945.940 8  88030092.697 9
E09  26373083.777 7  26373087.660 8 138591486.926 7 104843568.428 8
E15  24869839.918 8  24869842.572 9 130691889.469 8  98867580.572 9
E34  23522592.526 8  23522595.067 9 123612058.857 8  93511725.388 9
E36  26647060.479 6  26647066.796 7 140031240.931 6 105932738.525 7
G01  20814146.728 7                  20814150.339 8  20814152.011 8 109379069.410 7                  85230458.576 8  81679197.625 8
G02  23082891.974 7  23082894.265 6                                 121301398.509 7  94520368.127 6                
G03  19998571.357 8                  19998577.289 8  19998575.448 9 105093199.586 8                  81890865.982 8  78478776.776 9
G04  21560127.040 7                  21560131.633 7  21560132.497 8 113299239.036 7                  88285148.802 7  84606602.580 8
G09  24285700.196 5                  24285709.570 6  24285707.450 7 127622215.169 5                  99445912.688 6  95302341.966 7
G17  22520610.220 6                  22520614.210 6                 118346546.074 6                  92218146.671 6
G19  22481427.008 7  22481429.071 5                                 118140697.051 7  92057709.207 5                
G28  23319624.976 7                  23319629.174 7  23319631.891 8 122545452.423 7                  95490009.706 7  91511284.863 8
G31  22606500.596 7                  22606505.381 7                 118797965.410 7                  92570042.304 7
R02  23618154.570 6  23618158.806 5 126031010.922 6  98023977.332 5
R03  19698397.100 8  19698398.691 7 105447059.544 8  82014342.029 7
R04  19971640.434 8  19971643.288 7 106947222.656 8  83181187.700 7
R12  23391056.617 6  23391060.482 4 124950905.043 6
R18  20553862.191 8  20553865.108 7 109717901.864 8  85335991.348 7
R19  19569184.445 8  19569185.019 8 104681945.360 8  81419448.435 8
R20  23090312.717 5  23090319.317 7 123474275.987 5  96035591.717 7
> 2025 06 15 14 06 15.0000000  0 34
C05  39292565.133 5  39292560.362 6 204606711.587 5 158214854.672 6
C06  38586539.757 7  38586535.774 7 200930242.010 7 155372000.940 7
C09  39133265.274 6  39133263.432 7 203777194.118 6 157573452.610 7
C11  24150221.274 7  24150219.593 8 125756792.972 7  97242922.846 8
C12  22355942.999 7  22355939.996 8 116413261.371 7  90018072.980 8
C16  39108643.405 7  39108645.042 7 203648953.229 7 157474291.179 7
C21  22964056.974 8                 119579878.149 8
C22  21826451.708 8                 113656057.199 8
C34  22648813.133 8                 117938316.796 8
C39  38974422.418 6                 202950040.070 6
C43  25986113.634 7                 135316515.300 7
C44  23022353.386 8                 119883422.808 8
E03  25533461.048 8  25533464.724 8 134179252.228 8 101505751.202 8
E05  22142976.458 8  22142978.945 9 116362126.503 8  88027203.329 9
E09  26379716.628 7  26379720.500 8 138626342.300 7 104869936.246 8
E15  24863976.412 8  24863979.136 9 130661076.908 8  98844271.100 9
E34  23524368.351 8  23524370.672 9 123621389.894 8  93518784.251 9
E36  26654631.778 6  26654637.391 6 140071024.762 6 105962834.670 6
G01  20819078.950 7                  20819082.529 8  20819084.186 8 109404988.617 7                  85250655.360 8  81698552.876 8
G02  23091151.076 7  23091154.377 5                                 121344800.139 7  94554187.554 5                
G03  19998444.667 7                  19998450.442 8  19998448.050 9 105092532.593 7                  81890346.278 8  78478278.709 9
G04  21552289.200 7                  21552293.932 7  21552294.735 8 113258051.279 7                  88253054.473 7  84575845.519 8
G09  24274778.691 5                  24274786.571 6  24274785.301 7 127564819.728 5                  99401189.056 6  95259481.843 7
G17  22522642.007 6                  22522644.886 6                 118357214.935 6                  92226460.031 6
G19  22477885.783 7  22477888.416 5                                 118122089.390 7  92043209.732 5                
G28  23320934.142 6                  23320938.515 7  23320941.287 8 122552332.051 6                  95495370.471 7  91516422.205 8
G31  22602333.481 7                  22602338.060 7                 118776068.589 7                  92552979.900 7
R02  23628927.237 6  23628932.870 5 126088494.182 6  98068686.369 5
R03  19702859.600 8  19702861.756 7 105470949.367 8  82032922.986 7
R04  19965865.330 8  19965867.775 7 106916296.733 8  83157134.226 7
R12  23386416.307 6  23386421.300 5 124926117.840 6  97164704.89715
R18  20562624.062 8  20562626.372 7 109764671.703 8  85372367.864 7
R19  19566286.144 8  19566286.213 8 104666440.648 8  81407389.194 8
R20  23078479.394 6  23078486.354 7 123410998.684 6  95986376.075 7
> 2025 06 15 14 06 30.0000000  0 34
C05  39292378.414 5  39292373.693 7 204605741.575 5 158214104.605 7
C06  38584417.128 7  38584412.389 7 200919184.814 7 155363450.825 7
C09  39129771.707 7  39129769.703 7 203759001.386 7 157559384.845 7
C11  24143815.430 7  24143813.603 8 125723436.711 7  97217129.680 8
C12  22358669.850 7  22358666.755 8 116427461.326 7  90029053.264 8
C16  39106992.486 7  39106994.467 7 203640359.430 7 157467645.941 7
C21  22958472.067 8                 119550798.917 8
C22  21829314.376 8                 113670965.084 8
C34  22646833.191 8                 117928005.905 8
C39  38974134.996 6                 202948542.940 6
C43  25977542.102 7                 135271882.057 7
C44  23029435.012 7                 119920301.538 7
E03  25525690.309 8  25525693.994 8 134138416.475 8 101474859.256 8
E05  22142268.681 8  22142271.158 9 116358407.230 8  88024389.718 9
E09  26386359.201 7  26386363.152 8 138661249.959 7 104896343.633 8
E15  24858122.878 8  24858126.206 9 130630319.459 8  98821003.300 9
E34  23526160.318 8  23526162.920 9 123630808.226 8  93525909.153 9
E36  26662209.868 6  26662215.671 6 140110850.396 6 105992962.424 6
G01  20824033.336 7                  20824037.126 8  20824038.713 8 109431024.871 7                  85270943.319 8  81717995.506 8
G02  23099422.274 7  23099425.310 6                                 121388265.209 7  94588056.409 6                
G03  19998337.150 7                  19998342.611 8  19998340.468 9 105091967.955 7                  81889906.296 8  78477857.055 9
G04  21544470.134 7                  21544475.066 8  21544475.824 8 113216961.646 7                  88221036.659 8  84545161.756 8
G09  24263861.702 5                  24263870.589 6  24263870.067 7                                  99356489.298 6  95216644.565 7
G17  22524698.542 6                  22524700.808 6                 118368018.896 6                  92234878.722 6
G19  22474374.936 7  22474377.285 5                                 118103639.271 7  92028833.035 5                
G28  23322272.202 7                  23322277.047 7  23322279.421 8 122559363.854 7                  95500849.775 7  91521673.207 8
G31  22598194.949 7                  22598199.295 7                 118754320.173 7                  92536033.084 7
R02  23639701.727 6  23639707.919 5 126145984.840 6  98113401.278 5
R03  19707345.821 8  19707347.667 7 105494962.704 8  82051600.033 7
R04  19960115.074 8  19960117.309 7 106885504.713 8  83133184.879 7
R12  23381810.831 7  23381814.879 6 124901502.817 7  97145559.880 6
R18  20571411.143 8  20571413.868 7 109811580.241 8  85408852.257 7
R19  19563423.169 8  19563423.233 7 104651127.255 8  81395478.785 7
R20  23066656.544 6  23066664.108 7 123347775.882 6  95937202.893 7
> 2025 06 15 14 06 45.0000000  0 34
C05  39292193.037 5  39292188.511 7 204604775.900 5 158213357.887 7
C06  38582302.317 7  38582297.526 7 200908172.522 7 155354935.429 7
C09  39126285.534 6  39126283.155 7 203740846.667 6 157545346.494 7
C11  24137428.325 7  24137426.370 8 125690176.162 7  97191410.531 8
C12  22361421.014 7  22361418.039 8 116441788.581 7  90040131.983 8
C16  39105349.976 6  39105352.659 7 203631810.152 6 157461035.096 7
C21  22952902.853 8                 119521796.039 8
C22  21832193.143 8                 113685954.846 8
C34  22644877.794 8                 117917823.354 8
C39  38973856.212 6                 202947091.157 6
C43  25968982.429 7                 135227308.780 7
C44  23036534.462 8                 119957267.718 8
E03  25517930.411 7  25517934.303 8 134097639.082 7 101444011.438 8
E05  22141580.238 8  22141582.560 9 116354788.618 8  88021652.266 9
E09  26393012.214 7  26393015.891 8 138696210.339 7 104922790.901 8
E15  24852280.803 8  24852283.884 9 130599617.916 8  98797777.823 9
E34  23527969.236 8  23527971.879 9 123640314.442 8  93533100.551 9
E36  26669796.441 6  26669802.076 6 140150718.356 6 106023122.256 6
G01  20829010.487 7                  20829014.028 8  20829015.778 8 109457178.622 7                  85291322.867 8  81737525.904 8
G02  23107705.778 7  23107708.495 5                                 121431794.039 7  94621974.952 5                
G03  19998249.322 8                  19998254.591 8  19998253.055 9 105091506.251 8                  81889546.541 8  78477512.282 9
G04  21536669.660 7                  21536674.562 8  21536675.835 8 113175971.026 7                  88189095.956 8  84514551.912 8
G09  24252951.015 5                  24252959.737 5  24252960.188 7 127450121.37415                  99311814.094 5  95173830.845 7
G17  22526777.295 4                  22526782.413 6                                                  92243403.057 6
G19  22470894.323 7  22470896.169 5                                 118085347.374 7  92014579.565 5                
G28  23323639.618 7                  23323643.826 7  23323646.292 8 122566548.276 7                  95506448.046 7  91527038.238 8
G31  22594084.996 7                  22594089.440 7                 118732720.950 7                  92519202.538 7
R02  23650474.092 5  23650482.088 6 126203483.168 5  98158122.196 6
R03  19711854.610 8  19711857.078 7 105519099.898 8  82070373.364 7
R04  19954390.226 8  19954392.538 7 106854847.487 8  83109340.399 7
R12  23377235.664 7  23377239.025 5 124877060.885 7  97126549.718 5
R18  20580224.764 7  20580227.502 7 109858627.778 7  85445444.743 7
R19  19560596.480 8  19560596.771 7 104636005.706 8  81383717.581 7
R20  23054843.573 5  23054851.066 7 123284608.161 5  95888072.506 7
> 2025 06 15 14 07  0.0000000  0 33
C05  39292008.145 5  39292002.926 7 204603811.49115 158212611.36517
C06  38580195.113 6  38580190.667 7 200897201.143 6 155346451.667 7
C09  39122804.995 6  39122803.357 7 203722725.921 6 157531334.415 7
C11  24131058.594 7  24131056.604 8 125657007.504 7  97165762.437 8
C12  22364195.805 7  22364193.643 8 116456239.028 7  90051305.988 8
C16  39103716.924 7  39103718.319 7 203623301.335 7 157454455.544 7
C21  22947346.814 8                 119492865.464 8
C22  21835086.718 8                 113701022.329 8
C34  22642946.362 8                 117907765.147 8
C39  38973585.634 6                 202945680.723 6
C43  25960432.918 7                 135182791.551 7
C44  23043649.467 8                 119994317.048 8
E03  25510181.374 8  25510184.884 8 134056916.016 8 101413204.739 8
E05  22140910.082 8  22140912.298 9 116351266.556 8  88018987.859 9
E09  26399674.503 7  26399677.798 8 138731219.139 7 104949274.805 8
E15  24846448.665 7  24846451.433 9 130568968.346 7  98774591.621 9
E34  23529794.548 8  23529796.806 9 123649904.510 8  93540355.366 9
E36  26677390.459 6  26677395.392 6 140190624.449 6 106053310.931 6
G01  20834008.503 8                  20834012.465 8  20834013.988 8 109483445.710 8                  85311790.696 8  81757140.903 8
G02  23116000.443 7  23116002.941 5                                 121475382.555 7  94655939.965 5                
G03  19998180.073 8                  19998185.821 8  19998184.120 9 105091143.331 8                  81889263.723 8  78477241.272 9
G04  21528887.154 7                  21528892.095 7  21528893.752 8 113135075.488 7                  88157229.301 7  84484013.071 8
G09  24242046.270 5                  24242053.795 5  24242054.983 6 127392815.729 5                  99267160.400 5  95131037.763 6
G19  22467442.867 7  22467444.553 5                                 118067209.728 7  92000446.354 5                
G28  23325034.636 7                  23325039.026 7  23325041.576 8 122573881.279 7                  95512162.085 7  91532514.182 8
G31  22590002.117 7                  22590006.664 7                 118711267.163 7                  92502485.311 7
R02  23661251.679 6  23661259.418 6 126260984.977 6  98202845.827 6
R03  19716385.952 8  19716388.429 7 105543356.572 8  82089239.701 7
R04  19948689.086 8  19948691.739 7 106824320.946 8  83085597.555 7
R12  23372690.164 6  23372695.373 6 124852788.320 6  97107671.105 6
R18  20589063.691 8  20589066.382 7 109905809.864 8  85482141.888 7
R19  19557804.602 8  19557805.181 7 104621072.212 8  81372102.670 7
R20  23043040.451 5  23043047.920 7 123221492.232 5  95838982.401 7
> 2025 06 15 14 07 15.0000000  0 35
C05  39291822.630 5  39291817.593 7 204602845.62915 158211864.51117
C06  38578095.925 6  38578091.152 7 200886269.831 6 155337998.894 7
C09  39119331.539 7  39119329.777 7 203704638.440 7 157517348.030 7
C11  24124706.716 7  24124704.081 8 125623930.267 7  97140185.031 8
C12  22366994.367 7  22366992.142 8 116470811.875 7  90062574.606 8
C16  39102090.712 7  39102092.171 7 203614832.249 7 157447906.680 7
C19  25859430.581 5                 134656887.57715
C21  22941804.810 8                 119464006.508 8
C22  21837995.008 8                 113716166.561 8
C34  22641038.576 7                 117897830.684 7
C39  38973322.346 6                 202944310.648 6
C43  25951894.862 7                 135138329.944 7
C44  23050780.070 8                 120031448.540 8
E03  25502442.213 7  25502445.692 8 134016246.657 7 101382438.665 8
E05  22140257.816 8  22140260.288 9 116347840.228 8  88016395.860 9
E09  26406345.582 7  26406348.758 8 138766275.364 7 104975794.604 8
E15  24840626.173 8  24840628.759 9 130538370.120 8  98751444.286 9
E34  23531635.157 8  23531637.560 9 123659577.669 8  93547673.038 9
E36  26684992.043 7  26684995.948 6 140230567.758 7 106083527.800 6
G01  20839028.683 7                  20839032.485 8  20839033.898 8 109509825.212 7                  85332346.168 8  81776839.863 8
G02  23124306.014 7  23124308.684 5                                 121519029.568 7  94689950.592 5                
G03  19998129.639 7                  19998135.088 8  19998133.661 9 105090878.466 7                  81889057.324 8  78477043.478 9
G04  21521123.129 7                  21521127.776 8  21521129.407 8 113094274.440 7                  88125436.288 8  84453544.787 8
G09  24231147.248 5                  24231154.086 5  24231154.995 6 127335537.163 5                  99222527.853 5  95088264.911 6
G17  22531015.804 5                  22531018.859 5                 118401227.17015                  92260758.398 5
G19  22464020.114 7  22464022.641 5                                 118049225.629 7  91986432.787 5                
G28  23326458.388 6                  23326462.381 7  23326465.234 8 122581362.000 6                  95517991.283 7  91538100.494 8
G31  22585947.264 7                  22585951.874 7                 118689958.231 7                  92485880.980 7
R02  23672029.706 6  23672035.004 6 126318489.213 6  98247571.297 6
R03  19720939.249 8  19720941.110 7 105567731.187 8  82108197.709 7
R04  19943013.441 8  19943015.281 7 106793924.192 8  83061955.664 7
R12  23368176.095 5  23368182.152 5 124828684.490 5  97088923.637 5
R18  20597927.476 8  20597930.369 7 109953125.182 8  85518942.685 7
R19  19555047.922 8  19555048.115 7 104606326.079 8  81360633.446 7
R20  23031246.762 5  23031254.453 7 123158427.459 5  95789932.063 7
> 2025 06 15 14 07 30.0000000  0 35
C05  39291635.914 5  39291631.023 7 204601874.080 5 158211113.236 7
C06  38576003.436 6  38575998.605 7 200875373.448 6 155329573.136 7
C09  39115863.497 7  39115861.736 7 203686579.029 7 157503383.353 7
C11  24118370.650 7  24118368.527 8 125590939.432 7  97114674.443 8
C12  22369815.758 7  22369813.049 8 116485501.687 7  90073933.702 8
C16  39100470.645 7  39100472.368 7 203606397.601 7 157441384.468 7
C19  25867783.499 4                 134700345.94614
C21  22936275.514 8                 119435214.013 8
C22  21840917.002 8                 113731382.270 8
C34  22639153.483 7                 117888014.836 7
C39  38973065.626 7                 202942975.794 7
C43  25943366.062 7                 135093918.980 7
C44  23057925.567 8                 120068656.771 8
E03  25494711.858 7  25494715.725 8 133975625.913 7 101351709.386 8
E05  22139622.901 8  22139625.469 9 116344504.343 8  88013872.294 9
E09  26413024.081 7  26413027.663 8 138801373.658 7 105002346.204 8
E15  24834811.894 8  24834814.888 9 130507818.181 8  98728331.943 9
E34  23533490.805 8  23533493.117 9 123669328.677 8  93555049.622 9
E36  26692598.964 6  26692604.332 6 140270543.014 6 106113768.798 6
G01  20844069.091 7                  20844072.628 8  20844074.190 8 109536311.832 7                  85352985.063 8  81796618.805 8
G02  23132621.526 7  23132624.694 5                                 121562729.725 7  94724002.593 5                
G03  19998097.112 7                  19998102.730 8  19998100.542 9 105090706.345 7                  81888923.225 8  78476914.951 9
G04  21513375.783 7                  21513380.891 8  21513381.755 8 113053562.846 7                  88093713.000 8  84423143.299 8
G09  24220251.379 6                  24220260.782 5  24220258.628 6 127278280.629 6                  99177912.445 5  95045508.540 6
G17  22533171.634 5                  22533175.365 6                 118412553.960 5                  92269584.454 6
G19  22460626.118 7  22460628.773 5                                 118031390.058 7  91972534.954 5                
G28  23327909.165 7                  23327913.176 7  23327915.901 8 122588985.182 7                  95523931.405 7  91543793.101 8
G31  22581919.151 7                  22581923.326 7                 118668789.206 7                  92469385.646 7
R02  23682803.035 6  23682809.712 6 126375989.893 6  98292294.033 6
R03  19725513.883 8  19725516.221 7 105592218.601 8  82127243.475 7
R04  19937359.453 8  19937361.991 7 106763652.153 8  83038410.758 7
R12  23363697.176 5  23363699.460 5 124804744.513 5  97070303.752 5
R18  20606815.169 8  20606818.097 7 110000568.208 8  85555842.767 7
R19  19552325.739 8  19552325.938 7 104591762.230 8  81349305.999 7
R20  23019461.166 5  23019469.921 7 123095409.260 5  95740917.980 7
> 2025 06 15 14 07 45.0000000  0 33
C05  39291448.658 5  39291444.038 7 204600901.595 5 158210361.270 7
C06  38573918.994 7  38573913.719 7 200864516.732 7 155321178.037 7
C09  39112401.554 7  39112400.029 7 203668552.431 7 157489444.051 7
C11  24112052.588 7  24112050.691 8 125558040.074 7  97089234.603 8
C12  22372660.151 7  22372657.450 8 116500313.307 7  90085386.988 8
C16  39098858.306 7  39098860.139 7 203598002.173 7 157434892.594 7
C21  22930759.868 8                 119406492.723 8
C22  21843853.524 8                 113746674.038 8
C34  22637292.080 8                 117878322.388 8
C39  38972817.180 6                 202941680.890 6
C43  25934848.281 7                 135049563.681 7
C44  23065086.477 8                 120105946.243 8
E03  25486992.198 7  25486995.974 8 133935058.704 7 101321020.599 8
E05  22139006.445 8  22139008.760 9 116341263.572 8  88011420.691 9
E09  26419712.145 7  26419715.566 8 138836518.521 7 105028933.045 8
E15  24829007.547 7  24829010.740 9 130477317.441 7  98705258.351 9
E34  23535362.111 8  23535364.429 9 123679162.374 8  93562488.740 9
E36  26700212.569 7  26700218.729 7 140310554.830 7 106144037.428 7
G01  20849131.015 7                  20849134.198 8  20849135.996 8 109562910.120 7                  85373711.025 8  81816481.193 8
G02  23140948.588 7  23140951.336 5                                 121606487.582 7  94758099.565 5                
G03  19998082.999 7                  19998088.278 8  19998086.347 9 105090631.686 7                  81888865.069 8  78476859.218 9
G04  21505646.784 7                  21505651.693 7  21505652.290 8 113012945.699 7                  88062063.292 7  84392812.323 8
G09  24209361.153 6                  24209370.862 5  24209368.226 5 127221051.201 6                  99133318.188 5  95002772.417 5
G17  22535353.713 5                  22535355.844 6                 118424010.308 5                  92278511.519 6
G19  22457261.597 7  22457264.065 5                                 118013708.068 7  91958756.782 5                
G28  23329387.357 7                  23329391.731 7  23329394.579 8 122596755.516 7                  95529986.161 7  91549595.625 8
G31  22577918.246 7                  22577922.389 7                 118647765.007 7                  92453003.183 7
R03  19730110.471 8  19730112.466 7 105616822.865 8  82146380.094 7
R04  19931731.294 8  19931733.836 7 106733509.854 8  83014966.762 7
R12  23359247.790 5  23359254.163 6 124780973.476 5  97051815.21516
R18  20615727.896 8  20615730.369 7 110048143.408 8  85592845.659 7
R19  19549638.209 8  19549638.320 7 104577385.799 8  81338124.354 7
R20  23007686.775 5  23007694.402 7 123032442.955 5  95691944.243 7
> 2025 06 15 14 08  0.0000000  0 33
C05  39291261.564 5  39291256.622 7 204599924.987 5 158209606.091 7
C06  38571840.761 7  38571835.825 7 200853696.413 7 155312811.093 7
C09  39108945.678 7  39108943.875 7 203650555.521 7 157475527.709 7
C11  24105751.707 7  24105749.817 8 125525229.163 7  97063863.151 8
C12  22375527.365 7  22375524.668 8 116515243.400 7  90096931.866 8
C16  39097252.918 7  39097255.007 7 203589642.783 7 157428428.607 7
C21  22925257.387 8                 119377839.535 8
C22  21846804.136 8                 113762038.526 8
C34  22635453.942 7                 117868750.274 7
C39  38972575.416 6                 202940422.731 6
C43  25926339.996 7                 135005261.167 7
C44  23072262.508 7                 120143313.518 7
E03  25479282.606 7  25479285.895 8 133894541.939 7 101290369.949 8
E05  22138407.209 8  22138409.557 9 116338114.732 8  88009038.617 9
E09  26426408.021 7  26426411.639 8 138871706.611 7 105055552.584 8
E15  24823212.568 7  24823215.788 9 130446864.911 7  98682221.224 9
E34  23537248.413 8  23537250.871 9 123689075.571 8  93569988.012 9
E36  26707833.284 6  26707839.360 7 140350599.986 6 106174331.241 7
G01  20854213.034 7                  20854216.230 8  20854218.208 8 109589616.846 7                  85394521.446 8  81836424.517 8
G02  23149286.121 7  23149288.633 5                                 121650299.932 7  94792239.019 5                
G03  19998086.686 7                  19998091.969 7  19998090.250 9 105090651.349 7                  81888880.376 7  78476873.891 9
G04  21497934.883 7                  21497939.566 7  21497941.031 8 112972419.959 7                  88030484.827 7  84362549.631 8
G09  24198475.908 5                  24198483.350 4  24198481.589 5 127163845.813 5                  99088742.58714  94960054.257 5
G17  22537556.153 5                  22537559.551 6                 118435593.200 5                  92287537.059 6
G19  22453925.724 7  22453928.028 5                                 117996176.498 7  91945095.820 5                
G28  23330893.233 7                  23330897.720 7  23330900.764 8 122604669.648 7                  95536153.031 7  91555505.546 8
G31  22573944.339 7                  22573949.158 7                 118626882.681 7                  92436731.260 7
R02  23704354.694 5  23704360.517 5 126490975.95915  98381740.239 5
R03  19734727.348 8  19734728.927 7 105641540.712 8  82165605.114 7
R04  19926125.659 8  19926128.044 7 106703493.900 8  82991621.049 7
R18  20624664.001 8  20624666.239 7 110095847.071 8  85629948.473 7
R19  19546985.188 8  19546985.078 7 104563193.884 8  81327086.191 7
R20  22995920.632 5  22995928.433 7 122969525.771 5  95643008.663 7
> 2025 06 15 14 08 15.0000000  0 35
C05  39291074.566 5  39291069.262 7 204598948.757 5 158208851.229 7
C06  38569770.431 7  38569765.694 7 200842917.206 7 155304475.941 7
C09  39105496.074 6  39105494.388 7 203632592.810 6 157461637.835 7
C11  24099468.235 7  24099467.033 8 125492511.510 7  97038563.821 8
C12  22378417.969 7  22378415.543 8 116530296.427 7  90108571.812 8
C16  39095655.509 7  39095657.201 7 203581323.961 7 157421995.973 7
C19  25892818.373 5                 134830754.74815
C21  22919769.071 8                 119349259.051 8
C22  21849769.705 8                 113777480.172 8
C34  22633639.565 7                 117859303.191 7
C39  38972341.945 7                 202939205.811 7
C43  25917843.307 7                 134961016.188 7
C44  23079454.328 7                 120180762.964 7
E03  25471582.685 8  25471586.292 8 133854080.385 8 101259761.068 8
E05  22137826.279 8  22137828.729 9 116335062.334 8  88006729.500 9
E09  26433112.734 7  26433116.761 8 138906942.333 7 105082208.158 8
E15  24817427.505 7  24817430.942 9 130416465.307 7  98659224.146 9
E34  23539150.788 8  23539153.307 9 123699072.904 8  93577550.925 9
E36  26715461.290 7  26715466.968 7 140390682.926 7 106204653.666 7
G01  20859316.427 7                  20859319.789 8  20859321.770 8 109616436.467 7                  85415419.830 8  81856452.144 8
G02  23157634.363 7  23157637.334 5                                 121694171.062 7  94826424.243 5                
G03  19998108.938 8                  19998114.289 8  19998112.983 9 105090769.883 8                  81888972.730 8  78476962.393 9
G04  21490241.274 7                  21490246.141 7  21490247.580 8 112931990.428 7                  87998981.347 7  84332358.786 8
G09  24187595.089 5                  24187603.333 4  24187602.409 5 127106669.43615                  99044189.55314  94917357.694 5
G17  22539785.064 5                  22539789.140 5                 118447306.94415                  92296664.709 5
G19  22450618.621 7  22450620.942 5                                 117978800.181 7  91931555.840 5                
G28  23332427.713 7                  23332431.756 7  23332435.254 8 122612732.244 7                  95542435.582 7  91561526.294 8
G31  22569998.446 7                  22570002.643 7                 118606147.041 7                  92420573.657 7
R02  23715132.331 6  23715136.608 5 126548478.030 6  98426464.110 5
R03  19739367.335 8  19739369.545 7 105666376.838 8  82184922.090 7
R04  19920544.961 8  19920547.436 7 106673609.010 8  82968377.267 7
R12  23350442.614 6  23350446.059 5 124733932.92416  97015229.455 5
R18  20633625.312 8  20633628.124 7 110143683.615 8  85667154.624 7
R19  19544367.393 8  19544367.356 8 104549191.242 8  81316195.256 8
R20  22984164.610 5  22984172.221 7 122906662.123 5  95594114.803 7
> 2025 06 15 14 08 30.0000000  0 36
C05  39290886.954 5  39290881.767 7 204597972.181 5 158208096.074 7
C06  38567708.157 7  38567703.606 7 200832178.202 7 155296171.889 7
C09  39102053.046 6  39102051.281 7 203614663.574 6 157447773.835 7
C11  24093203.352 7  24093201.602 8 125459886.505 7  97013336.125 8
C12  22381332.514 7  22381329.990 8 116545471.440 7  90120306.108 8
C16  39094065.787 7  39094067.064 7 203573044.889 7 157415594.095 7
C19  25901165.126 5                 134874245.090 5
C21  22914294.039 8                 119320750.504 8
C22  21852749.828 8                 113792998.005 8
C34  22631849.581 8                 117849980.362 8
C39  38972115.985 7                 202938029.340 7
C43  25909357.173 7                 134916828.207 7
C44  23086661.742 7                 120218293.534 7
E03  25463893.415 7  25463897.039 8 133813673.286 7 101229193.396 8
E05  22137263.800 8  22137266.055 9 116332105.503 8  88004492.678 9
E09  26439826.714 7  26439830.782 8 138942224.659 7 105108898.984 8
E15  24811652.441 7  24811656.044 9 130386118.046 7  98636266.646 9
E34  23541069.026 8  23541071.574 9 123709153.563 8  93585176.864 9
E36  26723095.821 6  26723101.519 7 140430802.782 6 106235003.969 7
G01  20864441.061 7                  20864444.597 8  20864446.523 8 109643368.079 7                  85436405.476 8  81876563.388 8
G02  23165994.004 7  23165995.863 5                                 121738099.876 7  94860654.477 5                
G03  19998150.405 7                  19998155.629 8  19998153.975 9 105090986.438 7                  81889141.498 8  78477124.111 9
G04  21482566.116 7                  21482570.814 7  21482572.148 8 112891656.464 7                  87967552.325 7  84302239.325 8
G06  24823537.636 5                  24823546.745 5  24823544.796 6 130448404.87015                 101648270.30015  97412915.35816
G09  24176719.256 4                  24176728.626 5  24176726.533 4                                  98999658.550 5  94874682.34314
G17  22542037.314 5                  22542042.378 6                 118459150.688 5                  92305893.612 6
G19  22447342.000 7  22447343.565 5                                 117961578.508 7  91918136.357 5                
G28  23333989.996 7                  23333994.453 7  23333997.269 8 122620942.341 7                  95548833.028 7  91567657.202 8
G31  22566080.743 7                  22566084.635 7                 118585557.526 7                  92404529.910 7
R02  23725908.836 5  23725915.632 5 126605981.440 5  98471188.840 5
R03  19744028.599 8  19744030.878 7 105691329.781 8  82204329.933 7
R04  19914988.697 8  19914991.180 7 106643854.595 8  82945234.975 7
R12  23346088.355 6  23346089.566 5 124710669.582 6  96997135.873 5
R18  20642611.521 8  20642613.782 7 110191651.818 8  85704463.244 7
R19  19541785.391 8  19541785.359 8 104535377.431 8  81305451.202 8
R20  22972418.978 5  22972426.516 7 122843852.159 5  95545262.694 7
> 2025 06 15 14 08 45.0000000  0 36
C05  39290698.804 5  39290694.301 7 204596995.363 5 158207340.753 7
C06  38565653.557 7  38565649.122 7 200821479.565 7 155287899.018 7
C09  39098616.518 6  39098614.366 7 203596767.977 6 157433935.844 7
C11  24086956.172 7  24086954.280 8 125427354.618 7  96988180.432 8
C12  22384269.891 7  22384267.536 8 116560768.598 7  90132134.829 8
C16  39092483.851 7  39092485.026 7 203564805.742 7 157409223.098 7
C19  25909516.907 4                 134917744.236 4
C21  22908833.314 8                 119292314.059 8
C22  21855744.309 8                 113808592.073 8
C34  22630083.232 7                 117840782.029 7
C39  38971897.847 7                 202936893.438 7
C43  25900882.449 7                 134872697.691 7
C44  23093884.342 7                 120255905.097 7
E03  25456214.851 8  25456218.211 8 133773321.010 8 101198667.198 8
E05  22136719.176 8  22136721.600 9 116329244.345 8  88002328.221 9
E09  26446550.315 7  26446553.613 8 138977553.521 7 105135625.024 8
E15  24805887.741 8  24805891.109 9 130355823.358 8  98613348.938 9
E34  23543003.137 8  23543005.739 9 123719317.711 8  93592865.977 9
E36  26730736.745 6  26730742.863 7 140470959.513 6 106265382.207 7
G01  20869587.572 7                  20869590.912 8  20869592.562 8 109670411.696 7                  85457478.425 8  81896758.287 8
G02  23174364.313 7  23174366.471 5                                 121782086.475 7  94894929.693 5                
G03  19998210.115 8                  19998215.816 8  19998213.860 9 105091301.162 8                  81889386.739 8  78477359.145 9
G04  21474909.037 7                  21474913.681 7  21474914.887 8 112851418.485 7                  87936198.064 7  84272191.507 8
G06  24813252.510 5                  24813261.076 6  24813258.784 7 130394351.530 5                 101606150.796 6  97372550.898 7
G09  24165851.374 5                  24165860.124 5                 126992383.72615                  98955150.013 5
G17  22544316.869 5                  22544320.399 5                 118471124.330 5                  92315223.648 5
G19  22444094.648 7  22444096.281 5                                 117944511.672 7  91904837.515 5                
G28  23335581.146 6                  23335584.879 7  23335587.642 8 122629300.033 6                  95555345.523 7  91573898.352 8
G31  22562190.382 7                  22562194.449 7                 118565114.646 7                  92388600.440 7
R02  23736682.717 4                 126663485.897 4
R03  19748711.789 8  19748713.617 7 105716399.310 8  82223828.463 7
R04  19909456.270 8  19909458.683 7 106614230.870 8  82922194.304 7
R12  23341760.686 5  23341765.820 5 124687577.159 5  96979175.236 5
R18  20651622.314 8  20651624.864 7 110239751.457 8  85741874.011 7
R19  19539238.365 8  19539238.426 8 104521752.686 8  81294854.175 8
R20  22960683.080 5  22960690.946 7 122781096.501 5  95496452.770 7
> 2025 06 15 14 09  0.0000000  0 36
C05  39290512.417 5  39290507.525 7 204596024.021 5 158206589.662 7
C06  38563607.829 7  38563603.063 7 200810827.085 7 155279661.863 7
C09  39095187.129 7  39095185.271 7 203578911.794 7 157420128.327 7
C11  24080727.261 7  24080725.805 8 125394921.809 7  96963101.354 8
C12  22387232.227 7  22387229.704 8 116576193.526 7  90144062.345 8
C16  39090911.220 7  39090911.523 7 203556612.246 7 157402887.380 7
C19  25917877.764 4                 134961257.49514
C21  22903387.120 8                 119263955.518 8
C22  21858754.643 8                 113824267.956 8
C34  22628341.458 8                 117831714.029 8
C39  38971688.067 6                 202935803.781 6
C43  25892419.803 7                 134828630.596 7
C44  23101124.278 7                 120293603.228 7
E03  25448547.591 8  25448550.928 8 133733029.408 8 101168186.900 8
E05  22136194.204 8  22136196.437 9 116326484.573 8  88000240.488 9
E09  26453283.089 7  26453286.474 8 139012934.569 7 105162390.530 8
E15  24800134.130 7  24800137.350 9 130325587.271 7  98590475.537 9
E34  23544954.356 8  23544956.943 9 123729571.192 8  93600622.669 9
E36  26738387.221 6  26738392.737 7 140511158.973 6 106295792.741 7
G01  20874756.065 7                  20874759.986 8  20874760.714 8 109697573.009 7                  85478643.063 8  81917041.066 8
G02  23182746.932 7  23182749.273 6                                 121826136.324 7  94929254.203 6                
G03  19998289.884 8                  19998295.396 8  19998293.531 9 105091719.820 8                  81889712.959 8  78477671.790 9
G04  21467271.575 7                  21467275.954 7  21467277.327 8 112811282.447 7                  87904923.262 7  84242219.805 8
G06  24802971.197 5                  24802979.931 6  24802977.849 6 130340324.468 5                 101564051.900 6  97332206.115 6
G09  24154985.977 5                  24154997.599 5                                                  98910668.412 5
G17  22546622.272 5                  22546625.242 6                 118483233.390 5                  92324659.356 6
G19  22440876.971 7  22440879.681 5                                 117927605.495 7  91891663.901 5                
G28  23337200.071 6                  23337204.266 7  23337207.826 8 122637811.070 6                  95561977.507 7  91580253.973 8
G31  22558329.362 7                  22558333.830 7                 118544824.438 7                  92372789.899 7
R02  23747459.395 4                 126720996.77914
R03  19753417.739 8  19753420.562 7 105741591.170 8  82243422.109 7
R04  19903950.163 8  19903952.089 7 106584743.783 8  82899259.892 7
R12  23337471.889 4  23337475.828 5 124664662.041 4  96961352.304 5
R18  20660658.822 8  20660661.426 7 110287987.991 8  85779391.313 7
R19  19536727.782 8  19536727.925 8 104508323.219 8  81284409.051 8
R20  22948958.973 5  22948967.020 7 122718401.595 5  95447690.171 7
> 2025 06 15 14 09 15.0000000  0 35
C05  39290326.639 5  39290321.367 7 204595053.904 5 158205839.513 7
C06  38561570.789 7  38561565.366 7 200800216.388 7 155271457.030 7
C09  39091764.687 6  39091762.573 7 203561090.731 6 157406347.960 7
C11  24074517.374 7  24074515.639 8 125362583.958 7  96938095.716 8
C12  22390218.272 7  22390215.592 8 116591741.791 7  90156085.247 8
C16  39089344.682 7  39089346.043 7 203548460.042 7 157396583.589 7
C21  22897955.270 8                 119235670.613 8
C22  21861779.944 8                 113840021.207 8
C34  22626624.113 8                 117822772.134 8
C39  38971487.042 6                 202934756.057 6
C43  25883968.732 7                 134784622.875 7
C44  23108379.150 7                 120331383.323 7
E03  25440890.927 7  25440894.440 8 133692794.274 7 101137749.325 8
E05  22135687.570 8  22135689.732 9 116323821.825 8  87998226.132 9
E09  26460024.492 6  26460028.330 8 139048363.221 6 105189192.044 8
E15  24794390.841 7  24794393.916 9 130295405.592 7  98567643.307 9
E34  23546921.693 8  23546924.266 9 123739909.655 8  93608443.657 9
E36  26746044.793 6  26746049.845 7 140551396.585 6 106326232.124 7
G01  20879946.326 7                  20879949.909 8  20879950.959 8 109724847.521 7                  85499895.922 8  81937408.395 8
G02  23191140.596 7  23191142.819 5                                 121870244.960 7  94963624.531 5                
G03  19998388.582 8                  19998394.064 8  19998392.128 9 105092238.026 8                  81890116.762 8  78478058.769 9
G04  21459652.438 7                  21459657.008 7  21459658.107 8 112771244.190 7                  87873724.663 7  84212321.148 8
G06  24792694.678 5                  24792703.412 5  24792701.457 6 130286319.680 5                 101521970.313 5  97291877.938 6
G09  24144129.500 5                  24144140.316 6  24144146.475 5                                  98866210.644 6  94746820.89915
G17  22548953.226 6                  22548955.447 6                 118495473.687 6                  92334197.126 6
G19  22437689.231 7  22437692.315 5                                 117910855.860 7  91878612.234 5                
G28  23338847.809 6                  23338852.483 7  23338855.662 8 122646471.018 6                  95568725.495 7  91586720.802 8
G31  22554496.502 7                  22554500.876 7                 118524682.749 7                  92357095.108 7
R02  23758238.092 5  23758246.263 5 126778509.96915  98605388.39615
R03  19758145.923 8  19758147.835 7 105766900.340 8  82263107.030 7
R04  19898468.148 8  19898470.175 7 106555388.765 8  82876428.240 7
R12  23333215.736 6  23333220.689 6 124641919.67316  96943663.888 6
R18  20669719.904 8  20669722.641 7 110336356.707 8  85817011.388 7
R19  19534252.950 8  19534253.125 7 104495084.831 8  81274112.528 7
R20  22937245.265 5  22937252.816 7 122655763.342 5  95398971.577 7
> 2025 06 15 14 09 30.0000000  0 34
C05  39290139.131 5  39290134.665 6                
C06  38559540.527 7  38559535.402 7 200789645.625 7 155263283.078 7
C09  39088348.753 6  39088346.644 7 203543303.021 6 157392593.395 7
C11  24068325.284 7  24068323.431 8 125330339.551 7  96913162.321 8
C12  22393227.520 7  22393224.572 8 116607411.530 7  90168202.076 8
C16  39087786.784 7  39087788.305 7 203540347.414 7 157390310.403 7
C21  22892537.312 8                 119207457.597 8
C22  21864819.681 8                 113855849.873 8
C34  22624931.207 8                 117813954.611 8
C39  38971293.780 6                 202933748.387 6
C43  25875528.827 7                 134740672.978 7
C44  23115649.740 7                 120369243.355 7
E03  25433244.715 7  25433248.321 8 133652613.936 7 101107353.192 8
E05  22135198.759 8  22135201.117 9 116321254.214 8  87996283.755 9
E09  26466775.321 7  26466778.850 8 139083837.468 7 105216028.063 8
E15  24788656.979 7  24788660.494 9 130265276.651 7  98544850.969 9
E34  23548904.848 8  23548907.441 9 123750331.329 8  93616327.572 9
E36  26753708.907 6  26753713.587 7 140591670.458 6 106356698.970 7
G01  20885157.724 7                  20885161.248 8  20885162.375 8 109752233.318 7                  85521235.483 8  81957858.804 8
G02  23199544.860 7  23199547.601 5                                 121914410.483 7  94998039.173 5                
G03  19998505.363 8                  19998511.192 8  19998509.473 9 105092854.015 8                  81890596.735 8  78478518.735 9
G04  21452051.610 7                  21452056.504 8  21452057.371 8 112731302.061 7                  87842600.975 8  84182494.257 8
G06  24782421.674 5                  24782429.974 6  24782428.907 7                                 101479904.892 6  97251565.200 7
G09  24133275.281 4                  24133289.099 5  24133293.461 6                                  98821775.511 5  94704237.194 6
G17  22551304.592 6                  22551308.951 5                 118507842.927 6                  92343835.482 5
G19  22434531.630 7  22434534.261 5                                 117894261.122 7  91865681.264 5                
G28  23340523.937 7                  23340528.531 7  23340531.140 8 122655278.023 7                  95575588.089 7  91593297.423 8
G31  22550691.562 7                  22550696.130 7                 118504687.980 7                  92341514.763 7
R03  19762895.162 8  19762897.288 7 105792325.146 8  82282881.861 7
R04  19893010.859 8  19893013.060 7 106526164.311 8  82853698.116 7
R12  23328988.570 6  23328996.366 6 124619348.971 6  96926108.859 6
R18  20678805.260 8  20678807.865 7 110384855.411 8  85854732.575 7
R19  19531813.588 8  19531813.636 7 104482035.970 8  81263963.407 7
R20  22925542.172 5  22925549.832 7 122593180.433 5  95350295.980 7
> 2025 06 15 14 09 45.0000000  0 34
C05  39289954.113 5  39289949.260 7 204593115.93415 158204341.72617
C06  38557519.174 7  38557513.802 7 200779120.073 7 155255144.064 7
C09  39084940.096 6  39084937.943 7 203525553.701 6 157378868.504 7
C11  24062151.676 7  24062150.206 8 125298193.905 7  96888305.272 8
C12  22396261.137 7  22396258.119 8 116623207.638 7  90180416.630 8
C16  39086237.257 6  39086238.734 7 203532279.313 6 157384071.647 7
C21  22887133.973 8                 119179321.521 8
C22  21867874.874 8                 113871758.905 8
C34  22623262.416 8                 117805266.650 8
C39  38971108.911 6                 202932785.889 6
C43  25867100.321 7                 134696786.262 7
C44  23122937.055 7                 120407188.243 7
E03  25425610.298 8  25425613.540 8 133612493.615 8 101077002.470 8
E05  22134729.372 8  22134731.584 9 116318786.789 8  87994417.172 9
E09  26473535.253 7  26473539.039 8 139119362.258 7 105242902.302 8
E15  24782934.812 7  24782938.154 9 130235205.720 7  98522102.533 9
E34  23550904.753 8  23550907.436 9 123760841.353 8  93624278.322 9
E36  26761380.040 6  26761385.459 7 140631985.575 6 106387197.079 7
G01  20890391.221 7                  20890394.700 8  20890396.005 8 109779735.406 7                  85542665.659 8  81978396.050 8
G02  23207960.937 7  23207964.046 5                                 121958637.722 7  95032501.892 5                
G03  19998642.390 8                  19998647.838 8  19998646.266 9 105093572.783 8                  81891156.821 8  78479055.478 9
G04  21444470.453 7                  21444475.372 8  21444476.109 8 112691461.416 7                  87811556.322 8  84152743.143 8
G06  24772153.781 5                  24772162.341 6  24772161.182 7 130178377.48015                 101437859.689 6  97211271.924 7
G09  24122433.137 5                  24122443.630 5  24122448.010 6 126764233.55415                  98777367.015 5  94661679.126 6
G17  22553683.194 6                  22553687.497 5                 118520346.463 6                  92353578.494 5
G19  22431404.503 7  22431406.645 6                                 117877826.396 7  91852875.000 6                
G28  23342228.865 7                  23342233.052 7  23342235.482 8 122664237.030 7                  95582569.131 7  91599987.621 8
G31  22546915.738 7                  22546920.019 7                 118484845.398 7                  92326053.051 7
R03  19767667.728 8  19767669.977 7 105817870.342 8  82302750.344 7
R04  19887578.251 8  19887580.420 8 106497075.704 8  82831073.672 8
R12  23324796.032 6  23324801.751 5 124596955.313 6  96908691.640 5
R18  20687916.255 8  20687918.116 7 110433488.854 8  85892558.577 7
R19  19529410.457 8  19529411.045 7 104469182.094 8  81253965.953 7
R20  22913850.171 5  22913857.300 7 122530658.346 5  95301667.816 7
> 2025 06 15 14 10  0.0000000  0 35
C05  39289769.223 5  39289764.717 7 204592154.585 5 158203598.364 7
C06  38555506.375 6  38555501.170 7 200768639.917 6 155247040.156 7
C09  39081539.156 6  39081537.045 7 203507843.179 6 157365173.618 7
C11  24055997.432 7  24055996.331 8 125266147.588 7  96863525.033 8
C12  22399318.530 7  22399315.851 8 116639130.563 7  90192729.228 8
C16  39084696.302 6  39084697.684 7 203524256.213 6 157377867.672 7
C19  25951337.578 4                 135135398.56814
C21  22881745.765 8                 119151262.896 8
C22  21870945.643 8                 113887748.554 8
C34  22621619.029 8                 117796708.698 8
C39  38970932.635 6                 202931868.870 6
C43  25858685.189 7                 134652963.368 7
C44  23130240.234 7                 120445218.019 7
E03  25417987.126 7  25417990.279 8 133572433.861 7 101046697.550 8
E05  22134278.530 8  22134281.180 9 116316419.896 8  87992626.638 9
E09  26480305.129 7  26480308.887 8 139154937.743 7 105269814.909 8
E15  24777223.564 7  24777226.935 9 130205193.404 7  98499398.431 9
E34  23552921.653 8  23552924.344 9 123771440.114 8  93632296.214 9
E36  26769059.515 6  26769065.249 7 140672342.270 6 106417726.637 7
G01  20895646.930 7                  20895650.422 8  20895651.694 8 109807354.014 7                  85564186.643 8  81999020.319 8
G02  23216389.237 7  23216392.300 5                                 122002926.888 7  95067012.874 5                
G03  19998798.969 8                  19998804.513 8  19998802.557 9 105094394.750 8                  81891797.323 8  78479669.290 9
G04  21436908.331 7                  21436913.252 8  21436914.120 8 112651722.814 7                  87780591.219 8  84123068.243 8
G06  24761889.917 5                  24761899.730 6  24761898.488 7 130124446.138 5                 101395835.280 6  97170998.537 7
G09  24111597.461 6                  24111603.423 5  24111607.154 6 126707277.567 6                  98732985.822 5  94619147.088 6
G17  22556088.641 6                  22556092.426 5                 118532984.340 6                  92363426.147 5
G19  22428307.515 7  22428309.903 6                                 117861552.311 7  91840193.913 6                
G28  23343962.868 6                  23343966.860 7  23343969.181 8 122673348.453 6                  95589668.974 7  91606791.611 8
G31  22543168.773 7                  22543173.389 7                 118465155.584 7                  92310710.335 7
R03  19772461.854 8  19772464.236 7 105843535.767 8  82322712.308 7
R04  19882172.091 8  19882174.089 7 106468123.159 8  82808555.063 7
R12  23320641.057 7  23320640.450 5 124574739.315 7  96891412.60415
R18  20697052.044 8  20697054.186 7 110482257.150 8  85930489.408 7
R19  19527043.703 8  19527044.861 8 104456523.605 8  81244120.489 8
R20  22902168.944 5  22902176.454 7 122468198.002 5  95253087.545 7
> 2025 06 15 14 10 15.0000000  0 34
C05  39289585.507 5  39289580.458 7 204591195.734 5 158202856.934 7
C06  38553501.447 6  38553496.631 7 200758203.065 6 155238969.717 7
C09  39078144.941 7  39078142.991 7 203490169.341 7 157351507.104 7
C11  24049862.238 7  24049860.541 8 125234198.684 7  96838820.133 8
C12  22402400.499 7  22402397.729 8 116655177.888 7  90205138.014 8
C16  39083162.892 6  39083165.313 7 203516275.818 6 157371696.725 7
C21  22876371.674 8                 119123279.487 8
C22  21874031.309 8                 113903816.465 8
C34  22620000.167 8                 117788278.615 8
C39  38970764.184 6                 202930995.079 6
C43  25850281.018 7                 134609202.352 7
C44  23137558.905 7                 120483330.331 7
E03  25410374.983 7  25410378.231 8 133532432.563 7 101016436.859 8
E05  22133847.003 8  22133849.462 9 116314151.222 8  87990910.415 9
E09  26487084.102 7  26487087.933 8 139190561.569 7 105296764.079 8
E15  24771523.282 7  24771526.567 9 130175237.606 7  98476737.093 9
E34  23554955.138 8  23554957.709 9 123782125.449 8  93640379.593 9
E36  26776746.451 6  26776752.373 7 140712738.250 6 106448285.906 7
G01  20900923.976 7                  20900927.874 8  20900929.291 8 109835086.846 7                  85585796.637 8  82019729.882 8
G02  23224828.618 7  23224831.349 5                                 122047275.520 7  95101570.231 5                
G03  19998974.508 8                  19998979.834 8  19998978.280 9 105095317.664 8                  81892516.479 8  78480358.496 9
G04  21429365.839 7                  21429370.079 8  21429371.395 8 112612084.244 7                  87749704.050 8  84093468.051 8
G06  24751631.782 5                  24751641.697 6  24751640.465 7 130070539.480 5                 101353830.123 6  97130743.668 7
G09  24100763.555 5                  24100771.638 4  24100775.002 6                                  98688630.32414  94576639.609 6
G17  22558518.250 6                  22558522.955 5                 118545754.195 6                  92373376.611 5
G19  22425240.794 7  22425243.394 6                                 117845436.833 7  91827636.397 6                
G28  23345724.894 6                  23345729.666 7  23345731.629 8 122682609.938 6                  95596885.771 7  91613707.681 8
G31  22539450.703 7                  22539455.228 7                 118445616.624 7                  92295485.181 7
R03  19777278.257 8  19777280.620 7 105869318.934 8  82342765.898 7
R04  19876790.143 8  19876792.419 7 106439304.701 8  82786140.726 7
R12  23316514.140 6  23316519.037 5 124552699.033 6  96874270.374 5
R18  20706212.984 8  20706215.107 7 110531157.619 8  85968523.095 7
R19  19524713.708 8  19524714.540 8 104444058.656 8  81234425.542 8
R20  22890500.150 5  22890507.687 7 122405797.709 5  95204554.064 7
> 2025 06 15 14 10 30.0000000  0 34
C05  39289400.585 5  39289395.754 7 204590234.298 5 158202113.491 7
C06  38551504.012 6  38551499.785 7 200747804.217 6 155230928.677 7
C09  39074757.453 7  39074755.146 7 203472526.915 7 157337864.870 7
C11  24043744.409 7  24043742.929 8 125202342.111 7  96814186.636 8
C12  22405505.141 7  22405502.722 8 116671344.288 7  90217638.896 8
C16  39081637.887 6  39081639.870 7 203508332.886 6 157365554.745 7
C21  22871011.319 8                 119095366.104 8
C22  21877131.095 8                 113919957.212 8
C34  22618404.752 8                 117779971.238 8
C39  38970603.411 6                 202930159.272 6
C43  25841888.130 7                 134565498.142 7
C44  23144893.099 8                 120521519.614 8
E03  25402772.967 7  25402776.345 8 133492484.520 7 100986216.475 8
E05  22133433.124 8  22133435.431 9 116311975.453 8  87989264.445 9
E09  26493870.989 7  26493875.075 8 139226228.173 7 105323745.591 8
E15  24765832.845 7  24765835.955 9 130145333.211 7  98454114.604 9
E34  23557003.738 8  23557006.542 9 123792892.023 8  93648524.431 9
E36  26784436.083 5  26784445.970 7 140753168.06615 106478870.754 7
G01  20906222.534 7                  20906225.952 8  20906227.540 8 109862928.448 7                  85607491.383 8  82040520.678 8
G02  23233278.211 7  23233280.773 5                                 122091678.183 7  95136169.688 5                
G03  19999168.230 8                  19999173.617 8  19999172.119 9 105096336.213 8                  81893310.149 8  78481119.100 9
G04  21421840.691 7                  21421844.731 7  21421846.269 8 112572540.559 7                  87718890.799 7  84063938.698 8
G06  24741377.716 5                  24741387.292 6  24741385.631 7 130016652.519 5                 101311840.337 6  97090503.428 7
G09  24089935.181 4                  24089942.664 4  24089946.396 6 126593459.17014                  98644296.40914  94534152.916 6
G17  22560973.895 6                  22560975.490 5                 118558650.528 6                  92383425.73415
G19  22422203.391 7  22422206.194 6                                 117829474.639 7  91815198.323 6                
G28  23347514.958 6                  23347519.709 7  23347522.558 8 122692016.170 6                  95604215.280 7  91620731.810 8
G31  22535759.993 7                  22535764.130 7                 118426223.411 7                  92280373.600 7
R03  19782115.878 8  19782118.571 7 105895214.180 8  82362906.654 7
R04  19871432.449 8  19871434.615 7 106410614.952 8  82763826.478 7
R12  23312417.444 5  23312427.404 5 124530829.490 5  96857260.698 5
R18  20715397.090 8  20715399.623 7 110580184.458 8  86006655.031 7
R19  19522419.024 8  19522419.682 8 104431781.891 8  81224876.968 8
R20  22878840.974 5  22878848.636 7 122343452.484 5  95156063.399 7
> 2025 06 15 14 10 45.0000000  0 33
C05  39289215.584 5  39289210.833 7 204589270.827 5 158201368.483 7
C06  38549514.621 6  38549510.234 7 200737443.919 6 155222917.425 7
C09  39071375.160 7  39071372.962 7 203454916.461 7 157324247.382 7
C11  24037644.698 7  24037643.014 8 125170578.665 7  96789625.152 8
C12  22408632.469 7  22408630.045 8 116687630.245 7  90230232.210 8
C16  39080120.003 6  39080121.988 7 203500428.013 6 157359442.202 7
C21  22865664.447 8                 119067523.332 8
C22  21880244.779 8                 113936171.229 8
C34  22616833.146 8                 117771787.186 8
C39  38970450.903 6                 202929361.953 6
C43  25833506.015 7                 134521851.610 7
C44  23152241.402 7                 120559786.231 7
E03  25395181.393 7  25395184.740 8 133452590.447 7 100956036.898 8
E05  22133036.818 8  22133039.141 9 116309893.053 8  87987689.129 9
E09  26500666.556 7  26500670.419 8 139261937.930 7 105350759.774 8
E15  24760152.172 7  24760155.289 9 130115480.910 7  98431531.557 9
E34  23559068.331 8  23559070.925 9 123803740.424 8  93656731.177 9
E36  26792138.030 5  26792145.947 7 140793632.29915 106509481.553 7
G01  20911541.420 7                  20911545.089 8  20911546.194 8 109890879.261 7                  85629271.206 8  82061393.013 8
G02  23241738.238 7  23241740.618 5                                 122136135.229 7  95170811.467 5                
G03  19999380.571 8                  19999385.947 8  19999384.259 9 105097450.883 8                  81894178.740 8  78481951.490 9
G04  21414333.874 7                  21414338.157 8  21414339.762 8 112533092.500 7                  87688152.090 8  84034480.784 8
G06  24731127.473 5                  24731136.903 6  24731134.369 7 129962786.061 5                 101269866.550 6  97050278.555 7
G17  22563452.079 7                  22563453.969 5                 118571673.678 7                  92393573.666 5
G19  22419195.319 7  22419197.947 6                                 117813666.498 7  91802880.313 6                
G28  23349332.681 6                  23349337.144 7  23349340.309 8 122701567.587 6                  95611657.887 7  91627864.318 8
G31  22532097.956 7                  22532101.586 7                 118406976.731 7                  92265376.221 7
R03  19786974.228 8  19786976.752 7 105921221.765 8  82383134.757 7
R04  19866099.169 8  19866100.975 7 106382054.563 8  82741612.837 7
R12  23308360.092 6  23308361.439 5 124509131.386 6  96840384.31615
R18  20724605.352 8  20724607.327 7 110629337.868 8  86044885.449 7
R19  19520158.702 8  19520159.838 8 104419694.244 8  81215475.438 8
R20  22867192.933 5  22867200.202 7 122281163.883 5  95107616.764 7
> 2025 06 15 14 11  0.0000000  0 33
C05  39289030.443 5  39289025.030 7 204588305.003 5 158200621.652 7
C06  38547532.364 6  38547528.466 7 200727121.909 6 155214935.811 7
C09  39067999.416 7  39067997.016 7 203437337.791 7 157310654.441 7
C11  24031562.856 7  24031560.972 8 125138908.429 7  96765135.729 8
C12  22411783.099 7  22411780.561 8 116704035.382 7  90242917.689 8
C16  39078609.279 6  39078611.336 7 203492560.866 6 157353358.836 7
C21  22860331.050 8                 119039750.938 8
C22  21883372.387 8                 113952458.153 8
C34  22615284.639 7                 117763726.309 7
C39  38970305.263 7                 202928602.835 7
C43  25825135.565 7                 134478262.813 7
C44  23159604.966 8                 120598129.675 8
E03  25387599.915 7  25387603.378 8 133412750.211 7 100925898.046 8
E05  22132658.063 8  22132660.567 9 116307903.712 8  87986184.205 9
E09  26507470.597 7  26507473.942 8 139297690.408 7 105377806.281 8
E15  24754481.592 7  24754484.496 9 130085680.660 7  98408987.854 9
E34  23561148.148 8  23561150.843 9 123814670.430 8  93664999.654 9
E36  26799845.684 5  26799852.082 7 140834130.386 5 106540118.018 7
G01  20916880.548 7                  20916884.463 8  20916886.016 8 109918938.867 7                  85651135.817 8  82082346.612 8
G02  23250207.931 7  23250210.242 5                                 122180646.186 7  95205495.308 5                
G03  19999610.856 8                  19999616.160 8  19999614.503 9 105098661.448 8                  81895122.033 8  78482855.479 9
G04  21406845.136 7                  21406849.632 7  21406850.998 8 112493740.027 7                  87657487.864 7  84005094.250 8
G06  24720880.862 6                  24720889.892 6  24720887.475 7 129908940.047 6                 101227908.640 6  97010068.892 7
G17  22565953.852 6                  22565958.718 5                 118584823.378 6                  92403820.278 5
G19  22416216.060 7  22416218.946 6                                 117798012.273 7  91790682.217 6                
G28  23351177.827 7                  23351182.170 7  23351184.935 8 122711263.856 7                  95619213.377 7  91635104.990 8
G31  22528463.194 7                  22528467.343 7                 118387876.585 7                  92250493.006 7
R03  19791853.728 8  19791855.856 7 105947341.190 8  82403449.843 7
R04  19860789.489 8  19860791.885 7 106353623.267 8  82719499.622 7
R12  23304329.776 6  23304333.518 6 124487604.793 6  96823641.461 6
R18  20733837.174 8  20733839.544 7 110678617.295 8  86083213.843 7
R19  19517935.157 8  19517935.127 8 104407795.598 8  81206220.931 8
R20  22855555.300 5  22855562.724 7 122218931.684 5  95059213.936 7
> 2025 06 15 14 11 15.0000000  0 34
C05  39288843.438 5  39288838.100 7 204587330.52815 158199867.13717
C06  38545556.601 7  38545552.294 7 200716831.802 7 155206978.864 7
C09  39064628.294 6  39064625.740 7 203419784.490 6 157297081.127 7
C11  24025497.367 7  24025495.681 8 125107325.177 7  96740713.567 8
C12  22414955.075 7  22414952.613 8 116720553.226 7  90255690.320 8
C16  39077104.737 7  39077106.682 7 203484725.104 7 157347299.744 7
C21  22855010.026 8                 119012042.644 8
C22  21886513.139 8                 113968811.452 8
C34  22613759.552 8                 117755782.301 8
C39  38970165.606 7                 202927875.523 7
C43  25816774.586 7                 134434725.611 7
C44  23166982.111 7                 120636543.347 7
E03  25380027.915 8  25380031.127 8 133372957.521 8 100895795.162 8
E05  22132296.087 8  22132298.475 9 116306000.938 8  87984744.775 9
E09  26514280.861 7  26514284.353 8 139333478.997 7 105404880.083 8
E15  24748819.125 7  24748822.415 9 130055926.165 7  98386478.784 9
E34  23563242.388 8  23563245.058 9 123825675.652 8  93673325.026 9
E36  26807556.952 5  26807563.358 7 140874655.873 5 106570775.256 7
G01  20922239.588 7                  20922243.311 8  20922245.042 8 109947100.771 7                  85673080.143 8  82103376.580 8
G02  23258687.279 7  23258689.333 5                                 122225204.350 7  95240215.927 5                
G03  19999858.212 8                  19999863.570 8  19999861.830 9 105099961.436 8                  81896135.010 8  78483826.256 9
G04  21399373.502 7                  21399378.010 7  21399379.233 8 112454476.900 7                  87626893.237 7  83975774.418 8
G06  24710637.507 6                  24710644.870 5  24710643.785 7 129855108.388 6                 101185961.911 5  96969869.960 7
G17  22568478.692 6                  22568482.682 5                 118598093.104 6                  92414160.256 5
G19  22413265.067 7  22413267.771 6                                 117782505.729 7  91778599.185 6                
G28  23353049.211 7                  23353052.986 7  23353055.853 8 122721098.495 7                  95626876.708 7  91642448.990 8
G31  22524855.277 7                  22524858.937 7                 118368916.732 7                  92235719.105 7
R03  19796752.862 8  19796755.239 8 105973565.385 8  82423846.432 8
R04  19855502.978 8  19855505.563 7 106325314.196 8  82697481.495 7
R05  23606267.222 5  23606271.668 5 126189009.37815  98147015.773 5
R12  23300329.912 6  23300330.543 4 124466243.536 6
R18  20743091.100 8  20743093.271 7 110728015.798 8  86121634.854 7
R19  19515744.679 8  19515745.225 8 104396079.479 8  81197108.417 8
R20  22843927.003 5  22843934.118 7 122156749.702 5  95010850.255 7
> 2025 06 15 14 11 30.0000000  0 34
C05  39288654.593 5  39288649.543 7 204586348.015 5 158199107.394 7
C06  38543586.328 6  38543582.641 7 200706574.271 6 155199047.103 7
C09  39061262.447 6  39061259.977 7 203402257.318 6 157283528.026 7
C11  24019449.094 7  24019447.235 8 125075829.746 7  96716359.330 8
C12  22418148.846 7  22418146.447 8 116737184.392 7  90268550.598 8
C16  39075606.287 7  39075607.764 7 203476921.424 7 157341265.449 7
C21  22849701.367 8                 118984399.145 8
C22  21889666.262 8                 113985231.689 8
C34  22612256.709 8                 117747955.908 8
C39  38970031.907 7                 202927180.660 7
C43  25808423.715 7                 134391240.881 7
C44  23174372.605 8                 120675027.665 8
E03  25372464.420 7  25372467.995 8 133333213.180 7 100865728.840 8
E05  22131950.712 8  22131952.985 9 116304185.362 8  87983371.317 9
E09  26521098.089 7  26521101.719 8 139369304.187 7 105431981.593 8
E15  24743165.889 7  24743169.185 9 130026218.292 7  98364004.995 9
E34  23565350.909 8  23565353.742 9 123836756.785 8  93681707.828 9
E36  26815274.113 5  26815280.428 7 140915209.294 5 106601453.696 7
G01  20927618.421 7                  20927621.850 8  20927623.490 8 109975365.500 7                  85695104.613 8  82124483.348 8
G02  23267175.551 7  23267177.482 5                                 122269810.319 7  95274973.768 5                
G03  20000122.511 8                  20000128.216 8  20000126.494 9 105101351.528 8                  81897218.209 8  78484864.304 9
G04  21391919.307 7                  21391923.616 7  21391925.222 8 112415303.979 7                  87596368.898 7  83946521.931 8
G06  24700396.656 5                  24700403.882 5  24700403.213 7 129801291.900 5                 101144027.065 5  96929682.409 7
G17  22571025.206 5                  22571030.702 6                 118611483.415 5                  92424594.258 6
G19  22410342.918 7  22410345.107 6                                 117767147.675 7  91766631.875 6                
G28  23354947.601 6                  23354951.386 7  23354953.424 7 122731072.016 6                  95634648.294 7  91649896.754 7
G31  22521273.919 7                  22521278.162 7                 118350098.126 7                  92221055.279 7
R03  19801671.070 8  19801673.277 7 105999894.819 8  82444324.892 7
R04  19850239.537 8  19850241.962 8 106297128.793 8  82675559.534 8
R05  23595238.546 6  23595238.476 4 126130058.164 6
R12  23296361.988 6                 124445048.684 6
R18  20752367.365 8  20752370.121 7 110777533.674 8  86160148.752 7
R19  19513588.722 8  19513589.199 7 104384546.900 8  81188138.638 7
R20  22832308.241 6  22832314.565 7 122094619.174 6  94962526.532 7
> 2025 06 15 14 11 45.0000000  0 34
C05  39288464.571 5  39288460.083 7 204585361.695 5 158198344.706 7
C06  38541624.696 6  38541619.929 7 200696353.559 6 155191143.825 7
C09  39057902.179 6  39057899.751 7 203384760.454 6 157269998.356 7
C11  24013418.172 7  24013416.567 8 125044426.698 7  96692076.515 8
C12  22421365.378 7  22421362.646 8 116753932.946 7  90281501.622 8
C16  39074114.127 7  39074116.210 7 203469153.961 7 157335259.174 7
C21  22844406.122 8                 118956824.682 8
C22  21892833.121 8                 114001722.880 8
C34  22610776.922 7                 117740251.410 7
C39  38969905.870 7                 202926522.437 7
C43  25800083.753 7                 134347813.163 7
C44  23181777.366 8                 120713586.608 8
E03  25364911.629 7  25364914.831 8 133293521.519 7 100835702.395 8
E05  22131622.451 8  22131624.881 9 116302461.163 8  87982066.971 9
E09  26527923.258 7  26527926.850 8 139405169.993 7 105459113.813 8
E15  24737521.992 7  24737525.662 9 129996561.425 7  98341569.794 9
E34  23567474.939 8  23567477.652 9 123847918.065 8  93690151.253 9
E36  26822999.623 6  26823003.705 7 140955795.058 6 106632156.472 7
G01  20933017.629 7                  20933020.984 8  20933022.203 8 110003737.174 7                  85717212.396 8  82145669.979 8
G02  23275673.929 7  23275676.069 5                                 122314468.199 7  95309772.044 5                
G03  20000405.167 8                  20000410.561 8  20000408.989 9 105102835.910 8                  81898374.877 8  78485972.782 9
G04  21384482.850 7                  21384487.416 8  21384488.848 8 112376225.664 7                  87565918.296 8  83917340.125 8
G06  24690158.549 5                  24690166.025 5  24690166.119 7 129747495.173 5                 101102107.603 5  96889509.606 7
G17  22573597.317 5                  22573602.603 6                 118624998.268 5                  92435125.186 6
G19  22407449.443 7  22407451.602 6                                 117751942.405 7  91754783.617 6                
G28  23356872.138 6                  23356876.909 7  23356878.772 7 122741188.605 6                  95642531.355 7  91657451.372 7
G31  22517720.536 7                  22517725.063 7                 118331425.140 7                  92206504.941 7
R03  19806610.327 8  19806612.423 7 106026333.500 8  82464888.302 7
R04  19844999.781 8  19845002.976 7 106269071.017 8  82653736.835 7
R05  23584218.421 6                 126071145.567 6
R12  23292425.793 6                 124424024.533 6
R18  20761666.829 8  20761669.725 7 110827174.841 8  86198758.517 7
R19  19511468.256 8  19511468.868 8 104373202.792 8  81179315.448 8
R20  22820699.952 5  22820705.046 6 122032544.557 5  94914246.297 6
> 2025 06 15 14 12  0.0000000  0 34
C05  39288275.421 5  39288270.419 7 204584373.892 5 158197580.879 7
C06  38539669.480 6  38539664.614 7 200686172.029 6 155183270.833 7
C09  39054548.457 7  39054546.417 7 203367296.256 7 157256493.952 7
C11  24007406.090 7  24007404.018 8 125013118.540 7  96667867.071 8
C12  22424604.850 7  22424602.304 8 116770801.157 7  90294545.189 8
C16  39072629.771 7  39072632.037 7 203461425.100 7 157329282.739 7
C21  22839124.119 8                 118929321.616 8
C22  21896014.235 8                 114018287.248 8
C34  22609321.097 7                 117732671.238 7
C39  38969786.772 7                 202925903.157 7
C43  25791755.310 7                 134304445.018 7
C44  23189196.994 8                 120752222.312 8
E03  25357368.750 7  25357372.222 8 133253885.102 7 100805717.724 8
E05  22131312.110 8  22131314.577 9 116300830.678 8  87980833.511 9
E09  26534756.777 7  26534760.063 8 139441078.613 7 105486278.445 8
E15  24731888.685 7  24731892.287 9 129966958.157 7  98319175.125 9
E34  23569614.697 8  23569617.248 9 123859161.912 8  93698657.127 9
E36  26830728.750 6  26830733.600 7 140996415.138 6 106662885.280 7
G01  20938437.174 7                  20938440.937 8  20938442.441 8 110032218.059 7                  85739405.271 8  82166938.163 8
G02  23284182.167 7  23284184.395 5                                 122359180.236 7  95344612.537 5                
G03  20000705.981 8                  20000711.435 8  20000710.005 9 105104416.984 8                  81899606.872 8  78487153.449 9
G04  21377064.945 7                  21377069.782 8  21377070.991 8 112337244.558 7                  87535543.430 8  83888230.890 8
G06  24679925.901 5                  24679932.999 5  24679933.387 7 129693720.849 5                 101060205.582 5  96849353.493 7
G17  22576196.545 6                  22576198.920 6                 118638639.732 6                  92445754.910 6
G19  22404585.592 7  22404587.512 6                                 117736892.437 7  91743056.381 6                
G28  23358825.187 7                  23358829.638 7  23358831.260 7 122751450.632 7                  95650527.710 7  91665114.614 7
G31  22514195.929 7                  22514200.176 7                 118312900.288 7                  92192070.063 7
R03  19811570.285 8  19811572.564 7 106052883.623 8  82485538.378 7
R04  19839785.227 8  19839787.473 8 106241143.509 8  82632015.459 8
R05  23573204.417 6  23573208.228 5 126012274.665 6  98009549.81315
R12  23288522.565 6  23288525.025 5 124403173.979 6  96757957.20715
R18  20770989.832 8  20770992.734 7 110876941.372 8  86237465.777 7
R19  19509383.053 8  19509383.511 8 104362049.405 8  81170640.604 8
R20  22809102.495 5  22809108.844 7 121970529.496 5  94866012.382 7
> 2025 06 15 14 12 15.0000000  0 34
C05  39288085.217 5  39288080.409 7 204583384.710 5 158196815.979 7
C06  38537721.688 6  38537716.626 7 200676029.734 6 155175428.194 7
C09  39051201.010 7  39051198.858 7 203349864.898 7 157243014.939 7
C11  24001411.740 7  24001409.925 8 124981905.650 7  96643731.311 8
C12  22427867.368 7  22427864.494 8 116787789.010 7  90307681.271 8
C16  39071152.978 7  39071155.140 7 203453734.890 7 157323336.202 7
C21  22833856.077 8                 118901890.105 8
C22  21899209.348 8                 114034924.757 8
C34  22607889.457 7                 117725215.539 7
C39  38969675.305 7                 202925322.883 7
C43  25783438.764 7                 134261136.792 7
C44  23196631.360 8                 120790934.603 8
E03  25349837.124 7  25349840.026 8 133214304.091 7 100775774.973 8
E05  22131019.646 8  22131022.116 9 116299293.854 8  87979670.926 9
E09  26541597.956 7  26541601.443 8 139477029.947 7 105513475.390 8
E15  24726265.835 7  24726269.238 9 129937408.688 7  98296821.162 9
E34  23571769.882 8  23571772.590 9 123870488.388 8  93707225.535 9
E36  26838464.845 6  26838470.470 7 141037069.654 6 106693640.104 7
G01  20943877.626 7                  20943881.115 8  20943882.837 8 110060808.116 7                  85761683.203 8  82188287.842 8
G02  23292700.816 7  23292702.952 5                                 122403946.162 7  95379495.049 5                
G03  20001025.309 8                  20001030.794 8  20001029.298 9 105106094.739 8                  81900914.213 8  78488406.333 9
G04  21369665.813 7                  21369670.465 8  21369671.064 8 112298360.912 7                  87505244.528 8  83859194.438 8
G06  24669697.074 6                  24669704.626 6  24669704.933 7 129639969.149 6                 101018321.210 6  96809214.352 7
G17  22578815.261 5                  22578818.903 6                 118652407.871 5                  92456483.431 6
G19  22401751.136 7  22401753.329 6                                 117721997.889 7  91731450.238 6                
G28  23360805.412 7                  23360810.020 7  23360811.683 7 122761858.059 7                  95658637.333 7  91672886.401 7
G31  22510698.500 7                  22510702.763 7                 118294524.010 7                  92177750.917 7
R03  19816549.979 8  19816552.694 7 106079545.002 8  82506274.999 7
R04  19834593.907 8  19834596.843 7 106213346.526 8  82610395.592 7
R05  23562200.127 6                 125953445.205 6
R12  23284653.517 5                 124382497.498 5
R18  20780336.097 8  20780339.360 7 110926832.953 8  86276270.314 7
R19  19507333.658 8  19507334.237 7 104351086.944 8  81162114.228 7
R20  22797516.461 5  22797523.519 7 121908574.309 5  94817825.037 7
> 2025 06 15 14 12 30.0000000  0 34
C05  39287894.264 5  39287889.090 7 204582388.905 5 158196045.961 7
C06  38535780.377 6  38535775.179 7 200665921.385 6 155167611.797 7
C09  39047858.475 7  39047856.818 7 203332461.108 7 157229557.235 7
C11  23995435.006 7  23995433.128 8 124950782.979 7  96619665.318 8
C12  22431151.412 7  22431148.909 8 116804891.147 7  90320905.716 8
C16  39069683.243 7  39069684.813 7 203446078.092 7 157317415.491 7
C21  22828601.067 8                 118874524.912 8
C22  21902417.368 8                 114051629.999 8
C34  22606480.575 8                 117717879.160 8
C39  38969570.306 7                 202924776.330 7
C43  25775132.181 7                 134217883.535 7
C44  23204079.204 7                 120829717.968 7
E03  25342315.204 8  25342317.474 8 133174773.299 8 100745870.222 8
E05  22130744.123 8  22130746.440 9 116297845.396 8  87978575.188 9
E09  26548446.245 7  26548449.876 8 139513018.481 7 105540700.467 8
E15  24720652.127 7  24720655.430 9 129907907.921 7  98274504.027 9
E34  23573940.104 8  23573942.657 9 123881892.242 8  93715852.482 9
E36  26846207.030 5  26846212.652 7 141077753.224 5 106724416.886 7
G01  20949338.127 7                  20949341.404 8  20949343.119 8 110089501.886 7                  85784041.952 8  82209714.978 8
G02  23301228.847 7  23301231.906 5                                 122448760.485 7  95414415.243 5                
G03  20001362.087 8                  20001367.514 8  20001365.643 9 105107863.859 8                  81902292.769 8  78489727.450 9
G04  21362284.168 7                  21362288.589 8  21362289.239 8 112259569.654 7                  87475017.616 8  83830226.972 8
G06  24659471.950 6                  24659479.938 6  24659479.475 7 129586235.183 6                 100976450.581 6  96769088.381 7
G17  22581457.855 5                  22581461.494 6                 118666297.420 5                  92467306.416 6
G19  22398945.351 7  22398947.707 6                                 117707253.675 7  91719961.237 6                
G28  23362812.940 7                  23362817.311 7  23362818.892 7 122772405.390 7                  95666856.053 7  91680762.660 7
G31  22507228.794 7                  22507232.932 7                 118276291.278 7                  92163543.591 7
R03  19821550.867 8  19821553.260 7 106106311.882 8  82527093.710 7
R04  19829426.269 8  19829429.216 7 106185674.351 8  82588872.806 7
R05  23551201.375 6                 125894652.246 6
R12  23280815.454 6                 124361989.745 6
R18  20789705.064 8  20789707.815 7 110976843.759 8  86315167.559 7
R19  19505319.027 8  19505319.774 8 104340310.526 8  81153732.587 8
R20  22785940.236 5  22785948.308 7 121846673.624 5  94769680.114 7
> 2025 06 15 14 12 45.0000000  0 35
C05  39287701.524 5  39287696.726 7 204581387.415 5 158195271.547 7
C06  38533845.241 6  38533840.706 7 200655848.002 6 155159822.445 7
C09  39044521.794 7  39044519.816 7 203315085.892 7 157216121.646 7
C11  23989475.824 7  23989473.919 8 124919751.753 7  96595670.024 8
C12  22434457.890 7  22434455.298 8 116822108.443 7  90334219.206 8
C16  39068219.232 7  39068221.255 7 203438455.662 7 157311521.341 7
C21  22823359.027 8                 118847227.057 8
C22  21905638.507 8                 114068403.847 8
C34  22605095.082 8                 117710663.114 8
C39  38969471.911 7                 202924264.451 7
C43  25766836.579 7                 134174686.523 7
C44  23211541.009 8                 120868573.179 8
E03  25334801.796 8  25334804.741 8 133135293.895 8 100716004.351 8
E05  22130485.607 8  22130487.781 9 116296486.226 8  87977546.978 9
E09  26555302.238 7  26555305.516 8 139549045.079 7 105567954.318 8
E15  24715047.625 7  24715051.065 9 129878457.008 7  98252224.618 9
E34  23576125.026 8  23576127.700 9 123893374.496 8  93724538.716 9
E36  26853954.149 6  26853960.284 7 141118466.705 6 106755216.264 7
G01  20954818.170 7                  20954821.304 8  20954822.987 8 110118300.239 7                  85806482.216 8  82231220.231 8
G02  23309765.864 7  23309769.172 5                                 122493624.127 7  95449373.892 5                
G03  20001716.149 8                  20001721.586 8  20001719.914 9 105109725.374 8                  81903743.305 8  78491117.531 9
G04  21354919.804 7                  21354924.706 8  21354925.248 8 112220871.917 7                  87444863.557 8  83801329.335 8
G06  24649250.210 6                  24649259.006 6  24649257.753 7 129532520.113 6                 100934594.759 6  96728976.544 7
G09  23992724.137 5                  23992731.315 5  23992731.727 7 126082567.14315                  98246235.57715  94152677.891 7
G17  22584122.762 5                  22584127.708 6                                                  92478224.470 6
G19  22396168.315 7  22396170.411 5                                 117692660.908 7  91708590.273 5                
G28  23364846.233 7                  23364850.791 7  23364853.200 8 122783093.700 7                  95675184.637 7  91688744.128 8
G31  22503786.833 7                  22503791.146 7                 118258203.199 7                  92149448.965 7
R03  19826570.732 8  19826573.686 7 106133185.161 8  82547995.145 7
R04  19824282.234 8  19824284.528 8 106158128.235 8  82567448.062 8
R05  23540209.983 5  23540221.533 4 125835896.872 5  97872384.44914
R12  23277007.993 5                 124341651.891 5
R18  20799096.156 8  20799099.553 7 111026974.466 8  86354158.099 7
R19  19503339.553 8  19503339.787 8 104329721.215 8  81145496.435 8
R20  22774375.806 5  22774383.025 7 121784829.117 5  94721578.827 7
> 2025 06 15 14 13  0.0000000  0 34
C05  39287509.226 5  39287503.686 6 204580382.487 5 158194494.478 6
C06  38531918.192 6  38531913.213 7 200645811.849 6 155152061.891 7
C09  39041191.232 7  39041188.947 7 203297741.476 7 157202709.866 7
C11  23983534.423 7  23983532.834 8 124888814.418 7  96571747.329 8
C12  22437786.986 7  22437784.014 8 116839443.024 7  90347623.383 8
C16  39066762.089 7  39066764.100 7 203430869.806 7 157305655.493 7
C21  22818129.850 8                 118819998.784 8
C22  21908873.135 8                 114085248.341 8
C34  22603732.294 8                 117703569.686 8
C39  38969380.957 6                 202923789.445 6
C43  25758552.783 7                 134131548.101 7
C44  23219017.072 8                 120907502.185 8
E03  25327299.334 8  25327302.291 8 133095868.186 8 100686179.081 8
E05  22130244.131 8  22130246.511 9 116295218.494 8  87976587.958 9
E09  26562165.229 7  26562168.777 8 139585111.695 7 105595238.464 8
E15  24709453.251 7  24709456.662 9 129849058.333 7  98229984.721 9
E34  23578325.410 8  23578328.053 9 123904937.348 8  93733285.938 9
E36  26861708.124 6  26861713.914 7 141159212.188 6 106786039.858 7
G01  20960318.479 7                  20960322.060 8  20960323.945 8 110147205.255 7                  85829005.614 8  82252805.147 8
G02  23318312.927 7  23318316.684 5                                 122538538.960 7  95484372.412 5                
G03  20002088.390 8                  20002093.777 8  20002092.252 9 105111681.430 8                  81905267.525 8  78492578.236 9
G04  21347574.710 7                  21347578.893 8  21347579.535 8 112182270.112 7                  87414784.255 8  83772503.333 8
G06  24639032.479 6                  24639041.532 6  24639039.684 7 129478826.479 6                 100892755.624 6  96688880.673 7
G09  23981948.798 5                  23981957.008 6  23981956.982 7 126025944.89815                  98202114.418 6  94110395.110 7
G17  22586814.075 6                  22586817.876 6                 118694440.81216                  92489239.360 6
G19  22393420.551 7  22393422.805 6                                 117678221.844 7  91697339.093 6                
G28  23366907.906 7                  23366911.595 7  23366914.932 8 122793924.991 7                  95683624.659 7  91696832.415 8
G31  22500372.712 7                  22500377.163 7                 118240262.119 7                  92135468.959 7
R03  19831611.348 8  19831613.911 7 106160166.134 8  82568980.311 7
R04  19819162.668 8  19819164.377 7 106130710.519 8  82546123.171 7
R05  23529224.806 5                 125777181.529 5
R18  20808510.065 8  20808512.882 7 111077227.094 8  86393243.402 7
R19  19501395.318 8  19501395.628 8 104319321.246 8  81137407.591 8
R20  22762821.542 5  22762829.804 7 121723043.649 5  94673523.514 7
> 2025 06 15 14 13 15.0000000  0 34
C05  39287313.779 5  39287308.857 7 204579368.483 5 158193710.389 7
C06  38529997.143 6  38529991.893 7 200635807.301 6 155144325.751 7
C09  39037865.448 7  39037863.186 7 203280422.272 7 157189317.586 7
C11  23977610.488 7  23977608.653 8 124857965.632 7  96547893.104 8
C12  22441137.525 7  22441134.525 8 116856889.140 7  90361113.813 8
C16  39065311.398 7  39065313.204 7 203423314.945 7 157299813.616 7
C21  22812913.470 8                 118792834.585 8
C22  21912120.691 8                 114102157.793 8
C34  22602392.618 8                 117696593.400 8
C39  38969295.626 6                 202923345.673 6
C43  25750279.308 7                 134088463.060 7
C44  23226505.903 7                 120946499.188 7
E03  25319805.609 8  25319809.101 8 133056490.739 8 100656390.309 8
E05  22130019.353 8  22130021.576 9 116294036.536 8  87975693.813 9
E09  26569035.174 7  26569038.566 8 139621212.555 7 105622548.500 8
E15  24703867.618 7  24703871.121 9 129819706.457 7  98207780.239 9
E34  23580539.938 8  23580542.693 9 123916575.222 8  93742089.926 9
E36  26869466.466 6  26869472.676 8 141199983.944 6 106816883.390 8
G01  20965838.144 7                  20965841.713 8  20965843.509 8 110176211.249 7                  85851607.668 8  82274465.440 8
G02  23326868.592 7  23326872.327 5                                 122583499.242 7  95519406.338 5                
G03  20002477.741 8                  20002483.055 8  20002481.273 9 105113726.459 8                  81906861.043 8  78494105.361 9
G04  21340245.861 7                  21340250.251 8  21340251.197 8 112143758.804 7                  87384775.458 8  83743744.931 8
G06  24628817.975 6                  24628826.915 6  24628824.853 7 129425148.896 6                 100850928.953 6  96648796.798 7
G09  23971179.252 5                  23971187.001 6  23971186.428 7 125969346.408 5                  98158011.790 6  94068130.156 7
G17  22589526.207 6                  22589530.921 6                 118708694.806 6                  92500346.365 6
G19  22390701.123 7  22390703.543 6                                 117663931.032 7  91686203.433 6                
G28  23368995.295 7                  23368998.912 7  23369002.266 8 122804893.641 7                  95692171.652 7  91705023.288 8
G31  22496985.321 7                  22496989.985 7                 118222462.656 7                  92121599.285 7
R03  19836670.588 8  19836672.921 7 106187249.268 8  82590044.986 7
R04  19814064.816 8  19814067.133 7 106103415.475 8  82524893.722 7
R12  23269486.197 6  23269495.834 5 124301487.16316  96678931.16715
R18  20817945.933 8  20817949.120 7 111127595.310 8  86432418.694 7
R19  19499485.655 8  19499486.005 8 104309105.043 8  81129461.660 8
R20  22751277.123 6  22751285.475 7 121661311.960 6  94625510.024 7
> 2025 06 15 14 13 30.0000000  0 35
C05  39287119.096 5  39287114.094 6 204578352.56515 158192925.59416
C06  38528083.478 6  38528078.379 7 200625842.346 6 155136620.226 7
C09  39034545.923 7  39034543.506 7 203263136.431 7 157175951.085 7
C11  23971704.684 7  23971702.863 8 124827213.579 7  96524113.690 8
C12  22444510.627 7  22444508.195 8 116874454.827 7  90374696.705 8
C16  39063867.881 7  39063869.922 7 203415799.110 7 157294001.929 7
C21  22807710.731 8                 118765742.515 8
C22  21915381.955 8                 114119140.092 8
C34  22601077.131 8                 117689742.336 8
C39  38969217.926 6                 202922941.150 6
C43  25742016.122 7                 134045439.688 7
C44  23234009.496 7                 120985571.956 7
E03  25312322.981 8  25312326.694 8 133017169.714 8 100626644.251 8
E05  22129812.267 8  22129814.509 9 116292948.378 8  87974870.639 9
E09  26575912.527 7  26575916.437 8 139657355.592 7 105649890.449 8
E15  24698292.734 7  24698296.099 9 129790409.669 7  98185617.421 9
E34  23582770.341 8  23582773.158 9 123928296.271 8  93750956.822 9
E36  26877231.595 6  26877237.960 8 141240790.058 6 106847752.850 8
G01  20971378.763 7                  20971382.052 8  20971383.584 8 110205326.169 7                  85874294.591 8  82296207.078 8
G02  23335434.174 7  23335438.351 5                                 122628512.871 7  95554481.850 5                
G03  20002885.005 8                  20002890.829 8  20002888.851 9 105115868.452 8                  81908530.135 8  78495704.908 9
G04  21332936.089 7                  21332940.559 7  21332941.712 8 112105346.347 7                  87354843.687 7  83715060.326 8
G06  24618608.505 6                  24618616.734 6  24618614.839 7 129371495.677 6                 100809121.280 6  96608731.122 7
G09  23960414.850 5                  23960422.655 6  23960421.677 7 125912780.203 5                  98113934.235 6  94025889.199 7
G17  22592263.327 6                  22592267.132 6                 118723075.103 6                  92511551.812 6
G19  22388011.775 7  22388013.754 6                                 117649796.729 7  91675189.677 6                
G28  23371110.006 7                  23371114.409 7  23371115.476 7 122816007.585 7                  95700831.857 7  91713322.692 7
G31  22493626.976 7                  22493631.275 7                 118204813.240 7                  92107846.472 7
R03  19841750.381 8  19841753.005 7 106214442.299 8  82611195.100 7
R04  19808992.705 8  19808994.659 7 106076251.578 8  82503766.264 7
R05  23507282.144 5                 125659844.83515
R12  23265776.564 5  23265785.907 4 124281665.251 5
R18  20827404.595 8  20827408.049 7 111178087.168 8  86471690.113 7
R19  19497611.867 8  19497612.454 7 104299081.375 8  81121665.485 7
R20  22739745.285 6  22739752.829 7 121599642.196 6  94577544.705 7
> 2025 06 15 14 13 45.0000000  0 32
C06  38526177.277 6  38526172.572 7 200615917.683 6 155128945.858 7
C09  39031233.142 7  39031230.467 7 203245884.529 7 157162610.847 7
C11  23965818.122 7  23965815.752 8 124796559.240 7  96500409.834 8
C12  22447907.114 7  22447904.340 8 116892140.536 7  90388372.391 8
C16  39062432.674 6  39062434.433 7 203408322.926 6 157288220.869 7
C21  22802522.484 8                 118738723.228 8
C22  21918657.327 8                 114136195.689 8
C34  22599785.478 8                 117683017.215 8
C39  38969147.674 6                 202922576.510 6
C43  25733765.839 7                 134002478.866 7
C44  23241527.555 7                 121024720.911 7
E03  25304851.595 7  25304855.115 8 132977905.881 7 100596941.454 8
E05  22129623.400 8  22129625.375 9 116291954.560 8  87974118.819 9
E09  26582798.585 7  26582802.396 8 139693541.208 7 105677264.611 8
E15  24692728.319 8  24692731.675 9 129761168.716 8  98163496.858 9
E34  23585016.914 8  23585019.523 9 123940101.106 8  93759887.085 9
E36  26885003.861 6  26885009.374 7 141281631.003 6 106878648.699 7
G01  20976939.852 7                  20976943.449 8  20976944.545 8 110234550.464 7                  85897066.749 8  82318030.405 8
G02  23344010.834 7  23344014.019 5                                 122673580.236 7  95589599.214 5                
G03  20003311.408 8                  20003316.769 8  20003315.018 9 105118108.063 8                  81910275.281 8  78497377.337 9
G04  21325645.320 7                  21325650.050 8  21325651.219 8 112067033.468 7                  87324989.534 8  83686450.102 8
G06  24608403.454 6                  24608412.539 6  24608409.604 7 129317867.771 6                 100767333.321 6  96568684.326 7
G09  23949656.949 5                  23949664.356 6  23949663.637 7 125856246.928 5                  98069882.366 6  93983672.829 7
G17  22595024.023 7                  22595027.779 6                 118737582.201 7                  92522856.103 6
G19  22385351.701 7  22385354.080 6                                 117635819.545 7  91664298.403 6                
G28  23373252.886 7                  23373257.076 7  23373257.693 7 122827267.471 7                  95709605.721 7  91721731.022 7
G31  22490297.091 7                  22490300.867 7                 118187314.536 7                  92094211.183 7
R03  19846850.683 8  19846853.539 7 106241746.038 8  82632431.299 7
R04  19803944.160 8  19803946.371 7 106049219.318 8  82482741.170 7
R18  20836886.571 8  20836890.239 8 111228702.810 8  86511057.778 8
R19  19495774.068 8  19495774.364 7 104289251.310 8  81114019.868 7
R20  22728224.393 6  22728232.269 8 121538036.477 6  94529629.194 8
> 2025 06 15 14 14  0.0000000  0 33
C05  39286727.297 5                 204576285.92315
C06  38524279.310 6  38524274.603 7 200606034.632 6 155121303.648 7
C09  39027926.158 7  39027924.501 7 203228667.934 7 157149297.899 7
C11  23959949.832 7  23959948.031 8 124766004.117 7  96476782.703 8
C12  22451326.604 7  22451323.886 8 116909947.531 7  90402141.895 8
C16  39061004.765 7  39061006.510 7 203400887.716 7 157282471.529 7
C21  22797347.138 8                 118711778.112 8
C22  21921947.042 8                 114153325.813 8
C34  22598518.401 8                 117676419.416 8
C39  38969085.874 6                 202922252.952 6
C43  25725528.519 7                 133959582.133 7
C44  23249060.922 7                 121063947.098 7
E03  25297390.687 7  25297394.589 8 132938700.758 7 100567283.063 8
E05  22129452.433 8  22129454.489 9 116291056.408 8  87973439.383 9
E09  26589693.246 7  26589696.723 8 139729770.599 7 105704671.887 8
E15  24687174.863 7  24687178.168 9 129731985.188 7  98141419.725 9
E34  23587279.318 8  23587282.073 9 123951991.104 8  93768881.782 9
E36  26892782.156 6  26892787.818 7 141322507.942 6 106909571.839 7
G01  20982521.644 7                  20982525.440 8  20982527.218 8 110263885.399 7                  85919925.095 8  82339936.358 8
G02  23352597.132 7  23352600.409 5                                 122718702.646 7  95624759.494 5                
G03  20003756.090 8                  20003761.901 8  20003760.297 9 105120446.609 8                  81912097.541 8  78499123.667 9
G04  21318373.882 7                  21318378.698 8  21318379.578 8 112028821.762 7                  87295214.209 8  83657915.418 8
G06  24598203.326 6                  24598212.626 6  24598210.715 7 129264266.763 6                 100725566.350 6  96528657.647 7
G09  23938905.558 5                  23938913.012 6  23938912.635 7 125799748.193 5                  98025857.473 6  93941482.361 7
G17  22597809.007 7                  22597812.251 5                 118752217.395 7                  92534260.194 5
G19  22382722.696 7  22382724.480 5                                 117622001.156 7  91653530.793 5                
G28  23375423.201 7                  23375428.258 7  23375429.536 8 122838674.444 7                  95718494.271 7  91730249.200 8
G31  22486996.642 7                  22487000.286 7                 118169968.303 7                  92080694.673 7
R03  19851972.393 8  19851974.948 7 106269160.820 8  82653753.921 7
R04  19798920.994 8  19798923.481 7 106022320.155 8  82461819.646 7
R18  20846392.159 8  20846394.148 7 111279443.241 8  86550522.531 7
R19  19493972.854 8  19493973.618 8 104279615.985 8  81106525.727 8
R20  22716715.377 6  22716723.346 8 121476495.816 6  94481764.297 8
> 2025 06 15 14 14 15.0000000  0 34
C05  39286533.351 5  39286529.857 7 204575274.650 5 158190576.19517
C06  38522389.700 6  38522384.998 7 200596195.219 6 155113695.183 7
C09  39024626.840 7  39024625.116 7 203211488.702 7 157136013.837 7
C11  23954101.824 7  23954099.671 8 124735550.541 7  96453234.063 8
C12  22454769.950 7  22454767.290 8 116927877.731 7  90416006.645 8
C16  39059584.979 7  39059586.670 7 203393495.492 7 157276755.395 7
C21  22792187.375 8                 118684909.222 8
C22  21925251.038 8                 114170532.379 8
C34  22597276.316 8                 117669951.064 8
C39  38969031.964 6                 202921972.593 6
C43  25717302.983 7                 133916751.848 7
C44  23256609.100 7                 121103252.357 7
E03  25289942.353 7  25289945.487 8 132899556.501 7 100537670.710 8
E05  22129300.212 8  22129302.184 9 116290255.907 8  87972833.817 9
E09  26596595.936 7  26596599.663 8 139766045.667 7 105732113.681 8
E15  24681632.854 7  24681636.050 9 129702861.282 7  98119387.679 9
E34  23589558.665 8  23589561.273 9 123963968.334 8  93777942.483 9
E36  26900568.169 6  26900573.835 7 141363423.020 6 106940523.815 7
G01  20988125.958 7                  20988129.432 8  20988131.038 8 110293332.905 7                  85942871.193 8  82361926.339 8
G02  23361194.535 7  23361197.290 5                                 122763881.892 7  95659964.076 5                
G03  20004220.446 8                  20004225.912 7  20004224.699 9 105122886.158 8                  81913998.486 7  78500945.406 9
G04  21311121.931 7                  21311126.637 8  21311127.394 8 111990713.407 7                  87265519.416 8  83629457.913 8
G06  24588009.747 6                  24588018.130 7  24588016.465 7 129210695.036 6                 100683822.136 7  96488652.790 7
G09  23928161.015 5                  23928169.077 6  23928168.007 6 125743286.386 5                  97981861.257 6  93899319.453 6
G17  22600618.845 7                  22600621.587 6                 118766982.533 7                  92545765.520 6
G19  22380123.395 7  22380125.253 5                                 117608343.547 7  91642888.512 5                
G28  23377622.047 7                  23377626.718 7  23377629.499 7 122850230.480 7                  95727498.962 7  91738878.709 7
G31  22483724.472 7                  22483729.191 7                 118152776.751 7                  92067298.680 7
R03  19857115.356 8  19857117.192 8 106296689.121 8  82675164.821 8
R04  19793923.398 8  19793925.105 7 105995556.544 8  82441003.506 7
R05  23474425.145 6                 125484202.45916
R18  20855921.247 8  20855924.274 7 111330310.160 8  86590085.685 7
R19  19492208.566 8  19492209.225 8 104270177.860 8  81099184.979 8
R20  22705219.896 6  22705227.311 7 121415023.474 6  94433952.514 7
> 2025 06 15 14 14 30.0000000  0 34
C05  39286341.737 5  39286337.730 7 204574272.918 5 158189801.576 7
C06  38520509.731 6  38520505.126 7 200586406.054 6 155106125.558 7
C09  39021336.680 7  39021334.521 7 203194353.454 7 157122763.818 7
C11  23948273.969 7  23948272.492 8 124705205.161 7  96429769.109 8
C12  22458237.982 7  22458235.295 8 116945937.579 7  90429971.653 8
C16  39058174.926 6  39058176.677 7 203386152.852 6 157271077.622 7
C21  22787043.633 8                 118658123.187 8
C22  21928571.380 8                 114187821.824 8
C34  22596060.292 7                 117663618.784 7
C39  38968988.257 6                 202921741.949 6
C43  25709092.010 7                 133873994.830 7
C44  23264173.567 7                 121142643.054 7
E03  25282505.897 7  25282509.398 8 132860479.841 7 100508109.498 8
E05  22129167.598 8  22129169.679 9 116289559.634 8  87972307.087 9
E09  26603508.510 7  26603512.498 8 139802372.764 7 105759594.872 8
E15  24676103.462 7  24676106.506 9 129673803.803 7  98097405.901 9
E34  23591855.691 8  23591858.314 9 123976039.453 8  93787074.201 9
E36  26908361.939 6  26908368.601 7 141404382.676 6 106971509.481 7
G01  20993752.028 7                  20993755.569 8  20993757.190 8 110322899.456 7                  85965910.051 8  82384005.241 8
G02  23369803.600 7  23369807.144 5                                 122809124.436 7  95695217.974 5                
G03  20004705.387 8                  20004710.741 7  20004709.000 9 105125433.270 8                  81915983.236 7  78502847.469 9
G04  21303891.266 7                  21303895.548 7  21303896.815 8 111952715.263 7                  87235910.470 7  83601082.679 8
G06  24577821.317 6                  24577830.235 7  24577828.435 7 129157159.402 6                 100642106.075 7  96448674.920 7
G09  23917423.693 5                  23917432.505 5  23917432.695 7 125686868.40015                  97937899.220 5  93857189.112 7
G17  22603454.227 6                  22603458.353 6                 118781883.966 6                  92557376.998 6
G19  22377556.062 7  22377558.202 5                                 117594853.557 7  91632376.834 5                
G28  23379850.725 7                  23379855.344 7  23379858.482 8 122861942.140 7                  95736624.910 7  91747624.432 8
G31  22480484.102 7                  22480488.417 7                 118135746.729 7                  92054028.508 7
R03  19862279.873 8  19862282.511 7 106324337.024 8  82696668.733 7
R04  19788951.678 8  19788954.068 7 105968934.925 8  82420297.814 7
R05  23463490.100 6                 125425756.772 6
R18  20865475.308 8  20865478.281 7 111381310.051 8  86629752.206 7
R19  19490482.400 8  19490482.632 7 104260943.739 8  81092002.898 7
R20  22693738.281 5  22693745.449 7 121353626.331 5  94386199.221 7
> 2025 06 15 14 14 45.0000000  0 35
C05  39286150.687 5  39286147.190 7 204573279.292 5 158189033.246 7
C06  38518639.141 6  38518634.410 7 200576665.524 6 155098593.556 7
C09  39018054.150 7  39018051.707 7 203177260.700 7 157109546.640 7
C11  23942467.423 7  23942465.576 8 124674966.798 7  96406386.904 8
C12  22461731.187 7  22461728.169 8 116964125.457 7  90444035.663 8
C16  39056773.841 6  39056775.686 7 203378858.217 6 157265436.946 7
C21  22781915.092 8                 118631418.544 8
C22  21931907.142 8                 114205192.415 8
C34  22594870.265 8                 117657421.108 8
C39  38968953.122 6                 202921559.482 6
C43  25700894.761 7                 133831309.809 7
C44  23271754.471 7                 121182117.345 7
E03  25275082.665 7  25275085.795 8 132821469.381 7 100478598.387 8
E05  22129054.621 8  22129056.712 9 116288965.937 8  87971857.969 9
E09  26610430.992 7  26610434.828 8 139838750.197 7 105787114.152 8
E15  24670586.235 7  24670589.483 9 129644811.400 7  98075473.344 9
E34  23594170.194 8  23594172.916 9 123988202.947 8  93796275.794 9
E36  26916164.610 6  26916171.408 7 141445385.374 6 107002527.647 7
G01  20999400.727 7                  20999404.251 8  20999406.142 8 110352583.406 7                  85989040.395 8  82406171.809 8
G02  23378424.797 7  23378428.613 5                                 122854428.640 7  95730519.847 5                
G03  20005210.195 8                  20005215.554 8  20005213.491 9 105128086.381 8                  81918050.614 8  78504828.703 9
G04  21296681.297 7                  21296685.484 7  21296686.813 8 111914825.965 7                  87206386.363 7  83572788.745 8
G06  24567640.211 6                  24567649.642 7  24567648.012 7 129103658.563 6                 100600417.159 7  96408723.067 7
G09  23906696.360 5                  23906705.093 6  23906704.939 7 125630492.641 5                  97893970.211 6  93815090.450 7
G17  22606314.798 6                  22606319.582 6                 118796919.979 6                  92569093.381 6
G19  22375021.060 7  22375022.093 5                                 117581529.773 7  91621994.646 5                
G28  23382109.229 7                  23382112.964 7  23382115.771 8 122873807.787 7                  95745870.862 7  91756485.155 8
G31  22477273.694 7                  22477277.578 7                 118118876.699 7                  92040883.024 7
R03  19867466.704 8  19867469.541 7 106352102.663 8  82718264.213 7
R04  19784006.649 8  19784008.678 7 105942453.890 8  82399701.480 7
R05  23452564.466 7                 125367364.440 7
R12  23247768.569 4                 124185224.97214
R18  20875053.622 8  20875056.844 7 111432440.786 8  86669520.519 7
R19  19488793.985 8  19488794.088 7 104251912.571 8  81084978.639 7
R20  22682270.535 6  22682277.336 7 121292303.099 6  94338503.440 7
> 2025 06 15 14 15  0.0000000  0 34
C05  39285961.511 5  39285957.744 7 204572293.879 5 158188271.244 7
C06  38516777.362 6  38516773.350 7 200566973.805 6 155091099.307 7
C09  39014780.110 7  39014777.477 7 203160210.530 7 157096362.388 7
C11  23936681.084 7  23936679.271 8 124644835.849 7  96383087.760 8
C12  22465248.071 7  22465245.541 8 116982441.402 7  90458198.725 8
C16  39055382.808 7  39055384.022 7 203371611.771 7 157259833.546 7
C21  22776802.541 8                 118604795.417 8
C22  21935259.027 8                 114222644.245 8
C34  22593705.721 7                 117651358.241 7
C39  38968927.183 6                 202921425.266 6
C43  25692711.977 7                 133788697.220 7
C44  23279350.879 7                 121221675.135 7
E03  25267671.615 8  25267674.949 8 132782525.405 8 100449137.556 8
E05  22128961.093 8  22128963.284 9 116288474.977 8  87971486.555 9
E09  26617363.352 7  26617366.723 8 139875177.943 7 105814671.460 8
E15  24665082.019 7  24665084.819 9 129615884.337 7  98053590.223 9
E34  23596502.429 8  23596505.120 9 124000458.923 8  93805547.363 9
E36  26923975.722 6  26923982.489 7 141486430.913 6 107033578.327 7
G01  21005071.654 7                  21005075.285 8  21005077.359 8 110382384.740 7                  86012262.202 8  82428426.023 8
G02  23387057.735 7  23387061.184 5                                 122899794.216 7  95765869.581 5                
G03  20005735.287 8                  20005740.636 8  20005738.693 9 105130845.677 8                  81920200.708 8  78506889.217 9
G04  21289491.573 7                  21289495.855 7  21289497.611 8 111877045.847 7                  87176947.349 7  83544576.372 8
G06  24557466.327 6                  24557474.840 7  24557473.803 8 129050193.004 6                 100558755.733 7  96368797.529 8
G09  23895976.826 6                  23895985.796 6  23895985.142 7 125574159.711 6                  97850074.372 6  93773023.726 7
G17  22609201.777 6                  22609206.819 6                 118812090.664 6                  92580914.662 6
G19  22372517.237 7  22372517.915 5                                 117568372.299 7  91611742.085 5                
G28  23384396.488 7                  23384399.749 7  23384402.979 8 122885827.454 7                  95755236.847 7  91765460.865 8
G31  22474094.485 7                  22474097.961 7                 118102167.089 7                  92027862.609 7
R03  19872675.661 8  19872677.462 7 106379986.199 8  82739951.389 7
R04  19779087.651 8  19779089.510 7 105916113.590 8  82379214.589 7
R05  23441650.674 7                 125309025.805 7
R18  20884656.780 8  20884659.384 7 111483702.258 8  86709390.486 7
R19  19487143.759 8  19487143.902 7 104243084.389 8  81078112.278 7
R20  22670816.741 6  22670823.479 7 121231054.595 6  94290865.781 7
> 2025 06 15 14 15 15.0000000  0 35
C05  39285774.658 5  39285770.909 7 204571319.828 5 158187518.026 7
C06  38514925.683 6  38514922.073 7 200557334.023 6 155083645.232 7
C09  39011514.509 7  39011512.003 7 203143206.179 7 157083213.553 7
C11  23930916.100 7  23930914.050 8 124614815.662 7  96359874.263 8
C12  22468790.972 7  22468788.068 8 117000888.466 7  90472463.170 8
C16  39054001.385 7  39054002.101 7 203364416.631 7 157254269.813 7
C21  22771706.009 8                 118578257.052 8
C22  21938626.487 8                 114240180.305 8
C34  22592567.871 7                 117645433.444 7
C39  38968911.166 6                 202921342.510 6
C43  25684542.652 7                 133746160.531 7
C44  23286964.095 7                 121261319.394 7
E03  25260273.968 7  25260277.480 8 132743651.250 7 100419729.531 8
E05  22128887.564 8  22128889.978 9 116288089.811 8  87971195.195 9
E09  26624305.311 7  26624308.769 8 139911659.007 7 105842269.117 8
E15  24659590.450 7  24659593.266 9 129587026.025 7  98031759.104 9
E34  23598853.159 8  23598855.544 9 124012810.653 8  93814891.365 9
E36  26931794.437 6  26931801.919 7 141527522.643 6 107064663.847 7
G01  21010765.977 7                  21010769.339 8  21010771.326 8 110412306.557 7                  86035577.892 8  82450770.218 8
G02  23395703.437 7  23395706.824 5                                 122945224.317 7  95801269.569 5                
G03  20006281.038 8                  20006286.451 8  20006285.073 9 105133714.274 8                  81922435.984 8  78509031.339 9
G04  21282323.778 7                  21282328.293 7  21282329.913 8 111839378.253 7                  87147596.035 7  83516448.021 8
G06  24547299.783 6                  24547307.180 6  24547306.645 7 128996766.139 6                 100517124.480 6  96328900.921 7
G09  23885266.223 6                  23885274.918 6  23885273.916 7 125517872.981 6                  97806214.639 6  93730991.404 7
G17  22612115.221 6                  22612119.527 6                 118827398.905 6                  92592843.121 6
G19  22370045.590 7  22370046.972 5                                 117555384.489 7  91601621.746 5                
G28  23386713.613 7                  23386717.258 7  23386720.405 8 122898004.233 7                  95764725.314 7  91774553.931 8
G31  22470945.649 7                  22470949.680 7                 118085621.405 7                  92014969.870 7
R03  19877907.038 8  19877909.305 7 106407989.794 8  82761731.983 7
R04  19774195.618 8  19774197.722 7 105889917.438 8  82358839.814 7
R05  23430748.010 7  23430759.695 5 125250744.401 7  97417310.37015
R12  23240759.135 4                                
R18  20894284.706 8  20894287.569 7 111535097.243 8  86749364.366 7
R19  19485531.689 8  19485532.145 7 104234462.446 8  81071406.328 7
R20  22659377.746 6  22659384.964 7 121169884.690 6  94243289.265 7
> 2025 06 15 14 15 30.0000000  0 35
C05  39285589.987 5  39285585.811 7 204570356.326 5 158186772.994 7
C06  38513085.542 6  38513080.843 7 200547745.501 6 155076230.794 7
C09  39008257.460 7  39008255.206 7 203126246.927 7 157070099.589 7
C11  23925172.400 7  23925169.887 8 124584905.689 7  96336745.971 8
C12  22472358.159 7  22472355.616 8 117019465.699 7  90486828.240 8
C16  39052628.978 7  39052630.642 7 203357272.020 7 157248745.157 7
C21  22766625.624 8                 118551802.640 8
C22  21942009.705 8                 114257799.686 8
C34  22591456.696 7                 117639645.965 7
C39  38968904.750 7                 202921310.322 7
C43  25676388.551 7                 133703699.096 7
C44  23294593.769 7                 121301049.107 7
E03  25252889.922 7  25252893.181 8 132704846.223 7 100390373.803 8
E05  22128834.302 8  22128836.682 9 116287809.630 8  87970983.229 9
E09  26631257.428 7  26631260.784 8 139948192.381 7 105869906.348 8
E15  24654111.634 7  24654114.719 9 129558235.844 7  98009979.531 9
E34  23601221.478 8  23601224.090 9 124025257.321 8  93824307.191 9
E36  26939625.496 6  26939629.846 7 141568659.452 6 107095783.579 7
G01  21016482.793 7                  21016485.767 8  21016487.691 8 110442347.889 7                  86058986.700 8  82473203.657 8
G02  23404360.432 7  23404364.165 5                                 122990717.875 7  95836719.007 5                
G03  20006847.937 8                  20006853.121 8  20006851.513 9 105136691.337 8                  81924755.794 8  78511254.478 9
G04  21275177.476 7                  21275181.283 7  21275183.262 8 111801822.622 7                  87118331.953 7  83488403.271 8
G06  24537140.064 7                  24537147.539 6  24537147.002 7 128943377.482 7                 100475522.994 6  96289032.820 7
G09  23874564.560 6                  23874572.700 6  23874571.467 7 125461631.872 6                  97762390.397 6  93688993.184 7
G17  22615053.916 6                  22615058.020 5                 118842843.695 6                  92604878.096 5
G19  22367606.297 7  22367608.181 5                                 117542565.754 7  91591633.132 5                
G28  23389060.213 6                  23389063.876 7  23389067.425 8 122910337.260 6                  95774335.475 7  91783763.680 8
G31  22467828.095 7                  22467832.121 7                 118069238.959 7                  92002204.340 7
R03  19883160.713 8  19883162.905 8 106436113.045 8  82783605.602 8
R04  19769330.575 8  19769332.884 7 105863864.643 8  82338576.566 7
R05  23419853.955 6  23419869.374 5 125192519.578 6  97372024.43315
R12  23237329.950 5  23237323.902 6 124129618.77915  96545229.31316
R18  20903937.800 8  20903940.627 7 111586624.529 8  86789441.093 7
R19  19483958.911 8  19483958.885 7 104226046.639 8  81064860.708 7
R20  22647953.703 6  22647959.919 7 121108792.860 6  94195773.421 7
> 2025 06 15 14 15 45.0000000  0 35
C05  39285407.077 5  39285402.703 7 204569402.525 5 158186035.474 7
C06  38511253.585 6  38511249.076 7 200538207.277 6 155068855.248 7
C09  39005009.084 6  39005006.899 7 203109331.865 6 157057019.815 7
C11  23919449.393 7  23919447.297 8 124555105.266 7  96313702.399 8
C12  22475950.737 7  22475948.236 8 117038172.175 7  90501293.257 8
C16  39051266.163 7  39051267.633 7 203350177.031 7 157243258.867 7
C21  22761561.476 8                 118525431.396 8
C22  21945409.297 8                 114275501.314 8
C34  22590371.509 7                 117633994.986 7
C39  38968908.196 6                 202921327.814 6
C43  25668248.735 7                 133661312.408 7
C44  23302239.652 8                 121340863.063 8
E03  25245518.118 7  25245521.911 8 132666109.553 7 100361069.773 8
E05  22128800.893 8  22128803.136 9 116287633.407 8  87970849.933 9
E09  26638219.050 7  26638222.627 8 139984777.020 7 105897582.365 8
E15  24648645.731 8  24648648.905 9 129529513.026 8  97988250.918 9
E34  23603607.861 8  23603610.544 9 124037798.054 8  93833794.175 9
E36  26947459.417 6  26947466.323 7 141609840.492 6 107126936.712 7
G01  21022221.994 7                  21022225.174 8  21022227.150 8 110472507.714 7                  86082487.845 8  82495725.579 8
G02  23413029.522 7  23413032.854 4                                 123036273.715 7  95872217.024 4                
G03  20007434.537 8                  20007440.280 7  20007438.160 9 105139775.992 8                  81927159.409 7  78513557.955 9
G04  21268052.025 7                  21268055.818 7  21268057.615 8 111764378.206 7                  87089154.494 7  83460441.561 8
G06  24526987.380 7                  24526995.301 6  24526994.715 8 128890026.370 7                 100433950.700 6  96249192.761 8
G09  23863870.662 6                  23863878.714 6  23863878.200 7 125405435.672 6                  97718601.176 6  93647028.515 7
G17  22618020.162 6                  22618022.750 5                 118858424.156 6                  92617018.745 5
G19  22365198.499 7  22365200.719 5                                 117529915.273 7  91581775.615 5                
G28  23391436.643 7                  23391440.924 7  23391443.932 8 122922825.486 7                  95784066.500 7  91793089.299 8
G31  22464741.456 7                  22464745.672 7                 118053019.178 7                  91989565.588 7
R03  19888435.992 8  19888438.473 7 106464354.743 8  82805571.367 7
R04  19764491.823 8  19764494.247 7 105837954.181 8  82318424.013 7
R05  23408972.150 6                 125134350.433 6
R12  23233922.351 5  23233923.307 5 124111467.24715  96531107.414 5
R18  20913614.953 8  20913617.840 7 111638282.870 8  86829619.760 7
R19  19482423.616 8  19482424.124 7 104217835.853 8  81058474.551 7
R20  22636543.415 6  22636549.989 7 121047779.008 6  94148318.265 7
> 2025 06 15 14 16  0.0000000  0 35
C05  39285225.072 5  39285220.939 6 204568456.282 5 158185303.774 6
C06  38509430.781 7  38509427.054 7 200528717.171 7 155061516.896 7
C09  39001768.646 6  39001766.137 7 203092458.742 6 157043972.466 7
C11  23913746.787 7  23913744.887 8 124525412.451 7  96290742.039 8
C12  22479567.658 7  22479564.883 8 117057005.499 7  90515856.371 8
C16  39049913.383 7  39049914.495 7 203343129.457 7 157237809.239 7
C21  22756512.738 8                 118499141.131 8
C22  21948824.244 8                 114293282.906 8
C34  22589312.147 8                 117628478.324 8
C39  38968920.541 6                 202921392.713 6
C43  25660122.622 7                 133618998.456 7
C44  23309901.072 7                 121380758.862 7
E03  25238159.872 8  25238163.214 8 132627439.083 8 100331815.854 8
E05  22128786.754 8  22128788.933 9 116287558.900 8  87970793.565 9
E09  26645190.357 7  26645193.684 8 140021410.456 7 105925295.292 8
E15  24643192.884 7  24643195.534 9 129500855.539 7  97966571.743 9
E34  23606011.905 8  23606014.459 9 124050430.653 8  93843350.639 9
E36  26955304.010 6  26955310.908 7 141651063.450 6 107158121.548 7
G01  21027982.854 7                  21027986.421 8  21027988.408 8 110502783.662 7                  86106079.476 8  82518334.239 8
G02  23421710.080 6  23421713.513 5                                 123081889.614 6  95907761.845 5                
G03  20008041.559 8                  20008047.010 7  20008045.074 9 105142965.956 8                  81929645.084 7  78515940.075 9
G04  21260947.266 7                  21260951.085 7  21260953.205 8 111727042.940 7                  87060062.088 7  83432561.352 8
G06  24516841.759 7                  24516849.743 7  24516848.899 8 128836710.895 7                 100392406.207 7  96209379.288 8
G09  23853185.013 6                  23853192.594 6  23853192.069 7 125349282.372 6                  97674845.409 6  93605095.926 7
G17  22621009.834 6                  22621014.544 5                 118874137.823 6                  92629263.210 5
G19  22362823.302 7  22362825.062 5                                 117517430.860 7  91572047.506 5                
G28  23393842.259 7                  23393846.692 7  23393849.014 8 122935466.590 7                  95793916.727 7  91802529.073 8
G31  22461685.519 7                  22461689.362 7                 118036959.996 7                  91977051.981 7
R03  19893733.664 8  19893736.178 7 106492711.586 8  82827626.698 7
R04  19759679.713 8  19759681.886 7 105812183.917 8  82298380.470 7
R05  23398100.396 6                 125076235.095 6
R12  23230556.181 6  23230554.444 4 124093497.498 6  96517131.04814
R18  20923316.541 8  20923319.976 7 111690069.563 8  86869898.302 7
R19  19480926.900 8  19480926.991 7 104209828.048 8  81052246.251 7
R20  22625147.484 6  22625154.431 7 120986840.597 6  94100921.776 7
> 2025 06 15 14 16 15.0000000  0 35
C05  39285045.369 5  39285040.687 7 204567518.163 5 158184578.354 7
C06  38507618.134 6  38507613.559 7 200519275.798 6 155054216.243 7
C09  38998536.457 7  38998534.322 7 203075628.295 7 157030958.122 7
C11  23908066.065 7  23908063.557 8 124495828.068 7  96267865.521 8
C12  22483208.786 7  22483206.242 8 117075966.257 7  90530518.019 8
C16  39048568.668 6  39048570.453 7 203336129.976 6 157232396.805 7
C21  22751479.437 8                 118472932.512 8
C22  21952254.322 8                 114311144.951 8
C34  22588278.672 8                 117623096.709 8
C39  38968942.602 6                 202921505.715 6
C43  25652011.108 7                 133576758.131 7
C44  23317578.574 7                 121420736.939 7
E03  25230813.855 7  25230817.218 8 132588835.669 7 100302612.640 8
E05  22128792.133 8  22128794.224 9 116287586.675 8  87970814.596 9
E09  26652170.943 7  26652174.179 8 140058093.189 7 105953045.524 8
E15  24637751.808 7  24637754.837 9 129472264.216 7  97944942.606 9
E34  23608433.484 8  23608435.997 9 124063155.767 8  93852977.097 9
E36  26963157.574 6  26963163.668 7 141692328.787 6 107189338.479 7
G01  21033766.272 7                  21033770.268 8  21033771.981 8 110533176.260 7                  86129761.988 8  82541029.977 8
G02  23430401.761 6  23430405.888 5                                 123127566.020 6  95943353.780 5                
G03  20008668.957 8                  20008674.175 8  20008672.582 9 105146261.888 8                  81932213.349 8  78518401.325 9
G04  21253863.329 7                  21253867.679 7  21253868.970 8 111689817.669 7                  87031055.411 7  83404763.284 8
G06  24506702.829 7                  24506710.924 6  24506710.255 8 128783431.896 7                 100350890.143 6  96169593.070 8
G09  23842507.277 5                  23842514.628 6  23842515.142 7 125293172.748 5                  97631123.710 6  93563195.961 7
G17  22624024.355 6                  22624030.581 5                 118889985.275 6                  92641611.811 5
G19  22360479.207 7  22360481.166 5                                 117505113.255 7  91562449.357 5                
G28  23396276.831 7                  23396280.674 7  23396283.610 8 122948261.090 7                  95803886.516 7  91812083.440 8
G31  22458660.021 7                  22458664.308 7                 118021062.169 7                  91964664.091 7
R03  19899052.434 8  19899055.277 7 106521184.678 8  82849772.438 7
R04  19754893.628 8  19754895.460 7 105786554.605 8  82278446.574 7
R05  23387239.607 5                 125018174.315 5
R12  23227226.882 6  23227229.939 6 124075715.818 6  96503300.80816
R18  20933041.758 8  20933045.300 7 111741984.933 8  86910276.852 7
R19  19479468.122 8  19479468.649 7 104202024.153 8  81046176.545 7
R20  22613766.108 6  22613773.320 7 120925979.474 6  94053585.408 7
