     3.04           OBSERVATION DATA    Mixed(MIXED)        RINEX VERSION / TYPE
cnvtToRINEX 3.14.0  convertToRINEX OPR  20250615 162118 UTC PGM / RUN BY / DATE 
----------------------------------------------------------- COMMENT             
1001                                                        MARKER NAME         
1001                                                        MARKER NUMBER       
GEODETIC                                                    MARKER TYPE         
GNSS Observer       Trimble                                 OBSERVER / AGENCY   
6337S22116          Geo Explorer 3      6.26                REC # / TYPE / VERS 
                    UNKNOWN EXT     NONE                    ANT # / TYPE        
  3914668.2811  1190798.1477  4877084.8465                  APPROX POSITION XYZ 
        1.2440        0.0000        0.0000                  ANTENNA: DELTA H/E/N
R    4 C1C C2C L1C L2C                                      SYS / # / OBS TYPES 
G    8 C1C C2W C2X C5X L1C L2W L2X L5X                      SYS / # / OBS TYPES 
C    4 C2I C7I L2I L7I                                      SYS / # / OBS TYPES 
E    4 C1X C8X L1X L8X                                      SYS / # / OBS TYPES 
    15.000                                                  INTERVAL            
  2025     6    15     7    12    0.0000000     GPS         TIME OF FIRST OBS   
  2025     6    15     7    42   15.0000000     GPS         TIME OF LAST OBS    
     0                                                      RCV CLOCK OFFS APPL 
  8 R07  5 R12 -1 R13 -2 R14 -7 R15  0 R22 -3 R23  3 R24  2 GLONASS SLOT / FRQ #
R L2C -0.25000                                              SYS / PHASE SHIFT   
G L2X -0.25000                                              SYS / PHASE SHIFT   
    18                                                      LEAP SECONDS        
    31                                                      # OF SATELLITES     
   C08   122   122   122   122                              PRN / # OF OBS      
   C13   122   122   122   122                              PRN / # OF OBS      
   C26    17     0    17     0                              PRN / # OF OBS      
   C29   122     0   122     0                              PRN / # OF OBS      
   C30   122     0   122     0                              PRN / # OF OBS      
   C32    17     0    17     0                              PRN / # OF OBS      
   C36   108     0   106     0                              PRN / # OF OBS      
   C38   122     0   122     0                              PRN / # OF OBS      
   C45   121     0   121     0                              PRN / # OF OBS      
   C47   122     0   122     0                              PRN / # OF OBS      
   E02    69    67    69    67                              PRN / # OF OBS      
   E10   122   122   122   122                              PRN / # OF OBS      
   E11   122   122   122   122                              PRN / # OF OBS      
   E12   122   122   122   122                              PRN / # OF OBS      
   E16   122   122   122   122                              PRN / # OF OBS      
   E24   122   122   122   122                              PRN / # OF OBS      
   E25   122   122   122   122                              PRN / # OF OBS      
   E36    20    20    19    20                              PRN / # OF OBS      
   G10   116     0   112   116   110     0   112   116      PRN / # OF OBS      
   G16   122   122     0     0   122   122     0     0      PRN / # OF OBS      
   G18   122     0   122   122   122     0   122   122      PRN / # OF OBS      
   G23   122     0   122   122   122     0   122   122      PRN / # OF OBS      
   G27   120     0   120   120   120     0   120   120      PRN / # OF OBS      
   R07    66    52    61    48                              PRN / # OF OBS      
   R12    14    10    13     8                              PRN / # OF OBS      
   R13   122     0   122     0                              PRN / # OF OBS      
   R14   122   122   122   122                              PRN / # OF OBS      
   R15    41    41    41    41                              PRN / # OF OBS      
   R22    75    64    74    63                              PRN / # OF OBS      
   R23   122     0   122     0                              PRN / # OF OBS      
   R24   115   113   115   113                              PRN / # OF OBS      
DBHZ                                                        SIGNAL STRENGTH UNIT
                                                            END OF HEADER       
>                              2  1
              *** Start of Kinematic Data ***               COMMENT             
> 2025 06 15 07 12  0.0000000  0 25
C08  37797545.279 7  37797539.983 7 196821740.06717 152195035.19717
C13  37345016.931 7  37345019.796 7 194465309.09817 150372916.62517
C29  21756140.991 8                 113289933.65218
C30  22140101.076 8                 115289318.19318
C36  24192286.144 7                 125975580.06417
C38  38421573.053 7                 200071207.16517
C45  22943855.135 7                 119474672.43417
C47  21436315.601 8                 111624516.23518
E10  23388576.871 8  23388578.727 9 122907801.46618  92978957.57619
E11  23701541.296 7  23701539.441 8 124552439.38917  94223103.56018
E12  24682641.742 7  24682640.991 8 129708153.29617  98123375.02018
E16  23509671.025 8  23509672.384 9 123544152.83118  93460352.98419
E24  24729665.521 8  24729667.241 9 129955267.34418  98310321.19619
E25  23409458.105 8  23409460.301 9 123017531.90418  93061971.49419
G10  24734436.947 5                  24734446.811 5  24734442.626 5                                 101283413.51115  97063264.82315
G16  20625382.080 8  20625384.089 6                                 108387104.48918  84457499.66516                
G18  20494858.855 8                  20494862.556 8  20494863.165 8 107701203.92618                  83923034.49718  80426244.05818
G23  21949065.974 7                  21949070.671 7  21949072.158 8 115343118.22717                  89877773.59817  86132876.27718
G27  22364780.547 6                  22364784.727 5  22364784.383 6 117527666.45216                  91580045.26115  87764217.00016
R12  23213659.613 5  23213655.269 5 124003150.67115  96447006.68915
R13  20158967.674 7                 107647759.68817
R14  20537381.089 8  20537384.088 7 109475793.72618  85148012.43117
R22  21459310.337 7  21459312.100 6 114551258.98517  89095432.47116
R23  19270315.331 8                 103083185.46818
R24  21494847.636 7  21494849.121 6 114942609.78617  89399831.10516
> 2025 06 15 07 12 15.0000000  0 24
C08  37798416.596 7  37798411.756 7 196826278.177 7 152198544.365 7
C13  37344647.700 7  37344650.551 7 194463384.421 7 150371428.350 7
C29  21752568.218 8                 113271329.614 8
C30  22144792.046 8                 115313743.962 8
C36  24201267.547 7                 126022347.323 7
C38  38423388.874 7                 200080663.437 7
C45  22946389.832 7                 119487878.709 7
C47  21436408.406 8                 111624998.315 8
E10  23389452.644 8  23389454.209 9 122912402.086 8  92982437.906 9
E11  23697966.831 7  23697964.239 8 124533652.371 7  94208891.290 8
E12  24687190.114 7  24687189.528 8 129732056.016 7  98141457.243 8
E16  23513023.886 8  23513025.120 9 123561771.249 8  93473681.203 9
E24  24736480.058 8  24736481.487 8 129991076.375 8  98337410.457 8
E25  23408787.566 8  23408789.510 9 123014007.045 8  93059304.957 9
G10  24723924.960 4                                  24723936.884 5 129925103.03914                                  97022022.124 5
G16  20622181.540 7  20622182.428 6                                 108370285.785 7  84444394.132 6                
G18  20497076.678 7                  20497079.968 8  20497080.048 8 107712857.640 7                  83932115.291 8  80434946.466 8
G23  21941472.646 7                  21941477.360 7  21941478.168 8 115303211.977 7                  89846677.828 7  86103076.135 8
G27  22356157.241 5                  22356162.071 5  22356161.643 6 117482355.024 5                  91544737.568 5  87730380.438 6
R13  20166733.195 7                 107689227.093 7
R14  20531715.253 8  20531718.021 7 109445592.677 8  85124522.736 7
R22  21468434.442 7  21468436.391 6 114599964.082 7  89133314.102 6
R23  19272485.732 8                 103094795.062 8
R24  21486437.772 6  21486440.125 6 114897642.601 6  89364856.629 6
>                              3  5
              *** Start of Occupation ***                   COMMENT             
1001                                                        MARKER NAME         
1001                                                        MARKER NUMBER       
  3914668.2811  1190798.1477  4877084.8465                  APPROX POSITION XYZ 
        1.2440        0.0000        0.0000                  ANTENNA: DELTA H/E/N
> 2025 06 15 07 12 30.0000000  0 24
C08  37799293.607 7  37799288.501 7 196830845.247 7 152202075.881 7
C13  37344282.578 7  37344285.957 7 194461487.609 7 150369961.602 7
C29  21749005.995 8                 113252780.385 8
C30  22149490.974 8                 115338213.735 8
C36  24210254.999 7                 126069147.551 7
C38  38425208.875 7                 200090139.765 7
C45  22948947.266 7                 119501194.802 7
C47  21436513.003 8                 111625542.691 8
E10  23390341.790 8  23390343.094 9 122917072.896 8  92985971.333 9
E11  23694404.614 7  23694402.009 8 124514932.508 7  94194729.846 8
E12  24691748.723 7  24691747.755 8 129756009.285 7  98159577.709 8
E16  23516391.381 8  23516392.331 9 123579466.201 8  93487067.310 9
E24  24743304.094 8  24743305.019 8 130026934.259 8  98364536.696 8
E25  23408131.792 8  23408133.910 9 123010562.245 8  93056698.994 9
G10  24713415.019 5                  24713423.986 5  24713432.077 5                                 101197333.67715  96980772.575 5
G16  20619005.543 8  20619006.741 6                                 108353594.491 8  84431387.923 6                
G18  20499313.437 8                  20499316.908 8  20499317.741 9 107724612.011 8                  83941274.546 8  80443724.095 9
G23  21933894.285 7                  21933899.488 7  21933901.099 8 115263392.060 7                  89815649.339 7  86073340.496 8
G27  22347541.975 6                  22347545.523 5  22347545.175 7 117437078.050 6                  91509456.867 5  87696569.652 7
R13  20174526.859 7                 107730841.610 7
R14  20526079.685 8  20526083.494 7 109415553.178 8  85101158.689 7
R22  21477564.189 7  21477566.199 6 114648696.038 7  89171216.632 6
R23  19274675.399 8                 103106507.637 8
R24  21478039.135 7  21478042.649 6 114852733.441 7  89329927.373 6
> 2025 06 15 07 12 45.0000000  0 24
C08  37800175.138 7  37800170.500 7 196835437.115 7 152205626.602 7
C13  37343923.170 7  37343927.010 7 194459614.817 7 150368513.438 7
C29  21745453.673 8                 113234282.108 8
C30  22154198.016 8                 115362723.601 8
C36  24219247.714 7                 126115976.480 7
C38  38427031.107 7                 200099632.104 7
C45  22951525.609 7                 119514616.798 7
C47  21436628.807 8                 111626145.433 8
E10  23391243.008 8  23391244.466 9 122921809.854 8  92989554.832 9
E11  23690853.805 7  23690851.775 8 124496275.957 7  94180616.306 8
E12  24696315.409 7  24696314.915 8 129780008.981 7  98177733.314 8
E16  23519772.077 8  23519773.361 9 123597233.725 8  93500508.315 9
E24  24750136.288 8  24750137.129 8 130062836.902 8  98391696.790 8
E25  23407490.819 8  23407492.829 9 123007193.704 8  93054150.688 9
G16  20615852.676 8  20615855.426 6                                 108337026.969 8  84418478.185 6                
G18  20501568.505 7                  20501572.216 8  20501572.382 9 107736463.046 7                  83950509.111 8  80452573.846 9
G23  21926333.011 7                  21926338.183 7  21926338.762 8 115223654.918 7                  89784685.303 7  86043666.682 8
G27  22338931.510 6                  22338936.463 5  22338934.800 7 117391831.639 6                  91474199.887 5  87662781.795 7
R12  23252293.588 5  23252303.172 6 124209526.51415  96607564.43316
R13  20182346.459 7                 107772598.548 7
R14  20520474.332 8  20520477.605 7 109385672.071 8  85077917.814 7
R22  21486697.787 8  21486699.763 7 114697450.719 8  89209136.896 7
R23  19276883.234 8                 103118319.110 8
R24  21469651.425 7  21469655.980 6 114807878.500 7  89295040.104 6
> 2025 06 15 07 13  0.0000000  0 25
C08  37801063.017 6  37801058.778 7 196840059.438 6 152209200.876 7
C13  37343567.657 6  37343572.779 7 194457771.500 6 150367088.040 7
C29  21741912.056 8                 113215840.344 8
C30  22158913.397 8                 115387278.888 8
C36  24228247.325 7                 126162839.408 7
C38  38428858.482 8                 200109145.977 8
C45  22954124.627 7                 119528150.122 7
C47  21436757.010 8                 111626812.043 8
E10  23392157.947 8  23392159.456 9 122926618.506 8  92993192.530 9
E11  23687316.993 7  23687314.565 8 124477688.246 7  94166554.821 8
E12  24700892.560 7  24700891.713 8 129804060.512 7  98195928.138 8
E16  23523168.073 8  23523169.245 9 123615079.353 8  93514008.407 9
E24  24756977.970 8  24756978.692 8 130098789.814 8  98418894.895 8
E25  23406865.039 8  23406867.356 9 123003907.013 8  93051664.339 9
G10  24692383.217 5                  24692393.629 6  24692393.779 7                                 101111223.19016  96898249.831 7
G16  20612724.729 8  20612727.257 6                                 108320588.922 8  84405669.334 6                
G18  20503842.631 8                  20503846.471 8  20503847.395 9 107748416.078 8                  83959823.182 8  80461499.830 9
G23  21918787.945 7                  21918792.533 7  21918795.041 8 115184006.394 7                  89753790.355 7  86014058.996 8
G27  22330327.735 6                  22330334.665 5  22330332.603 7 117346621.655 6                  91438971.362 5  87629021.094 7
R12  23265181.319 5  23265186.143 5 124278357.81515  96661099.812 5
R13  20190193.622 7                 107814503.340 7
R14  20514899.403 8  20514903.526 7 109355955.398 8  85054804.836 7
R22  21495836.527 7  21495839.190 6 114746233.390 7  89247078.942 6
R23  19279110.821 8                 103130234.947 8
R24  21461274.556 6  21461277.199 6 114763083.446 6  89260199.551 6
> 2025 06 15 07 13 15.0000000  0 25
C08  37801956.850 6  37801951.936 7 196844712.603 6 152212798.983 7
C13  37343221.331 7  37343224.314 7 194455958.282 7 150365685.954 7
C29  21738381.838 8                 113197455.742 8
C30  22163637.887 8                 115411880.139 8
C36  24237254.515 7                 126209736.720 7
C38  38430689.628 8                 200118681.926 8
C45  22956746.278 7                 119541795.278 7
C47  21436897.197 8                 111627543.047 8
E10  23393086.917 8  23393088.257 9 122931499.332 8  92996884.824 9
E11  23683792.920 7  23683790.682 8 124459170.058 7  94152545.946 8
E12  24705478.756 7  24705478.570 8 129828164.338 7  98214162.543 8
E16  23526579.171 8  23526580.142 9 123633003.686 8  93527568.026 9
E24  24763828.595 8  24763830.070 8 130134793.458 8  98446131.399 8
E25  23406255.600 8  23406257.579 9 123000702.914 8  93049240.450 9
G10  24681869.316 5                  24681876.499 5  24681877.759 6 129704093.42915                 101068160.786 5  96856981.726 6
G16  20609621.317 8  20609623.605 6                                 108304281.163 8  84392961.999 6                
G18  20506137.113 7                  20506140.452 8  20506142.032 9 107760471.691 7                  83969217.131 8  80470502.393 9
G23  21911259.878 7                  21911264.224 7  21911267.522 8 115144447.448 7                  89722965.205 7  85984518.291 8
G27  22321731.972 6                  22321738.777 6  22321735.543 7 117301448.896 6                  91403771.840 6  87595288.186 7
R12  23278070.913 5                 124347201.404 5
R13  20198068.926 7                 107856556.022 7
R14  20509355.701 8  20509359.043 7 109326403.848 8  85031820.299 7
R22  21504980.224 7  21504983.596 7 114795044.523 7  89285043.051 7
R23  19281357.783 8                 103142255.390 8
R24  21452908.054 6  21452911.260 6 114718349.018 6  89225406.104 6
> 2025 06 15 07 13 30.0000000  0 24
C08  37802856.854 7  37802852.498 7 196849400.947 7 152216424.230 7
C13  37342879.518 7  37342882.959 7 194454179.309 7 150364310.327 7
C29  21734862.722 8                 113179132.569 8
C30  22168371.914 8                 115436531.542 8
C36  24246267.201 7                 126256672.334 7
C38  38432526.109 7                 200128244.233 7
C45  22959386.617 7                 119555556.463 7
C47  21437050.773 8                 111628342.677 8
E10  23394029.901 8  23394031.631 9 122936456.516 8  93000634.898 9
E11  23680283.068 7  23680280.922 8 124440725.705 7  94138592.904 8
E12  24710076.018 7  24710075.917 8 129852324.672 7  98232439.646 8
E16  23530006.006 8  23530006.867 9 123651011.006 8  93541190.412 9
E24  24770690.485 8  24770691.720 8 130170852.029 8  98473409.453 8
E25  23405662.842 8  23405664.481 9 122997585.773 8  93046882.368 9
G10  24671352.140 5                  24671361.339 5  24671360.576 6 129648828.909 5                 101025097.558 5  96815712.769 6
G16  20606543.747 7  20606546.226 6                                 108288108.178 7  84380359.655 6                
G18  20508451.848 8                  20508455.091 8  20508456.424 9 107772633.943 8                  83978694.198 8  80479584.594 9
G23  21903750.468 7                  21903754.917 7  21903756.365 8 115104982.729 7                  89692213.512 7  85955047.953 8
G27  22313143.639 6                  22313151.527 5  22313148.301 7 117256317.761 6                  91368604.807 5  87561586.444 7
R13  20205972.639 7                 107898760.782 7
R14  20503843.604 8  20503846.946 7 109297022.229 8  85008967.928 7
R22  21514130.571 8  21514133.078 7 114843888.281 8  89323032.650 7
R23  19283625.413 8                 103154385.011 8
R24  21444555.792 7  21444557.989 6 114673679.825 7  89190663.399 6
> 2025 06 15 07 13 45.0000000  0 24
C08  37803763.298 6  37803757.960 7 196854118.721 6 152220072.291 7
C13  37342543.951 7  37342547.051 7 194452428.952 7 150362956.883 7
C29  21731354.919 8                 113160865.135 8
C30  22173114.955 8                 115461227.280 8
C36  24255286.868 7                 126303640.267 7
C38  38434366.383 7                 200137827.062 7
C45  22962050.499 7                 119569427.831 7
C47  21437216.202 8                 111629205.208 8
E10  23394986.918 8  23394988.421 9 122941484.235 8  93004438.333 9
E11  23676786.079 7  23676784.000 8 124422349.435 7  94124691.364 8
E12  24714683.484 7  24714683.067 8 129876535.551 7  98250755.003 8
E16  23533447.735 8  23533448.320 9 123669095.481 8  93554871.192 9
E24  24777561.221 8  24777562.746 8 130206959.676 8  98500724.625 8
E25  23405084.868 8  23405086.797 9 122994549.938 8  93044585.779 9
G10  24660834.821 5                  24660847.597 6  24660842.946 6 129593557.767 5                 100982029.100 6  96774438.934 6
G16  20603490.538 7  20603492.763 6                                 108272064.520 7  84367858.120 6                
G18  20510785.631 8                  20510788.653 8  20510789.112 9 107784896.988 8                  83988249.809 8  80488742.061 9
G23  21896257.427 7                  21896261.807 7  21896264.164 8 115065606.820 7                  89661531.024 7  85925643.915 8
G27  22304563.001 6                  22304568.829 6  22304566.254 7 117211222.713 6                  91333465.819 6  87527911.591 7
R13  20213903.872 7                 107941111.455 7
R14  20498363.087 8  20498365.899 7 109267804.948 8  84986243.380 7
R22  21523284.623 7  21523288.108 7 114892758.696 7  89361042.914 7
R23  19285912.072 8                 103166617.305 8
R24  21436213.543 7  21436216.286 6 114629070.030 7  89155967.015 6
> 2025 06 15 07 14  0.0000000  0 25
C08  37804674.127 7  37804669.149 7 196858862.663 7 152223740.610 7
C13  37342212.194 7  37342215.620 7 194450704.051 7 150361623.071 7
C29  21727856.823 8                 113142650.366 8
C30  22177864.753 8                 115485964.142 8
C36  24264312.486 7                 126350637.116 7
C38  38436209.653 7                 200147427.203 7
C45  22964734.217 7                 119583406.029 7
C47  21437393.570 8                 111630127.468 8
E10  23395956.232 8  23395957.907 9 122946579.207 8  93008292.646 9
E11  23673301.397 7  23673299.478 8 124404038.089 7  94110838.962 8
E12  24719299.592 7  24719299.328 8 129900793.651 7  98269106.054 8
E16  23536903.072 8  23536903.785 9 123687253.937 8  93568607.927 9
E24  24784441.422 8  24784442.440 8 130243113.116 8  98528074.412 8
E25  23404522.309 8  23404523.877 9 122991592.312 8  93042348.352 9
G10  24650314.390 6                  24650328.892 6  24650323.262 6 129538277.374 6                 100938953.466 6  96733158.107 6
G16  20600461.403 8  20600463.036 6                                 108256147.008 8  84355454.872 6                
G18  20513137.564 8                  20513141.026 8  20513141.558 9 107797257.464 8                  83997881.326 8  80497972.274 9
G23  21888780.353 7                  21888785.280 7  21888787.713 8 115026316.957 7                  89630915.514 7  85896304.068 8
G27  22295988.063 6                  22295994.876 6  22295990.369 7 117166160.863 6                  91298352.660 6  87494261.503 7
R12  23316751.720 4  23316768.441 4 124553803.46414
R13  20221861.746 7                 107983604.142 7
R14  20492912.044 8  20492914.443 7 109238749.359 8  84963644.627 7
R22  21532444.850 7  21532447.416 6 114941652.024 7  89399071.002 6
R23  19288217.663 8                 103178949.328 8
R24  21427881.596 7  21427884.990 7 114584516.576 7  89121314.407 7
> 2025 06 15 07 14 15.0000000  0 25
C08  37805590.714 7  37805586.170 7 196863636.465 7 152227432.002 7
C13  37341886.701 7  37341889.685 7 194449007.987 7 150360311.580 7
C29  21724369.855 8                 113124491.914 8
C30  22182623.887 7                 115510745.590 7
C36  24273343.964 7                 126397666.189 7
C38  38438057.790 7                 200157048.251 7
C45  22967440.074 7                 119597494.715 7
C47  21437582.608 8                 111631113.016 8
E10  23396939.435 8  23396941.046 9 122951744.988 8  93012200.520 9
E11  23669829.584 7  23669827.982 8 124385795.354 7  94097038.469 8
E12  24723925.283 7  24723925.180 8 129925102.438 7  98287495.479 8
E16  23540373.064 8  23540373.956 9 123705489.975 8  93582403.367 9
E24  24791330.012 8  24791331.813 8 130279315.816 8  98555461.524 8
E25  23403975.522 8  23403976.633 9 122988716.629 8  93040172.900 9
G10  24639794.793 5                  24639805.442 5  24639803.140 6 129482991.469 5                 100895873.598 5  96691873.233 6
G16  20597457.318 8  20597459.459 6                                 108240359.614 8  84343152.975 6                
G18  20515508.610 8                  20515512.018 8  20515512.294 9 107809718.834 8                  84007591.485 8  80507277.821 9
G23  21881321.991 6                  21881326.002 7  21881328.466 8 114987117.045 6                  89600370.118 7  85867031.341 8
G27  22287418.265 5                  22287426.572 5  22287423.620 7 117121136.003 5                  91263268.358 5  87460638.987 7
R12  23329644.843 4                 124622692.36114
R13  20229845.934 7                 108026242.302 7
R14  20487492.457 8  20487494.694 7 109209859.330 8  84941174.612 7
R22  21541609.913 7  21541610.962 6 114990571.954 7  89437119.804 6
R23  19290542.509 8                 103191384.347 8
R24  21419560.451 7  21419562.971 6 114540023.352 7  89086708.634 6
> 2025 06 15 07 14 30.0000000  0 25
C08  37806513.828 7  37806508.483 7 196868437.954 7 152231144.802 7
C13  37341566.650 7  37341568.775 7 194447338.877 7 150359020.917 7
C29  21720891.488 8                 113106387.767 8
C30  22187391.595 8                 115535569.529 8
C36  24282381.162 7                 126444725.293 7
C38  38439909.122 7                 200166688.136 7
C45  22970167.176 7                 119611691.707 7
C47  21437783.157 8                 111632159.811 8
E10  23397935.843 8  23397937.084 9 122956979.460 8  93016160.356 9
E11  23666370.970 7  23666369.106 8 124367619.149 7  94083288.302 8
E12  24728560.958 7  24728560.029 8 129949459.746 7  98305921.606 8
E16  23543857.617 8  23543858.472 9 123723801.551 8  93596255.931 9
E24  24798228.599 8  24798230.112 8 130315565.716 8  98582884.309 8
E25  23403443.112 8  23403444.622 9 122985920.932 8  93038057.944 9
G10  24629272.598 6                  24629282.771 5  24629279.574 6 129427698.521 6                 100852788.313 5  96650583.121 6
G16  20594477.613 8  20594479.924 6                                 108224700.458 8  84330951.027 6                
G18  20517898.782 7                  20517902.225 8  20517902.610 8 107822278.985 7                  84017378.601 8  80516657.137 8
G23  21873879.071 6                  21873883.396 7  21873884.801 8 114948005.179 6                  89569893.411 7  85837824.509 8
G27  22278858.095 6                  22278864.751 6  22278863.552 7 117076146.134 6                  91228211.275 6  87427042.660 7
R12  23342541.767 5                 124691585.373 5
R13  20237857.026 7                 108069023.217 7
R14  20482103.927 8  20482105.891 7 109181133.476 8  84918832.220 7
R22  21550777.817 7  21550780.467 6 115039516.189 7  89475187.504 6
R23  19292885.469 8                 103203920.028 8
R24  21411251.429 7  21411253.913 6 114495588.395 7  89052148.023 6
> 2025 06 15 07 14 45.0000000  0 25
C08  37807441.254 7  37807435.683 7 196873268.729 7 152234880.265 7
C13  37341251.523 7  37341253.860 7 194445698.375 7 150357752.353 7
C29  21717426.729 8                 113088339.593 8
C30  22192166.771 8                 115560437.565 8
C36  24291424.649 7                 126491815.635 7
C38  38441764.150 7                 200176348.442 7
C45  22972914.471 7                 119625998.570 7
C47  21437996.884 8                 111633269.364 8
E10  23398945.293 8  23398946.537 9 122962284.155 8  93020173.305 9
E11  23662925.122 7  23662923.330 8 124349511.178 7  94069589.746 8
E12  24733205.808 7  24733204.596 8 129973866.998 7  98324385.522 8
E16  23547356.668 8  23547357.674 9 123742190.255 8  93610166.845 9
E24  24805136.174 8  24805137.610 8 130351864.319 8  98610343.913 8
E25  23402926.525 8  23402928.169 9 122983206.906 8  93036004.807 9
G10  24618750.699 6                  24618759.257 5  24618757.463 6 129372400.440 6                 100809698.905 5  96609289.096 6
G16  20591522.521 8  20591525.352 6                                 108209171.345 8  84318850.407 6                
G18  20520307.582 8                  20520311.479 8  20520312.960 8 107834939.368 8                  84027243.835 8  80526111.330 8
G23  21866453.074 7                  21866457.601 7  21866458.850 7 114908983.643 7                  89539486.984 7  85808685.017 7
G27  22270303.596 6                  22270310.917 6  22270308.955 6 117031193.170 6                  91193183.027 6  87393473.871 6
R12  23355444.027 5  23355444.924 5 124760486.85515  97036165.94215
R13  20245895.786 7                 108111948.410 7
R14  20476745.990 8  20476749.587 7 109152573.611 8  84896619.027 7
R22  21559952.192 7  21559953.488 6 115088486.041 7  89513275.026 6
R23  19295248.274 8                 103216558.188 8
R24  21402952.569 7  21402954.362 6 114451213.375 7  89017634.142 6
> 2025 06 15 07 15  0.0000000  0 25
C08  37808374.445 7  37808369.193 7 196878128.260 7 152238637.960 7
C13  37340941.586 7  37340944.513 7 194444085.998 7 150356505.574 7
C29  21713971.471 8                 113070346.996 8
C30  22196951.522 8                 115585349.072 8
C36  24300474.474 7                 126538936.665 7
C38  38443623.490 7                 200186028.686 7
C45  22975683.172 7                 119640414.783 7
C47  21438221.840 8                 111634441.339 8
E10  23399967.905 8  23399969.185 9 122967658.556 8  93024238.988 9
E11  23659492.633 7  23659490.480 8 124331471.067 7  94055942.482 8
E12  24737859.233 7  24737858.649 8 129998323.705 7  98342886.844 8
E16  23550870.568 8  23550871.492 9 123760655.633 8  93624135.771 9
E24  24812051.818 7  24812054.136 8 130388211.039 7  98637839.933 8
E25  23402425.456 8  23402427.260 9 122980574.262 8  93034013.211 9
G10  24608226.921 5                  24608235.152 5  24608233.766 6 129317097.160 5                 100766605.542 5  96567991.232 6
G16  20588592.427 8  20588595.854 6                                 108193771.954 8  84306850.892 6                
G18  20522736.070 8                  20522739.517 8  20522740.367 9 107847699.434 8                  84037186.728 8  80535639.939 9
G23  21859043.762 7                  21859049.588 7  21859049.417 7 114870052.127 7                  89509150.778 7  85779612.766 7
G27  22261756.442 6                  22261763.436 6  22261760.939 7 116986276.875 6                  91158183.355 6  87359932.471 7
R12  23368343.963 5  23368343.629 5 124829395.793 5  97089761.59815
R13  20253961.054 7                 108155017.160 7
R14  20471419.267 8  20471423.146 8 109124179.517 8  84874534.730 8
R22  21569130.490 8  21569132.384 6 115137480.794 8  89551382.042 6
R23  19297629.572 8                 103229297.947 8
R24  21394666.036 7  21394668.865 6 114406897.967 7  88983166.650 6
> 2025 06 15 07 15 15.0000000  0 25
C08  37809313.039 7  37809308.012 7 196883016.375 7 152242417.783 7
C13  37340637.655 7  37340640.415 7 194442501.312 7 150355280.185 7
C29  21710526.400 8                 113052409.801 8
C30  22201743.238 8                 115610303.806 8
C36  24309528.664 7                 126586087.832 7
C38  38445486.009 7                 200195728.650 7
C45  22978471.185 7                 119654939.938 7
C47  21438458.402 8                 111635675.421 8
E10  23401003.721 8  23401005.137 9 122973102.339 8  93028357.189 9
E11  23656072.512 7  23656070.475 8 124313498.538 7  94042346.379 8
E12  24742522.312 7  24742521.720 8 130022829.373 7  98361425.227 8
E16  23554398.745 8  23554399.946 9 123779197.438 8  93638162.511 9
E24  24818977.746 7  24818979.796 8 130424605.597 7  98665372.142 8
E25  23401940.442 8  23401941.725 9 122978022.826 8  93032083.078 9
G10  24597701.319 6                  24597710.536 6  24597709.144 6 129261788.688 6                 100723508.071 6  96526689.527 6
G16  20585686.357 8  20585689.697 6                                 108178502.302 8  84294952.457 6                
G18  20525183.043 8                  20525186.496 8  20525188.190 9 107860558.814 8                  84047207.016 8  80545242.720 9
G23  21851653.172 6                  21851658.502 8  21851658.451 7 114831210.822 6                  89478884.873 8  85750607.951 7
G27  22253216.120 6                  22253223.351 6  22253220.418 7 116941397.183 6                  91123212.208 6  87326418.523 7
R12  23381240.857 5  23381245.577 5 124898311.510 5  97143362.61315
R13  20262053.860 7                 108198228.664 7
R14  20466123.913 8  20466127.136 8 109095951.466 8  84852579.582 8
R22  21578313.579 7  21578315.979 6 115186500.119 7  89589508.144 6
R23  19300029.877 8                 103242139.005 8
R24  21386389.961 7  21386392.100 6 114362642.157 7  88948745.521 6
> 2025 06 15 07 15 30.0000000  0 25
C08  37810257.453 7  37810252.650 7 196887934.107 7 152246220.444 7
C13  37340338.907 7  37340341.458 7 194440945.572 7 150354077.194 7
C29  21707092.894 8                 113034529.052 8
C30  22206543.774 8                 115635302.720 8
C36  24318589.643 7                 126633269.875 7
C38  38447352.635 7                 200205449.231 7
C45  22981283.379 7                 119669574.987 7
C47  21438707.766 8                 111636972.620 8
E10  23402052.833 8  23402054.400 9 122978616.485 8  93032528.585 9
E11  23652665.086 7  23652663.561 8 124295594.651 7  94028802.221 8
E12  24747195.082 7  24747194.616 8 130047385.073 7  98380001.423 8
E16  23557941.631 8  23557943.088 9 123797816.660 8  93652247.824 9
E24  24825913.123 7  24825914.668 8 130461048.909 7  98692941.218 8
E25  23401470.147 8  23401472.029 9 122975553.752 8  93030215.226 9
G10  24587175.101 5                  24587183.700 5  24587182.517 6 129206476.489 5                 100680407.781 5  96485385.104 6
G16  20582805.958 7  20582808.344 6                                 108163363.568 7  84283156.038 6                
G18  20527648.945 8                  20527652.872 8  20527654.416 9 107873518.368 8                  84057305.356 8  80554920.290 9
G23  21844279.246 7                  21844284.067 7  21844285.119 7 114792461.076 7                  89448690.354 7  85721671.513 7
G27  22244683.071 6                  22244690.046 6  22244687.454 7 116896555.415 6                  91088270.548 6  87292932.817 7
R12  23394156.906 5  23394147.064 4 124967234.697 5
R13  20270172.590 7                 108241583.560 7
R14  20460859.810 8  20460863.586 8 109067891.045 8  84830754.834 8
R22  21587500.859 7  21587504.562 6 115235544.819 7  89627653.951 6
R23  19302449.806 8                 103255082.026 8
R24  21378124.686 6  21378126.328 6 114318447.150 6  88914371.737 6
> 2025 06 15 07 15 45.0000000  0 25
C08  37811207.973 7  37811202.304 7 196892879.562 7 152250044.589 7
C13  37340045.500 7  37340048.082 7 194439416.872 7 150352895.105 7
C29  21703669.427 8                 113016703.096 8
C30  22211354.085 8                 115660343.908 8
C36  24327655.860 7                 126680480.817 7
C38  38449223.098 7                 200215188.654 7
C45  22984113.884 7                 119684318.152 7
C47  21438968.481 8                 111638331.126 8
E10  23403115.235 8  23403116.758 9 122984199.114 8  93036751.790 9
E11  23649270.843 7  23649269.243 8 124277757.663 7  94015308.667 8
E12  24751876.686 7  24751876.571 8 130071988.747 7  98398613.910 8
E16  23561499.371 8  23561500.679 9 123816511.519 8  93666390.359 9
E24  24832856.576 7  24832858.328 8 130497539.056 7  98720545.729 8
E25  23401015.446 8  23401017.592 9 122973165.348 8  93028408.411 9
G10  24576648.874 5                  24576658.023 6  24576654.446 6 129151159.191 5                 100637303.405 6  96444076.826 6
G16  20579949.735 8  20579951.663 6                                 108148354.142 8  84271460.387 6                
G18  20530134.526 8                  20530137.571 8  20530139.102 9 107886576.240 8                  84067480.327 8  80564671.284 9
G23  21836922.880 6                  21836927.040 7  21836928.974 8 114753801.588 6                  89418566.000 7  85692802.366 8
G27  22236156.908 6                  22236163.119 7  22236160.394 7 116851749.798 6                  91053357.185 7  87259474.175 7
R12  23407054.690 5  23407052.836 5 125036163.099 5  97250580.24315
R13  20278318.580 7                 108285079.563 7
R14  20455626.650 8  20455630.831 8 109039996.646 8  84809059.188 8
R22  21596693.424 6  21596697.064 6 115284612.732 6  89665817.975 6
R23  19304888.216 8                 103268125.127 8
R24  21369870.987 7  21369870.759 5 114274311.208 7  88880043.769 5
> 2025 06 15 07 16  0.0000000  0 25
C08  37812162.315 7  37812157.164 7 196897852.653 7 152253890.075 7
C13  37339756.967 7  37339759.717 7 194437915.260 7 150351733.981 7
C29  21700256.634 8                 112998931.906 8
C30  22216169.929 8                 115685427.374 8
C36  24336728.065 7                 126727720.296 7
C38  38451097.082 7                 200224946.861 7
C45  22986965.800 7                 119699169.279 7
C47  21439241.103 8                 111639750.944 8
E10  23404190.071 8  23404192.063 9 122989850.127 8  93041026.741 9
E11  23645888.919 7  23645887.678 8 124259987.582 7  94001865.747 8
E12  24756568.737 7  24756567.633 8 130096640.223 7  98417262.605 8
E16  23565071.797 8  23565072.641 9 123835281.993 8  93680590.091 9
E24  24839808.756 7  24839811.024 8 130534075.963 7  98748185.635 8
E25  23400576.316 8  23400578.532 9 122970857.707 8  93026662.690 9
G10  24566120.813 4                  24566130.544 5  24566127.410 7                                 100594195.299 5  96402764.909 7
G16  20577117.959 8  20577119.811 6                                 108133474.370 8  84259865.773 6                
G18  20532638.036 8                  20532641.047 8  20532642.725 9 107899732.235 8                  84077731.710 8  80574495.548 9
G23  21829583.365 7                  21829587.179 7  21829589.768 8 114715232.386 7                  89388512.160 7  85664000.794 8
G27  22227637.509 5                  22227644.004 6  22227640.613 7 116806980.796 5                  91018472.192 6  87226042.686 7
R12  23419955.002 4  23419957.959 5 125105096.243 4  97304194.836 5
R13  20286489.855 7                 108328716.390 7
R14  20450424.940 8  20450429.237 8 109012268.647 8  84787492.961 8
R22  21605889.698 7  21605892.218 7 115333704.110 7  89704000.048 7
R23  19307344.668 8                 103281268.288 8
R24  21361628.174 6                 114230234.809 6
> 2025 06 15 07 16 15.0000000  0 25
C08  37813122.717 6  37813116.642 7 196902853.840 6 152257757.303 7
C13  37339474.209 7  37339476.706 7 194436440.993 7 150350594.001 7
C29  21696854.393 8                 112981215.869 8
C30  22220995.291 8                 115710553.322 8
C36  24345805.837 7                 126774988.482 7
C38  38452974.943 7                 200234724.193 7
C45  22989838.604 7                 119714128.559 7
C47  21439525.507 8                 111641232.358 8
E10  23405278.492 8  23405280.545 9 122995569.777 8  93045353.614 9
E11  23642520.560 7  23642518.836 8 124242284.810 7  93988473.718 8
E12  24761269.203 7  24761267.712 8 130121339.698 7  98435947.580 8
E16  23568657.995 8  23568659.022 9 123854128.375 8  93694847.235 9
E24  24846771.053 7  24846772.866 8 130570659.877 7  98775861.061 8
E25  23400152.578 8  23400154.773 9 122968631.231 8  93024978.360 9
G10  24555592.222 5                  24555602.085 6  24555600.658 6 129040510.79015                 100551083.851 6  96361449.788 6
G16  20574311.314 8  20574312.954 6                                 108118724.610 8  84248372.450 6                
G18  20535159.676 8                  20535163.575 8  20535164.992 9 107912986.497 8                  84088059.729 8  80584393.251 9
G23  21822260.847 7                  21822265.471 7  21822267.187 8 114676754.386 7                  89358529.358 7  85635267.256 8
G27  22219125.125 5                  22219131.313 6  22219128.167 7 116762248.777 5                  90983616.033 6  87192638.908 7
R12  23432864.407 4                                
R13  20294688.258 7                 108372494.023 7
R14  20445254.866 8  20445257.458 7 108984707.908 8  84766056.857 7
R22  21615090.263 7  21615092.933 7 115382818.518 7  89742200.053 7
R23  19309820.668 8                 103294511.590 8
R24  21353396.540 6                 114186217.731 6
> 2025 06 15 07 16 30.0000000  0 24
C08  37814089.127 7  37814083.190 7 196907884.360 7 152261647.209 7
C13  37339196.792 7  37339198.796 7 194434995.475 7 150349476.200 7
C29  21693463.153 8                 112963556.429 8
C30  22225828.731 8                 115735723.005 8
C36  24354888.413 7                 126822286.440 7
C38  38454856.290 7                 200244521.963 7
C45  22992732.408 7                 119729197.316 7
C47  21439822.283 8                 111642776.734 8
E10  23406380.671 8  23406382.275 9 123001359.344 8  93049733.400 9
E11  23639164.595 7  23639163.203 8 124224650.814 7  93975133.700 8
E12  24765977.984 7  24765977.233 8 130146088.489 7  98454669.871 8
E16  23572259.162 8  23572260.059 9 123873052.058 8  93709162.861 9
E24  24853741.081 7  24853743.850 8 130607292.057 7  98803573.043 8
E25  23399745.006 8  23399746.768 9 122966487.455 8  93023356.595 9
G10  24545063.961 5                  24545072.872 6  24545072.099 6 128985181.98115                 100507970.564 6  96320132.908 6
G16  20571529.077 8  20571531.554 6                                 108104106.525 8  84236981.737 6                
G18  20537701.112 8                  20537704.319 8  20537705.952 9 107926340.395 8                  84098465.377 8  80594365.290 9
G23  21814956.643 7                  21814961.102 7  21814962.410 8 114638369.304 7                  89328618.899 7  85606603.088 8
G27  22210618.919 5                  22210626.820 6  22210621.525 7 116717555.382 5                  90948790.021 6  87159263.887 7
R13  20302912.776 7                 108416413.287 7
R14  20440115.767 8  20440118.145 7 108957315.955 8  84744751.989 7
R22  21624295.799 7  21624297.056 6 115431957.252 7  89780419.074 6
R23  19312315.442 8                 103307856.276 8
R24  21345176.889 6  21345177.783 6 114142262.313 6  88777351.02116
> 2025 06 15 07 16 45.0000000  0 23
C08  37815060.651 7  37815055.148 7 196912944.725 7 152265560.158 7
C13  37338924.221 7  37338927.117 7 194433579.134 7 150348381.005 7
C29  21690083.160 8                 112945954.086 8
C30  22230671.510 8                 115760936.842 8
C36  24363977.256 7                 126869614.354 7
C38  38456742.097 7                 200254340.594 7
C45  22995647.161 7                 119744375.930 7
C47  21440131.106 8                 111644384.448 8
E10  23407495.614 8  23407497.307 9 123007219.271 8  93054166.378 9
E11  23635822.242 7  23635820.775 8 124207085.976 7  93961846.025 8
E12  24770697.119 7  24770696.358 8 130170886.934 7  98473429.724 8
E16  23575874.828 8  23575875.916 9 123892053.457 8  93723537.278 9
E24  24860722.851 7  24860724.024 8 130643972.845 7  98831321.783 8
E25  23399352.673 8  23399354.736 9 122964426.886 8  93021797.768 9
G10  24534535.609 6                  24534544.021 6  24534544.251 7 128929851.586 6                 100464855.910 6  96278814.742 7
G16  20568772.443 7  20568774.865 6                                 108089620.726 7  84225694.103 6                
G18  20540261.314 7                  20540264.824 8  20540266.309 9 107939794.183 7                  84108948.809 8  80604411.916 9
G23  21807669.904 6                  21807674.242 7  21807676.156 8 114600077.849 6                  89298781.416 7  85578008.823 8
R13  20311164.126 7                 108460474.535 7
R14  20435009.014 8  20435011.659 7 108930093.711 8  84723579.137 7
R22  21633505.916 7  21633507.390 6 115481120.730 7  89818657.359 6
R23  19314829.044 8                 103321302.480 8
R24  21336968.021 6  21336970.706 6 114098368.520 6  88743211.543 6
> 2025 06 15 07 17  0.0000000  0 24
C08  37816037.763 7  37816031.733 7 196918033.129 7 152269494.821 7
C13  37338657.478 7  37338660.317 7 194432190.257 7 150347307.059 7
C29  21686713.231 8                 112928407.244 8
C30  22235520.872 8                 115786193.137 8
C36  24373071.344 7                 126916970.306 7
C38  38458631.116 7                 200264178.387 7
C45  22998583.081 7                 119759662.612 7
C47  21440451.571 8                 111646053.928 8
E10  23408623.528 8  23408625.446 9 123013147.774 8  93058651.247 9
E11  23632492.986 7  23632491.161 8 124189588.690 7  93948609.415 8
E12  24775424.892 7  24775424.640 8 130195733.150 7  98492225.698 8
E16  23579505.335 8  23579506.197 9 123911130.875 8  93737969.221 9
E24  24867711.582 7  24867713.219 8 130680700.514 7  98859106.006 8
E25  23398976.043 8  23398978.183 9 122962447.967 8  93020300.727 9
G10  24524005.617 6                  24524014.160 5  24524013.215 7 128874518.242 6                 100421739.074 5  96237494.398 7
G16  20566040.678 8  20566043.947 6                                 108075265.736 8  84214508.407 6                
G18  20542839.970 8                  20542843.879 8  20542845.221 9 107953346.058 8                  84119508.713 8  80614531.812 9
G23  21800401.473 7                  21800405.476 7  21800407.039 8 114561878.658 7                  89269015.854 7  85549483.521 8
G27  22193634.114 4                  22193638.972 6  22193634.075 7 116628284.23614                  90879228.422 6  87092600.626 7
R13  20319441.246 6                 108504675.437 6
R14  20429933.277 8  20429937.190 7 108903039.716 8  84702537.089 7
R22  21642720.268 7  21642722.607 7 115530307.064 7  89856913.293 7
R23  19317361.363 8                 103334848.677 8
R24  21328771.778 6  21328775.528 6 114054535.018 6  88709118.825 6
> 2025 06 15 07 17 15.0000000  0 23
C08  37817019.951 6  37817014.003 7 196923148.576 6 152273450.425 7
C13  37338396.066 7  37338398.726 7 194430827.959 7 150346253.614 7
C29  21683353.953 8                 112910914.925 8
C30  22240378.665 7                 115811490.811 7
C36  24382171.009 7                 126964353.145 7
C38  38460524.043 7                 200274034.301 7
C45  23001539.968 7                 119775056.279 7
C47  21440784.226 8                 111647784.114 8
E10  23409764.741 8  23409766.482 9 123019143.776 8  93063187.167 9
E11  23629176.208 7  23629174.186 8 124172157.958 7  93935423.205 8
E12  24780163.247 7  24780161.743 8 130220625.980 7  98511056.956 8
E16  23583150.006 8  23583150.824 9 123930283.338 8  93752457.915 9
E24  24874708.860 7  24874711.117 8 130717473.962 7  98886924.862 8
E25  23398615.141 8  23398617.037 9 122960549.771 8  93018864.745 9
G10  24513475.456 6                  24513484.346 6  24513483.224 7 128819181.380 6                 100378619.425 6  96196171.378 7
G16  20563334.045 7  20563337.582 6                                 108061040.767 7  84203423.995 6                
G18  20545437.391 8                  20545440.989 8  20545442.338 9 107966994.901 8                  84130144.149 8  80624724.103 9
G23  21793149.150 7                  21793153.736 7  21793155.676 8 114523771.183 7                  89239321.702 7  85521026.666 8
R13  20327744.658 7                 108549014.694 7
R14  20424889.986 8  20424893.719 7 108876153.680 8  84681625.760 7
R22  21651938.215 7  21651940.775 6 115579514.927 7  89895185.987 6
R23  19319911.899 8                 103348493.452 8
R24  21320584.757 6  21320589.724 6 114010760.807 6  88675072.274 6
> 2025 06 15 07 17 30.0000000  0 24
C08  37818007.026 6  37818001.989 7 196928292.807 6 152277428.255 7
C13  37338138.842 7  37338142.396 7 194429493.854 7 150345221.981 7
C29  21680005.408 8                 112893478.826 8
C30  22245246.025 8                 115836831.385 8
C36  24391276.301 7                 127011764.104 7
C38  38462420.930 7                 200283910.017 7
C45  23004516.666 7                 119790558.559 7
C47  21441128.150 8                 111649576.604 8
E10  23410919.231 8  23410920.606 9 123025208.858 8  93067775.364 9
E11  23625872.058 7  23625870.323 8 124154795.560 7  93922288.657 8
E12  24784908.719 7  24784907.981 8 130245566.973 7  98529924.654 8
E16  23586809.157 8  23586809.991 9 123949512.470 8  93767004.602 9
E24  24881716.334 7  24881718.055 8 130754294.753 7  98914779.529 8
E25  23398269.142 8  23398271.576 9 122958734.078 8  93017491.183 9
G10  24502945.280 5                  24502953.674 6  24502951.868 7 128763842.713 5                 100335498.561 6  96154847.232 7
G16  20560652.024 7  20560655.701 6                                 108046947.598 7  84192442.268 6                
G18  20548053.149 8                  20548057.199 8  20548058.262 9 107980742.196 8                  84140856.321 8  80634989.947 9
G23  21785914.762 6                  21785920.111 7  21785921.755 8 114485757.377 6                  89209700.575 7  85492639.757 8
G27  22176671.692 5                  22176680.467 6  22176676.279 7 116539154.31715                  90809784.067 6  87026049.838 7
R13  20336074.508 7                 108593493.584 7
R14  20419878.010 8  20419881.953 7 108849437.442 8  84660846.523 7
R22  21661160.774 7  21661164.090 7 115628745.947 7  89933476.710 7
R23  19322481.526 8                 103362238.223 8
R24  21312406.979 4  21312412.576 6 113967048.144 4  88641073.652 6
> 2025 06 15 07 17 45.0000000  0 24
C08  37819000.882 6  37818995.954 7 196933466.692 6 152281429.000 7
C13  37337888.308 7  37337892.010 7 194428188.890 7 150344212.868 7
C29  21676668.089 8                 112876100.043 8
C30  22250120.697 8                 115862215.897 8
C36  24400386.059 7                 127059204.095 7
C38  38464321.070 7                 200293806.535 7
C45  23007514.096 7                 119806170.296 7
C47  21441484.453 8                 111651432.452 8
E10  23412086.240 8  23412088.020 9 123031343.997 8  93072416.549 9
E11  23622581.047 7  23622579.612 8 124137502.451 7  93909206.544 8
E12  24789663.935 7  24789663.497 8 130270557.156 7  98548829.548 8
E16  23590482.791 8  23590483.877 9 123968819.271 8  93781610.080 9
E24  24888732.721 7  24888733.823 8 130791163.854 7  98942670.730 8
E25  23397939.153 8  23397941.964 9 122957002.027 8  93016180.905 9
G10  24492414.077 6                  24492423.103 6  24492420.500 7 128708504.070 6                 100292377.475 6  96113522.919 7
G16  20557995.759 7  20557998.208 6                                 108032987.392 7  84181564.214 6                
G18  20550688.269 8                  20550691.972 8  20550693.441 9 107994588.943 8                  84151645.979 8  80645330.037 9
G23  21778700.323 7                  21778704.093 7  21778706.487 8 114447838.633 7                  89180153.469 7  85464323.809 8
G27  22168206.435 6                  22168212.051 6  22168208.555 7 116494653.654 6                  90775108.248 6  86992818.861 7
R13  20344430.129 7                 108638112.589 7
R14  20414898.805 8  20414901.756 7 108822892.650 8  84640200.540 7
R22  21670387.880 7  21670390.689 6 115678000.745 7  89971785.930 6
R23  19325069.926 8                 103376083.997 8
R24  21304252.023 6  21304249.872 6 113923398.022 6  88607123.442 6
> 2025 06 15 07 18  0.0000000  0 24
C08  37820000.500 6  37819995.070 7 196938669.280 6 152285451.933 7
C13  37337643.786 7  37337646.532 7 194426912.023 7 150343225.498 7
C29  21673341.567 8                 112858777.642 8
C30  22255003.225 8                 115887643.225 8
C36  24409501.866 7                 127106671.804 7
C38  38466225.132 7                 200303722.746 7
C45  23010533.910 7                 119821890.379 7
C47  21441852.752 8                 111653350.609 8
E10  23413266.698 8  23413268.633 9 123037548.082 8  93077109.897 9
E11  23619303.221 7  23619301.654 8 124120277.687 7  93896176.126 8
E12  24794429.030 7  24794428.177 8 130295595.272 7  98567770.688 8
E16  23594171.450 8  23594172.455 9 123988202.731 8  93796273.527 9
E24  24895757.574 7  24895758.867 8 130828080.078 7  98970597.625 8
E25  23397625.365 8  23397628.036 9 122955352.733 8  93014933.197 9
G10  24481882.658 5                  24481891.873 6  24481889.792 7 128653164.458 5                 100249255.829 6  96072197.974 7
G16  20555364.446 8  20555365.489 6                                 108019159.464 8  84170789.202 6                
G18  20553342.028 8                  20553345.606 8  20553347.099 9 108008533.881 8                  84162512.170 8  80655743.470 9
G23  21771502.266 7                  21771505.815 7  21771508.650 8 114410014.232 7                  89150679.929 7  85436078.320 8
G27  22159742.540 6                  22159750.713 6  22159748.280 7 116450192.296 6                  90740463.041 6  86959617.208 7
R13  20352811.344 7                 108682870.524 7
R14  20409950.224 8  20409953.860 7 108796518.135 8  84619687.052 7
R22  21679619.442 7  21679622.889 6 115727278.238 7  90010112.862 6
R23  19327676.979 8                 103390029.764 8
R24  21296097.511 6  21296096.617 6 113879809.353 6  88573221.141 6
> 2025 06 15 07 18 15.0000000  0 24
C08  37821004.059 6  37820998.786 7 196943897.025 6 152289494.331 7
C13  37337403.111 7  37337405.768 7 194425659.820 7 150342257.207 7
C29  21670025.643 8                 112841508.235 8
C30  22259893.686 8                 115913109.792 8
C36  24418622.156 6                 127154163.505 6
C38  38468132.983 7                 200313655.191 7
C45  23013572.248 7                 119837715.301 7
C47  21442232.567 8                 111655327.634 8
E10  23414459.444 8  23414461.655 9 123043817.567 8  93081852.697 9
E11  23616037.864 7  23616036.186 8 124103117.835 7  93883194.832 8
E12  24799201.330 7  24799201.081 8 130320677.654 7  98586745.326 8
E16  23597873.702 8  23597874.960 9 124007659.345 8  93810992.313 9
E24  24902790.433 7  24902792.298 8 130865039.892 7  98998557.430 8
E25  23397326.890 8  23397329.161 9 122953782.758 8  93013745.515 9
G10  24471350.784 6                  24471359.884 6  24471358.319 7 128597820.932 6                 100206131.018 6  96030870.060 7
G16  20552757.494 8  20552758.392 6                                 108005460.453 8  84160114.631 6                
G18  20556013.288 7                  20556016.564 8  20556018.944 9 108022573.462 7                  84173452.111 8  80666227.563 9
G23  21764321.156 6                  21764326.021 7  21764328.041 8 114372280.981 6                  89121277.509 7  85407900.954 8
G27  22151291.261 6                  22151296.638 6  22151294.077 7 116405766.975 6                  90705845.883 6  86926442.390 7
R13  20361218.570 7                 108727763.180 7
R14  20405033.988 8  20405037.168 7 108770311.040 8  84599303.775 7
R22  21688854.494 7  21688857.669 6 115776574.570 7  90048454.461 6
R23  19330301.467 8                 103404071.557 8
R24  21287955.701 6  21287958.212 7 113836278.957 6  88539364.192 7
> 2025 06 15 07 18 30.0000000  0 24
C08  37822013.828 7  37822008.535 7 196949154.669 7 152293559.856 7
C13  37337167.779 7  37337170.371 7 194424437.071 7 150341311.719 7
C29  21666720.580 8                 112824296.519 8
C30  22264793.110 8                 115938620.265 8
C36  24427748.051 7                 127201683.746 7
C38  38470044.473 7                 200323608.536 7
C45  23016632.099 7                 119853649.642 7
C47  21442624.704 8                 111657368.212 8
E10  23415665.945 8  23415667.962 9 123050157.071 8  93086648.501 9
E11  23612785.842 7  23612784.167 8 124086027.685 7  93870266.259 8
E12  24803983.647 7  24803983.078 8 130345808.940 7  98605756.981 8
E16  23601591.407 8  23601592.322 9 124027193.799 8  93825770.004 9
E24  24909832.495 7  24909834.529 8 130902047.940 7  99026553.737 8
E25  23397044.018 8  23397046.465 9 122952296.912 8  93012621.499 9
G10  24460819.864 6                  24460828.800 6  24460827.695 6 128542478.399 6                 100163007.091 6  95989542.931 6
G16  20550176.169 8  20550178.316 6                                 107991895.374 8  84149544.437 6                
G18  20558704.025 7                  20558707.451 8  20558709.232 9 108036712.271 7                  84184469.340 8  80676785.724 9
G23  21757159.773 7                  21757164.822 6  21757165.439 8 114334644.047 7                  89091950.075 6  85379795.513 8
G27  22142845.807 6                  22142850.640 6  22142847.847 7 116361382.570 6                  90671260.580 6  86893298.179 7
R13  20369651.866 7                 108772795.259 7
R14  20400150.250 8  20400153.309 7 108744276.465 8  84579054.648 7
R22  21698094.047 7  21698096.809 6 115825894.474 7  90086814.390 6
R23  19332945.422 8                 103418214.095 8
R24  21279828.291 7  21279830.521 7 113792811.440 7  88505556.156 7
> 2025 06 15 07 18 45.0000000  0 24
C08  37823028.725 7  37823023.173 7 196954439.223 7 152297646.232 7
C13  37336938.169 7  37336940.663 7 194423240.739 7 150340386.624 7
C29  21663424.845 8                 112807139.646 8
C30  22269700.048 8                 115964171.691 8
C36  24436880.112 7                 127249229.218 7
C38  38471959.200 8                 200333579.836 8
C45  23019713.273 7                 119869690.381 7
C47  21443028.215 8                 111659469.357 8
E10  23416885.575 8  23416887.152 9 123056563.603 8  93091494.990 9
E11  23609546.859 7  23609544.752 8 124069004.294 7  93857388.163 8
E12  24808774.938 7  24808774.120 8 130370986.074 7  98624803.292 8
E16  23605323.057 8  23605323.975 9 124046803.179 8  93840604.352 9
E24  24916883.103 7  24916885.617 8 130939101.189 7  99054584.230 8
E25  23396777.108 8  23396779.120 9 122950892.362 8  93011558.976 9
G10  24450288.333 5                  24450297.053 6  24450294.961 6 128487134.540 5                 100119882.052 6  95948214.756 6
G16  20547619.765 8  20547622.435 6                                 107978461.298 8  84139076.358 6                
G18  20561413.461 8                  20561416.816 8  20561417.693 9 108050947.207 8                  84195561.498 8  80687415.686 9
G23  21750015.532 7                  21750019.519 7  21750021.716 8 114297100.846 7                  89062695.605 7  85351760.049 8
G27  22134406.538 6                  22134412.310 6  22134408.977 7 116317036.337 6                  90636705.142 6  86860182.458 7
R13  20378110.370 6                 108817963.116 6
R14  20395298.276 8  20395301.675 8 108718411.883 8  84558937.731 8
R22  21707337.503 7  21707340.204 6 115875234.670 7  90125190.133 6
R23  19335607.464 8                 103432454.185 8
R24  21271712.226 7  21271713.937 7 113749404.134 7  88471794.938 7
> 2025 06 15 07 19  0.0000000  0 24
C08  37824048.734 7  37824043.629 7 196959751.205 7 152301753.801 7
C13  37336713.231 7  37336716.166 7 194422071.422 7 150339482.417 7
C29  21660141.022 8                 112790038.249 8
C30  22274614.904 8                 115989764.557 8
C36  24446014.049 7                 127296800.241 7
C38  38473877.667 7                 200343569.592 7
C45  23022814.513 7                 119885837.969 7
C47  21443443.388 8                 111661631.595 8
E10  23418117.368 8  23418119.078 9 123063037.620 8  93096392.542 9
E11  23606319.564 7  23606318.075 8 124052048.275 7  93844561.049 8
E12  24813574.373 7  24813573.965 8 130396209.449 7  98643884.626 8
E16  23609069.004 8  23609069.956 9 124066487.978 8  93855495.752 9
E24  24923942.178 7  24923945.395 8 130976200.041 7  99082649.206 8
E25  23396525.151 8  23396527.603 9 122949569.800 8  93010558.471 9
G10  24439756.534 6                  24439766.179 6  24439762.662 7 128431790.016 6                 100076756.460 6  95906886.085 7
G16  20545088.222 8  20545091.212 6                                 107965159.062 8  84128710.973 6                
G18  20564139.804 8                  20564143.635 8  20564144.974 9 108065278.672 8                  84206728.870 8  80698117.754 9
G23  21742888.949 7                  21742893.843 7  21742895.582 8 114259652.165 7                  89033514.882 7  85323795.170 8
G27  22125973.477 5                  22125980.537 6  22125977.467 7 116272729.050 5                  90602180.007 6  86827095.829 7
R13  20386594.143 7                 108863267.118 7
R14  20390478.143 8  20390481.591 7 108692718.112 8  84538953.695 7
R22  21716584.137 7  21716586.829 6 115924595.619 7  90163581.947 6
R23  19338288.211 8                 103446792.449 8
R24  21263604.356 7  21263607.917 7 113706057.907 7  88438081.294 7
> 2025 06 15 07 19 15.0000000  0 24
C08  37825075.378 7  37825069.825 7 196965095.579 7 152305886.402 7
C13  37336494.931 7  37336497.400 7 194420934.023 7 150338602.921 7
C29  21656868.866 8                 112772997.321 8
C30  22279538.813 8                 116015403.704 8
C36  24455153.781 6                 127344401.605 6
C38  38475800.655 7                 200353582.771 7
C45  23025936.632 7                 119902097.330 7
C47  21443871.301 8                 111663859.972 8
E10  23419363.040 8  23419364.826 9 123069584.084 8  93101344.892 9
E11  23603106.612 7  23603105.148 8 124035164.511 7  93831788.597 8
E12  24818384.136 7  24818383.574 8 130421483.980 7  98663004.621 8
E16  23612829.414 8  23612831.120 9 124086253.210 8  93870448.008 9
E24  24931012.297 7  24931014.621 8 131013349.455 7  99110752.425 8
E25  23396290.177 8  23396292.636 9 122948334.345 8  93009623.856 9
G10  24429225.304 6                  24429235.845 6  24429231.839 7 128376450.286 6                 100033634.647 6  95865561.025 7
G16  20542582.949 8  20542585.508 6                                 107951993.886 8  84118452.390 6                
G18  20566886.145 8                  20566890.471 8  20566891.474 9 108079711.614 8                  84217975.263 8  80708895.579 9
G23  21735781.099 7                  21735786.266 7  21735788.458 8 114222303.485 7                  89004412.047 7  85295904.949 8
G27  22117552.669 6                  22117557.428 6  22117555.000 7 116228465.905 6                  90567689.299 6  86794042.266 7
R13  20395104.473 7                 108908711.930 7
R14  20385690.905 8  20385694.893 8 108667200.519 8  84519106.655 8
R22  21725836.158 6  21725837.183 6 115973982.159 6  90201993.594 6
R23  19340987.234 8                 103461233.329 8
R24  21255513.320 8  21255514.193 7 113662777.714 8  88404418.953 7
> 2025 06 15 07 19 30.0000000  0 24
C08  37826107.891 7  37826102.366 7 196970472.431 7 152310044.144 7
C13  37336283.041 7  37336285.755 7 194419828.828 7 150337748.291 7
C29  21653607.997 8                 112756017.041 8
C30  22284471.264 8                 116041089.206 8
C36  24464302.759 7                 127392033.051 7
C38  38477727.806 7                 200363619.459 7
C45  23029080.638 7                 119918468.424 7
C47  21444311.751 8                 111666154.487 8
E10  23420622.582 8  23420624.322 9 123076203.023 8  93106352.076 9
E11  23599907.612 7  23599906.068 8 124018353.364 7  93819071.063 8
E12  24823203.446 7  24823202.836 8 130446809.625 7  98682163.274 8
E16  23616606.049 8  23616607.606 9 124106098.985 8  93885461.175 9
E24  24938093.328 7  24938093.479 8 131050549.398 7  99138893.907 8
E25  23396072.241 8  23396074.095 9 122947186.169 8  93008755.253 9
G10  24418695.507 6                  24418705.928 6  24418701.416 7 128321115.830 6                  99990516.943 6  95824239.928 7
G16  20540104.034 8  20540106.080 6                                 107938965.949 8  84108300.762 6                
G18  20569652.058 8                  20569656.152 8  20569657.352 9 108094245.967 8                  84229300.714 8  80719749.140 9
G23  21728693.137 7                  21728698.292 7  21728700.302 8 114185055.175 7                  88975387.434 7  85268089.688 8
G27  22109136.974 5                  22109142.640 6  22109140.915 7 116184247.288 5                  90533233.266 6  86761021.966 7
R13  20403641.442 7                 108954297.198 7
R14  20380937.340 8  20380940.638 8 108641859.929 8  84499397.359 8
R22  21735092.478 5  21735094.024 6 116023394.235 5  90240425.164 6
R23  19343706.416 8                 103475777.404 8
R24  21247429.394 7  21247432.897 7 113619564.034 7  88370808.334 7
> 2025 06 15 07 19 45.0000000  0 24
C08  37827146.210 7  37827140.939 7 196975880.210 7 152314225.731 7
C13  37336076.256 7  37336079.748 7 194418754.078 7 150336917.215 7
C29  21650358.320 8                 112739095.853 8
C30  22289412.606 8                 116066819.464 8
C36  24473455.586 7                 127439692.800 7
C38  38479659.562 7                 200373678.006 7
C45  23032245.072 7                 119934949.516 7
C47  21444765.320 8                 111668513.577 8
E10  23421895.465 8  23421897.313 9 123082892.766 8  93111412.817 9
E11  23596721.495 7  23596720.394 8 124001613.162 7  93806407.200 8
E12  24828032.235 7  24828031.545 8 130472184.632 7  98701359.294 8
E16  23620398.132 8  23620399.133 9 124126023.646 8  93900534.043 9
E24  24945179.796 7  24945181.840 8 131087798.235 7  99167072.388 8
E25  23395870.000 8  23395871.843 9 122946123.792 8  93007951.562 9
G10  24408167.309 6                  24408177.223 6  24408171.911 6 128265785.423 6                  99947402.374 6  95782921.792 6
G16  20537650.787 8  20537653.194 6                                 107926074.008 8  84098255.103 6                
G18  20572436.989 8                  20572441.067 8  20572442.279 9 108108880.016 8                  84240703.866 8  80730677.146 9
G23  21721624.169 7                  21721628.633 7  21721629.958 8 114147906.017 7                  88946440.058 7  85240348.431 8
G27  22100730.667 6                  22100736.332 5  22100734.307 7 116140071.723 6                  90498810.775 5  86728033.855 7
R13  20412203.934 7                 109000020.720 7
R14  20376216.332 8  20376219.307 7 108616694.674 8  84479824.403 7
R22  21744353.450 6  21744355.774 6 116072829.893 6  90278875.041 6
R23  19346443.832 8                 103490422.407 8
R24  21239359.131 7  21239363.305 7 113576415.521 7  88337248.373 7
> 2025 06 15 07 20  0.0000000  0 24
C08  37828190.342 7  37828185.088 7 196981317.071 7 152318429.866 7
C13  37335875.862 7  37335878.619 7 194417707.969 7 150336108.326 7
C29  21647120.049 8                 112722232.102 8
C30  22294362.310 8                 116092592.568 8
C36  24482613.151 6                 127487378.967 6
C38  38481594.825 7                 200383756.691 7
C45  23035431.415 7                 119951538.874 7
C47  21445230.333 8                 111670935.550 8
E10  23423182.195 8  23423183.551 9 123089651.540 8  93116525.755 9
E11  23593550.266 7  23593548.031 8 123984942.247 7  93793795.790 8
E12  24832870.298 7  24832869.391 8 130497607.183 7  98720591.262 8
E16  23624204.583 8  23624205.411 9 124146025.486 8  93915665.273 9
E24  24952277.269 7  24952279.056 8 131125094.145 7  99195286.445 8
E25  23395684.005 8  23395685.701 9 122945145.563 8  93007211.512 9
G10  24397638.762 6                  24397647.896 6  24397644.200 7 128210457.620 6                  99904289.869 6  95741605.664 7
G16  20535223.013 7  20535226.499 6                                 107913316.505 7  84088314.161 6                
G18  20575240.594 8                  20575244.157 8  20575245.697 9 108123611.831 8                  84252183.201 8  80741678.177 9
G23  21714573.603 7                  21714578.044 7  21714580.118 8 114110854.550 7                  88917568.785 7  85212680.125 8
G27  22092332.650 6                  22092338.263 6  22092334.342 6 116095937.877 6                  90464420.746 6  86695076.813 6
R13  20420791.933 7                 109045880.616 7
R14  20371528.121 8  20371531.131 7 108591703.538 8  84460386.869 7
R22  21753618.213 5  21753616.567 4 116122287.245 5  90317341.799 4
R23  19349200.330 8                 103505166.563 8
R24  21231302.874 7  21231305.878 7 113533330.245 7  88303737.548 7
> 2025 06 15 07 20 15.0000000  0 23
C08  37829239.707 7  37829235.017 7 196986780.416 7 152322654.475 7
C13  37335679.785 7  37335682.880 7 194416687.964 7 150335319.600 7
C29  21643891.646 8                 112705423.200 8
C30  22299320.496 8                 116118405.857 8
C36  24491775.098 6                 127535088.564 6
C38  38483533.921 7                 200393852.811 7
C45  23038636.859 7                 119968233.755 7
C47  21445706.422 8                 111673417.679 8
E10  23424480.483 8  23424482.307 9 123096476.470 8  93121688.768 9
E11  23590390.445 7  23590388.334 8 123968337.849 7  93781234.669 8
E12  24837716.338 7  24837715.837 8 130523074.400 7  98739857.049 8
E16  23628024.592 8  23628025.816 9 124166101.740 8  93930852.821 9
E24  24959382.996 7  24959384.727 8 131162434.298 7  99223533.989 8
E25  23395513.183 8  23395515.123 9 122944248.870 8  93006533.147 9
G10  24387110.172 6                  24387120.092 6  24387116.651 7 128155130.205 6                  99861177.614 6  95700289.776 7
G16  20532820.585 8  20532823.933 6                                 107900690.797 8  84078475.956 6                
G18  20578061.540 8                  20578066.317 8  20578067.041 9 108138438.671 8                  84263736.564 8  80752750.136 9
G23  21707540.564 7                  21707545.451 7  21707547.375 8 114073898.473 7                  88888771.843 7  85185083.053 8
G27  22083939.862 6                  22083948.972 5  22083941.990 6 116051843.170 6                  90430061.153 5  86662148.847 6
R13  20429404.754 7                 109091873.431 7
R14  20366872.369 8  20366874.452 7 108566884.013 8  84441082.805 7
R23  19351974.975 8                 103520006.907 8
R24  21223258.027 7  21223260.346 7 113490305.652 7  88270274.055 7
> 2025 06 15 07 20 30.0000000  0 24
C08  37830294.950 7  37830290.240 7 196992275.912 7 152326903.863 7
C13  37335490.798 7  37335492.908 7 194415699.831 7 150334555.509 7
C29  21640675.628 8                 112688674.963 8
C30  22304284.603 8                 116144265.068 8
C36  24500942.970 6                 127582827.104 6
C38  38485477.475 7                 200403972.146 7
C45  23041865.197 7                 119985039.679 7
C47  21446196.599 8                 111675965.687 8
E10  23425792.931 8  23425794.736 9 123103373.387 8  93126906.231 9
E11  23587244.886 7  23587242.369 8 123951805.936 7  93768728.383 8
E12  24842572.324 7  24842571.479 8 130548591.999 7  98759160.913 8
E16  23631860.494 8  23631861.589 9 124186258.226 8  93946101.057 9
E24  24966498.226 7  24966499.885 8 131199824.506 7  99251819.371 8
E25  23395358.812 8  23395361.187 9 122943439.659 8  93005920.974 9
G10  24376583.470 6                  24376592.356 6  24376589.645 7 128099809.217 6                  99818070.313 6  95658978.743 7
G16  20530444.122 7  20530446.949 6                                 107888202.849 7  84068745.070 6                
G18  20580902.405 8                  20580907.090 8  20580907.661 9 108153366.159 8                  84275368.383 8  80763897.279 9
G23  21700527.052 7                  21700532.813 7  21700534.489 8 114037043.859 7                  88860054.024 7  85157561.783 8
G27  22075559.326 6                  22075564.906 6  22075561.432 6 116007793.548 6                  90395736.778 6  86629254.595 6
R13  20438044.550 7                 109138005.079 7
R14  20362249.568 8  20362251.281 7 108542242.712 8  84421917.372 7
R22  21772162.627 7  21772164.890 5 116221265.32417  90394323.91915
R23  19354767.978 8                 103534949.348 8
R24  21215224.928 7  21215226.933 7 113447348.146 7  88236862.650 7
> 2025 06 15 07 20 45.0000000  0 24
C08  37831355.972 7  37831351.549 7 196997800.241 7 152331175.612 7
C13  37335306.864 8  37335308.574 7 194414740.288 8 150333813.525 7
C29  21637470.292 8                 112671984.184 8
C30  22309259.676 8                 116170166.859 8
C36  24510116.647 7                 127630591.029 7
C38  38487424.220 7                 200414111.354 7
C45  23045112.093 7                 120001953.382 7
C47  21446697.548 8                 111678576.376 8
E10  23427118.645 8  23427120.157 9 123110338.913 8  93132175.589 9
E11  23584112.066 7  23584109.710 8 123935343.144 7  93756274.406 8
E12  24847437.514 8  24847436.247 8 130574156.528 8  98778500.313 8
E16  23635710.559 8  23635711.925 9 124206491.645 8  93961407.496 9
E24  24973621.594 7  24973623.988 8 131237261.263 7  99280139.975 8
E25  23395220.498 8  23395223.213 9 122942714.703 8  93005372.563 9
G10  24366057.018 6                  24366065.384 6  24366063.602 7 128044491.766 6                  99774965.851 6  95617670.298 7
G16  20528093.310 7  20528095.251 6                                 107875849.578 7  84059119.162 6                
G18  20583761.338 8                  20583765.504 8  20583766.836 9 108168390.901 8                  84287075.959 8  80775117.051 9
G23  21693533.060 7                  21693537.713 7  21693540.347 8 114000287.884 7                  88831412.978 7  85130114.135 8
G27  22067183.822 6                  22067190.133 6  22067187.120 7 115963785.932 6                  90361445.181 6  86596391.810 7
R13  20446708.151 7                 109184271.441 7
R14  20357659.488 8  20357662.358 7 108517775.964 8  84402887.646 7
R22  21781439.707 6  21781445.607 5 116270787.047 6  90432840.832 5
R23  19357579.967 8                 103549990.127 8
R24  21207204.118 7  21207205.313 7 113404454.177 7  88203500.652 7
> 2025 06 15 07 21  0.0000000  0 24
C08  37832421.800 7  37832416.744 7 197003348.946 7 152335466.224 7
C13  37335127.028 7  37335129.151 7 194413804.770 7 150333090.150 7
C29  21634274.956 8                 112655346.408 8
C30  22314241.488 8                 116196106.589 8
C36  24519293.396 7                 127678375.675 7
C38  38489374.367 8                 200424265.915 8
C45  23048380.367 7                 120018970.191 7
C47  21447210.358 8                 111681245.203 8
E10  23428456.445 8  23428457.800 9 123117368.401 8  93137493.349 9
E11  23580991.130 7  23580989.352 8 123918945.061 7  93743869.360 8
E12  24852310.237 7  24852309.268 8 130599763.356 7  98797871.714 8
E16  23639574.972 8  23639575.965 9 124226797.428 8  93976768.665 9
E24  24980753.074 7  24980755.988 8 131274739.986 7  99308492.342 8
E25  23395097.937 8  23395100.344 9 122942069.575 8  93004884.517 9
G10  24355529.978 6                  24355539.462 6  24355534.716 6 127989173.770 6                  99731860.982 6  95576361.396 6
G16  20525767.345 8  20525769.036 6                                 107863626.714 8  84049594.850 6                
G18  20586638.618 7                  20586642.150 8  20586644.068 9 108183508.231 7                  84298855.664 8  80786405.934 9
G23  21686556.709 7                  21686561.887 7  21686563.617 8 113963626.257 7                  88802845.483 7  85102736.961 8
G27  22058815.986 5                  22058823.277 6  22058820.770 8 115919816.061 5                  90327182.991 6  86563557.206 8
R13  20455396.976 7                 109230667.568 7
R14  20353101.373 8  20353104.334 7 108493480.058 8  84383990.821 7
R22  21790718.951 6                 116320324.995 6
R23  19360409.090 8                 103565124.741 8
R24  21199192.951 7  21199195.716 7 113361619.212 7  88170184.632 7
> 2025 06 15 07 21 15.0000000  0 23
C08  37833493.094 6  37833488.063 7 197008928.470 6 152339780.673 7
C13  37334953.551 7  37334955.834 7 194412899.842 7 150332390.386 7
C29  21631091.548 8                 112638768.146 8
C30  22319231.309 8                 116222090.712 8
C36  24528472.982 6                 127726187.170 6
C38  38491328.710 8                 200434442.285 8
C45  23051669.877 7                 120036096.519 7
C47  21447735.113 8                 111683978.594 8
E10  23429807.295 8  23429808.872 9 123124468.316 8  93142864.371 9
E11  23577884.515 7  23577882.529 8 123902618.209 7  93731518.218 8
E12  24857192.173 7  24857191.584 8 130625418.880 7  98817279.911 8
E16  23643453.642 8  23643455.069 9 124247182.071 8  93992189.500 9
E24  24987893.406 7  24987897.047 8 131312267.075 7  99336881.313 8
E25  23394991.588 8  23394994.068 9 122941510.870 8  93004461.869 9
G10  24345004.655 6                  24345013.756 6  24345008.720 6 127933861.916 6                  99688760.998 6  95535057.179 6
G16  20523467.596 8  20523469.636 6                                 107851540.874 8  84040177.305 6                
G18  20589533.933 8                  20589537.565 8  20589539.371 9 108198724.490 8                  84310712.445 8  80797768.704 9
G23  21679599.498 7                  21679604.222 7  21679606.412 8 113927065.827 7                  88774356.864 7  85075435.394 8
G27  22050460.518 6                  22050464.619 6  22050462.088 7 115875890.742 6                  90292955.430 6  86530755.820 7
R13  20464110.828 7                 109277200.013 7
R14  20348577.376 8  20348580.669 7 108469361.946 8  84365232.238 7
R23  19363257.069 8                 103580359.258 8
R24  21191193.531 6  21191197.265 7 113318850.113 6  88136919.779 7
> 2025 06 15 07 21 30.0000000  0 25
C08  37834570.027 7  37834565.098 7 197014537.931 7 152344118.232 7
C13  37334785.066 7  37334787.501 7 194412024.492 7 150331713.491 7
C29  21627918.803 8                 112622248.617 8
C30  22324229.650 8                 116248118.345 8
C36  24537660.113 6                 127774024.450 6
C38  38493287.092 8                 200444639.563 8
C45  23054979.293 7                 120053331.390 7
C47  21448272.225 8                 111686775.681 8
E10  23431171.748 8  23431173.185 9 123131637.701 8  93148287.968 9
E11  23574791.131 7  23574788.953 8 123886361.708 7  93719220.296 8
E12  24862082.764 7  24862082.615 8 130651122.108 7  98836724.215 8
E16  23647347.641 8  23647349.086 9 124267644.723 8  94007669.341 9
E24  24995045.349 7  24995047.103 8 131349841.639 7  99365306.143 8
E25  23394901.775 8  23394904.128 9 122941037.830 8  93004104.012 9
G10  24334479.485 5                  24334488.947 6  24334484.295 6 127878555.802 5                  99645665.395 6  95493757.321 6
G16  20521193.531 7  20521196.094 6                                 107839591.403 7  84030866.027 6                
G18  20592448.371 7                  20592451.687 8  20592452.939 9 108214038.693 7                  84322645.609 8  80809204.624 9
G23  21672661.261 7                  21672666.547 7  21672668.413 8 113890606.086 7                  88745946.644 7  85048208.979 8
G27  22042107.934 6                  22042114.435 6  22042112.028 7 115832009.156 6                  90258761.990 6  86497987.136 7
R07  22134973.731 5                 118490321.97215
R13  20472850.518 7                 109323867.051 7
R14  20344085.828 8  20344089.215 7 108445420.674 8  84346611.251 7
R22  21809289.938 5                 116419464.44215
R23  19366123.388 8                 103595693.132 8
R24  21183207.416 7  21183210.691 7 113276146.230 7  88103705.591 7
> 2025 06 15 07 21 45.0000000  0 25
C08  37835653.264 6  37835648.133 7 197020177.855 6 152348479.388 7
C13  37334622.533 7  37334625.583 7 194411179.360 7 150331059.977 7
C29  21624758.146 8                 112605788.376 8
C30  22329236.367 8                 116274189.917 8
C36  24546852.398 6                 127821887.834 6
C38  38495249.608 8                 200454858.289 8
C45  23058309.678 7                 120070675.329 7
C47  21448821.925 8                 111689637.016 8
E10  23432549.341 8  23432550.807 9 123138877.044 8  93153764.474 9
E11  23571710.942 7  23571708.955 8 123870176.232 7  93706976.071 8
E12  24866984.209 8  24866982.891 8 130676873.421 8  98856204.899 8
E16  23651256.807 8  23651257.977 9 124288185.882 8  94023208.592 9
E24  25002204.062 7  25002206.508 8 131387463.964 7  99393767.209 8
E25  23394828.013 8  23394830.489 9 122940651.114 8  93003811.454 9
G10  24323955.578 4                  24323964.487 6  24323961.437 6 127823256.521 4                  99602575.055 6  95452462.413 6
G16  20518945.663 8  20518948.050 6                                 107827778.902 8  84021661.464 6                
G18  20595381.256 7                  20595384.461 8  20595386.239 9 108229451.230 7                  84334655.374 8  80820713.992 9
G23  21665743.159 7                  21665747.279 7  21665749.099 8 113854247.891 7                  88717615.638 7  85021058.437 8
G27  22033766.502 6                  22033772.918 6  22033770.946 8 115788172.169 6                  90224603.367 6  86465251.748 8
R07  22130126.313 4  22130141.398 4 118464368.34414
R13  20481614.536 7                 109370669.005 7
R14  20339628.023 8  20339631.427 7 108421657.359 8  84328128.711 7
R22  21818582.992 5  21818584.398 5 116469068.516 5  90587047.87415
R23  19369008.771 8                 103611126.525 8
R24  21175234.557 7  21175237.645 7 113233508.258 7  88070542.761 7
> 2025 06 15 07 22  0.0000000  0 24
C08  37836741.826 6  37836736.580 7 197025846.486 6 152352862.708 7
C13  37334466.072 8  37334469.042 7 194410362.717 8 150330428.483 7
C29  21621608.185 8                 112589385.785 8
C30  22334251.231 8                 116300303.591 8
C36  24556048.781 6                 127869775.245 6
C38  38497216.014 8                 200465096.700 8
C45  23061661.624 7                 120088126.374 7
C47  21449383.176 8                 111692560.817 8
E10  23433939.935 8  23433941.416 9 123146184.499 8  93159292.513 9
E11  23568644.243 7  23568642.014 8 123854059.963 7  93694784.217 8
E12  24871893.350 7  24871891.849 8 130702670.887 7  98875720.528 8
E16  23655180.194 8  23655181.365 9 124308803.794 8  94038805.909 9
E24  25009372.422 7  25009374.651 8 131425132.393 7  99422263.074 8
E25  23394770.653 8  23394773.072 9 122940349.065 8  93003582.948 9
G10  24313434.525 5                  24313443.314 5  24313439.445 6 127767962.434 5                  99559488.738 5  95411171.428 6
G16  20516723.805 7  20516725.703 6                                 107816101.891 7  84012562.477 6                
G18  20598332.502 7                  20598335.897 8  20598337.311 9 108244960.253 7                  84346740.307 8  80832295.399 9
G23  21658843.514 7                  21658847.515 7  21658849.316 8 113817989.889 7                  88689362.609 7  84993982.632 8
G27  22025432.076 6                  22025438.648 5  22025437.650 7 115744378.284 6                  90190478.261 5  86432548.511 7
R13  20490403.895 7                 109417603.733 7
R14  20335203.333 8  20335205.825 7 108398070.853 8  84309783.692 7
R22  21827878.919 7  21827881.402 5 116518692.305 7  90625644.115 5
R23  19371911.871 8                 103626657.489 8
R24  21167273.171 8  21167275.941 7 113190934.441 8  88037429.798 7
> 2025 06 15 07 22 15.0000000  0 25
C08  37837835.364 6  37837830.986 7 197031546.525 6 152357270.342 7
C13  37334315.682 7  37334318.102 7 194409577.357 7 150329821.217 7
C29  21618469.633 8                 112573043.743 8
C30  22339274.621 8                 116326462.227 8
C36  24565248.515 6                 127917689.338 6
C38  38499186.529 8                 200475357.566 8
C45  23065035.530 7                 120105687.215 7
C47  21449957.147 8                 111695549.962 8
E10  23435343.963 8  23435345.547 9 123153562.843 8  93164874.184 9
E11  23565590.974 7  23565588.991 8 123838015.748 7  93682646.890 8
E12  24876811.437 7  24876810.334 8 130728517.334 7  98895273.166 8
E16  23659118.945 8  23659120.060 9 124329501.287 8  94054463.424 9
E24  25016550.017 7  25016551.979 8 131462849.596 7  99450795.825 8
E25  23394729.723 8  23394732.342 9 122940134.597 8  93003420.688 9
G10  24302913.283 6                  24302922.941 5  24302919.828 6 127712676.835 6                  99516409.093 5  95369886.789 6
G16  20514528.093 7  20514530.127 6                                 107804563.432 7  84003571.478 6                
G18  20601302.385 8                  20601306.032 8  20601307.773 9 108260568.449 8                  84358902.546 8  80843950.873 9
G23  21651963.163 7                  21651967.623 7  21651969.211 8 113781835.209 7                  88661190.120 7  84966983.990 8
G27  22017107.183 7                  22017112.421 6  22017112.692 7 115700630.470 7                  90156388.934 6  86399879.648 7
R07  22120532.900 6                 118412939.31616
R13  20499218.609 7                 109464673.521 7
R14  20330811.873 8  20330814.281 7 108374664.108 8  84291578.389 7
R22  21837179.873 7  21837182.314 5 116568338.843 7  90664258.080 5
R23  19374834.197 8                 103642288.749 8
R24  21159324.446 8  21159327.433 7 113148427.865 8  88004369.189 7
> 2025 06 15 07 22 30.0000000  0 24
C08  37838936.403 6  37838931.216 7 197037277.643 6 152361702.022 7
C13  37334170.801 7  37334172.988 7 194408822.844 7 150329237.780 7
C29  21615343.157 8                 112556761.771 8
C30  22344307.088 8                 116352665.244 8
C36  24574456.956 6                 127965629.329 6
C38  38501161.684 8                 200485640.397 8
C45  23068428.106 7                 120123357.396 7
C47  21450543.829 8                 111698603.909 8
E10  23436761.688 8  23436762.981 9 123161011.556 8  93170509.084 9
E11  23562551.265 7  23562549.572 8 123822043.243 7  93670563.796 8
E12  24881739.245 7  24881738.089 8 130754412.152 7  98914862.404 8
E16  23663071.898 8  23663073.769 9 124350277.852 8  94070180.750 9
E24  25023737.325 7  25023738.266 8 131500614.965 7  99479365.060 8
E25  23394705.304 8  23394708.105 9 122940007.380 8  93003324.431 9
G10  24292394.870 6                  24292402.611 4  24292402.054 6 127657399.572 6                  99473335.88814  95328608.491 6
G16  20512358.989 7  20512361.221 6                                 107793163.112 7  83994688.155 6                
G18  20604291.332 8                  20604295.007 8  20604297.132 9 108276275.269 8                  84371141.608 8  80855679.950 9
G23  21645102.900 7                  21645107.060 7  21645108.079 8 113745783.749 7                  88633098.064 7  84940062.440 8
G27  22008791.012 6                  22008797.362 6  22008795.986 7 115656928.494 6                  90122335.519 6  86367245.069 7
R13  20508058.707 7                 109511877.647 7
R14  20326454.402 8  20326457.621 7 108351436.878 8  84273512.790 7
R22  21846485.243 6  21846487.175 5 116618007.495 6  90702889.116 5
R23  19377774.953 8                 103658019.730 8
R24  21151387.974 7  21151390.856 7 113105988.235 7  87971360.669 7
> 2025 06 15 07 22 45.0000000  0 23
C08  37840043.412 7  37840037.479 7 197043038.348 7 152366156.577 7
C13  37334032.252 8  37334033.975 7 194408097.802 8 150328677.121 7
C29  21612227.584 8                 112540538.693 8
C30  22349347.399 8                 116378911.226 8
C36  24583667.952 6                 128013593.766 6
C38  38503140.673 8                 200495943.890 8
C45  23071840.963 7                 120141135.468 7
C47  21451142.410 8                 111701721.364 8
E10  23438192.514 8  23438193.565 9 123168529.205 8  93176196.133 9
E11  23559525.607 7  23559523.439 8 123806141.169 7  93658533.984 8
E12  24886675.471 8  24886674.728 8 130780353.879 8  98934487.115 8
E16  23667040.779 8  23667042.188 9 124371132.119 8  94085956.867 9
E24  25030932.081 7  25030933.856 8 131538427.154 7  99507969.727 8
E25  23394697.973 8  23394700.303 9 122939966.148 8  93003293.229 9
G10  24281877.812 7                                  24281884.686 6 127602129.680 7                                  95287335.684 6
G16  20510215.576 7  20510217.025 6                                 107781899.892 7  83985911.613 6                
G18  20607298.783 8                  20607302.747 8  20607304.703 9 108292079.162 8                  84383456.331 8  80867481.538 9
G23  21638261.613 7                  21638266.533 7  21638268.555 8 113709834.432 7                  88605085.682 7  84913217.192 8
G27  22000483.966 6                  22000489.447 6  22000488.091 7 115613271.306 6                  90088316.893 6  86334643.904 7
R13  20516923.442 7                 109559214.380 7
R14  20322131.022 8  20322133.804 7 108328388.164 8  84255586.050 7
R23  19380733.567 8                 103673848.823 8
R24  21143463.305 7  21143465.505 6 113063614.437 7  87938403.258 6
> 2025 06 15 07 23  0.0000000  0 23
C08  37841156.412 6  37841150.801 7 197048833.665 6 152370637.891 7
C13  37333898.431 7  37333901.108 7 194407407.064 7 150328143.003 7
C29  21609124.301 8                 112524379.371 8
C30  22354396.571 8                 116405204.970 8
C36  24592883.932 7                 128061587.169 7
C38  38505123.836 8                 200506272.811 8
C45  23075276.822 7                 120159026.110 7
C47  21451753.998 8                 111704907.125 8
E10  23439637.236 8  23439638.214 9 123176120.614 8  93181938.974 9
E11  23556513.714 7  23556511.709 8 123790314.343 7  93646561.089 8
E12  24891621.874 7  24891621.131 8 130806347.239 7  98954150.894 8
E16  23671024.864 8  23671026.344 9 124392068.957 8  94101795.421 9
E24  25038136.003 7  25038139.453 8 131576290.958 7  99536613.369 8
E25  23394707.779 8  23394709.774 9 122940015.830 8  93003330.818 9
G10  24271362.911 6                                  24271366.740 6 127546872.515 6                                  95246072.257 6
G16  20508098.739 8  20508100.834 6                                 107770778.792 8  83977245.780 6                
G18  20610325.811 8                  20610328.997 8  20610331.188 9 108307984.904 8                  84395850.396 8  80879359.188 9
G23  21631440.722 7                  21631446.040 7  21631447.423 8 113673992.498 7                  88577156.968 7  84886452.150 8
G27  21992185.653 6                  21992191.299 7  21992189.522 7 115569663.908 6                  90054337.139 7  86302079.945 7
R13  20525813.219 7                 109606688.047 7
R14  20317841.347 8  20317845.011 7 108305523.569 8  84237802.441 7
R23  19383712.041 8                 103689780.775 8
R24  21135552.435 7  21135554.102 6 113021311.375 7  87905500.937 6
> 2025 06 15 07 23 15.0000000  0 25
C08  37842275.702 7  37842270.222 7 197054661.286 7 152375144.139 7
C13  37333771.842 7  37333774.173 7 194406748.488 7 150327633.743 7
C29  21606032.580 8                 112508281.635 8
C30  22359455.016 8                 116431544.276 8
C36  24602106.112 6                 128109607.084 6
C38  38507111.778 8                 200516624.955 8
C45  23078733.995 7                 120177026.974 7
C47  21452378.545 8                 111708158.979 8
E10  23441095.323 8  23441096.332 9 123183783.487 8  93187735.857 9
E11  23553516.070 7  23553513.850 8 123774560.594 7  93634643.465 8
E12  24896577.786 7  24896577.027 8 130832389.871 7  98973851.943 8
E16  23675023.957 8  23675025.736 9 124413086.177 8  94117694.759 9
E24  25045352.057 7  25045354.209 8 131614203.980 7  99565294.292 8
E25  23394734.405 8  23394736.097 9 122940154.396 8  93003435.617 9
G10  24260850.318 6                                  24260853.697 6 127491626.084 6                                  95204816.787 6
G16  20506009.523 7  20506011.861 6                                 107759797.672 7  83968689.068 6                
G18  20613371.546 8                  20613374.842 8  20613376.449 9 108323990.142 8                  84408322.015 8  80891311.135 9
G23  21624640.404 7                  21624645.588 7  21624647.705 8 113638256.096 7                  88549310.412 7  84859765.896 8
G27  21983896.013 7                  21983902.825 6  21983901.119 7 115526104.391 7                  90020394.667 6  86269551.682 7
R07  22101694.719 5  22101739.556 4 118312139.80215  92020692.85714
R13  20534729.597 7                 109654296.129 7
R14  20313585.852 8  20313590.182 7 108282841.014 8  84220160.462 7
R22  21874425.006 5  21874426.510 6 116767177.54115  90818886.752 6
R23  19386709.656 8                 103705813.447 8
R24  21127654.131 7  21127658.118 7 112979076.931 7  87872651.954 7
> 2025 06 15 07 23 30.0000000  0 25
C08  37843401.558 7  37843395.824 7 197060525.341 7 152379678.643 7
C13  37333652.700 7  37333654.578 7 194406126.339 7 150327152.656 7
C29  21602954.334 8                 112492249.842 8
C30  22364522.651 8                 116457933.314 8
C36  24611334.108 6                 128157657.562 6
C38  38509105.255 7                 200527004.578 7
C45  23082212.429 6                 120195142.330 6
C47  21453016.659 8                 111711481.235 8
E10  23442567.638 8  23442568.873 9 123191522.031 8  93193590.016 9
E11  23550532.561 7  23550530.648 8 123758884.283 7  93622784.444 8
E12  24901544.085 7  24901542.747 8 130858485.936 7  98993593.443 8
E16  23679039.564 8  23679041.312 9 124434187.967 8  94133658.127 9
E24  25052578.132 7  25052579.113 8 131652170.448 7  99594015.646 8
E25  23394778.583 8  23394780.162 9 122940386.185 8  93003610.950 9
G10  24250339.020 6                  24250349.503 6  24250343.876 6 127436395.166 6                  99301154.25116  95163573.040 6
G16  20503947.431 8  20503950.046 6                                 107748961.021 8  83960244.936 6                
G18  20616436.842 7                  20616440.141 8  20616442.139 9 108340099.039 7                  84420874.352 8  80903340.485 9
G23  21617861.366 7                  21617865.608 7  21617867.607 8 113602629.874 7                  88521549.733 7  84833161.941 8
G27  21975616.745 7                  21975623.640 6  21975620.091 7 115482597.199 7                  89986493.009 6  86237062.660 7
R07  22097078.815 4                 118287367.815 4
R13  20543670.962 7                 109702042.644 7
R14  20309366.115 8  20309369.497 8 108260345.022 8  84202663.568 8
R22  21883749.411 6  21883749.013 6 116816941.626 6  90857592.110 6
R23  19389726.234 8                 103721950.898 8
R24  21119770.405 7  21119774.196 7 112936916.056 7  87839860.193 7
> 2025 06 15 07 23 45.0000000  0 24
C08  37844533.304 7  37844527.351 6 197066418.150 7 152384235.336 6
C13  37333538.448 7  37333540.638 7 194405532.701 7 150326693.646 7
C29  21599886.731 8                 112476276.228 8
C30  22369598.854 8                 116484364.153 8
C36  24620566.644 7                 128205730.504 7
C38  38511102.059 7                 200537403.802 7
C45  23085713.680 7                 120213364.094 7
C47  21453666.668 8                 111714866.003 8
E10  23444053.427 8  23444054.361 9 123199328.303 8  93199495.395 9
E11  23547562.726 7  23547560.720 8 123743277.527 7  93610978.041 8
E12  24906518.564 7  24906517.318 8 130884627.450 7  99013369.291 8
E16  23683070.120 8  23683071.407 9 124455366.465 8  94149679.520 9
E24  25059810.767 7  25059812.900 8 131690182.470 7  99622771.418 8
E25  23394838.702 8  23394840.553 9 122940703.382 8  93003850.902 9
G10  24239830.697 6                  24239842.325 6  24239833.794 6 127381172.239 6                  99258123.390 6  95122335.167 6
G16  20501911.086 8  20501913.477 6                                 107738261.146 8  83951907.383 6                
G18  20619521.105 7                  20619523.388 8  20619525.763 9 108356303.587 7                  84433501.269 8  80915441.257 9
G23  21611100.229 7                  21611105.757 7  21611107.222 8 113567106.264 7                  88493869.021 7  84806634.580 8
G27  21967346.382 6                  21967351.827 6  21967345.852 6 115439134.709 6                  89952626.215 6  86204606.995 6
R13  20552636.158 7                 109749918.960 7
R14  20305179.430 8  20305181.972 7 108238027.844 8  84185305.746 7
R22  21893073.165 6  21893074.722 6 116866724.261 6  90896311.909 6
R23  19392761.130 8                 103738184.667 8
R24  21111898.900 7  21111902.559 7 112894820.321 7  87807119.104 7
> 2025 06 15 07 24  0.0000000  0 24
C08  37845671.163 7  37845664.632 6 197072340.596 7 152388814.981 6
C13  37333429.191 7  37333432.422 7 194404968.731 7 150326257.560 7
C29  21596830.879 8                 112460361.896 8
C30  22374682.327 8                 116510837.898 8
C36  24629800.670 6                 128253826.790 6
C38  38513103.398 7                 200547823.671 7
C45  23089231.623 7                 120231693.316 7
C47  21454329.040 8                 111718314.374 8
E10  23445551.564 8  23445552.889 9 123207203.284 8  93205452.766 9
E11  23544606.282 7  23544604.232 8 123727741.476 7  93599225.128 8
E12  24911502.286 8  24911500.746 8 130910815.360 8  99033180.289 8
E16  23687114.729 8  23687116.351 9 124476622.711 8  94165759.731 9
E24  25067053.372 7  25067055.168 8 131728240.891 7  99651562.331 8
E25  23394915.356 8  23394917.431 9 122941107.188 8  93004156.370 9
G10  24229323.991 6                  24229335.539 6  24229326.005 6 127325958.634 6                  99215099.823 6  95081104.239 6
G16  20499901.448 8  20499902.844 6                                 107727699.562 8  83943677.565 6                
G18  20622622.823 8                  20622625.806 8  20622627.929 9 108372604.657 8                  84446203.422 8  80927614.150 9
G23  21604360.800 7                  21604365.599 7  21604367.618 8 113531686.634 7                  88466269.356 7  84780184.900 8
G27  21959084.604 7                  21959091.191 6  21959080.836 5 115395718.198 7                  89918795.234 6  86172185.682 5
R13  20561626.540 7                 109797925.931 7
R14  20301026.562 8  20301029.304 7 108215891.305 8  84168088.427 7
R22  21902402.894 6  21902404.991 5 116916526.696 6  90935047.011 5
R23  19395813.891 8                 103754516.093 8
R24  21104038.803 7  21104042.058 7 112852791.022 7  87774429.691 7
> 2025 06 15 07 24 15.0000000  0 24
C08  37846814.868 7  37846807.342 7 197078291.933 7 152393416.924 7
C13  37333326.895 7  37333329.845 7 194404433.569 7 150325843.740 7
C29  21593785.161 8                 112444506.155 8
C30  22379774.107 8                 116537353.598 8
C36  24639042.684 6                 128301945.220 6
C38  38515108.478 7                 200558263.427 7
C45  23092770.968 6                 120250129.107 6
C47  21455003.348 8                 111721825.510 8
E10  23447063.024 8  23447064.486 9 123215146.100 8  93211461.441 9
E11  23541663.013 7  23541661.095 8 123712275.312 7  93587525.073 8
E12  24916493.839 7  24916492.906 8 130937048.778 7  99053025.685 8
E16  23691173.849 8  23691175.883 9 124497955.913 8  94181898.151 9
E24  25074304.515 7  25074306.008 8 131766344.879 7  99680387.693 8
E25  23395008.081 8  23395010.608 9 122941596.885 8  93004526.814 9
G10  24218818.634 7                  24218830.487 6  24218823.697 7 127270754.009 7                  99172083.202 6  95039880.044 7
G16  20497918.064 8  20497919.667 6                                 107717275.374 8  83935554.805 6                
G18  20625742.841 8                  20625746.143 8  20625748.341 9 108389001.407 8                  84458980.073 8  80939858.459 9
G23  21597640.611 7                  21597645.725 7  21597647.006 8 113496370.526 7                  88438750.264 7  84753812.482 8
G27  21950831.252 6                  21950837.828 5  21950830.470 5 115352347.078 6                  89884999.640 5  86139798.222 5
R13  20570640.916 7                 109846062.317 7
R14  20296907.846 8  20296910.641 7 108193934.772 8  84151011.149 7
R22  21911734.732 6  21911735.990 5 116966347.854 6  90973796.790 5
R23  19398884.833 8                 103770943.936 8
R24  21096191.713 7  21096194.450 7 112810827.813 7  87741791.658 7
> 2025 06 15 07 24 30.0000000  0 24
C08  37847963.100 7  37847956.713 7 197084274.174 7 152398042.761 7
C13  37333230.139 7  37333232.864 7 194403929.367 7 150325453.833 7
C29  21590752.021 8                 112428711.026 8
C30  22384875.171 8                 116563913.248 8
C36  24648287.688 6                 128350087.805 6
C38  38517117.298 7                 200568725.021 7
C45  23096334.285 6                 120268673.291 6
C47  21455689.822 8                 111725401.466 8
E10  23448587.992 8  23448589.280 9 123223158.711 8  93217522.922 9
E11  23538733.776 7  23538731.658 8 123696881.082 7  93575879.454 8
E12  24921494.880 7  24921494.028 8 130963329.546 7  99072906.900 8
E16  23695248.707 8  23695250.622 9 124519368.038 8  94198096.277 9
E24  25081563.842 7  25081566.043 8 131804496.349 7  99709248.989 8
E25  23395118.002 8  23395120.565 9 122942174.604 8  93004963.848 9
G10  24208315.174 7                  24208327.919 7  24208322.392 7 127215560.660 7                  99129075.437 7  94998664.322 7
G16  20495960.650 8  20495963.066 6                                 107706990.653 8  83927540.741 6                
G18  20628881.217 8                  20628884.695 8  20628886.558 9 108405495.700 8                  84471832.750 8  80952175.610 9
G23  21590939.829 6                  21590945.015 7  21590947.269 8 113461160.267 6                  88411313.766 7  84727519.157 8
G27  21942587.418 6                  21942592.431 5  21942591.301 6 115309023.631 6                  89851241.105 5  86107446.426 6
R13  20579679.606 7                 109894329.670 7
R14  20292822.822 8  20292826.313 8 108172160.505 8  84134075.575 8
R22  21921073.630 7  21921075.204 6 117016189.517 7  91012562.413 6
R23  19401974.569 8                 103787470.228 8
R24  21088357.229 7  21088359.648 7 112768932.759 7  87709206.599 7
> 2025 06 15 07 24 45.0000000  0 24
C08  37849118.471 7  37849112.529 7 197090291.426 7 152402695.651 7
C13  37333140.420 7  37333142.914 7 194403460.104 7 150325090.952 7
C29  21587731.683 8                 112412980.729 8
C30  22389984.681 8                 116590520.946 8
C36  24657538.766 6                 128398258.199 6
C38  38519131.267 7                 200579212.571 7
C45  23099916.769 6                 120287330.018 6
C47  21456389.661 8                 111729046.316 8
E10  23450126.929 8  23450128.108 9 123231245.223 8  93223640.315 9
E11  23535819.352 7  23535816.836 8 123681563.013 7  93564291.434 8
E12  24926505.341 7  24926504.993 8 130989661.711 7  99092826.993 8
E16  23699339.495 8  23699340.977 9 124540863.305 8  94214357.264 9
E24  25088833.787 7  25088835.972 8 131842699.430 7  99738149.311 8
E25  23395245.538 8  23395247.886 9 122942844.563 8  93005470.680 9
G10  24197815.244 7                  24197825.756 6  24197822.278 7 127160383.155 7                  99086080.049 6  94957460.446 7
G16  20494031.246 8  20494032.963 6                                 107696849.803 8  83919638.795 6                
G18  20632039.270 8                  20632042.775 8  20632044.829 9 108422091.545 8                  84484764.560 8  80964568.579 9
G23  21584260.765 7                  21584265.337 7  21584267.582 8 113426060.483 7                  88383963.264 7  84701308.259 8
G27  21934353.145 6                  21934359.173 6  21934357.852 7 115265752.194 6                  89817523.229 6  86075133.474 7
R13  20588743.895 7                 109942731.885 7
R14  20288773.070 8  20288776.300 7 108150573.051 8  84117285.317 7
R22  21930412.237 6  21930417.200 6 117066055.902 6  91051347.367 6
R23  19405082.953 8                 103804098.949 8
R24  21080535.960 7  21080538.322 6 112727110.132 7  87676677.910 6
> 2025 06 15 07 25  0.0000000  0 25
C08  37850280.425 7  37850274.392 7 197096341.216 7 152407373.710 7
C13  37333055.506 7  37333059.107 7 194403023.265 7 150324753.147 7
C29  21584723.237 8                 112397312.886 8
C30  22395103.706 8                 116617174.208 8
C36  24666794.229 6                 128446453.903 6
C38  38521149.943 7                 200589723.613 7
C45  23103520.304 6                 120306096.684 6
C47  21457102.598 8                 111732757.628 8
E10  23451679.426 8  23451680.476 9 123239403.115 8  93229811.692 9
E11  23532918.359 7  23532916.070 8 123666318.687 7  93552759.201 8
E12  24931525.274 7  24931525.089 8 131016042.783 7  99112784.072 8
E16  23703445.406 8  23703446.775 9 124562439.149 8  94230679.234 9
E24  25096112.685 7  25096115.097 8 131880951.567 7  99767086.744 8
E25  23395390.297 8  23395392.699 9 122943604.498 8  93006045.530 9
G10  24187319.099 6                  24187327.978 6  24187322.521 7 127105219.510 6                  99043095.449 6  94916266.805 7
G16  20492128.050 8  20492129.776 6                                 107686850.574 8  83911847.161 6                
G18  20635216.323 8                  20635219.669 8  20635222.030 9 108438786.371 8                  84497773.506 8  80977035.495 9
G23  21577602.989 7                  21577606.951 7  21577608.969 8 113391068.912 7                  88356697.103 7  84675178.186 8
G27  21926128.146 6                  21926135.593 6  21926132.048 7 115222530.762 6                  89783844.115 6  86042857.578 7
R07  22069987.079 4  22069965.249 5 118142247.15314
R13  20597833.096 6                 109991265.916 6
R14  20284757.979 8  20284761.709 8 108129170.231 8  84100638.714 8
R22  21939756.481 6  21939763.142 6 117115944.203 6  91090149.520 6
R23  19408210.067 8                 103820827.610 8
R24  21072727.930 6  21072729.611 6 112685357.632 6  87644203.737 6
> 2025 06 15 07 25 15.0000000  0 26
C08  37851447.991 6  37851442.620 7 197102423.804 6 152412077.177 7
C13  37332976.007 7  37332981.357 7 194402619.261 7 150324440.743 7
C29  21581725.920 8                 112381707.752 8
C30  22400230.494 8                 116643873.135 8
C36  24676054.521 7                 128494674.754 7
C38  38523173.113 7                 200600258.342 7
C45  23107145.856 7                 120324973.322 7
C47  21457828.160 8                 111736535.657 8
E02  25929468.188 5  25929470.249 6 136260294.71715 103080033.23216
E10  23453245.327 8  23453246.451 9 123247632.473 8  93236037.165 9
E11  23530030.786 7  23530029.195 8 123651148.287 7  93541282.903 8
E12  24936554.740 7  24936554.570 8 131042472.809 7  99132778.146 8
E16  23707566.219 8  23707567.873 9 124584095.770 8  94247062.310 9
E24  25103401.139 7  25103403.546 8 131919252.772 7  99796061.310 8
E25  23395552.374 8  23395554.563 9 122944454.619 8  93006688.634 9
G10  24176823.863 6                  24176832.377 6  24176828.154 7 127050070.160 6                  99000122.003 6  94875083.915 7
G16  20490252.146 8  20490254.264 6                                 107676993.332 8  83904166.198 6                
G18  20638412.663 8                  20638415.646 8  20638417.495 9 108455580.215 8                  84510859.632 8  80989576.320 9
G23  21570964.479 7                  21570969.090 7  21570971.211 8 113356186.095 7                  88329515.691 7  84649129.338 8
G27  21917912.620 7                  21917920.802 6  21917917.102 7 115179359.401 7                  89750204.127 6  86010619.263 7
R07  22065601.625 5                                
R13  20606946.498 6                 110039931.727 6
R14  20280777.551 8  20280780.819 7 108107952.806 8  84084136.271 7
R22  21949112.142 6  21949112.124 5 117165854.495 6  91128968.576 5
R23  19411356.279 8                 103837656.258 8
R24  21064932.941 7  21064934.935 6 112643675.658 7  87611784.425 6
> 2025 06 15 07 25 30.0000000  0 26
C08  37852621.473 7  37852616.884 7 197108536.138 7 152416803.595 7
C13  37332906.074 7  37332909.531 7 194402244.929 7 150324151.278 7
C29  21578740.635 8                 112366162.306 8
C30  22405365.849 8                 116670614.603 8
C36  24685319.384 7                 128542917.456 7
C38  38525199.954 7                 200610813.611 7
C45  23110792.013 7                 120343956.683 7
C47  21458565.587 8                 111740377.219 8
E02  25922426.571 5  25922428.221 6 136223292.454 5 103052041.303 6
E10  23454824.239 8  23454825.458 9 123255930.163 8  93242314.285 9
E11  23527157.613 7  23527155.786 8 123636048.796 7  93529860.231 8
E12  24941593.070 7  24941592.830 8 131068948.465 7  99152806.810 8
E16  23711702.389 8  23711703.703 9 124605830.053 8  94263504.141 9
E24  25110698.827 7  25110700.752 8 131957599.880 7  99825070.623 8
E25  23395730.710 8  23395732.853 9 122945391.900 8  93007397.687 9
G10  24166331.428 6                  24166338.727 5  24166336.778 6 126994932.412 6                  98957157.539 5  94833909.763 6
G16  20488402.718 8  20488405.430 6                                 107667275.176 8  83896593.611 6                
G18  20641626.141 8                  20641629.304 8  20641631.052 9 108472469.820 8                  84524020.368 8  81002188.694 9
G23  21564346.485 7                  21564351.265 8  21564353.333 8 113321409.248 7                  88302416.901 8  84623159.668 8
G27  21909706.482 6                  21909713.899 6  21909711.089 8 115136235.487 6                  89716601.144 6  85978416.369 8
R07  22061190.502 5  22061216.084 4 118095267.87415  91851883.22614
R13  20616084.346 7                 110088725.446 7
R14  20276831.919 8  20276835.010 7 108086917.702 8  84067775.645 7
R22  21958463.078 6  21958465.065 5 117215783.560 6  91167802.220 5
R23  19414520.362 8                 103854581.261 8
R24  21057151.859 6  21057153.703 6 112602061.032 6  87579417.585 6
> 2025 06 15 07 25 45.0000000  0 26
C08  37853801.663 7  37853796.686 7 197114678.649 7 152421553.352 7
C13  37332840.994 7  37332843.521 7 194401900.831 7 150323885.200 7
C29  21575766.866 8                 112350677.232 8
C30  22410509.681 8                 116697399.152 8
C36  24694587.968 7                 128591182.384 7
C38  38527231.114 7                 200621390.069 7
C45  23114459.750 7                 120363047.379 7
C47  21459315.710 8                 111744282.983 8
E02  25915392.072 6  25915394.010 6 136186329.235 6 103024078.837 6
E10  23456416.240 8  23456417.559 9 123264296.681 8  93248643.493 9
E11  23524298.341 7  23524296.047 8 123621020.844 7  93518491.687 8
E12  24946640.877 7  24946639.998 8 131095470.315 7  99172870.391 8
E16  23715853.520 8  23715854.360 9 124627642.587 8  94280005.157 9
E24  25118004.557 7  25118006.893 8 131995993.477 7  99854115.084 8
E25  23395926.025 8  23395927.838 9 122946417.102 8  93008173.233 9
G10  24155841.499 6                  24155848.204 5  24155847.364 6 126939807.341 6                  98914203.132 5  94792744.965 6
G16  20486580.037 8  20486582.879 6                                 107657696.800 8  83889129.930 6                
G18  20644858.472 8                  20644861.919 8  20644863.089 9 108489455.755 8                  84537256.108 8  81014872.973 9
G23  21557749.181 7                  21557753.959 8  21557755.810 8 113286739.360 7                  88275401.430 8  84597269.847 8
G27  21901508.205 6                  21901516.140 6  21901513.897 8 115093159.774 6                  89683035.666 6  85946249.409 8
R07  22056847.959 4                 118072034.19614
R13  20625245.416 7                 110137647.555 7
R14  20272919.798 8  20272923.417 8 108066065.854 8  84051557.561 8
R22  21967820.339 6  21967819.750 5 117265731.712 6  91206650.596 5
R23  19417702.593 8                 103871603.295 8
R24  21049382.043 6  21049385.302 5 112560514.547 6  87547103.758 5
> 2025 06 15 07 26  0.0000000  0 24
C08  37854985.668 6  37854981.665 7 197120848.586 6 152426324.332 7
C13  37332779.833 7  37332782.921 7 194401584.345 7 150323640.465 7
C29  21572804.701 8                 112335249.899 8
C30  22415660.849 7                 116724224.062 7
C36  24703860.119 6                 128639466.574 6
C38  38529265.703 7                 200631984.953 7
C45  23118144.777 6                 120382242.544 6
C47  21460077.669 8                 111748250.176 8
E02  25908367.202 5  25908366.966 6 136149402.498 5 102996143.959 6
E10  23458020.562 8  23458022.166 9 123272729.255 8  93255022.668 9
E11  23521451.693 7  23521449.503 8 123606061.688 7  93507175.193 8
E12  24951696.256 7  24951695.075 8 131122035.523 7  99192966.779 8
E16  23720017.926 8  23720019.564 9 124649530.590 8  94296563.263 9
E24  25125318.184 7  25125321.438 8 132034430.703 7  99883192.521 8
E25  23396137.251 8  23396139.155 9 122947527.549 8  93009013.272 9
G10  24145353.889 6                  24145361.858 6  24145359.241 7 126884692.527 6                  98871256.579 6  94751587.839 7
G16  20484783.689 7  20484786.133 6                                 107648255.657 7  83881773.165 6                
G18  20648108.862 8                  20648111.891 8  20648113.060 9 108506535.066 8                  84550564.679 8  81027626.989 9
G23  21551171.097 6                  21551176.493 8  21551177.901 8 113252174.087 6                  88248467.453 8  84571458.099 8
G27  21893321.737 6                  21893326.000 6  21893325.828 8 115050129.784 6                  89649505.864 6  85914116.595 8
R13  20634430.949 7                 110186694.699 7
R14  20269041.932 8  20269045.787 8 108045394.979 8  84035480.220 8
R22  21977180.964 6  21977182.842 5 117315696.069 6  91245511.689 5
R23  19420901.839 8                 103888719.527 8
> 2025 06 15 07 26 15.0000000  0 26
C08  37856178.445 7  37856173.720 7 197127056.805 7 152431124.903 7
C13  37332726.671 7  37332729.132 7 194401306.174 7 150323425.358 7
C29  21569854.354 8                 112319891.061 8
C30  22420822.575 8                 116751100.002 8
C36  24713137.714 6                 128687780.538 6
C38  38531305.764 7                 200642608.984 7
C45  23121850.368 6                 120401552.849 6
C47  21460853.477 8                 111752289.564 8
E02  25901346.843 5  25901348.814 6 136112523.234 5 102968245.052 6
E10  23459640.417 8  23459641.414 9 123281238.610 8  93261459.920 9
E11  23518619.772 7  23518618.143 8 123591182.221 7  93495918.971 8
E12  24956761.726 8  24956760.407 8 131148654.749 8  99213104.030 8
E16  23724199.206 8  23724201.102 9 124671504.885 8  94313186.646 9
E24  25132643.582 7  25132645.947 8 132072922.356 7  99912311.120 8
E25  23396366.762 8  23396368.735 9 122948734.171 8  93009926.071 9
G10  24134868.586 4                  24134878.079 7  24134874.672 7 126829598.98814                  98828326.615 7  94710446.651 7
G16  20483015.398 7  20483018.188 6                                 107638962.774 7  83874531.996 6                
G18  20651379.293 8                  20651381.805 8  20651383.579 9 108523718.464 8                  84563954.305 8  81040458.723 9
G23  21544615.184 6                  21544621.043 8  21544622.143 8 113217724.422 6                  88221623.596 8  84545732.724 8
G27  21885143.289 7                  21885148.982 6  21885148.445 8 115007156.430 7                  89616020.073 6  85882026.144 8
R07  22048259.922 6  22048275.514 5 118026060.04916  91798080.55915
R13  20643640.488 6                 110235877.465 6
R14  20265199.954 8  20265203.466 7 108024916.197 8  84019552.248 7
R22  21986544.524 6  21986546.855 5 117365687.231 6  91284393.833 5
R23  19424120.894 8                 103905940.685 8
R24  21033883.690 6  21033885.035 7 112477630.87116  87482637.860 7
> 2025 06 15 07 26 30.0000000  0 25
C08  37857377.319 7  37857372.585 7 197133299.209 7 152435951.923 7
C13  37332679.479 7  37332682.415 7 194401062.302 7 150323236.776 7
C29  21566917.496 8                 112304596.770 8
C30  22425992.683 8                 116778022.882 8
C36  24722419.924 6                 128736120.078 6
C38  38533350.421 7                 200653258.124 7
C45  23125582.021 6                 120420974.093 6
C47  21461642.207 8                 111756397.133 8
E02  25894337.649 5  25894338.823 6 136075687.703 5 102940379.271 6
E10  23461273.589 8  23461274.524 9 123289820.661 8  93267952.184 9
E11  23515803.221 7  23515801.127 8 123576378.395 7  93484719.987 8
E12  24961836.767 7  24961835.487 8 131175323.817 7  99233279.007 8
E16  23728396.880 8  23728398.291 9 124693561.430 8  94329872.242 9
E24  25139977.580 7  25139980.209 8 132111464.131 7  99941467.716 8
E25  23396613.979 8  23396615.849 9 122950033.021 8  93010908.631 9
G16  20481274.152 8  20481277.519 6                                 107629814.186 8  83867403.226 6                
G18  20654667.480 8                  20654670.718 8  20654672.424 9 108541001.743 8                  84577421.818 8  81053365.073 9
G23  21538082.186 7                  21538086.485 8  21538088.299 8 113183386.757 7                  88194866.987 8  84520090.983 8
G27  21876975.882 6                  21876980.968 6  21876980.607 8 114964236.009 6                  89582575.595 6  85849975.231 8
R07  22044017.805 5  22044022.797 5 118003353.003 5  91780419.527 5
R13  20652875.493 7                 110285191.413 7
R14  20261393.836 8  20261396.939 7 108004625.699 8  84003770.770 7
R22  21995915.575 6  21995917.549 5 117415701.447 6  91323293.623 5
R23  19427359.049 8                 103923262.459 8
R24  21026152.230 5  21026155.625 7 112436299.896 5  87450491.433 7
> 2025 06 15 07 26 45.0000000  0 25
C08  37858582.340 7  37858577.769 7 197139574.838 7 152440804.636 7
C13  37332639.272 7  37332642.232 7 194400851.676 7 150323073.904 7
C29  21563992.936 8                 112289366.150 8
C30  22431171.687 8                 116804991.680 8
C36  24731710.584 6                 128784483.849 6
C38  38535400.014 7                 200663931.381 7
C45  23129332.822 6                 120440505.172 6
C47  21462444.099 8                 111760571.900 8
E02  25887335.312 4  25887336.976 6 136038895.223 4 102912545.989 6
E10  23462919.927 8  23462921.289 9 123298474.320 8  93274498.609 9
E11  23513000.647 7  23512998.226 8 123561649.252 7  93473577.488 8
E12  24966919.848 7  24966919.845 8 131202041.663 7  99253490.869 8
E16  23732609.424 8  23732610.955 9 124715699.151 8  94346619.269 9
E24  25147322.121 7  25147323.819 8 132150055.028 7  99970661.441 8
E25  23396878.527 8  23396880.249 9 122951423.188 8  93011960.289 9
G16  20479560.562 7  20479563.575 6                                 107620809.416 7  83860386.542 6                
G18  20657975.058 8                  20657978.379 8  20657980.908 9 108558383.840 8                  84590966.267 8  81066345.177 9
G23  21531568.988 7                  21531573.153 8  21531575.708 8 113149160.370 7                  88168197.133 8  84494532.370 8
G27  21868818.240 7                  21868823.879 6  21868822.720 8 114921367.760 7                  89549171.826 6  85817963.251 8
R07  22039812.976 5                 117980822.519 5
R13  20662134.735 7                 110334635.002 7
R14  20257621.972 8  20257625.935 7 107984522.999 8  83988135.337 7
R22  22005286.881 6  22005293.574 5 117465736.955 6  91362210.067 5
R23  19430615.875 8                 103940683.700 8
R24  21018440.484 6  21018439.585 7 112395040.878 6  87418401.033 7
> 2025 06 15 07 27  0.0000000  0 26
C08  37859793.688 7  37859788.560 7 197145880.733 7 152445680.773 7
C13  37332604.846 7  37332607.381 7 194400671.553 7 150322934.611 7
C29  21561079.798 8                 112274196.436 8
C30  22436358.537 7                 116832003.532 7
C36  24741000.467 6                 128832868.877 6
C38  38537454.153 7                 200674625.908 7
C45  23133103.700 6                 120460143.155 6
C47  21463257.961 8                 111764811.033 8
E02  25880344.020 5  25880343.483 6 136002143.17315 102884743.248 6
E10  23464579.681 8  23464581.102 9 123307196.670 8  93281096.999 9
E11  23510211.185 7  23510209.049 8 123546992.009 7  93462489.360 8
E12  24972012.693 7  24972012.836 8 131228805.280 7  99273737.358 8
E16  23736837.552 8  23736838.660 9 124737915.198 8  94363425.558 9
E24  25154673.153 7  25154676.099 8 132188692.146 7  99999890.133 8
E25  23397160.028 8  23397161.614 9 122952901.909 8  93013078.918 9
G10  24103436.421 5                  24103445.364 6  24103442.403 7 126664429.93215                  98699616.471 6  94587099.524 7
G16  20477874.212 7  20477876.402 6                                 107611945.246 7  83853479.419 6                
G18  20661301.028 8                  20661304.826 8  20661306.454 9 108575861.722 8                  84604585.369 8  81079396.807 9
G23  21525076.363 7                  21525080.673 8  21525083.590 8 113115042.830 7                  88141612.024 8  84469054.983 8
G27  21860670.433 7                  21860675.730 6  21860674.116 8 114878549.104 7                  89515806.581 6  85785988.277 8
R07  22035635.983 4                                
R13  20671418.100 7                 110384205.108 7
R14  20253886.324 8  20253889.324 8 107964605.187 8  83972643.732 8
R22  22014669.678 7  22014669.143 5 117515791.019 7  91401141.064 5
R23  19433890.512 7                 103958201.340 7
R24  21010735.959 6  21010737.530 7 112353850.762 6  87386364.248 7
> 2025 06 15 07 27 15.0000000  0 26
C08  37861011.494 7  37861006.512 7 197152222.900 7 152450584.931 7
C13  37332577.245 7  37332579.731 7 194400527.791 7 150322823.435 7
C29  21558179.125 8                 112259093.494 8
C30  22441556.031 8                 116859064.222 8
C36  24750298.351 6                 128881280.682 6
C38  38539512.486 7                 200685347.526 7
C45  23136894.662 5                 120479893.778 5
C47  21464085.183 8                 111769120.303 8
E02  25873359.161 5  25873358.740 6 135965437.733 5 102856975.69616
E10  23466253.689 8  23466255.163 9 123315993.521 8  93287751.752 9
E11  23507436.488 7  23507434.624 8 123532412.562 7  93451460.100 8
E12  24977114.996 7  24977115.622 8 131255620.442 7  99294022.823 8
E16  23741081.481 8  23741082.209 9 124760215.473 8  94380295.550 9
E24  25162035.444 7  25162038.411 8 132227381.206 7 100029158.176 8
E25  23397459.708 8  23397461.018 9 122954475.179 8  93014269.075 9
G10  24092965.089 6                  24092975.714 6  24092971.716 7 126609407.026 6                  98656741.421 6  94546010.973 7
G16  20476214.918 8  20476217.237 6                                 107603227.897 8  83846686.663 6                
G18  20664646.399 8                  20664649.962 8  20664651.180 8 108593441.108 8                  84618283.590 8  81092524.283 8
G23  21518605.557 7                  21518610.214 7  21518612.833 8 113081040.240 7                  88115116.512 7  84443663.448 8
G27  21852533.441 7                  21852538.092 6  21852536.701 8 114835786.091 7                  89482484.763 6  85754054.855 8
R07  22031492.194 5                 117936288.74915
R13  20680725.771 7                 110433907.091 7
R14  20250185.085 8  20250188.634 7 107944879.040 8  83957301.183 7
R22  22024046.807 6                 117565869.585 6
R23  19437184.902 8                 103975821.223 8
R24  21003047.723 5  21003048.791 7 112312735.847 5  87354386.128 7
> 2025 06 15 07 27 30.0000000  0 26
C08  37862234.665 6  37862230.233 7 197158595.531 6 152455512.631 7
C13  37332555.263 7  37332558.349 7 194400414.583 7 150322735.891 7
C29  21555290.822 8                 112244051.596 8
C30  22446761.072 8                 116886167.828 8
C36  24759599.473 6                 128929713.330 6
C38  38541576.561 7                 200696090.416 7
C45  23140712.906 6                 120499751.031 6
C47  21464925.780 8                 111773494.014 8
E02  25866389.207 5  25866381.932 6 135928772.978 5 102829239.06816
E10  23467940.554 8  23467942.208 9 123324858.957 8  93294458.397 9
E11  23504675.891 7  23504673.977 8 123517905.073 7  93440485.296 8
E12  24982226.676 7  24982227.086 8 131282481.272 7  99314342.842 8
E16  23745340.121 8  23745340.806 9 124782594.078 8  94397224.806 9
E24  25169406.953 7  25169409.435 8 132266116.406 7 100058461.007 8
E25  23397775.193 8  23397777.474 9 122956137.253 8  93015526.401 9
G10  24082498.267 6                  24082507.761 6  24082504.280 7 126554399.438 6                  98613878.439 6  94504933.953 7
G16  20474582.941 8  20474585.067 6                                 107594651.678 8  83840003.870 6                
G18  20668009.985 8                  20668013.319 8  20668014.547 9 108611116.095 8                  84632056.323 8  81105723.136 9
G23  21512155.800 7                  21512160.426 7  21512162.910 8 113047147.151 7                  88088706.283 7  84418353.699 8
G27  21844404.878 7                  21844410.172 6  21844408.935 8 114793073.115 7                  89449201.968 6  85722158.806 8
R07  22027385.017 5  22027385.889 6 117914286.81915  91711188.13716
R13  20690056.465 7                 110483734.732 7
R14  20246519.444 8  20246523.030 8 107925338.361 8  83942102.899 8
R22  22033429.432 5                 117615966.097 5
R23  19440496.965 8                 103993537.397 8
R24  20995367.190 6  20995372.856 6 112271688.48216  87322462.107 6
> 2025 06 15 07 27 45.0000000  0 25
C08  37863465.070 6  37863460.485 7 197165000.538 6 152460465.402 7
C13  37332539.966 7  37332542.474 7 194400333.954 7 150322673.541 7
C29  21552413.691 8                 112229072.872 8
C30  22451974.491 8                 116913316.406 8
C36  24768904.732 6                 128978168.502 6
C38  38543643.844 7                 200706856.560 7
C45  23144542.993 6                 120519717.064 6
C47  21465778.270 8                 111777934.088 8
E02  25859419.673 5  25859413.345 6 135892151.361 5 102801535.119 6
E10  23469641.121 8  23469642.675 9 123333794.963 8  93301218.406 9
E11  23501929.124 7  23501927.459 8 123503471.662 7  93429566.509 8
E12  24987347.876 7  24987347.474 8 131309389.626 7  99334698.775 8
E16  23749613.931 8  23749614.641 9 124805053.062 8  94414214.825 9
E24  25176786.952 6  25176789.742 8 132304899.511 6 100087800.156 8
E25  23398109.196 8  23398111.150 9 122957890.193 8  93016852.492 9
G10  24072034.087 6                  24072043.575 6  24072040.159 7 126499409.717 6                  98571029.378 6  94463870.252 7
G16  20472978.246 8  20472980.296 6                                 107586218.785 8  83833432.762 6                
G18  20671391.799 8                  20671395.583 8  20671396.633 9 108628888.549 8                  84645905.010 8  81118994.766 9
G23  21505726.730 6                  21505732.331 8  21505734.243 8 113013365.896 6                  88062383.254 8  84393127.456 8
G27  21836286.771 7                  21836292.291 6  21836290.778 8 114750412.422 7                  89415959.896 6  85690301.813 8
R13  20699411.994 7                 110533689.564 7
R14  20242889.052 8  20242891.526 7 107905985.868 8  83927050.952 7
R22  22042820.766 6                 117666082.915 6
R23  19443827.043 8                 104011351.613 8
R24  20987708.440 6  20987709.037 7 112230714.821 6  87290593.676 7
> 2025 06 15 07 28  0.0000000  0 26
C08  37864701.934 6  37864696.907 7 197171440.075 6 152465444.876 7
C13  37332530.927 7  37332533.924 7 194400288.102 7 150322638.075 7
C29  21549549.658 8                 112214159.465 8
C30  22457197.129 8                 116940512.050 8
C36  24778215.393 6                 129026648.137 6
C38  38545716.121 7                 200717648.184 7
C45  23148401.665 6                 120539793.745 6
C47  21466643.880 8                 111782442.729 8
E02  25852448.691 4  25852454.097 6 135855575.467 4 102773865.66016
E10  23471355.164 8  23471356.882 9 123342803.636 8  93308033.406 9
E11  23499196.947 7  23499195.380 8 123489114.467 7  93418705.401 8
E12  24992477.936 7  24992477.368 8 131336347.531 7  99355092.251 8
E16  23753903.168 8  23753904.109 9 124827594.511 8  94431267.271 9
E24  25184177.906 7  25184179.673 8 132343732.663 7 100117177.188 8
E25  23398460.542 8  23398462.467 9 122959736.321 8  93018249.090 9
G10  24061573.836 6                  24061582.584 6  24061579.634 7 126444440.399 6                  98528196.152 6  94422821.822 7
G16  20471401.202 8  20471403.529 6                                 107577931.648 8  83826975.236 6                
G18  20674793.281 8                  20674796.451 8  20674797.903 9 108646760.543 8                  84659831.158 8  81132340.700 9
G23  21499320.871 7                  21499326.038 7  21499327.579 8 112979699.021 7                  88036149.273 7  84367986.573 8
G27  21828179.484 7                  21828184.671 6  21828183.346 8 114707806.452 7                  89382760.420 6  85658485.677 8
R07  22019258.201 5  22019264.642 6 117870820.09415  91677377.168 6
R13  20708790.695 6                 110583773.305 6
R14  20239294.705 8  20239297.376 7 107886823.813 8  83912147.138 7
R22  22052212.841 6  22052218.464 5 117716221.868 6  91557039.42115
R23  19447175.350 8                 104029266.018 8
R24  20980059.516 6  20980060.297 6 112189815.302 6  87258782.829 6
> 2025 06 15 07 28 15.0000000  0 25
C08  37865945.234 6  37865939.960 7 197177914.100 6 152470450.982 7
C13  37332528.129 7  37332531.672 7 194400276.950 7 150322629.418 7
C29  21546698.911 8                 112199311.461 8
C30  22462428.870 8                 116967754.651 8
C36  24787529.902 7                 129075152.004 7
C38  38547792.961 7                 200728465.154 7
C45  23152275.539 6                 120559980.918 6
C47  21467522.736 8                 111787019.894 8
E02  25845499.769 5  25845503.539 7 135819045.21015 102746230.871 7
E10  23473084.108 8  23473084.948 9 123351884.862 8  93314903.285 9
E11  23496479.864 7  23496477.728 8 123474833.552 7  93407901.960 8
E12  24997617.258 7  24997616.663 8 131363354.810 7  99375523.067 8
E16  23758208.025 8  23758209.305 9 124850218.368 8  94448382.054 9
E24  25191576.537 7  25191578.774 8 132382615.814 7 100146591.949 8
E25  23398830.061 8  23398831.549 9 122961675.693 8  93019716.212 9
G10  24051117.549 6                  24051126.309 6  24051123.640 7 126389491.954 6                  98485379.199 6  94381788.906 7
G16  20469852.017 7  20469854.848 6                                 107569790.215 7  83820631.280 6                
G18  20678212.658 8                  20678215.935 8  20678217.673 9 108664731.831 8                  84673834.748 8  81145760.798 9
G23  21492936.142 7                  21492940.871 8  21492942.686 8 112946146.634 7                  88010004.620 8  84342931.283 8
G27  21820082.403 7                  21820087.046 6  21820085.848 8 114665255.431 7                  89349603.728 6  85626710.552 8
R13  20718193.982 7                 110633985.539 7
R14  20235735.741 8  20235738.958 7 107867852.613 8  83897391.755 7
R22  22061606.734 4  22061614.533 5 117766382.747 4  91596053.487 5
R23  19450543.335 8                 104047280.294 8
R24  20972423.632 5  20972426.168 6 112148990.026 5  87227029.985 6
> 2025 06 15 07 28 30.0000000  0 26
C08  37867193.989 7  37867188.959 7 197184417.101 7 152475479.525 7
C13  37332532.014 7  37332535.178 7 194400294.983 7 150322643.376 7
C29  21543858.791 8                 112184523.433 8
C30  22467668.120 7                 116995038.716 7
C36  24796847.589 6                 129123674.373 6
C38  38549874.226 7                 200739301.995 7
C45  23156172.822 6                 120580272.894 6
C47  21468414.092 8                 111791660.118 8
E02  25838610.223 5  25838560.397 7 135782555.52115 102718626.677 7
E10  23474824.584 8  23474825.722 9 123361033.016 8  93321823.804 9
E11  23493775.345 7  23493773.617 8 123460623.344 7  93397152.036 8
E12  25002764.621 7  25002764.263 8 131390405.907 7  99395987.023 8
E16  23762527.275 8  23762529.164 9 124872919.139 8  94465555.037 9
E24  25198985.208 7  25198986.347 8 132421543.262 7 100176040.265 8
E25  23399215.597 8  23399217.351 9 122963702.888 8  93021249.744 9
G10  24040663.952 6                  24040672.806 6  24040669.684 7 126334559.039 6                  98442574.364 6  94340767.606 7
G16  20468329.590 7  20468332.037 6                                 107561789.150 7  83814396.679 6                
G18  20681650.291 8                  20681653.809 8  20681655.565 9 108682796.795 8                  84687911.308 8  81159250.842 9
G23  21486571.745 7                  21486576.818 8  21486579.152 8 112912703.681 7                  87983945.207 8  84317957.660 8
G27  21811994.893 7                  21811999.786 7  21811997.771 8 114622754.008 7                  89316485.798 7  85594972.459 8
R07  22011267.114 6  22011276.824 6 117828074.92616  91644121.633 6
R13  20727619.780 6                 110684320.192 6
R14  20232211.681 8  20232213.958 7 107849067.058 8  83882780.727 7
R22  22071009.307 6  22071013.118 5 117816559.88816  91635080.008 5
R23  19453928.751 8                 104065388.816 8
R24  20964804.602 7  20964804.286 6 112108233.275 7  87195330.354 6
> 2025 06 15 07 28 45.0000000  0 26
C08  37868449.017 7  37868443.697 7 197190951.795 7 152480532.556 7
C13  37332540.414 7  37332545.020 7 194400344.952 7 150322682.001 7
C29  21541030.901 8                 112169798.235 8
C30  22472916.418 8                 117022366.962 8
C36  24806169.670 6                 129172217.786 6
C38  38551959.668 7                 200750161.479 7
C45  23160094.181 7                 120600672.467 7
C47  21469317.631 8                 111796366.098 8
E02  25831706.867 5                 135746515.19115
E10  23476578.832 8  23476579.828 9 123370250.829 8  93328797.017 9
E11  23491085.332 7  23491083.486 8 123446486.740 7  93386457.783 8
E12  25007921.419 7  25007920.907 8 131417503.421 7  99416486.097 8
E16  23766862.606 8  23766864.158 9 124895699.564 8  94482788.247 9
E24  25206400.423 7  25206402.968 8 132460517.708 7 100205524.112 8
E25  23399618.628 8  23399620.345 9 122965820.711 8  93022851.870 9
G10  24030214.048 6                  24030223.690 6  24030219.181 7 126279644.834 6                  98399784.196 6  94299760.317 7
G16  20466834.510 8  20466836.339 6                                 107553931.429 8  83808273.804 6                
G18  20685106.377 7                  20685109.431 8  20685111.172 8 108700958.035 7                  84702062.940 8  81172812.799 8
G23  21480229.665 7                  21480234.302 7  21480235.927 8 112879373.280 7                  87957973.473 7  84293068.058 8
G27  21803916.725 7                  21803922.082 7  21803920.148 8 114580305.247 7                  89283408.824 7  85563273.702 8
R07  22007325.370 6  22007329.980 5 117806961.204 6  91627699.984 5
R13  20737069.666 7                 110734779.762 7
R14  20228722.385 8  20228725.665 7 107830469.937 8  83868316.312 7
R22  22080411.808 5  22080415.411 5 117866755.872 5  91674121.275 5
R23  19457331.881 8                 104083594.100 8
R24  20957198.648 7  20957195.055 6 112067548.496 7  87163686.559 6
> 2025 06 15 07 29  0.0000000  0 26
C08  37869710.479 7  37869705.130 7 197197520.393 7 152485611.793 7
C13  37332558.364 7  37332560.707 7 194400429.185 7 150322747.146 7
C29  21538215.343 8                 112155138.147 8
C30  22478174.074 8                 117049741.539 8
C36  24815493.275 6                 129220784.152 6
C38  38554049.383 7                 200761045.773 7
C45  23164033.546 6                 120621181.787 6
C47  21470235.596 8                 111801140.120 8
E02  25824839.825 5                 135710114.98315
E10  23478347.172 8  23478347.587 9 123379540.524 8  93335824.599 9
E11  23488409.696 7  23488407.812 8 123432425.971 7  93375820.906 8
E12  25013087.107 7  25013086.985 8 131444649.540 7  99437021.958 8
E16  23771213.211 8  23771214.716 9 124918561.824 8  94500083.395 9
E24  25213827.168 7  25213829.079 8 132499541.287 7 100235045.162 8
E25  23400039.716 8  23400041.058 9 122968031.572 8  93024524.371 9
G10  24019768.054 6                  24019776.511 6  24019772.979 7 126224751.996 6                  98357010.725 6  94258768.987 7
G16  20465366.799 8  20465368.066 6                                 107546219.499 8  83802264.514 6                
G18  20688581.060 7                  20688584.302 8  20688586.078 8 108719217.742 7                  84716291.285 8  81186448.308 8
G23  21473909.251 7                  21473913.922 8  21473915.576 8 112846157.926 7                  87932091.422 8  84268264.418 8
G27  21795849.148 7                  21795855.317 7  21795852.889 8 114537911.565 7                  89250374.816 7  85531616.106 8
R07  22003416.996 5  22003417.275 5 117786027.868 5  91611418.363 5
R13  20746542.488 7                 110785365.983 7
R14  20225269.622 8  20225273.037 7 107812064.229 8  83854000.736 7
R22  22089821.376 5  22089822.198 5 117916972.858 5  91713179.000 5
R23  19460753.548 8                 104101898.423 8
R24  20949600.165 6  20949602.169 6 112026937.635 6  87132100.377 6
> 2025 06 15 07 29 15.0000000  0 25
C08  37870977.729 6  37870972.507 7 197204121.008 6 152490715.784 7
C13  37332580.768 7  37332583.295 7 194400545.566 7 150322837.154 7
C29  21535412.540 8                 112140541.178 8
C30  22483439.012 8                 117077160.384 8
C36  24824828.466 6                 129269371.305 6
C38  38556144.276 7                 200771952.889 7
C45  23167985.755 5                 120641798.385 5
C47  21471163.811 8                 111805980.171 8
E02  25817780.467 5  25817779.948 7 135673758.68015 102635981.97517
E10  23480127.887 8  23480128.734 9 123388899.968 8  93342904.936 9
E11  23485748.246 7  23485746.179 8 123418439.014 7  93365239.850 8
E12  25018261.719 7  25018261.433 8 131471842.105 7  99457592.957 8
E16  23775579.075 8  23775580.489 9 124941503.893 8  94517438.902 9
E24  25221261.624 6  25221264.116 8 132538611.916 6 100264601.787 8
E25  23400477.104 8  23400479.043 9 122970333.509 8  93026265.756 9
G10  24009325.138 5                  24009334.551 6  24009330.626 7 126169879.028 5                  98314252.550 6  94217792.391 7
G16  20463926.629 8  20463928.212 6                                 107538651.433 8  83796367.303 6                
G18  20692074.409 7                  20692077.728 8  20692078.639 9 108737573.771 7                  84730594.648 8  81200155.676 9
G23  21467609.659 7                  21467614.737 7  21467616.820 8 112813055.974 7                  87906297.758 7  84243545.456 8
G27  21787791.828 7                  21787798.424 7  21787796.013 8 114495571.257 7                  89217382.391 7  85499998.336 8
R13  20756039.351 6                 110836076.571 6
R14  20221852.564 8  20221855.496 7 107793847.928 8  83839832.541 7
R22  22099233.291 5  22099232.492 5 117967208.713 5  91752251.183 5
R23  19464193.655 8                 104120299.421 8
R24  20942019.963 6  20942022.172 7 111986398.962 6  87100570.307 7
> 2025 06 15 07 29 30.0000000  0 25
C08  37872250.701 6  37872245.879 7 197210750.477 6 152495842.116 7
C13  37332608.354 7  37332611.017 7 194400691.326 7 150322949.852 7
C29  21532620.764 8                 112126004.525 8
C30  22488712.796 8                 117104620.487 8
C36  24834164.209 5                 129317976.022 5
C38  38558242.840 7                 200782879.846 7
C45  23171966.232 6                 120662519.632 6
C47  21472105.720 8                 111810883.232 8
E02  25810868.787 6  25810869.162 7 135637444.248 6 102608510.420 7
E10  23481921.706 8  23481922.496 9 123398326.097 8  93350035.733 9
E11  23483100.131 7  23483098.018 8 123404522.951 7  93354712.441 8
E12  25023444.281 7  25023444.024 8 131499078.004 7  99478196.697 8
E16  23779959.484 8  23779960.836 9 124964522.771 8  94534852.506 9
E24  25228704.848 7  25228707.327 8 132577726.569 7 100294191.688 8
E25  23400931.918 8  23400933.867 9 122972723.611 8  93028073.830 9
G10  23998887.249 6                  23998895.317 6  23998892.713 6 126115023.117 6                  98271507.647 6  94176828.591 6
G16  20462513.687 8  20462514.949 6                                 107531224.324 8  83790579.905 6                
G18  20695584.947 8                  20695588.721 8  20695588.947 9 108756022.879 8                  84744970.589 8  81213932.627 9
G23  21461331.951 7                  21461336.994 8  21461338.585 8 112780064.793 7                  87880590.297 8  84218909.173 8
G27  21779745.088 6                  21779751.272 7  21779748.473 8 114453281.534 6                  89184429.335 7  85468418.335 8
R07  21995692.411 5  21995701.841 6 117744699.34915  91579270.195 6
R13  20765557.734 6                 110886907.962 6
R14  20218470.084 8  20218473.194 7 107775818.407 8  83825809.603 7
R23  19467650.784 8                 104138793.986 8
R24  20934448.862 6  20934453.395 7 111945929.759 6  87069094.245 7
> 2025 06 15 07 29 45.0000000  0 26
C08  37873530.267 7  37873524.572 7 197217410.952 7 152500992.361 7
C13  37332641.907 7  37332645.745 7 194400868.285 7 150323086.634 7
C29  21529841.166 8                 112111530.145 8
C30  22493994.165 8                 117132123.834 8
C36  24843499.497 5                 129366599.965 5
C38  38560345.243 7                 200793828.587 7
C45  23175967.518 5                 120683346.997 5
C47  21473059.799 8                 111815851.329 8
E02  25803965.839 5  25803965.580 6 135601173.488 5 102581071.974 6
E10  23483727.886 8  23483729.263 9 123407820.802 8  93357218.415 9
E11  23480465.611 7  23480463.805 8 123390679.812 7  93344240.206 8
E12  25028635.825 7  25028635.286 8 131526359.095 7  99498834.634 8
E16  23784355.052 8  23784356.237 9 124987620.404 8  94552325.703 9
E24  25236156.215 7  25236159.332 8 132616886.971 7 100323816.265 8
E25  23401403.674 8  23401405.843 9 122975203.942 8  93029950.186 9
G10  23988452.799 7                  23988459.794 6  23988458.479 7 126060186.595 7                  98228777.972 6  94135879.350 7
G16  20461127.533 7  20461129.066 6                                 107523940.363 7  83784904.118 6                
G18  20699114.050 8                  20699117.589 8  20699118.058 9 108774566.967 8                  84759420.521 8  81227780.484 9
G23  21455075.256 8                  21455080.497 7  21455082.706 8 112747186.540 8                  87854970.924 7  84194357.245 8
G27  21771707.361 6                  21771713.119 7  21771710.630 8 114411044.555 6                  89151517.354 7  85436877.737 8
R07  21991882.548 6  21991889.292 6 117724298.749 6  91563403.006 6
R13  20775100.197 7                 110937861.720 7
R14  20215123.338 8  20215125.807 7 107757977.781 8  83811933.529 7
R22  22118068.547 5                 118067734.82515
R23  19471126.394 8                 104157383.896 8
R24  20926896.481 6  20926898.571 7 111905531.835 6  87037673.713 7
> 2025 06 15 07 30  0.0000000  0 25
C08  37874814.243 7  37874808.778 7 197224098.822 7 152506163.864 7
C13  37332681.759 7  37332684.676 7 194401072.954 7 150323244.904 7
C29  21527072.583 8                 112097114.708 8
C30  22499283.742 8                 117159666.912 8
C38  38562451.042 7                 200804795.701 7
C45  23179987.527 6                 120704277.226 6
C47  21474025.462 8                 111820881.012 8
E02  25797073.196 6  25797071.049 6 135564943.294 6 102553664.105 6
E10  23485547.181 8  23485548.444 9 123417380.603 8  93364450.328 9
E11  23477844.530 7  23477842.754 8 123376906.143 7  93333820.510 8
E12  25033835.298 7  25033834.922 8 131553681.853 7  99519504.085 8
E16  23788764.536 8  23788765.926 9 125010793.302 8  94569855.855 9
E24  25243617.065 7  25243619.395 8 132656089.813 7 100353472.876 8
E25  23401892.426 8  23401894.400 9 122977771.197 8  93031892.270 9
G10  23978020.662 6                  23978028.742 6  23978027.029 7 126005366.618 6                  98186061.069 6  94094942.351 7
G16  20459767.548 8  20459769.644 6                                 107516796.303 8  83779337.318 6                
G18  20702660.013 8                  20702663.458 8  20702665.405 9 108793202.480 8                  84773941.701 8  81241696.619 9
G23  21448839.664 7                  21448844.270 7  21448847.105 8 112714418.202 7                  87829437.113 7  84169887.409 8
G27  21763678.952 7                  21763685.856 7  21763682.753 8 114368857.073 7                  89118644.079 7  85405374.163 8
R07  21988104.871 6  21988108.558 5 117704073.284 6  91547672.145 5
R13  20784663.378 6                 110988933.622 6
R14  20211810.838 8  20211814.153 7 107740323.082 8  83798202.072 7
R22  22127492.747 5                 118118017.485 5
R23  19474618.436 8                 104176065.596 8
R24  20919357.675 7  20919357.445 6 111865202.159 7  87006306.186 6
> 2025 06 15 07 30 15.0000000  0 25
C08  37876104.478 7  37876098.947 7 197230816.436 7 152511358.366 7
C13  37332726.488 7  37332729.697 7 194401307.864 7 150323426.529 7
C29  21524316.121 8                 112082760.476 8
C30  22504580.241 7                 117187251.888 7
C36  24862184.911 5                 129463896.93015
C38  38564561.457 7                 200815783.357 7
C45  23184028.105 5                 120725312.127 5
C47  21475004.125 8                 111825974.479 8
E02  25790185.498 5  25790184.986 6 135528756.074 5 102526288.755 6
E10  23487378.821 8  23487380.487 9 123427007.658 8  93371733.122 9
E11  23475237.065 7  23475235.309 8 123363204.229 7  93323455.091 8
E12  25039043.299 7  25039042.839 8 131581048.278 7  99540206.616 8
E16  23793188.822 8  23793190.299 9 125034043.740 8  94587444.636 9
E24  25251085.644 7  25251087.950 8 132695337.088 7 100383163.123 8
E25  23402398.092 8  23402399.980 9 122980427.633 8  93033901.844 9
G10  23967592.340 7                  23967600.385 6  23967599.211 7 125950565.576 7                  98143359.044 6  94054019.573 7
G16  20458435.283 7  20458437.735 6                                 107509794.503 7  83773881.390 6                
G18  20706224.057 8                  20706227.206 8  20706229.768 9 108811931.537 8                  84788535.771 8  81255682.565 9
G23  21442625.616 7                  21442630.094 7  21442633.113 8 112681762.297 7                  87803990.974 7  84145501.540 8
G27  21755660.931 7                  21755667.833 7  21755664.653 8 114326721.757 7                  89085811.357 7  85373909.479 8
R07  21984359.966 6  21984363.979 5 117684025.594 6  91532079.520 5
R13  20794250.796 6                 111040126.187 6
R14  20208534.506 8  20208538.080 7 107722856.558 8  83784617.005 7
R23  19478128.059 8                 104194841.175 8
R24  20911827.540 6  20911828.316 6 111824942.995 6  86974993.530 6
> 2025 06 15 07 30 30.0000000  0 26
C08  37877400.081 7  37877394.387 7 197237563.144 7 152516575.354 7
C13  37332777.693 7  37332780.167 7 194401572.103 7 150323630.854 7
C29  21521570.907 8                 112068466.974 8
C30  22509886.546 7                 117214878.089 7
C36  24871533.557 6                 129512570.993 6
C38  38566675.274 7                 200826790.966 7
C45  23188090.654 6                 120746451.060 6
C47  21475994.049 8                 111831131.188 8
E02  25783308.042 5  25783307.091 6 135492611.556 5 102498945.652 6
E10  23489224.302 8  23489225.098 9 123436701.296 8  93379066.280 9
E11  23472643.145 7  23472641.542 8 123349573.458 7  93313143.517 8
E12  25044258.747 7  25044258.657 8 131608457.860 7  99560941.765 8
E16  23797628.492 8  23797629.403 9 125057370.997 8  94605091.539 9
E24  25258561.740 7  25258565.029 8 132734628.098 7 100412886.479 8
E25  23402920.066 8  23402922.260 9 122983172.755 8  93035978.518 9
G10  23957167.510 7                  23957174.883 6  23957174.063 7 125895783.345 7                  98100671.620 6  94013110.803 7
G16  20457130.255 8  20457132.982 6                                 107502934.442 8  83768535.896 6                
G18  20709805.814 7                  20709808.625 8  20709810.743 9 108830753.345 7                  84803202.075 8  81269737.779 9
G23  21436432.937 7                  21436437.377 7  21436439.580 8 112649218.526 7                  87778632.224 7  84121199.394 8
G27  21747653.150 7                  21747659.020 7  21747655.859 8 114284638.081 7                  89053018.879 7  85342483.368 8
R07  21980648.354 5  21980654.281 5 117664155.542 5  91516625.132 5
R13  20803859.353 6                 111091437.848 6
R14  20205292.997 8  20205296.145 7 107705578.241 8  83771178.326 7
R22                  22146336.117 5                  91947762.96115
R23  19481655.614 8                 104213709.794 8
R24  20904310.598 6  20904313.711 6 111784754.008 6  86943735.496 6
> 2025 06 15 07 30 45.0000000  0 25
C08  37878701.523 7  37878696.042 7 197244340.706 7 152521816.202 7
C13  37332834.043 7  37332836.875 7 194401867.565 7 150323859.318 7
C29  21518838.035 8                 112054235.989 8
C30  22515199.237 7                 117242547.301 7
C36  24880883.419 6                 129561263.464 6
C38  38568793.286 7                 200837820.211 7
C45  23192171.724 6                 120767695.957 6
C47  21476996.867 8                 111836352.836 8
E02  25776435.774 5  25776437.532 6 135456511.588 5 102471636.314 6
E10  23491081.716 8  23491082.655 9 123446463.139 8  93386451.061 9
E11  23470063.023 7  23470061.601 8 123336015.607 7  93302887.097 8
E12  25049482.137 7  25049482.701 8 131635912.134 7  99581710.703 8
E16  23802082.349 8  23802083.419 9 125080776.829 8  94622797.880 9
E24  25266048.096 7  25266050.572 8 132773964.526 7 100442644.166 8
E25  23403459.437 8  23403461.823 9 122986008.400 8  93038123.655 9
G10  23946746.803 7                  23946754.912 6  23946753.116 7 125841021.992 7                  98058000.542 6  93972217.688 7
G16  20455851.518 8  20455854.475 6                                 107496218.000 8  83763302.285 6                
G18  20713405.256 7                  20713408.728 8  20713410.344 9 108849669.566 7                  84817941.946 8  81283863.478 9
G23  21430261.319 7                  21430265.492 7  21430268.205 8 112616788.957 7                  87753362.461 7  84096982.543 8
G27  21739654.970 7                  21739660.724 7  21739657.673 8 114242608.061 7                  89020268.187 7  85311097.318 8
R13  20813491.470 6                 111142870.104 6
R14  20202087.468 8  20202090.263 7 107688489.969 8  83757887.475 7
R22                  22155763.236 5                  91986908.928 5
R23  19485200.603 8                 104232673.351 8
R24  20896807.038 5  20896812.001 6 111744637.04015  86912533.304 6
> 2025 06 15 07 31  0.0000000  0 26
C08  37880009.609 7  37880003.945 7 197251150.952 7 152527082.303 7
C13  37332896.881 7  37332900.036 7 194402196.163 7 150324113.390 7
C29  21516117.814 8                 112040069.415 8
C30  22520521.777 8                 117270261.253 8
C36  24890240.623 6                 129609975.698 6
C38  38570916.190 7                 200848873.023 7
C45  23196274.614 6                 120789048.169 6
C47  21478012.909 8                 111841641.314 8
E02  25769572.345 5  25769576.316 6 135420458.476 5 102444362.377 6
E10  23492952.973 8  23492953.630 9 123456295.098 8  93393888.873 9
E11  23467497.678 7  23467495.867 8 123322532.658 7  93292687.340 8
E12  25054715.928 7  25054716.013 8 131663412.849 7  99602514.781 8
E16  23806551.649 8  23806552.739 9 125104263.120 8  94640565.092 9
E24  25273541.843 7  25273545.014 8 132813348.170 7 100472437.605 8
E25  23404017.312 8  23404019.123 9 122988936.563 8  93040338.801 9
G10  23936330.298 7                  23936338.447 6  23936336.923 7 125786283.919 7                  98015347.531 6  93931341.909 7
G16  20454601.363 7  20454603.801 6                                 107489647.285 7  83758182.229 6                
G18  20717023.463 8                  20717026.691 8  20717027.667 8 108868681.894 8                  84832756.739 8  81298061.021 8
G23  21424112.140 7                  21424116.956 7  21424119.234 8 112584475.788 7                  87728183.409 7  84072852.630 8
G27  21731667.554 7                  21731673.375 7  21731670.141 8 114200633.825 7                  88987561.006 7  85279752.955 8
R07  21973344.503 5  21973340.575 5 117624919.86615  91486136.515 5
R13  20823146.121 7                 111194424.481 7
R14  20198917.459 8  20198920.599 7 107671593.912 8  83744746.067 7
R22  22165199.891 4  22165201.421 4 118319348.24114
R23  19488763.649 8                 104251733.451 8
R24  20889319.738 6  20889323.684 6 111704594.025 6  86881388.734 6
> 2025 06 15 07 31 15.0000000  0 25
C08  37881323.980 7  37881318.806 7 197257994.698 7 152532374.312 7
C13  37332967.011 7  37332969.750 7 194402558.706 7 150324393.724 7
C29  21513410.123 8                 112025968.293 8
C30  22525853.169 8                 117298020.848 8
C36  24899598.429 5                 129658708.604 5
C38  38573043.466 7                 200859950.264 7
C45  23200390.189 6                 120810508.625 6
C47  21479041.031 8                 111846997.540 8
E02  25762722.694 5  25762724.825 6 135384453.258 5 102417124.616 6
E10  23494837.255 8  23494838.166 9 123466197.970 8  93401380.317 9
E11  23464946.921 7  23464944.642 8 123309125.545 7  93282544.949 8
E12  25059957.625 7  25059958.367 8 131690960.863 7  99623354.645 8
E16  23811036.005 8  23811037.554 9 125127830.785 8  94658393.838 9
E24  25281046.480 7  25281048.533 8 132852779.882 7 100502267.374 8
E25  23404592.483 8  23404594.237 9 122991958.250 8  93042624.675 9
G10  23925918.858 7                  23925928.050 6  23925924.759 7 125731570.321 7                  97972713.640 6  93890484.395 7
G16  20453379.437 7  20453381.984 6                                 107483223.144 7  83753176.406 6                
G18  20720659.218 8                  20720663.604 8  20720664.372 9 108887791.115 8                  84847647.082 8  81312330.915 9
G23  21417985.861 7                  21417990.561 7  21417992.984 8 112552280.292 7                  87703096.046 7  84048810.561 8
G27  21723690.509 7                  21723696.505 7  21723693.846 8 114158716.549 7                  88954898.240 7  85248451.097 8
R07  21969727.062 6                 117605595.44316
R13  20832823.847 7                 111246101.414 7
R14  20195784.069 7  20195786.818 7 107654891.222 7  83731755.087 7
R23  19492344.890 8                 104270890.678 8
R24  20881846.557 6  20881849.412 6 111664626.053 6  86850302.547 6
> 2025 06 15 07 31 30.0000000  0 25
C08  37882644.984 7  37882639.589 7 197264872.739 7 152537692.840 7
C13  37333043.638 7  37333045.922 7 194402956.052 7 150324700.971 7
C29  21510714.457 8                 112011933.488 8
C30  22531193.016 8                 117325826.833 8
C36  24908962.359 5                 129707462.618 5
C38  38575176.184 7                 200871052.712 7
C45  23204532.016 5                 120832077.873 5
C47  21480082.203 8                 111852422.245 8
E02  25755880.379 5  25755882.930 6 135348496.896 5 102389923.918 6
E10  23496735.317 8  23496736.275 9 123476172.477 8  93408925.967 9
E11  23462409.851 7  23462407.944 8 123295795.044 7  93272460.497 8
E12  25065209.487 7  25065209.671 8 131718556.791 7  99644230.774 8
E16  23815536.439 8  23815537.898 9 125151480.519 8  94676284.695 9
E24  25288559.034 7  25288561.379 8 132892260.347 7 100532134.008 8
E25  23405184.903 8  23405187.188 9 122995074.310 8  93044981.955 9
G10  23915511.807 7                  23915521.013 6  23915517.911 7 125676882.380 7                  97930099.715 6  93849646.025 7
G16  20452184.695 7  20452186.946 6                                 107476946.621 7  83748285.583 6                
G18  20724314.244 8                  20724318.734 8  20724319.636 9 108906997.917 8                  84862613.428 8  81326673.669 9
G23  21411882.124 7                  21411886.446 7  21411888.281 8 112520203.625 7                  87678101.194 7  84024857.182 8
G27  21715725.332 7                  21715731.060 7  21715728.023 8 114116857.253 7                  88922280.628 7  85217192.569 8
R07  21966146.431 5                 117586453.931 5
R13  20842524.268 7                 111297901.162 7
R14  20192687.018 8  20192689.958 7 107638383.111 8  83718915.460 7
R23  19495944.494 8                 104290145.837 8
R24  20874386.574 5  20874389.472 6 111624734.30015  86819275.608 6
> 2025 06 15 07 31 45.0000000  0 24
C08  37883971.853 7  37883966.890 7 197271782.786 7 152543036.137 7
C13  37333125.882 7  37333128.859 7 194403385.825 7 150325033.286 7
C29  21508031.264 8                 111997962.701 8
C30  22536540.980 8                 117353676.874 8
C38  38577312.008 7                 200882178.047 7
C45  23208696.818 5                 120853753.578 5
C47  21481137.511 8                 111857913.120 8
E02  25749048.160 6  25749049.525 6 135312587.516 6 102362758.677 6
E10  23498646.252 8  23498647.590 9 123486216.234 8  93416523.993 9
E11  23459887.474 7  23459885.396 8 123282538.916 7  93262432.327 8
E12  25070469.640 7  25070469.503 8 131746198.262 7  99665141.332 8
E16  23820051.912 8  23820053.372 9 125175210.026 8  94694235.884 9
E24  25296079.802 7  25296083.064 8 132931787.093 7 100562035.714 8
E25  23405795.837 8  23405797.768 9 122998282.530 8  93047408.946 9
G10  23905109.755 7                  23905119.102 6  23905115.617 7 125622218.116 7                  97887504.254 6  93808825.403 7
G16  20451018.099 7  20451019.571 6                                 107470815.705 7  83743508.225 6                
G18  20727987.338 7                  20727991.546 8  20727992.774 9 108926299.870 7                  84877653.877 8  81341087.451 9
G23  21405799.690 7                  21405804.735 7  21405806.988 8 112488243.668 7                  87653197.348 7  84000990.984 8
G27  21707770.226 7                  21707775.767 7  21707773.031 8 114075053.833 7                  88889706.600 7  85185975.747 8
R07  21962600.785 4                                
R13  20852247.172 6                 111349820.931 6
R14  20189626.571 8  20189629.575 7 107622067.627 8  83706225.646 7
R22  22193535.078 4                                
R23  19499561.944 8                 104309496.502 8
> 2025 06 15 07 32  0.0000000  0 26
C08  37885304.638 7  37885299.777 7 197278723.111 7 152548402.807 7
C13  37333214.033 7  37333216.978 7 194403846.316 7 150325389.362 7
C29  21505360.162 8                 111984054.141 8
C30  22541897.677 8                 117381569.057 8
C36  24927740.722 5                 129805025.74215
C38  38579452.188 7                 200893324.400 7
C45  23212874.338 5                 120875533.870 5
C47  21482203.888 8                 111863468.426 8
E02  25742222.814 6  25742225.150 6 135276723.278 6 102335627.658 6
E10  23500570.873 8  23500571.669 9 123496327.310 8  93424172.943 9
E11  23457378.658 7  23457376.667 8 123269355.285 7  93252459.003 8
E12  25075738.625 7  25075737.828 8 131773883.270 7  99686084.845 8
E16  23824582.278 8  23824583.804 9 125199017.384 8  94712245.978 9
E24  25303610.792 7  25303613.239 8 132971358.237 7 100591970.988 8
E25  23406423.786 8  23406425.468 9 123001581.150 8  93049904.304 9
G10  23894711.604 6                  23894720.962 6  23894717.907 7 125567576.123 6                  97844926.185 6  93768021.391 7
G16  20449878.655 8  20449880.798 6                                 107464828.586 8  83738842.930 6                
G18  20731677.997 7                  20731681.810 8  20731684.012 9 108945694.985 7                  84892766.872 8  81355570.730 9
G23  21399740.818 7                  21399744.791 7  21399746.788 8 112456398.864 7                  87628383.241 7  83977210.804 8
G27  21699825.754 7                  21699831.383 7  21699828.900 8 114033304.734 7                  88857174.844 7  85154799.463 8
R07  21959091.794 6  21959097.662 6 117548715.62716  91426762.75516
R13  20861992.191 6                 111401858.702 6
R14  20186602.059 8  20186605.224 7 107605942.647 8  83693684.018 7
R15  23477518.937 6  23477523.472 5 125456734.79516  97577475.70415
R23  19503196.799 8                 104328940.529 8
R24  20859509.185 5  20859511.085 7 111545172.78415  86757392.749 7
> 2025 06 15 07 32 15.0000000  0 26
C08  37886643.351 7  37886638.003 7 197285693.287 7 152553792.546 7
C13  37333308.523 7  37333311.182 7 194404337.211 7 150325768.969 7
C29  21502701.460 8                 111970207.709 8
C30  22547261.813 8                 117409503.146 8
C36  24937119.732 5                 129853831.188 5
C38  38581596.867 7                 200904491.534 7
C45  23217080.786 6                 120897418.260 6
C47  21483283.756 8                 111869087.836 8
E02  25735406.738 6  25735409.475 6 135240904.354 6 102308530.884 6
E10  23502507.060 8  23502508.503 9 123506505.410 8  93431872.604 9
E11  23454883.377 7  23454881.674 8 123256243.937 7  93242540.347 8
E12  25081015.190 7  25081014.153 8 131801611.480 7  99707061.034 8
E16  23829127.683 8  23829128.939 9 125222902.332 8  94730314.769 9
E24  25311149.189 7  25311151.779 8 133010973.438 7 100621939.577 8
E25  23407068.541 8  23407070.207 9 123004969.979 8  93052467.928 9
G10  23884317.203 6                  23884328.054 7  23884324.033 7 125512956.544 6                  97802365.506 7  93727234.091 7
G16  20448766.813 7  20448769.417 6                                 107458985.121 7  83734289.611 6                
G18  20735386.934 8                  20735389.995 8  20735392.174 9 108965182.792 8                  84907952.198 8  81370123.308 9
G23  21393702.304 7                  21393707.345 7  21393709.197 8 112424669.381 7                  87603658.960 7  83953516.714 8
G27  21691891.201 7                  21691896.892 7  21691895.096 8 113991609.935 7                  88824685.357 7  85123663.734 8
R07  21955617.359 6  21955619.980 5 117530117.332 6  91412297.363 5
R13  20871759.063 6                 111454013.589 6
R14  20183612.684 8  20183615.945 7 107590008.724 8  83681290.971 7
R15  23466186.992 6  23466192.250 5 125396182.614 6  97530379.514 5
R23  19506848.928 8                 104348477.582 8
R24  20852089.969 5  20852090.738 6 111505498.731 5  86726535.260 6
> 2025 06 15 07 32 30.0000000  0 26
C08  37887987.759 7  37887982.297 6 197292694.946 7 152559206.653 6
C13  37333408.970 7  37333411.678 7 194404860.020 7 150326173.248 7
C29  21500054.788 8                 111956424.983 8
C30  22552634.794 7                 117437480.612 7
C36  24946481.454 4                                
C38  38583746.364 7                 200915680.988 7
C45  23221302.470 6                 120919408.142 6
C47  21484375.333 8                 111874772.902 8
E02  25728600.548 6  25728602.488 6 135205132.491 6 102281469.734 6
E10  23504457.224 8  23504458.347 9 123516751.988 8  93439624.074 9
E11  23452402.289 7  23452400.768 8 123243206.469 7  93232677.597 8
E12  25086299.465 7  25086298.976 8 131829384.308 7  99728070.971 8
E16  23833687.951 8  23833689.185 9 125246866.375 8  94748443.418 9
E24  25318696.099 7  25318699.088 8 133050634.151 7 100651942.592 8
E25  23407731.019 8  23407732.410 9 123008450.670 8  93055101.038 9
G10  23873928.910 6                  23873937.001 6  23873934.886 7 125458361.222 6                  97759823.688 6  93686464.968 7
G16  20447682.359 8  20447684.354 6                                 107453286.972 8  83729849.502 6                
G18  20739113.106 8                  20739116.202 8  20739118.079 8 108984764.738 8                  84923210.874 8  81384746.182 8
G23  21387686.619 7                  21387690.884 7  21387693.633 8 112393057.030 7                  87579025.948 7  83929910.102 8
G27  21683967.769 7                  21683973.360 7  21683971.577 8 113949971.155 7                  88792239.596 7  85092569.866 8
R07  21952175.650 5  21952182.235 6 117511701.665 5  91397974.013 6
R13  20881547.931 7                 111506286.641 7
R14  20180659.560 8  20180662.868 7 107574267.328 8  83669047.664 7
R15  23454868.496 6  23454872.180 5 125335698.373 6  97483336.299 5
R23  19510518.973 8                 104368108.929 8
R24  20844684.358 6  20844683.467 6 111465898.646 6  86695735.175 6
> 2025 06 15 07 32 45.0000000  0 25
C08  37889338.206 7  37889332.279 7 197299725.737 7 152564643.321 7
C13  37333514.967 7  37333517.538 7 194405412.624 7 150326600.568 7
C29  21497419.733 8                 111942703.761 8
C30  22558015.533 8                 117465499.082 8
C38  38585898.437 7                 200926890.447 7
C45  23225544.831 6                 120941501.223 6
C47  21485478.837 8                 111880521.373 8
E02  25721800.552 6  25721804.598 6 135169405.621 6 102254442.638 6
E10  23506419.549 8  23506420.755 9 123527064.694 8  93447425.556 9
E11  23449935.458 7  23449933.444 8 123230240.597 7  93222868.995 8
E12  25091593.138 7  25091591.806 8 131857199.339 7  99749112.865 8
E16  23838263.054 8  23838264.038 9 125270907.227 8  94766630.134 9
E24  25326251.348 7  25326254.490 8 133090337.950 7 100681978.214 8
E25  23408410.116 8  23408411.812 9 123012020.988 8  93057801.964 9
G10  23863543.816 6                  23863551.336 6  23863549.827 7 125403788.331 6                  97717299.421 6  93645712.561 7
G16  20446625.137 7  20446627.434 6                                 107447731.934 7  83725520.885 6                
G18  20742856.313 7                  20742860.841 8  20742861.396 8 109004438.416 7                  84938541.024 8  81399437.571 8
G23  21381693.352 7                  21381697.247 7  21381699.627 8 112361559.774 7                  87554482.687 7  83906389.470 8
G27  21676054.062 7                  21676060.186 6  21676058.328 8 113908386.358 7                  88759835.895 6  85061516.332 8
R07  21948772.980 5  21948776.930 5 117493466.411 5  91383790.803 5
R13  20891359.355 6                 111558675.215 6
R14  20177742.373 8  20177745.280 7 107558716.744 8  83656952.758 7
R15  23443562.621 5  23443565.704 5 125275280.532 5  97436344.715 5
R23  19514205.793 8                 104387832.183 8
R24  20837293.549 6  20837293.719 6 111426370.110 6  86664990.755 6
> 2025 06 15 07 33  0.0000000  0 26
C08  37890694.604 7  37890688.630 7 197306787.918 7 152570104.250 7
C13  37333627.254 7  37333629.654 7 194405997.005 7 150327052.457 7
C29  21494796.618 8                 111929046.307 8
C30  22563404.521 8                 117493560.795 8
C36  24965222.082 5                 130000361.63315
C38  38588055.424 7                 200938122.118 7
C45  23229807.146 6                 120963699.350 6
C47  21486594.772 8                 111886335.431 8
E02  25715012.066 6  25715015.287 7 135133726.222 6 102227451.415 7
E10  23508394.776 8  23508396.154 9 123537445.647 8  93455278.685 9
E11  23447481.897 7  23447480.161 8 123217348.564 7  93213116.243 8
E12  25096894.343 7  25096893.337 8 131885058.713 7  99770188.260 8
E16  23842852.393 8  23842853.851 9 125295027.034 8  94784876.600 9
E24  25333816.004 7  25333818.368 8 133130086.919 7 100712048.027 8
E25  23409107.272 8  23409108.669 9 123015683.254 8  93060572.438 9
G10  23853163.575 6                  23853171.557 6  23853169.761 7 125349240.413 6                  97674794.584 6  93604978.801 7
G16  20445596.179 7  20445598.473 6                                 107442322.421 7  83721305.673 6                
G18  20746618.167 7                  20746623.220 8  20746622.806 8 109024205.902 7                  84953944.234 8  81414199.010 8
G23  21375721.799 7                  21375725.795 7  21375728.301 8 112330180.202 7                  87530031.102 7  83882956.703 8
G27  21668151.487 7                  21668157.738 7  21668155.488 8 113866858.085 7                  88727476.180 7  85030504.963 8
R07  21945400.062 6  21945405.182 6 117475414.22316  91369750.170 6
R13  20901191.936 7                 111611180.985 7
R14  20174861.140 8  20174864.601 7 107543359.152 8  83645007.991 7
R15  23432269.136 5  23432270.051 5 125214931.489 5  97389406.717 5
R22  22240782.186 4                 118722925.34914
R23  19517910.793 8                 104407649.515 8
> 2025 06 15 07 33 15.0000000  0 26
C08  37892056.600 7  37892050.957 7 197313882.712 7 152575590.408 7
C13  37333745.911 7  37333748.200 7 194406614.644 7 150327530.041 7
C29  21492186.452 8                 111915453.957 8
C30  22568801.506 7                 117521666.955 7
C36  24974606.897 5                 130049233.878 5
C38  38590217.167 7                 200949377.257 7
C45  23234092.343 6                 120986003.811 6
C47  21487725.221 8                 111892216.364 8
E02  25708231.796 6  25708235.327 7 135098095.828 6 102200497.274 7
E10  23510383.521 8  23510384.773 9 123547896.119 8  93463184.396 9
E11  23445042.822 7  23445041.169 8 123204531.713 7  93203420.368 8
E12  25102204.673 7  25102203.517 8 131912963.581 7  99791298.105 8
E16  23847457.837 8  23847458.910 9 125319227.079 8  94803183.770 9
E24  25341389.715 6  25341391.347 8 133169882.398 6 100742153.000 8
E25  23409821.807 8  23409823.358 9 123019438.858 8  93063413.518 9
G10  23842788.126 6                  23842796.113 6  23842794.479 7 125294719.237 6                  97632310.605 6  93564264.946 7
G16  20444594.695 8  20444596.524 6                                 107437059.796 8  83717204.938 6                
G18  20750398.025 7                  20750402.745 8  20750403.584 9 109044068.370 7                  84969421.429 8  81429031.364 9
G23  21369773.137 7                  21369777.413 7  21369779.254 8 112298919.897 7                  87505672.449 7  83859613.021 8
G27  21660260.336 7                  21660266.518 7  21660264.029 8 113825387.836 7                  88695161.704 7  84999536.907 8
R07  21942061.002 5  21942069.906 5 117457546.790 5  91355853.226 5
R13  20911046.152 6                 111663804.952 6
R14  20172016.922 8  20172020.390 7 107528196.118 8  83633214.521 7
R15  23420989.128 6  23420990.794 5 125154653.417 6  97342523.907 5
R22  22250235.567 5                 118773425.46415
R23  19521632.990 8                 104427562.051 8
> 2025 06 15 07 33 30.0000000  0 26
C08  37893425.266 7  37893419.069 7 197321007.277 7 152581099.571 7
C13  37333870.345 7  37333872.521 7 194407262.684 7 150328031.137 7
C29  21489588.389 8                 111901923.982 8
C30  22574207.083 8                 117549814.729 8
C38  38592382.661 7                 200960653.021 7
C45  23238395.581 6                 121008411.659 6
C47  21488866.501 8                 111898161.343 8
E02  25701459.821 6  25701464.326 7 135062511.854 6 102173578.221 7
E10  23512384.767 8  23512386.049 9 123558413.149 8  93471140.454 9
E11  23442617.682 7  23442615.939 8 123191787.188 7  93193779.232 8
E12  25107522.848 7  25107522.008 8 131940911.066 7  99812440.179 8
E16  23852077.933 8  23852078.733 9 125343504.536 8  94821549.478 9
E24  25348970.858 7  25348972.742 8 133209721.328 7 100772290.867 8
E25  23410553.042 8  23410555.307 9 123023285.016 8  93066323.090 9
G10  23832418.611 5                  23832425.979 6  23832423.815 7 125240222.221 5                  97589845.454 6  93523569.154 7
G16  20443620.416 7  20443622.650 6                                 107431941.444 7  83713216.575 6                
G18  20754195.557 8                  20754199.154 8  20754201.428 9 109064022.814 8                  84984970.319 8  81443932.376 9
G23  21363846.018 7                  21363851.092 7  21363853.111 8 112267776.372 7                  87481404.801 7  83836356.490 8
G27  21652379.479 7                  21652385.249 7  21652382.495 8 113783972.957 7                  88662890.377 7  84968610.222 8
R07  21938752.952 4  21938767.544 5                  91342098.06415
R13  20920923.237 7                 111716543.695 7
R14  20169207.856 8  20169212.527 8 107513225.302 8  83621570.547 8
R15  23409722.380 6  23409723.972 5 125094444.036 6  97295694.337 5
R22  22259697.788 5                 118823940.238 5
R23  19525372.627 8                 104447566.586 8
R24  20815197.900 5  20815201.361 6 111308231.49915  86573103.774 6
> 2025 06 15 07 33 45.0000000  0 24
C08  37894799.497 7  37894793.245 7 197328162.686 7 152586632.590 7
C13  37334000.951 7  37334002.851 7 194407942.048 7 150328556.456 7
C29  21487002.419 8                 111888457.423 8
C30  22579619.862 7                 117578005.043 7
C38  38594551.983 7                 200971950.434 7
C45  23242721.391 6                 121030923.778 6
C47  21490020.584 8                 111904171.359 8
E02  25694698.212 6  25694702.188 6 135026975.500 6 102146695.207 6
E10  23514399.324 8  23514400.181 9 123568997.707 8  93479147.589 9
E11  23440206.303 7  23440204.680 8 123179116.045 7  93184193.604 8
E12  25112848.964 7  25112848.627 8 131968902.003 7  99833615.122 8
E16  23856712.052 8  23856713.437 9 125367860.280 8  94839974.438 9
E24  25356559.734 7  25356562.486 8 133249604.672 7 100802462.330 8
E25  23411302.557 8  23411304.722 9 123027222.797 8  93069302.004 9
G16  20442674.247 7  20442676.380 6                                 107426968.386 7  83709341.467 6                
G18  20758010.076 8                  20758013.400 8  20758016.501 9 109084070.094 8                  85000591.549 8  81458902.714 9
G23  21357942.458 7                  21357947.649 7  21357949.350 8 112236750.860 7                  87457229.047 7  83813188.100 8
G27  21644508.901 7                  21644515.004 7  21644512.119 8 113742614.723 7                  88630663.166 7  84937725.821 8
R07  21935482.706 5  21935494.706 5 117422348.21215  91328485.283 5
R13  20930820.946 7                 111769398.077 7
R14  20166435.921 8  20166439.579 7 107498447.909 8  83610077.001 7
R15  23398467.131 6  23398467.231 5 125034304.786 6  97248919.562 5
R23  19529129.660 8                 104467664.223 8
R24  20807863.327 6  20807863.547 6 111268998.960 6  86542589.422 6
> 2025 06 15 07 34  0.0000000  0 25
C08  37896179.438 7  37896173.897 7 197335349.949 7 152592190.235 7
C13  37334137.478 7  37334139.794 7 194408653.875 7 150329106.860 7
C29  21484428.146 8                 111875055.396 8
C30  22585042.982 7                 117606238.877 7
C38  38596726.018 7                 200983270.468 7
C45  23247063.572 6                 121053541.042 6
C47  21491187.852 8                 111910247.475 8
E02  25687944.044 6  25687948.933 6 134991488.059 6 102119849.215 6
E10  23516426.201 8  23516427.399 9 123579650.743 8  93487206.532 9
E11  23437809.534 7  23437807.505 8 123166519.342 7  93174664.280 8
E12  25118184.164 7  25118183.498 8 131996937.396 7  99854823.649 8
E16  23861362.066 8  23861363.316 9 125392295.361 8  94858459.411 9
E24  25364157.631 7  25364160.878 8 133289533.366 7 100832668.076 8
E25  23412069.438 8  23412071.792 9 123031253.359 8  93072351.105 9
G10  23811705.911 5                  23811699.569 6  23811697.174 7 125131316.51515                  97504976.001 6  93442235.968 7
G16  20441755.774 8  20441757.301 6                                 107422141.903 8  83705580.554 6                
G18  20761842.446 8                  20761845.923 8  20761848.660 9 109104211.056 8                  85016285.823 8  81473943.044 9
G23  21352061.827 7                  21352066.100 7  21352068.030 8 112205844.732 7                  87433146.364 7  83790108.840 8
G27  21636649.766 7                  21636656.354 7  21636652.956 8 113701314.400 7                  88598481.104 7  84906884.685 8
R07  21932251.018 6                 117405031.089 6
R13  20940740.547 7                 111822368.569 7
R14  20163700.582 8  20163703.508 7 107483865.015 8  83598734.761 7
R15  23387225.827 6  23387230.469 6 124974237.376 6  97202200.443 6
R23  19532904.166 8                 104487855.663 8
R24  20800541.912 6  20800540.959 6 111229841.299 6  86512133.391 6
> 2025 06 15 07 34 15.0000000  0 24
C08  37897566.633 7  37897561.155 7 197342572.259 7 152597774.955 7
C13  37334280.755 7  37334283.622 7 194409401.466 7 150329684.929 7
C29  21481867.627 8                 111861721.288 8
C30  22590474.068 8                 117634519.521 8
C38  38598904.905 6                 200994616.467 6
C45  23251426.057 6                 121076266.639 6
C47  21492367.690 8                 111916392.992 8
E02  25681202.166 6  25681205.947 6 134956053.179 6 102093042.963 6
E10  23518467.267 8  23518468.252 9 123590375.548 8  93495319.770 9
E11  23435427.415 7  23435425.234 8 123154000.438 7  93165193.830 8
E12  25123528.506 7  25123527.484 8 132025020.342 7  99876068.196 8
E16  23866027.896 8  23866028.918 9 125416813.150 8  94877006.922 9
E24  25371765.033 7  25371768.431 8 133329510.695 7 100862910.616 8
E25  23412854.449 8  23412857.113 9 123035380.138 8  93075472.979 9
G10  23801356.945 5                  23801345.992 7  23801341.866 7 125076902.729 5                  97462575.800 7  93401602.456 7
G16  20440865.711 8  20440867.394 6                                 107417465.328 8  83701936.467 6                
G18  20765693.968 7                  20765697.056 8  20765699.400 9 109124449.010 7                  85032055.698 8  81489055.800 9
G23  21346203.570 7                  21346208.058 8  21346210.559 8 112175061.682 7                  87409159.593 8  83767121.489 8
G27  21628802.475 7                  21628808.091 7  21628805.492 8 113660075.582 7                  88566346.978 7  84876089.487 8
R07  21929054.255 6  21929054.477 6 117387902.587 6  91301691.35816
R13  20950682.074 7                 111875457.853 7
R14  20161001.826 8  20161005.014 7 107469480.419 8  83587546.689 7
R15  23375997.531 6  23376004.451 5 124914245.701 6  97155540.271 5
R23  19536697.135 8                 104508144.402 8
> 2025 06 15 07 34 30.0000000  0 26
C08  37898960.649 7  37898955.102 7 197349831.060 7 152603387.956 7
C13  37334431.624 7  37334434.559 7 194410186.104 7 150330291.649 7
C29  21479320.607 8                 111848456.540 8
C30  22595914.085 8                 117662848.296 8
C36  25021566.435 5                 130293930.65915
C38  38601088.899 7                 201005989.786 7
C45  23255809.163 6                 121099101.645 6
C47  21493562.016 8                 111922609.270 8
E02  25674470.151 6  25674472.638 6 134920672.462 6 102066277.663 6
E10  23520522.201 8  23520523.100 9 123601173.395 8  93503488.271 9
E11  23433059.897 7  23433058.078 8 123141560.771 7  93155783.313 8
E12  25128882.284 7  25128880.916 8 132053152.171 7  99897349.731 8
E16  23870709.217 8  23870710.442 9 125441414.893 8  94895617.978 9
E24  25379381.912 7  25379385.326 8 133369537.911 7 100893190.886 8
E25  23413658.408 8  23413661.009 9 123039604.563 8  93078668.725 9
G10  23791016.587 5                  23790997.357 7  23790992.961 7 125022521.49615                  97420200.831 7  93360993.185 7
G16  20440004.566 7  20440007.258 6                                 107412940.229 7  83698410.419 6                
G18  20769563.635 7                  20769567.906 8  20769568.762 8 109144785.236 7                  85047902.054 8  81504241.907 8
G23  21340369.435 7                  21340373.748 8  21340376.567 8 112144403.303 7                  87385269.962 8  83744227.280 8
G27  21620966.660 7                  21620972.417 7  21620969.912 8 113618899.903 7                  88534262.033 7  84845341.447 8
R07  21925889.468 6  21925891.305 4 117370964.124 6
R13  20960647.149 7                 111928667.210 7
R14  20158340.761 8  20158344.533 7 107455295.817 8  83576514.216 7
R15  23364787.864 6  23364793.240 6 124854331.572 6  97108940.405 6
R23  19540508.233 8                 104528531.459 8
R24  20785946.030 5  20785938.534 6 111151765.19915  86451405.799 6
> 2025 06 15 07 34 45.0000000  0 25
C08  37900361.511 7  37900355.938 7 197357126.042 7 152609028.891 7
C13  37334589.254 7  37334592.075 7 194411007.616 7 150330926.878 7
C29  21476786.159 8                 111835260.916 8
C30  22601363.349 8                 117691224.855 8
C36  25030969.659 5                 130342909.747 5
C38  38603277.932 6                 201017390.078 6
C45  23260218.120 7                 121122045.760 7
C47  21494768.870 8                 111928896.036 8
E02  25667746.120 6  25667749.633 6 134885345.938 6 102039553.325 6
E10  23522590.873 8  23522591.661 9 123612043.931 8  93511711.753 9
E11  23430707.811 7  23430705.939 8 123129200.064 7  93146432.496 8
E12  25134244.290 7  25134243.349 8 132081332.536 7  99918667.987 8
E16  23875406.508 8  23875407.947 9 125466100.308 8  94914292.318 9
E24  25387008.732 6  25387011.554 8 133409614.579 6 100923508.567 8
E25  23414480.773 8  23414483.480 9 123043926.408 8  93081938.157 9
G16  20439172.308 7  20439174.952 6                                 107408566.354 7  83695002.202 6                
G18  20773453.336 7                  20773456.762 8  20773457.015 8 109165219.185 7                  85063824.576 8  81519501.016 8
G23  21334559.424 7                  21334562.849 7  21334565.775 8 112113869.640 7                  87361477.510 7  83721426.202 8
G27  21613143.077 7                  21613148.949 7  21613146.723 8 113577787.270 7                  88502226.240 7  84814640.500 8
R07  21922761.971 5                 117354215.945 5
R13  20970633.790 7                 111981995.441 7
R14  20155717.159 8  20155721.115 7 107441310.877 8  83565637.025 7
R15  23353588.210 6  23353592.872 5 124794495.331 6  97062401.062 5
R23  19544337.987 8                 104549016.428 8
R24  20778665.429 6  20778659.953 5 111112846.130 6  86421135.332 5
> 2025 06 15 07 35  0.0000000  0 25
C08  37901769.665 7  37901763.929 7 197364455.619 7 152614696.558 7
C13  37334753.502 7  37334756.696 7 194411864.401 7 150331589.422 7
C29  21474265.305 8                 111822132.947 8
C30  22606823.247 8                 117719647.640 8
C36  25040380.197 5                 130391907.396 5
C38  38605471.959 6                 201028815.851 6
C45  23264645.292 7                 121145097.294 7
C47  21495989.460 8                 111935251.766 8
E02  25661033.733 6  25661036.772 6 134850072.272 6 102012869.033 6
E10  23524673.111 8  23524673.804 9 123622985.552 8  93519989.013 9
E11  23428370.407 7  23428368.457 8 123116916.805 7  93137140.287 8
E12  25139615.689 7  25139614.706 8 132109559.798 7  99940021.716 8
E16  23880119.855 8  23880121.209 9 125490867.841 8  94933028.768 9
E24  25394644.526 7  25394646.994 8 133449739.142 7 100953862.495 8
E25  23415321.626 8  23415324.056 9 123048344.255 8  93085280.219 9
G16  20438368.387 8  20438371.122 6                                 107404342.460 8  83691710.877 6                
G18  20777359.802 8                  20777363.773 8  20777364.371 9 109185749.156 8                  85079821.947 8  81534831.865 9
G23  21328772.139 7                  21328776.634 7  21328778.234 8 112083459.470 7                  87337781.335 7  83698717.378 8
G27  21605331.865 7                  21605337.160 7  21605335.147 8 113536736.447 7                  88470238.591 7  84783985.710 8
R07  21919668.812 6  21919671.217 5 117337656.436 6  91262676.15015
R13  20980642.558 7                 112035440.997 7
R14  20153130.237 7  20153134.581 8 107427524.667 7  83554914.438 8
R15  23342405.036 6  23342412.086 5 124734736.093 6  97015921.867 5
R23  19548184.600 8                 104569597.521 8
R24  20771394.235 5  20771397.266 6 111074005.566 5  86390925.938 6
> 2025 06 15 07 35 15.0000000  0 27
C08  37903183.978 7  37903178.540 7 197371823.124 7 152620393.582 7
C13  37334925.966 7  37334928.983 7 194412759.985 7 150332281.956 7
C26  24693077.369 6                 128583574.17716
C29  21471757.441 8                 111809076.157 8
C30  22612289.948 8                 117748120.122 8
C36  25049795.075 4                 130440926.265 4
C38  38607671.281 6                 201040270.494 6
C45  23269092.772 6                 121168259.541 6
C47  21497223.616 8                 111941679.845 8
E02  25654336.129 5  25654335.213 6 134814855.025 5 101986227.406 6
E10  23526769.570 8  23526770.054 9 123634001.613 8  93528322.598 9
E11  23426048.406 7  23426046.425 8 123104714.443 7  93127909.278 8
E12  25144996.433 7  25144995.834 8 132137837.151 7  99961413.354 8
E16  23884848.720 8  23884850.571 9 125515720.861 8  94951829.904 9
E24  25402289.760 7  25402292.193 8 133489914.829 7 100984255.159 8
E25  23416181.596 8  23416183.581 9 123052861.581 8  93088697.546 9
G10  23759981.672 5                  23759988.897 7  23759986.535 8                                  97293228.672 7  93239311.485 8
G16  20437593.862 7  20437597.014 6                                 107400272.302 7  83688539.306 6                
G18  20781285.115 8                  20781288.763 8  20781290.835 9 109206378.540 8                  85095896.782 8  81550236.907 9
G23  21323009.350 7                  21323013.959 8  21323015.293 8 112053176.591 7                  87314184.273 8  83676103.525 8
G27  21597532.301 7                  21597538.646 7  21597535.731 8 113495751.103 7                  88438301.972 7  84753379.800 8
R07  21916609.622 6  21916610.392 5 117321290.013 6  91249946.438 5
R13  20990673.437 7                 112089006.997 7
R14  20150582.365 7  20150586.072 8 107413940.742 7  83544349.212 8
R15  23331238.230 6  23331243.511 6 124675057.801 6  96969505.311 6
R23  19552051.126 8                 104590278.317 8
R24  20764149.346 7  20764149.822 6 111035247.220 7  86360780.650 6
> 2025 06 15 07 35 30.0000000  0 26
C08  37904607.235 7  37904601.680 7 197379233.257 7 152626123.537 7
C13  37335106.740 7  37335109.236 7 194413698.680 7 150333007.820 7
C26  24688684.697 5                 128560708.885 5
C29  21469264.882 8                 111796095.081 8
C30  22617768.157 8                 117776646.639 8
C38  38609876.852 6                 201051758.449 6
C45  23273565.157 6                 121191536.868 6
C47  21498473.191 8                 111948184.756 8
E02  25647641.381 5  25647645.322 7 134779699.175 5 101959632.228 7
E10  23528880.765 8  23528881.340 9 123645096.595 8  93536715.897 9
E11  23423742.798 7  23423740.690 8 123092597.526 7  93118742.907 8
E12  25150387.366 7  25150387.366 8 132166169.118 7  99982846.264 8
E16  23889595.756 8  23889597.083 9 125540663.874 8  94970699.127 9
E24  25409946.124 6  25409948.208 8 133530146.252 6 101014689.891 8
E25  23417061.018 8  23417062.966 9 123057483.015 8  93092193.607 9
G10  23749668.825 4                  23749667.829 7  23749664.743 8                                  97250962.362 7  93198806.281 8
G16  20436849.464 8  20436851.578 6                                 107396360.013 8  83685490.773 6                
G18  20785229.840 8                  20785233.537 8  20785236.204 9 109227111.697 8                  85112052.499 8  81565719.443 9
G23  21317272.397 7                  21317277.194 8  21317278.247 8 112023025.744 7                  87290690.075 8  83653588.283 8
G27  21589746.676 7                  21589752.305 7  21589749.401 8 113454836.011 7                  88406420.063 7  84722826.315 8
R07  21913588.479 6  21913592.005 4 117305120.984 6  91237370.587 4
R13  21000728.212 7                 112142697.437 7
R14  20148073.018 8  20148076.444 8 107400563.807 8  83533944.929 8
R15  23320088.255 6  23320091.980 6 124615465.696 6  96923155.827 6
R23  19555936.400 8                 104611063.169 8
R24  20756915.727 6  20756916.789 6 110996575.710 6  86330702.744 6
> 2025 06 15 07 35 45.0000000  0 26
C08  37906038.283 7  37906033.202 7 197386687.015 7 152631887.242 7
C13  37335295.571 7  37335298.000 7 194414681.850 7 150333768.085 7
C26  24684320.061 5                 128537962.65015
C29  21466786.542 8                 111783190.855 8
C30  22623256.761 8                 117805228.255 8
C38  38612090.808 6                 201063280.878 6
C45  23278056.000 6                 121214930.245 6
C47  21499737.366 8                 111954767.650 8
E02  25640962.993 5  25640965.949 6 134744605.939 5 101933084.448 6
E10  23531007.338 8  23531007.872 9 123656271.561 8  93545169.683 9
E11  23421453.261 7  23421451.414 8 123080567.201 7  93109642.055 8
E12  25155789.455 7  25155789.454 8 132194556.754 7 100004321.287 8
E16  23894359.365 8  23894360.974 9 125565697.999 8  94989637.252 9
E24  25417611.362 7  25417614.721 8 133570434.374 7 101045167.533 8
E25  23417960.509 8  23417962.386 9 123062209.753 8  93095769.349 9
G10  23739346.296 6                  23739353.477 7  23739350.737 8 124751140.69516                  97208728.544 7  93158332.212 8
G16  20436135.548 8  20436137.167 6                                 107392606.922 8  83682566.309 6                
G18  20789195.077 7                  20789198.535 8  20789201.093 9 109247949.690 7                  85128289.846 8  81581280.203 9
G23  21311559.757 7                  21311565.249 8  21311566.556 8 111993008.368 7                  87267299.945 8  83631172.727 8
G27  21581974.279 7                  21581979.718 7  21581976.980 8 113413992.448 7                  88374593.959 7  84692326.311 8
R07  21910603.797 6                 117289151.148 6
R13  21010806.155 7                 112196512.964 7
R14  20145602.530 8  20145606.762 8 107387395.169 8  83523702.597 8
R15  23308948.063 6  23308956.774 6 124555961.270 6  96876874.708 6
R23  19559841.705 8                 104631953.206 8
R24  20749699.263 6  20749702.365 6 110957992.675 6  86300693.758 6
> 2025 06 15 07 36  0.0000000  0 26
C08  37907477.251 7  37907472.337 7 197394179.646 7 152637681.005 7
C13  37335491.712 7  37335494.827 7 194415704.672 7 150334558.989 7
C29  21464322.301 8                 111770358.984 8
C30  22628755.184 8                 117833860.353 8
C36  25078074.399 5                 130588129.24715
C38  38614309.021 6                 201074833.116 6
C45  23282578.130 5                 121238434.754 5
C47  21501015.287 8                 111961423.867 8
E02  25634296.037 5  25634298.545 6 134709131.89215 101906580.715 6
E10  23533147.746 8  23533148.713 9 123667521.779 8  93553680.386 9
E11  23419179.548 7  23419177.688 8 123068618.839 7  93100603.208 8
E12  25161201.474 7  25161200.988 8 132222995.259 7 100025834.798 8
E16  23899139.479 8  23899141.164 9 125590818.487 8  95008640.729 9
E24  25425288.156 7  25425291.120 8 133610774.349 7 101075684.415 8
E25  23418879.257 8  23418881.048 9 123067037.228 8  93099421.275 9
G10  23729039.459 7                  23729046.507 6  23729043.850 8 124696977.904 7                  97166523.863 6  93117886.079 8
G16  20435450.607 8  20435452.851 6                                 107389008.519 8  83679762.356 6                
G18  20793180.311 8                  20793182.753 8  20793185.102 8 109268887.640 8                  85144605.096 8  81596915.631 8
G23  21305872.566 7                  21305877.445 8  21305878.722 8 111963120.087 7                  87244010.393 8  83608853.576 8
G27  21574214.894 7                  21574220.508 7  21574217.825 8 113373216.153 7                  88342820.236 7  84661876.463 8
R07  21907655.865 6  21907664.198 6 117273375.864 6  91212672.34016
R13  21020906.608 7                 112250448.401 7
R14  20143170.960 8  20143174.834 8 107374430.453 8  83513618.934 8
R15  23297832.862 6  23297835.716 6 124496540.541 6  96830658.599 6
R23  19563765.477 8                 104652943.202 8
R24  20742502.425 7  20742506.226 6 110919493.072 7  86270749.770 6
> 2025 06 15 07 36 15.0000000  0 24
C08  37908923.422 7  37908918.682 7 197401711.378 7 152643504.993 7
C13  37335695.999 7  37335698.846 7 194416767.227 7 150335380.616 7
C29  21461872.349 8                 111757599.491 8
C30  22634263.339 8                 117862542.881 8
C36  25087500.834 4                                
C38  38616533.057 6                 201086415.112 6
C47  21502308.463 8                 111968153.423 8
E02  25627637.197 5  25627642.508 7 134674155.37815 101880121.172 7
E10  23535302.835 8  23535303.845 9 123678847.097 8  93562247.927 9
E11  23416921.991 7  23416919.604 8 123056752.469 7  93091626.359 8
E12  25166623.363 7  25166622.262 8 132251484.438 7 100047386.657 8
E16  23903936.214 8  23903937.770 9 125616025.336 8  95027709.531 9
E24  25432976.020 7  25432977.292 8 133651166.096 7 101106240.492 8
E25  23419817.006 8  23419818.946 9 123071965.461 8  93103149.452 9
G10  23718737.690 6                  23718746.889 6  23718744.219 8 124642852.907 6                  97124348.555 6  93077468.084 8
G16  20434795.431 8  20434797.402 6                                 107385564.931 8  83677079.043 6                
G18  20797183.609 8                  20797186.481 8  20797187.786 8 109289925.316 8                  85160998.093 8  81612625.597 8
G23  21300209.391 7                  21300213.740 7  21300215.844 8 111933361.175 7                  87220821.668 7  83586631.045 8
G27  21566467.979 7                  21566473.909 7  21566471.815 8 113332507.237 7                  88311099.016 7  84631476.974 8
R13  21031029.501 7                 112304503.040 7
R14  20140776.866 8  20140780.608 8 107361669.957 8  83503694.109 8
R15  23286727.896 6  23286731.825 6 124437203.815 6  96784507.859 6
R23  19567708.045 8                 104674033.239 8
R24  20735318.608 7  20735320.315 5 110881077.186 7  86240870.645 5
> 2025 06 15 07 36 30.0000000  0 25
C08  37910377.485 7  37910372.428 7 197409282.130 7 152649359.163 7
C13  37335907.209 7  37335910.259 7 194417869.613 7 150336233.021 7
C29  21459435.841 8                 111744912.564 8
C30  22639781.570 8                 117891275.891 8
C38  38618763.444 6                 201098026.963 6
C45  23291654.874 5                 121285777.65115
C47  21503614.293 8                 111974956.394 8
E02  25620996.386 5  25620997.925 7 134639237.646 5 101853706.141 7
E10  23537472.820 8  23537473.316 9 123690247.570 8  93570872.289 9
E11  23414679.060 7  23414677.149 8 123044968.125 7  93082711.579 8
E12  25172054.041 7  25172053.180 8 132280024.321 7 100068976.884 8
E16  23908749.353 8  23908750.828 9 125641318.513 8  95046843.644 9
E24  25440670.867 7  25440673.336 8 133691609.603 7 101136835.720 8
E25  23420773.753 8  23420776.118 9 123076994.596 8  93106953.941 9
G10  23708446.446 6                  23708454.348 6  23708451.643 7 124588766.105 6                  97082203.053 6  93037078.635 7
G16  20434169.627 7  20434171.210 6                                 107382276.429 7  83674516.587 6                
G18  20801205.887 8                  20801209.369 8  20801209.877 8 109311062.695 8                  85177468.813 8  81628410.067 8
G23  21294571.420 7                  21294575.631 7  21294577.665 8 111903732.084 7                  87197734.042 7  83564505.437 8
G27  21558734.267 7                  21558740.277 7  21558737.780 8 113291866.061 7                  88279430.573 7  84601128.029 8
R07  21901875.341 6  21901873.461 5 117242408.34516  91188587.589 5
R13  21041174.559 7                 112358676.917 7
R14  20138421.104 8  20138425.397 7 107349114.131 8  83493928.450 7
R15  23275640.273 7  23275642.576 5 124377951.997 7  96738423.239 5
R23  19571669.212 8                 104695223.060 8
R24  20728151.682 7  20728151.262 5 110842745.221 7  86211056.952 5
> 2025 06 15 07 36 45.0000000  0 26
C08  37911837.858 7  37911833.086 7 197416888.101 7 152655240.565 7
C13  37336126.066 7  37336128.869 7 194419008.080 7 150337113.337 7
C29  21457012.424 8                 111732294.496 8
C30  22645307.757 8                 117920055.530 8
C36  25106379.927 5                 130735525.71315
C38  38620998.234 6                 201109664.913 6
C45  23296240.724 6                 121309611.483 6
C47  21504934.010 8                 111981829.035 8
E02  25614363.607 5  25614364.231 7 134604375.094 5 101827332.877 7
E10  23539655.136 8  23539656.321 9 123701719.333 8  93579550.606 9
E11  23412451.532 7  23412449.616 8 123033262.097 7  93073856.057 8
E12  25177493.747 7  25177493.199 8 132308610.991 7 100090602.516 8
E16  23913578.731 8  23913579.615 9 125666694.272 8  95066040.221 9
E24  25448376.041 7  25448378.660 8 133732101.103 7 101167467.187 8
E25  23421749.580 8  23421751.800 9 123082120.960 8  93110832.019 9
G10  23698159.777 6                  23698168.807 7  23698165.386 7 124534714.054 6                  97040084.618 7  92996715.145 7
G16  20433572.713 8  20433574.268 6                                 107379139.462 8  83672072.177 6                
G18  20805245.774 8                  20805249.724 8  20805251.981 9 109332295.896 8                  85194014.159 8  81644266.048 9
G23  21288957.943 7                  21288961.363 7  21288963.053 8 111874229.202 7                  87174744.808 7  83542474.116 8
G27  21551012.701 7                  21551018.566 7  21551016.568 8 113251289.079 7                  88247812.164 7  84570827.047 8
R07  21899041.650 5  21899036.924 5 117227214.660 5  91176770.493 5
R13  21051341.055 7                 112412965.564 7
R14  20136103.558 8  20136107.361 7 107336759.095 8  83484318.987 7
R15  23264567.795 7  23264570.862 5 124318781.611 7  96692401.952 5
R23  19575648.519 8                 104716508.751 8
R24  20720996.428 7  20721001.729 6 110804493.643 7  86181305.703 6
> 2025 06 15 07 37  0.0000000  0 26
C08  37913305.258 7  37913300.304 7 197424528.951 7 152661148.945 7
C13  37336351.387 7  37336354.355 7 194420182.160 7 150338021.210 7
C29  21454602.347 8                 111719744.877 8
C30  22650844.432 8                 117948881.327 8
C36  25115814.250 5                 130784696.037 5
C38  38623238.336 6                 201121328.449 6
C45  23300831.496 6                 121333551.782 6
C47  21506267.303 8                 111988770.866 8
E02  25607739.344 6  25607741.192 7 134569567.646 6 101801001.283 7
E10  23541851.623 8  23541852.855 9 123713261.868 8  93588282.458 9
E11  23410238.600 7  23410236.927 8 123021633.926 7  93065059.421 8
E12  25182942.618 7  25182941.998 8 132337243.934 7 100112263.115 8
E16  23918422.762 8  23918424.089 9 125692152.083 8  95085298.882 9
E24  25456091.005 7  25456093.035 8 133772639.856 7 101198134.480 8
E25  23422743.590 8  23422745.696 9 123087344.147 8  93114783.338 9
G10  23687881.418 6                  23687889.433 7  23687886.689 7 124480696.684 6                  96997993.230 7  92956377.611 7
G16  20433004.154 7  20433005.497 6                                 107376153.512 7  83669745.427 6                
G18  20809304.588 7                  20809308.471 8  20809310.904 9 109353624.406 7                  85210633.698 8  81660193.123 9
G23  21283366.650 7                  21283371.447 7  21283372.613 8 111844852.466 7                  87151853.885 7  83520536.950 8
G27  21543303.447 7                  21543309.648 7  21543307.367 8 113210776.100 7                  88216243.641 7  84540573.843 8
R07  21896230.244 5  21896236.179 5 117212212.324 5
R13  21061529.181 7                 112467368.130 7
R14  20133823.690 8  20133827.288 7 107324604.703 8  83474865.561 7
R15  23253508.022 6  23253512.861 5 124259692.976 6  96646444.086 5
R23  19579645.373 8                 104737889.727 8
R24  20713856.009 7  20713861.018 6 110766321.852 7  86151616.487 6
> 2025 06 15 07 37 15.0000000  0 28
C08  37914779.565 7  37914773.857 7 197432204.061 7 152667083.813 7
C13  37336583.153 7  37336586.615 7 194421391.389 7 150338956.236 7
C29  21452205.482 8                 111707263.325 8
C30  22656388.694 8                 117977752.853 8
C32  24449026.670 5                 127312431.32415
C36  25125255.936 4                 130833882.401 4
C38  38625483.190 6                 201133017.182 6
C45  23305452.292 6                 121357598.022 6
C47  21507613.331 8                 111995781.491 8
E02  25601126.631 5  25601128.146 7 134534815.100 5 101774711.160 7
E10  23544061.575 8  23544062.726 9 123724874.630 8  93597067.426 9
E11  23408040.868 7  23408038.814 8 123010083.202 7  93056321.384 8
E12  25188399.951 7  25188399.353 8 132365922.576 7 100133958.286 8
E16  23923283.291 8  23923284.080 9 125717691.463 8  95104619.229 9
E24  25463812.360 7  25463816.240 8 133813225.416 7 101228837.185 8
E25  23423756.271 8  23423757.938 9 123092663.810 8  93118807.623 9
E36  26292707.066 6  26292710.628 6 138169106.47216 104524049.73216
G10  23677609.725 6                  23677617.135 7  23677613.460 7 124426714.020 6                  96955928.861 7  92916065.921 7
G16  20432464.874 7  20432465.527 6                                 107373318.182 7  83667536.098 6                
G18  20813382.313 8                  20813384.561 8  20813387.744 9 109375047.537 8                  85227327.005 8  81676190.843 9
G23  21277800.665 7                  21277805.125 7  21277806.181 8 111815601.703 7                  87129061.078 7  83498693.839 8
G27  21535606.468 7                  21535611.834 7  21535610.087 8 113170326.889 7                  88184724.748 7  84510368.250 8
R07  21893463.902 6  21893472.022 5 117197401.160 6  91153580.63215
R13  21071737.695 6                 112521883.780 6
R14  20131580.804 8  20131584.259 7 107312650.480 8  83465567.888 7
R15  23242466.712 6  23242472.151 6 124200685.929 6  96600549.708 6
R23  19583660.088 8                 104759365.536 8
R24  20706734.455 7  20706735.978 6 110728229.633 7  86121989.134 6
> 2025 06 15 07 37 30.0000000  0 28
C08  37916259.787 7  37916254.307 7 197439912.983 7 152673044.847 7
C13  37336821.951 7  37336825.386 7 194422635.401 7 150339918.144 7
C29  21449821.117 8                 111694849.471 8
C30  22661941.591 8                 118006669.545 8
C32  24444895.805 5                 127290953.16615
C36  25134704.964 5                 130883084.02115
C38  38627732.445 6                 201144730.575 6
C45  23310091.422 7                 121381749.656 7
C47  21508973.078 8                 112002860.344 8
E02  25594523.106 5  25594525.623 8 134500117.034 5 101748462.338 8
E10  23546284.960 8  23546285.896 9 123736557.077 8  93605905.104 9
E11  23405857.247 7  23405855.436 8 122998609.429 7  93047641.553 8
E12  25193866.346 7  25193865.433 8 132394646.255 7 100155687.550 8
E16  23928158.442 8  23928159.405 9 125743311.866 8  95124000.878 9
E24  25471545.057 6  25471548.350 8 133853857.153 6 101259574.795 8
E25  23424786.389 8  23424788.384 9 123098079.500 8  93122904.554 9
E36  26284953.561 6  26284957.410 6 138128367.072 6 104493230.723 6
G10  23667342.435 6                  23667351.942 7  23667347.132 7 124372765.944 6                  96913891.415 7  92875780.024 7
G16  20431953.968 7  20431955.467 6                                 107370633.146 7  83665443.840 6                
G18  20817476.298 8                  20817479.015 8  20817482.025 9 109396564.569 8                  85244093.588 8  81692258.756 9
G23  21272257.857 7                  21272263.059 7  21272264.982 8 111786476.678 7                  87106366.284 7  83476944.630 8
G27  21527921.083 7                  21527927.099 7  21527924.857 8 113129941.193 7                  88153255.379 7  84480210.093 8
R07  21890733.378 6  21890738.186 5 117182781.481 6  91142209.808 5
R13  21081967.943 7                 112576511.524 7
R14  20129375.407 7  20129379.736 7 107300896.432 7  83456425.881 7
R15  23231438.160 6  23231442.149 5 124141760.786 6  96554719.121 5
R23  19587692.725 8                 104780935.249 8
R24  20699626.512 7  20699627.049 6 110690216.673 7  86092423.524 6
> 2025 06 15 07 37 45.0000000  0 29
C08  37917746.110 7  37917741.395 7 197447653.555 7 152679030.341 7
C13  37337067.217 7  37337070.825 7 194423911.830 7 150340905.164 7
C29  21447449.905 8                 111682501.130 8
C30  22667503.571 8                 118035629.102 8
C32  24440795.334 5                 127269585.562 5
C36  25144159.628 5                 130932298.469 5
C38  38629986.547 6                 201156466.404 6
C45  23314749.044 7                 121406004.215 7
C47  21510345.027 8                 112010005.255 8
E02  25587929.162 5  25587932.775 8 134465471.534 5 101722253.284 8
E10  23548521.047 8  23548521.816 9 123748306.846 8  93614793.720 9
E11  23403687.855 7  23403686.249 8 122987210.392 7  93039018.260 8
E12  25199340.420 7  25199339.365 8 132423412.622 7 100177449.117 8
E16  23933049.098 8  23933049.857 9 125769011.003 8  95143442.103 9
E24  25479284.877 7  25479288.426 8 133894532.767 7 101290345.566 8
E25  23425835.036 8  23425836.894 9 123103589.068 8  93127072.492 9
E36  26277206.520 5  26277211.388 7 138087661.637 5 104462437.280 7
G10  23657082.992 5                  23657091.503 7  23657087.483 7 124318850.68815                  96871879.413 7  92835518.529 7
G16  20431471.508 7  20431473.279 6                                 107368096.242 7  83663467.028 6                
G18  20821588.545 8                  20821591.875 8  20821593.789 9 109418173.221 8                  85260931.511 8  81708395.088 9
G23  21266739.384 7                  21266744.408 8  21266746.213 8 111757475.429 7                  87083767.915 8  83455287.857 8
G27  21520247.336 7                  21520254.206 7  21520251.025 8 113089617.020 7                  88121833.955 7  84450097.892 8
R07  21888034.812 5  21888042.054 6 117168350.442 5  91130985.681 6
R13  21092218.220 6                 112631248.308 6
R14  20127207.634 7  20127211.600 7 107289340.524 7  83447437.967 7
R15  23220427.122 6  23220431.991 6 124082915.501 6  96508950.523 6
R22  22421155.266 5                 119685780.23215
R23  19591741.743 8                 104802596.688 8
R24  20692529.479 7  20692533.422 6 110652280.856 7  86062917.921 6
> 2025 06 15 07 38  0.0000000  0 28
C08  37919238.207 7  37919233.293 7 197455423.904 7 152685038.854 7
C13  37337318.080 7  37337321.869 7 194425218.952 7 150341915.950 7
C26  24645997.280 5                 128338181.02715
C29  21445091.293 8                 111670216.618 8
C30  22673072.193 8                 118064629.835 8
C32  24436711.029 4                 127248329.63714
C36  25153613.685 5                 130981523.950 5
C38  38632243.845 6                 201168222.945 6
C45  23319425.905 7                 121430359.812 7
C47  21511729.627 8                 112017214.456 8
E02  25581344.902 5  25581349.581 8 134430877.173 5 101696082.890 8
E10  23550769.606 8  23550770.287 9 123760122.162 8  93623731.921 9
E11  23401533.034 7  23401530.979 8 122975884.350 7  93030450.198 8
E12  25204821.813 7  25204821.013 8 132452219.882 7 100199241.607 8
E16  23937954.090 8  23937955.064 9 125794787.111 8  95162941.550 9
E24  25487032.997 6  25487036.689 8 133935250.360 6 101321148.169 8
E25  23426901.138 8  23426902.798 9 123109190.814 8  93131310.164 9
E36  26269466.761 6  26269471.714 7 138046988.316 6 104431668.201 7
G10  23646829.164 6                  23646837.521 6  23646834.476 8 124264966.540 6                  96829891.777 6  92795280.432 8
G16  20431015.913 8  20431018.291 6                                 107365705.810 8  83661604.375 6                
G18  20825717.106 8                  20825721.077 8  20825721.921 8 109439871.539 8                  85277839.328 8  81724598.414 8
G23  21261243.938 7                  21261248.962 7  21261250.899 8 111728596.504 7                  87061264.854 7  83433722.454 8
G27  21512585.175 7                  21512591.927 7  21512588.874 8 113049352.829 7                  88090459.291 7  84420030.485 8
R13  21102488.893 7                 112686092.124 7
R14  20125076.900 8  20125080.263 7 107277980.932 8  83438602.691 7
R15  23209427.491 6  23209434.244 6 124024149.084 6  96463243.344 6
R23  19595807.971 8                 104824347.725 8
R24  20685451.009 7  20685453.130 6 110614420.449 7  86033470.797 6
> 2025 06 15 07 38 15.0000000  0 29
C08  37920736.202 7  37920731.046 7 197463223.098 7 152691069.655 7
C13  37337575.461 7  37337578.343 7 194426555.826 7 150342949.673 7
C26  24641844.603 4                 128316546.98014
C29  21442744.205 8                 111657994.996 8
C30  22678649.492 8                 118093670.627 8
C32  24432647.281 5                 127227178.60015
C36  25163068.708 5                 131030758.901 5
C38  38634506.360 6                 201179999.044 6
C45  23324122.253 6                 121454815.374 6
C47  21513126.320 8                 112024486.995 8
E02  25574772.100 6  25574776.087 8 134396333.213 6 101669950.555 8
E10  23553030.285 8  23553030.923 9 123772001.864 8  93632718.852 9
E11  23399391.137 7  23399389.466 8 122964630.326 7  93021936.608 8
E12  25210311.123 7  25210310.318 8 132481066.891 7 100221064.133 8
E16  23942873.418 8  23942874.692 9 125820639.096 8  95182498.386 9
E24  25494791.483 6  25494792.746 8 133976008.876 6 101351981.659 8
E25  23427984.746 8  23427986.098 9 123114883.775 8  93135616.839 9
E36  26261734.281 6  26261738.089 6 138006346.261 6 104400922.860 6
G10  23636581.584 7                  23636589.193 6  23636586.392 8 124211113.050 7                  96787928.026 6  92755065.241 8
G16  20430589.217 7  20430591.400 6                                 107363460.960 7  83659855.111 6                
G18  20829862.932 8                  20829867.312 8  20829868.452 9 109461658.452 8                  85294816.092 8  81740867.872 9
G23  21255771.572 7                  21255776.434 7  21255777.855 8 111699839.105 7                  87038856.537 7  83412247.842 8
G27  21504934.524 7                  21504940.929 7  21504938.426 8 113009147.895 7                  88059130.789 7  84390007.351 8
R07  21882755.607 5  21882753.820 6 117140024.45415  91108974.273 6
R13  21112778.978 6                 112741041.691 6
R14  20122982.567 8  20122986.206 7 107266816.998 8  83429919.610 7
R15  23198447.085 6  23198450.729 6 123965461.018 6  96417597.074 6
R23  19599890.167 8                 104846187.021 8
R24  20678385.104 7  20678385.186 6 110576634.628 7  86004081.893 6
> 2025 06 15 07 38 30.0000000  0 26
C08  37922239.375 7  37922234.487 7 197471051.242 7 152697122.884 7
C13  37337837.633 7  37337840.924 7 194427922.572 7 150344006.536 7
C29  21440408.800 8                 111645836.495 8
C30  22684235.379 8                 118122751.541 8
C36  25172525.574 5                 131080003.650 5
C38  38636770.995 6                 201191794.968 6
C45  23328837.431 6                 121479370.702 6
C47  21514534.967 8                 112031822.923 8
E02  25568210.761 6  25568212.151 8 134361839.883 6 101643856.533 8
E10  23555302.989 8  23555303.766 9 123783946.069 8  93641754.560 9
E11  23397263.373 7  23397261.612 8 122953448.480 7  93013477.600 8
E12  25215808.095 7  25215807.570 8 132509953.633 7 100242916.759 8
E16  23947807.221 8  23947808.541 9 125846567.062 8  95202112.691 9
E24  25502555.080 6  25502556.641 8 134016808.247 6 101382846.095 8
E25  23429085.433 8  23429086.928 9 123120668.171 8  93139992.675 9
E36  26254007.038 6  26254010.508 7 137965735.837 6 104370201.421 7
G10  23626338.947 7                  23626347.220 6  23626343.955 7 124157290.707 7                  96745988.604 6  92714873.312 7
G16  20430189.750 8  20430192.554 6                                 107361361.993 8  83658219.537 6                
G18  20834026.278 8                  20834029.638 8  20834031.608 9 109483533.945 8                  85311861.848 8  81757203.395 9
G23  21250322.105 7                  21250326.987 8  21250328.381 8 111671203.731 7                  87016543.271 8  83390864.313 8
G27  21497295.234 7                  21497301.173 7  21497299.068 8 112969002.541 7                  88027848.706 7  84360028.686 8
R13  21123089.332 7                 112796096.404 7
R14  20120925.141 8  20120927.884 7 107255848.971 8  83421388.931 7
R15  23187481.371 6  23187483.835 6 123906851.667 6  96372012.121 6
R23  19603989.712 8                 104868115.065 8
R24  20671330.359 6  20671333.399 6 110538923.686 6  85974751.215 6
> 2025 06 15 07 38 45.0000000  0 26
C08  37923749.299 7  37923744.026 7 197478910.725 7 152703200.293 7
C13  37338106.780 7  37338109.867 7 194429321.648 7 150345088.359 7
C29  21438086.481 8                 111633743.612 8
C30  22689826.533 8                 118151875.055 8
C36  25181985.852 5                 131129260.06115
C38  38639040.350 6                 201203613.072 6
C45  23333570.979 6                 121504028.232 6
C47  21515956.919 8                 112039224.759 8
E02  25561656.839 6  25561658.415 8 134327399.938 6 101617802.965 8
E10  23557588.562 8  23557589.410 9 123795957.166 8  93650840.881 9
E11  23395149.528 7  23395148.012 8 122942341.259 7  93005075.072 8
E12  25221312.870 7  25221312.763 8 132538882.608 7 100264801.300 8
E16  23952756.112 8  23952757.522 9 125872573.457 8  95221786.341 9
E24  25510325.353 6  25510328.879 8 134057650.917 6 101413743.294 8
E25  23430204.052 8  23430205.600 9 123126546.555 8  93144439.627 9
E36  26246284.412 6  26246289.504 7 137925159.729 6 104339505.820 7
G10  23616103.448 6                  23616111.011 6  23616109.272 7 124103502.429 6                  96704075.695 6  92674706.812 7
G16  20429818.554 8  20429820.737 6                                 107359411.346 8  83656699.565 6                
G18  20838205.913 8                  20838209.257 8  20838211.626 9 109505500.254 8                  85328978.415 8  81773606.777 9
G23  21244897.058 7                  21244900.907 8  21244902.192 8 111642693.148 7                  86994327.261 8  83369573.940 8
G27  21489667.854 7                  21489673.415 7  21489671.095 8 112928919.525 7                  87996615.207 7  84330096.596 8
R13  21133419.096 6                 112851258.645 6
R14  20118904.865 8  20118908.375 7 107245079.680 8  83413012.821 7
R15  23176526.572 6  23176530.494 6 123848324.607 6  96326491.095 6
R23  19608105.697 8                 104890133.771 8
R24  20664295.674 6  20664297.898 6 110501290.356 6  85945480.797 6
> 2025 06 15 07 39  0.0000000  0 26
C08  37925264.726 7  37925259.634 7 197486803.006 7 152709303.112 7
C13  37338381.228 7  37338384.920 7 194430754.353 7 150346196.230 7
C29  21435777.618 8                 111621717.747 8
C30  22695428.598 8                 118181042.451 8
C36  25191455.710 5                 131178529.42515
C38  38641315.185 6                 201215454.751 6
C45  23338328.397 6                 121528788.987 6
C47  21517390.693 8                 112046693.804 8
E02  25555114.957 6  25555114.907 8 134293015.056 6 101591790.987 8
E10  23559886.975 8  23559888.064 9 123808036.437 8  93659978.765 9
E11  23393049.757 7  23393048.821 8 122931310.052 7  92996730.041 8
E12  25226826.817 7  25226826.147 8 132567854.863 7 100286718.585 8
E16  23957720.147 8  23957721.640 9 125898659.595 8  95241520.295 9
E24  25518106.778 6  25518109.691 8 134098538.184 6 101444674.172 8
E25  23431340.669 8  23431342.404 9 123132520.298 8  93148958.723 9
E36  26238569.863 5  26238575.380 7 137884619.256 5 104308837.256 7
G10  23605875.187 6                  23605882.557 6  23605880.497 7 124049749.884 6                  96662190.669 6  92634566.966 7
G16  20429475.624 8  20429477.120 6                                 107357610.590 8  83655296.353 6                
G18  20842403.436 8                  20842406.125 8  20842409.617 9 109527558.591 8                  85346166.768 8  81790078.906 9
G23  21239495.880 7                  21239499.556 7  21239501.376 8 111614308.987 7                  86972209.729 7  83348377.988 8
G27  21482052.042 7                  21482058.406 7  21482055.276 8 112888900.423 7                  87965431.548 7  84300212.233 8
R07  21875094.825 5  21875089.640 7 117098971.90015  91077056.093 7
R13  21143769.072 6                 112906528.814 6
R14  20116921.822 8  20116926.838 8 107234510.439 8  83404792.295 8
R15  23165587.821 6  23165593.703 6 123789881.633 6  96281035.508 6
R23  19612239.224 8                 104912244.391 8
> 2025 06 15 07 39 15.0000000  0 27
C08  37926785.312 7  37926780.560 7 197494723.378 7 152715427.630 7
C13  37338662.046 7  37338666.061 7 194432216.157 7 150347326.566 7
C26  24625416.386 5                 128231102.28115
C29  21433479.740 8                 111609754.326 8
C30  22701037.447 8                 118210249.036 8
C32  24416607.794 4                 127143690.34314
C38  38643594.053 6                 201227315.272 6
C45  23343102.136 7                 121553648.324 7
C47  21518837.058 8                 112054225.407 8
E02  25548581.545 6  25548581.333 8 134258680.555 6 101565817.231 8
E10  23562196.879 8  23562198.824 9 123820179.087 8  93669164.585 9
E11  23390964.320 7  23390963.170 8 122920350.185 7  92988438.960 8
E12  25232347.688 7  25232346.673 8 132596865.677 7 100308665.070 8
E16  23962698.251 8  23962699.936 9 125924820.651 8  95261310.950 9
E24  25525897.121 6  25525897.775 8 134139465.218 6 101475635.110 8
E25  23432494.833 8  23432496.455 9 123138584.815 8  93153546.478 9
E36  26230860.913 5  26230866.909 7 137844109.726 5 104278192.223 7
G10  23595652.015 6                  23595659.249 7  23595656.578 7 123996028.805 6                  96620330.171 7  92594450.588 7
G16  20429161.015 7  20429162.052 6                                 107355955.052 7  83654006.328 6                
G18  20846617.522 8                  20846620.905 8  20846623.341 9 109549704.131 8                  85363423.063 8  81806616.152 9
G23  21234117.286 7                  21234121.622 7  21234123.794 8 111586046.710 7                  86950187.219 7  83327273.083 8
G27  21474448.185 7                  21474454.059 7  21474451.412 8 112848940.776 7                  87934294.170 7  84270372.241 8
R07  21872603.533 5  21872604.469 6 117085670.363 5  91066710.467 6
R13  21154139.607 6                 112961902.054 6
R14  20114976.117 8  20114979.651 7 107224136.909 8  83396723.970 7
R15  23154664.598 5  23154672.691 6 123731518.21315  96235641.771 6
R23  19616389.109 8                 104934442.098 8
> 2025 06 15 07 39 30.0000000  0 28
C08  37928312.152 6  37928306.637 7 197502670.778 6 152721573.044 7
C13  37338948.122 7  37338952.349 7 194433705.996 7 150348478.606 7
C26  24621365.718 5                 128210007.682 5
C29  21431193.995 8                 111597852.424 8
C30  22706653.932 8                 118239493.838 8
C36  25210382.572 5                 131277094.77615
C38  38645874.944 6                 201239193.689 6
C45  23347894.907 7                 121578605.130 7
C47  21520295.448 8                 112061818.610 8
E02  25542057.185 5  25542057.073 8 134224395.922 5 101539881.151 8
E10  23564519.789 8  23564521.332 9 123832384.087 8  93678397.579 9
E11  23388892.114 7  23388890.994 8 122909460.666 7  92980201.107 8
E12  25237875.624 7  25237874.064 8 132625913.983 7 100330639.906 8
E16  23967690.740 8  23967692.359 9 125951055.662 8  95281157.553 9
E24  25533690.996 6  25533693.323 8 134180430.809 6 101506625.315 8
E25  23433665.854 8  23433667.660 9 123144739.186 8  93158202.205 9
E36  26223158.698 5  26223163.941 7 137803630.698 5 104247570.090 7
G10  23585435.026 7                  23585441.481 6  23585439.582 7 123942338.577 7                  96578493.639 6  92554357.268 7
G16  20428873.482 7  20428875.234 6                                 107354443.811 7  83652828.755 6                
G18  20850847.958 7                  20850852.051 8  20850853.107 8 109571935.799 7                  85380746.465 8  81823217.728 8
G23  21228762.329 7                  21228766.991 7  21228769.001 8 111557905.766 7                  86928259.239 7  83306258.746 8
G27  21466855.366 7                  21466860.992 7  21466858.891 8 112809039.914 7                  87903202.567 7  84240576.147 8
R07  21870146.617 5  21870152.066 5                  91056509.794 5
R13  21164528.075 6                 113017376.980 6
R14  20113066.526 8  20113069.747 7 107213958.256 8  83388807.203 7
R15  23143761.977 6  23143765.030 6 123673233.992 6  96190309.625 6
R23  19620554.367 7                 104956725.679 7
R24  20643267.234 6  20643270.269 7 110388847.93916  85858026.554 7
> 2025 06 15 07 39 45.0000000  0 29
C08  37929842.416 7  37929837.890 7 197510642.683 7 152727737.411 7
C13  37339239.536 7  37339243.122 7 194435221.389 7 150349650.404 7
C26  24617335.224 5                 128189016.709 5
C29  21428920.065 8                 111586009.563 8
C30  22712276.709 8                 118268774.216 8
C32  24408720.717 5                 127102588.04615
C36  25219845.894 6                 131326382.992 6
C38  38648157.917 6                 201251087.462 6
C45  23352704.672 6                 121603656.619 6
C47  21521764.979 8                 112069470.885 8
E02  25535540.105 5  25535541.861 8 134190158.822 5 101513981.043 8
E10  23566853.954 8  23566855.266 9 123844648.773 8  93687675.715 9
E11  23386833.239 7  23386831.720 8 122898638.991 7  92972014.576 8
E12  25243409.320 7  25243408.503 8 132654997.119 7 100352641.079 8
E16  23972696.339 8  23972698.281 9 125977362.024 8  95301058.124 9
E24  25541493.170 6  25541496.011 8 134221432.494 6 101537642.757 8
E25  23434853.237 8  23434855.542 9 123150980.896 8  93162924.014 9
E36  26215460.131 6  26215465.997 7 137763179.548 6 104216969.078 7
G10  23575223.587 7                  23575229.328 6  23575229.187 8 123888677.062 7                  96536679.457 6  92514285.375 8
G16  20428612.962 7  20428615.390 6                                 107353074.479 7  83651761.763 6                
G18  20855094.824 7                  20855098.537 8  20855099.087 8 109594250.974 7                  85398134.828 8  81839881.612 8
G23  21223430.065 7                  21223434.277 8  21223436.815 8 111529883.831 7                  86906423.976 8  83285333.304 8
G27  21459272.884 6                  21459279.250 7  21459276.593 8 112769195.388 6                  87872154.935 7  84210822.194 8
R07  21867731.135 6  21867739.578 5 117059620.57416  91046451.92215
R13  21174935.222 7                 113072950.396 7
R14  20111192.793 8  20111196.426 7 107203971.991 8  83381040.103 7
R15  23132864.674 5  23132872.649 5 123615027.281 5  96145037.838 5
R23  19624735.821 8                 104979092.549 8
R24  20636283.226 6  20636288.345 7 110351512.254 6  85828987.745 7
> 2025 06 15 07 40  0.0000000  0 29
C08  37931378.883 6  37931373.810 7 197518641.271 6 152733922.430 7
C13  37339535.452 7  37339539.487 7 194436764.333 7 150350843.524 7
C26  24613325.050 5                 128168131.550 5
C29  21426657.588 8                 111574227.964 8
C30  22717906.875 8                 118298092.249 8
C32  24404803.813 5                 127082201.627 5
C36  25229308.842 5                 131375677.064 5
C38  38650444.860 6                 201262998.617 6
C45  23357536.055 7                 121628804.725 7
C47  21523246.314 8                 112077184.297 8
E02  25529035.378 5  25529036.295 8 134155971.44815 101488118.658 8
E10  23569199.580 8  23569200.873 9 123856975.204 8  93697000.563 9
E11  23384787.448 7  23384785.686 8 122887887.259 7  92963880.957 8
E12  25248950.357 7  25248950.270 8 132684117.108 7 100374670.144 8
E16  23977716.250 8  23977718.245 9 126003741.796 8  95321014.242 9
E24  25549302.219 6  25549305.425 8 134262472.195 6 101568688.955 8
E25  23436058.128 8  23436060.370 9 123157312.147 8  93167713.564 9
E36  26207766.673 5  26207773.682 7 137722758.406 5 104186390.790 7
G10  23565017.697 6                  23565026.466 7  23565023.050 7 123835046.759 6                  96494889.534 7  92474236.754 7
G16  20428379.784 8  20428382.005 6                                 107351849.205 8  83650806.986 6                
G18  20859357.564 8                  20859361.524 8  20859362.120 8 109616651.449 8                  85415589.703 8  81856609.259 8
G23  21218120.868 7                  21218125.013 7  21218126.857 8 111501983.279 7                  86884683.267 7  83264498.496 8
G27  21451701.854 6                  21451708.786 7  21451705.936 8 112729409.682 6                  87841153.103 7  84181112.147 8
R07  21865348.335 6  21865361.343 6 117046875.588 6  91036538.973 6
R13  21185360.920 7                 113128623.918 7
R14  20109356.386 7  20109359.120 7 107194180.702 7  83373424.623 7
R15  23121989.685 5  23121994.077 6 123556900.402 5  96099828.089 6
R23  19628932.933 8                 105001544.521 8
R24  20629315.962 6  20629319.501 7 110314250.024 6  85800005.903 7
> 2025 06 15 07 40 15.0000000  0 28
C08  37932920.434 6  37932915.141 7 197526669.346 6 152740130.271 7
C13  37339838.602 7  37339841.799 7 194438337.912 7 150352060.307 7
C26  24609334.304 5                 128147355.443 5
C29  21424407.318 8                 111562510.627 8
C30  22723544.831 8                 118327450.854 8
C32  24400910.815 6                 127061926.506 6
C36  25238778.958 6                 131424979.825 6
C38  38652736.019 6                 201274930.180 6
C45  23362382.427 6                 121654052.364 6
C47  21524739.933 8                 112084961.842 8
E02  25522540.485 6  25522540.693 8 134121837.391 6 101462296.446 8
E10  23571557.537 8  23571558.793 9 123869366.311 8  93706374.335 9
E11  23382755.111 7  23382753.560 8 122877208.526 7  92955802.565 8
E12  25254499.536 7  25254499.293 8 132713276.805 7 100396729.235 8
E16  23982751.494 8  23982752.578 9 126030197.951 8  95341028.137 9
E24  25557120.131 6  25557122.819 8 134303552.813 6 101599766.128 8
E25  23437280.047 8  23437282.799 9 123163736.003 8  93172573.147 9
E36  26200081.388 5  26200087.583 7 137682370.521 5 104155837.675 7
G10  23554818.625 7                  23554827.139 6  23554823.767 7 123781450.851 7                  96453126.595 6  92434213.926 7
G16  20428174.512 8  20428176.135 6                                 107350771.027 8  83649966.828 6                
G18  20863636.911 8                  20863639.916 8  20863642.160 8 109639140.146 8                  85433113.354 8  81873402.759 8
G23  21212835.490 7                  21212839.361 7  21212840.942 8 111474207.406 7                  86863039.728 7  83243756.777 8
G27  21444143.030 6                  21444149.772 7  21444146.738 8 112689685.988 6                  87810199.629 7  84151448.383 8
R07  21863008.802 6  21863011.449 6 117034319.809 6  91026773.356 6
R13  21195806.384 7                 113184400.234 7
R14  20107556.227 7  20107560.674 7 107184587.048 7  83365962.932 7
R23  19633146.579 8                 105024084.561 8
R24  20622360.674 4  20622365.524 6 110277064.118 4  85771083.622 6
> 2025 06 15 07 40 30.0000000  0 30
C08  37934466.974 6  37934461.789 7 197534725.800 6 152746360.056 7
C13  37340145.958 7  37340149.181 7 194439940.998 7 150353299.895 7
C26  24605377.162 5                 128126687.125 5
C29  21422169.327 8                 111550856.495 8
C30  22729190.598 8                 118356848.904 8
C32  24397037.286 5                 127041761.680 5
C36  25248243.286 5                 131474289.835 5
C38  38655031.255 6                 201286880.934 6
C45  23367250.082 6                 121679398.099 6
C47  21526245.312 8                 112092802.375 8
E02  25516054.132 6  25516054.967 7 134087755.440 6 101436513.710 7
E10  23573927.877 8  23573928.773 9 123881820.804 8  93715796.078 9
E11  23380736.800 7  23380735.095 8 122866601.616 7  92947778.515 8
E12  25260055.365 7  25260055.366 8 132742474.973 7 100418817.440 8
E16  23987799.776 7  23987801.457 9 126056729.276 7  95361098.891 9
E24  25564946.459 6  25564947.912 8 134344673.051 6 101630873.291 8
E25  23438519.736 8  23438522.577 9 123170251.352 8  93177501.947 9
E36  26192402.737 5  26192407.936 7 137642014.835 5 104125308.904 7
G10  23544626.059 7                  23544634.010 6  23544631.687 7 123727888.759 7                  96411389.996 6  92394216.269 7
G16  20427996.735 8  20427997.702 6                                 107349838.979 8  83649240.559 6                
G18  20867932.490 8                  20867935.611 8  20867938.641 9 109661715.703 8                  85450704.723 8  81890261.141 9
G23  21207573.502 7                  21207578.002 8  21207579.281 8 111446555.265 7                  86841492.652 8  83223107.511 8
G27  21436596.253 6                  21436601.689 7  21436598.764 8 112650023.425 6                  87779293.764 7  84121830.229 8
R07  21860699.482 5  21860702.825 6 117021952.774 5  91017154.623 6
R13  21206270.323 7                 113240277.670 7
R14  20105794.137 8  20105797.307 7 107175190.705 8  83358654.647 7
R15  23100282.319 5  23100286.089 6 123440900.27115  96009603.308 6
R22  22526115.640 4                 120245803.85514
R23  19637376.385 8                 105046711.339 8
R24  20615420.154 6  20615426.063 7 110239953.842 6  85742220.060 7
> 2025 06 15 07 40 45.0000000  0 28
C08  37936018.665 6  37936014.475 7 197542811.759 6 152752612.614 7
C13  37340459.469 7  37340463.055 7 194441574.549 7 150354563.043 7
C29  21419943.354 8                 111539266.653 8
C30  22734843.994 8                 118386287.337 8
C32  24393185.122 5                 127021708.353 5
C36  25257710.726 4                 131523607.87014
C38  38657330.545 6                 201298851.992 6
C45  23372139.805 7                 121704842.879 7
C47  21527763.210 8                 112100706.916 8
E02  25509578.677 6  25509579.630 7 134053727.066 6 101410771.469 7
E10  23576310.105 8  23576311.109 9 123894339.743 8  93725266.567 9
E11  23378732.623 7  23378730.535 8 122856067.582 7  92939809.587 8
E12  25265618.990 7  25265619.002 8 132771712.514 7 100440935.429 8
E16  23992862.761 8  23992864.635 9 126083336.794 8  95381227.267 9
E24  25572778.283 7  25572780.598 8 134385833.914 7 101662011.137 8
E25  23439777.736 8  23439780.019 9 123176859.354 8  93182500.844 9
E36  26184731.087 6  26184734.866 7 137601692.488 6 104094805.351 7
G10  23534440.381 7                  23534448.532 6  23534445.056 7 123674361.835 7                  96369680.820 6  92354244.928 7
G16  20427847.671 8  20427848.645 6                                 107349054.243 8  83648629.074 6                
G18  20872245.337 7                  20872248.108 8  20872251.498 9 109684379.170 7                  85468364.571 8  81907185.103 9
G23  21202334.998 7                  21202339.360 8  21202341.207 8 111419028.301 7                  86820043.082 8  83202551.661 8
G27  21429060.474 6                  21429065.867 7  21429063.206 8 112610423.419 6                  87748436.505 7  84092258.713 8
R07  21858422.953 5  21858426.142 6 117009775.495 5  91007683.577 6
R13  21216753.838 7                 113296256.844 7
R14  20104068.487 8  20104071.341 7 107165992.521 8  83351500.521 7
R15  23089451.431 6  23089454.373 6 123383024.464 6  95964588.855 6
R23  19641622.923 8                 105069425.988 8
R24  20608496.062 6  20608500.494 7 110202920.129 6  85713416.094 7
> 2025 06 15 07 41  0.0000000  0 29
C08  37937578.774 6  37937574.277 6 197550930.774 6 152758890.745 6
C13  37340779.880 7  37340783.236 7 194443242.321 7 150355852.654 7
C26  24597495.821 5                 128085650.81615
C29  21417730.481 8                 111527744.819 8
C30  22740506.001 8                 118415769.796 8
C32  24389356.030 5                 127001770.443 5
C36  25267189.921 5                 131572937.32615
C38  38659633.420 6                 201310846.877 6
C45  23377042.209 7                 121730390.228 7
C47  21529294.736 8                 112108679.123 8
E02  25503113.832 6  25503115.158 7 134019756.125 6 101385072.668 7
E10  23578704.761 8  23578706.384 9 123906926.661 8  93734788.494 9
E11  23376742.711 7  23376740.546 8 122845610.115 7  92931898.587 8
E12  25271190.961 7  25271190.965 8 132800992.971 7 100463085.903 8
E16  23997940.989 8  23997943.176 9 126110024.052 8  95401416.004 9
E24  25580619.875 7  25580621.992 8 134427038.967 7 101693182.450 8
E25  23441053.735 8  23441055.843 9 123183563.664 8  93187572.601 9
E36  26177062.729 5  26177069.105 7 137561407.18715 104064329.917 7
G10  23524262.043 7                  23524269.804 6  23524266.689 7 123620874.185 7                  96328002.198 6  92314302.892 7
G16  20427726.964 8  20427729.223 6                                 107348420.419 8  83648135.197 6                
G18  20876575.710 8                  20876578.400 7  20876581.106 9 109707133.994 8                  85486095.594 7  81924177.288 9
G23  21197121.032 7                  21197125.540 8  21197127.677 8 111391630.367 7                  86798694.065 8  83182092.192 8
G27  21421536.771 7                  21421542.775 7  21421540.387 8 112570889.624 7                  87717630.923 7  84062736.694 8
R07  21856179.911 6  21856187.686 6 116997792.071 6  90998363.235 6
R13  21227256.552 6                 113352341.253 6
R14  20102380.923 8  20102383.826 7 107156996.813 8  83344503.837 7
R15  23078638.166 7  23078640.864 5 123325237.729 7  95919643.707 5
R23  19645885.984 7                 105092231.701 7
R24  20601585.995 7  20601589.590 7 110165967.225 7  85684674.876 7
> 2025 06 15 07 41 15.0000000  0 29
C08  37939144.718 6  37939140.312 6 197559083.672 6 152765195.069 6
C13  37341106.988 7  37341109.888 7 194444944.968 7 150357169.270 7
C26  24593583.099 5                 128065319.04415
C29  21415531.323 8                 111516291.844 8
C30  22746176.346 8                 118445297.097 8
C32  24385546.524 5                 126981949.051 5
C36  25276662.999 5                 131622279.062 5
C38  38661942.415 6                 201322866.476 6
C45  23381967.697 6                 121756040.651 6
C47  21530838.802 8                 112116719.809 8
E02  25496660.362 7  25496661.949 7 133985843.655 7 101359418.112 7
E10  23581113.211 8  23581114.882 9 123919582.369 8  93744362.431 9
E11  23374767.375 7  23374765.322 8 122835230.066 7  92924046.154 8
E12  25276770.875 7  25276771.255 8 132830317.218 7 100485269.479 8
E16  24003035.256 8  24003037.075 9 126136791.936 8  95421665.668 9
E24  25588470.277 7  25588471.918 7 134468288.841 7 101724387.679 7
E25  23442347.987 8  23442350.158 9 123190365.253 8  93192717.959 9
E36  26169402.092 4  26169410.710 7                 104033883.337 7
G10  23514090.809 7                  23514096.898 5  23514096.425 7 123567426.950 7                  96286355.030 5  92274391.057 7
G16  20427635.076 7  20427637.740 6                                 107347938.527 7  83647759.665 6                
G18  20880923.780 8                  20880927.281 8  20880928.175 8 109729980.834 8                  85503898.321 8  81941238.235 8
G23  21191932.635 7                  21191936.504 7  21191938.804 8 111364362.572 7                  86777446.534 7  83161729.908 8
G27  21414026.187 7                  21414032.883 7  21414030.420 8 112531423.168 7                  87686877.892 7  84033265.021 8
R07  21853979.662 5  21853985.203 6 116986003.510 5  90989194.356 6
R13  21237779.103 7                 113408530.750 7
R14  20100731.438 8  20100734.087 7 107148204.088 8  83337665.036 7
R15  23067841.952 7  23067843.825 6 123267541.147 7  95874768.602 6
R23  19650166.894 8                 105115129.428 8
R24  20594691.922 7  20594694.062 7 110129095.585 7  85655996.929 7
> 2025 06 15 07 41 30.0000000  0 29
C08  37940715.847 6  37940712.462 6 197567269.387 6 152771524.773 6
C13  37341440.490 7  37341443.691 7 194446681.563 7 150358512.130 7
C26  24589700.734 5                 128045100.43615
C29  21413344.910 8                 111504906.779 8
C30  22751854.777 8                 118474868.089 8
C32  24381763.533 5                 126962243.434 5
C36  25286136.222 4                 131671631.48514
C38  38664254.451 6                 201334909.677 6
C45  23386914.684 6                 121781793.100 6
C47  21532395.680 8                 112124827.898 8
E02  25490218.178 7  25490219.407 7 133951988.843 7 101333807.175 7
E10  23583534.648 8  23583535.996 9 123932305.670 8  93753987.515 9
E11  23372806.717 7  23372804.635 8 122824926.411 7  92916251.515 8
E12  25282360.001 7  25282359.838 8 132859683.962 7 100507485.213 8
E16  24008144.226 8  24008145.987 9 126163639.261 8  95441975.484 9
E24  25596326.475 7  25596329.571 8 134509582.510 7 101755625.989 8
E25  23443660.780 8  23443662.617 9 123197263.040 8  93197936.098 9
E36  26161757.342 5  26161759.255 7 137480950.19115 104003464.902 7
G10  23503928.262 7                  23503934.803 6  23503932.100 7 123514019.531 7                  96244738.890 6  92234508.998 7
G16  20427572.194 8  20427574.630 6                                 107347607.509 8  83647501.718 6                
G18  20885288.355 8                  20885291.624 8  20885292.972 8 109752918.556 8                  85521771.813 8  81958367.035 8
G23  21186767.748 7                  21186772.247 8  21186774.318 8 111337224.147 7                  86756299.702 8  83141464.214 8
G27  21406528.831 6                  21406535.134 7  21406532.867 8 112492023.313 6                  87656176.759 7  84003843.073 8
R07  21851813.959 6  21851817.144 5 116974409.202 6  90980176.576 5
R13  21248320.922 7                 113464824.104 7
R14  20099119.862 8  20099122.679 7 107139613.646 8  83330983.563 7
R15  23057060.096 7  23057063.510 6 123209934.486 7  95829963.428 6
R23  19654464.009 8                 105138117.812 8
R24  20587812.804 7  20587814.195 7 110092304.754 7  85627381.807 7
> 2025 06 15 07 41 45.0000000  0 28
C08  37942294.469 6  37942291.525 6 197575492.862 6 152777883.638 6
C13  37341781.553 7  37341784.416 7 194448457.076 7 150359885.095 7
C26  24585842.047 4                 128025000.324 4
C29  21411172.497 8                 111493594.620 8
C30  22757543.117 8                 118504487.751 8
C32  24378000.257 5                 126942658.699 5
C38  38666573.133 6                 201346981.467 6
C45  23391880.942 6                 121807652.404 6
C47  21533967.019 8                 112133008.442 8
E02  25483787.845 6  25483789.125 6 133918197.013 6 101308243.855 6
E10  23585969.423 8  23585970.992 9 123945101.570 8  93763667.534 9
E11  23370861.669 7  23370859.402 8 122814704.169 7  92908518.469 8
E12  25287957.460 7  25287957.334 8 132889098.065 7 100529736.787 8
E16  24013269.602 8  24013270.836 9 126190570.995 8  95462349.152 9
E24  25604194.146 7  25604196.445 8 134550924.858 7 101786901.143 8
E25  23444992.472 8  23444994.568 9 123204262.236 8  93203230.916 9
E36  26154115.212 5  26154115.636 7 137440782.645 5 103973078.486 7
G10  23493773.437 7                  23493780.949 6  23493777.415 7 123460657.245 7                  96203157.931 6  92194660.660 7
G16  20427539.065 7  20427540.557 6                                 107347432.426 7  83647365.297 6                
G18  20889671.654 8                  20889675.232 7  20889676.764 8 109775951.920 8                  85539719.879 7  81975567.338 8
G23  21181629.648 7                  21181633.507 8  21181635.146 8 111310220.459 7                  86735257.835 8  83121299.115 8
G27  21399045.238 7                  21399051.393 7  21399049.092 8 112452695.369 7                  87625531.579 7  83974474.796 8
R07  21849682.975 6  21849690.516 6 116963014.344 6  90971313.955 6
R13  21258882.873 6                 113521226.126 6
R14  20097547.402 8  20097550.057 7 107131230.923 8  83324463.648 7
R15  23046296.422 7  23046301.130 6 123152423.233 7  95785232.504 6
R23  19658779.070 8                 105161201.769 8
R24  20580948.012 7  20580949.552 7 110055599.553 7  85598833.321 7
> 2025 06 15 07 42  0.0000000  0 28
C08  38243674.284 6  38243669.881 7 199144851.030 6 153991410.934 7
C13  37641922.578 7  37641925.275 7 196011368.855 7 151568427.646 7
C26  24881797.046 5                 129566117.70315
C29  21708807.155 8                 113043453.665 8
C30  23063033.244 8                 120095251.467 8
C32  24674060.732 6                 128484293.790 6
C38  38968690.585 6                 202920178.425 6
C45  23696658.767 6                 123394713.978 6
C47  21835344.148 8                 113702358.239 8
E02  25777162.479 6  25777163.087 6 135459890.009 6 102474524.632 6
E10  23888210.482 8  23888211.962 9 125533388.521 8  94965196.290 9
E11  23668724.144 7  23668722.176 8 124379983.475 7  94092642.078 8
E12  25593355.295 7  25593355.346 8 134493977.024 7 101743817.285 8
E16  24318202.573 8  24318203.854 9 127793004.777 8  96674579.874 9
E24  25911862.659 7  25911864.851 8 136167732.449 7 103010005.535 8
E25  23746136.372 8  23746138.190 9 124786781.735 8  94400396.621 9
E36  26446269.823 5  26446272.619 7 138976079.729 5 105134520.818 7
G10  23783420.891 6                  23783427.180 6  23783425.095 7 124982763.495 6                  97389214.859 6  93331298.534 7
G16  20727327.794 8  20727329.481 6                                 108922832.831 8  84874950.026 6                
G18  21193864.276 8                  21193868.083 8  21193870.390 9 111374498.756 8                  86785340.800 8  83169287.365 9
G23  21476309.673 7                  21476312.870 8  21476314.653 8 112858772.885 7                  87941922.103 8  84277685.685 8
G27  21691367.657 7                  21691374.413 7  21691371.433 8 113988861.566 7                  88822544.229 7  85121611.895 8
R07  22147389.514 6  22147391.918 5 118556631.856 6  92210794.294 5
R13  21569257.355 6                 115178606.748 6
R14  20395805.812 7  20395807.916 7 108721118.376 7  84561042.726 7
R15  23335344.966 7  23335350.077 6 124697011.221 7  96986578.675 6
R23  19962904.586 8                 106788066.832 8
R24  20873893.474 8  20873895.244 7 111622107.203 8  86817228.207 7
> 2025 06 15 07 42 15.0000000  0 27
C08  38245266.593 7  38245261.532 7 199153140.281 7 153997820.698 7
C13  37642277.118 7  37642279.346 7 196013212.352 7 151569853.153 7
C26  24877991.133 6                 129546245.492 6
C29  21706660.774 8                 113032277.909 8
C30  23068737.556 8                 120124958.614 8
C32  24670340.446 6                 128464941.792 6
C38  38971017.203 6                 202932297.646 6
C45  23701663.536 6                 123420776.549 6
C47  21836941.213 8                 113710673.804 8
E02  25770755.223 6  25770754.874 6 135426214.930 6 102449049.666 6
E10  23890671.517 8  23890672.683 9 125546319.500 8  94974978.483 9
E11  23666807.770 7  23666806.123 8 124369914.303 7  94085024.812 8
E12  25598968.420 7  25598968.516 8 134523476.003 7 101766133.031 8
E16  24323358.139 8  24323359.087 9 127820095.447 8  96695073.768 9
E24  25919745.706 7  25919748.490 8 136209161.961 7 103041346.622 8
E25  23747505.018 8  23747506.832 9 124793973.892 8  94405837.429 9
G10  23773281.482 5                  23773288.136 6  23773286.957 7 124929482.965 5                  97347697.553 6  93291511.144 7
G16  20727352.075 7  20727354.091 6                                 108922960.223 7  84875049.268 6                
G18  21198281.923 8                  21198285.448 8  21198288.537 9 111397713.358 8                  86803430.064 8  83186622.885 9
G23  21471220.377 7                  21471223.868 7  21471225.329 8 112832029.477 7                  87921083.071 7  84257714.975 8
G27  21683909.793 7                  21683916.135 7  21683913.146 7 113949668.218 7                  88792003.925 7  85092344.188 7
R07  22145328.264 6  22145332.988 4 118545626.558 6  92202234.64414
R13  21579858.514 6                 115235214.512 6
R14  20394309.372 7  20394311.743 7 108713141.051 7  84554838.212 7
R15  23324617.194 7  23324622.123 6 124639682.504 7  96941989.760 6
R23  19967253.192 8                 106811331.699 8
R24  20867059.118 7  20867061.535 7 111585563.966 7  86788805.744 7
>                              2  1
              *** Start of Kinematic Data ***               COMMENT             
