     3.04           OBSERVATION DATA    Mixed(MIXED)        RINEX VERSION / TYPE
cnvtToRINEX 3.14.0  convertToRINEX OPR  20250615 162129 UTC PGM / RUN BY / DATE 
----------------------------------------------------------- COMMENT             
1005                                                        MARKER NAME         
1005                                                        MARKER NUMBER       
GEODETIC                                                    MARKER TYPE         
GNSS Observer       Trimble                                 OBSERVER / AGENCY   
6337S22116          Geo Explorer 3      6.26                REC # / TYPE / VERS 
                    UNKNOWN EXT     NONE                    ANT # / TYPE        
  3915518.7064  1192079.5493  4876035.3596                  APPROX POSITION XYZ 
        1.4650        0.0000        0.0000                  ANTENNA: DELTA H/E/N
R    4 C1C C2C L1C L2C                                      SYS / # / OBS TYPES 
G    8 C1C C2W C2X C5X L1C L2W L2X L5X                      SYS / # / OBS TYPES 
C    4 C2I C7I L2I L7I                                      SYS / # / OBS TYPES 
E    4 C1X C8X L1X L8X                                      SYS / # / OBS TYPES 
    15.000                                                  INTERVAL            
  2025     6    15    12     5   15.0000000     GPS         TIME OF FIRST OBS   
  2025     6    15    12    32    0.0000000     GPS         TIME OF LAST OBS    
     0                                                      RCV CLOCK OFFS APPL 
  6 R01  1 R02 -4 R03  5 R17  4 R18 -3 R19  3               GLONASS SLOT / FRQ #
R L2C -0.25000                                              SYS / PHASE SHIFT   
G L2X -0.25000                                              SYS / PHASE SHIFT   
    18                                                      LEAP SECONDS        
    39                                                      # OF SATELLITES     
   C05   108   108   108   108                              PRN / # OF OBS      
   C06   108   108   108   108                              PRN / # OF OBS      
   C09    69    68    69    68                              PRN / # OF OBS      
   C12   108   108   108   108                              PRN / # OF OBS      
   C13   103   102   103   102                              PRN / # OF OBS      
   C16   108   108   108   108                              PRN / # OF OBS      
   C19   108     0   108     0                              PRN / # OF OBS      
   C20    62     0    62     0                              PRN / # OF OBS      
   C21    52     0    52     0                              PRN / # OF OBS      
   C22   108     0   108     0                              PRN / # OF OBS      
   C34    50     0    47     0                              PRN / # OF OBS      
   C35   108     0   108     0                              PRN / # OF OBS      
   C39   108     0   108     0                              PRN / # OF OBS      
   C44   108     0   108     0                              PRN / # OF OBS      
   C60    97     0    97     0                              PRN / # OF OBS      
   E04    69    90    69    88                              PRN / # OF OBS      
   E05   108   108   108   108                              PRN / # OF OBS      
   E06   108   108   108   108                              PRN / # OF OBS      
   E09   108   108   108   108                              PRN / # OF OBS      
   E11    66    66    66    66                              PRN / # OF OBS      
   E15    30    30    30    30                              PRN / # OF OBS      
   E30   108   108   108   108                              PRN / # OF OBS      
   E34   108   108   108   108                              PRN / # OF OBS      
   E36   108   108   108   108                              PRN / # OF OBS      
   G01   108     0   108   108   108     0   108   108      PRN / # OF OBS      
   G02   108   108     0     0   108   108     0     0      PRN / # OF OBS      
   G03   108     0   108   108   108     0   108   108      PRN / # OF OBS      
   G08   108     0   108   108   108     0   108   108      PRN / # OF OBS      
   G10   107     0   105   107   106     0   103   107      PRN / # OF OBS      
   G17   103     0    98     0   102     0    98     0      PRN / # OF OBS      
   G22    16     0     0     0     6     0     0     0      PRN / # OF OBS      
   G28    47     0    47    47    47     0    47    47      PRN / # OF OBS      
   G32   108     0   108   108   108     0   108   108      PRN / # OF OBS      
   R01    48     0    43     0                              PRN / # OF OBS      
   R02   108   108   108   108                              PRN / # OF OBS      
   R03   108   108   108   108                              PRN / # OF OBS      
   R17   108   108   108   108                              PRN / # OF OBS      
   R18   108   108   108   108                              PRN / # OF OBS      
   R19    75    57    73    55                              PRN / # OF OBS      
DBHZ                                                        SIGNAL STRENGTH UNIT
                                                            END OF HEADER       
>                              2  1
              *** Start of Kinematic Data ***               COMMENT             
> 2025 06 15 12 05 15.0000000  0 30
C05  39279580.562 6  39279578.875 7 204539081.24716 158162591.46917
C06  40349250.418 5  40349248.508 6 210109140.33315 162469700.43616
C12  23548102.707 6  23548100.619 7 122621145.82916  94818625.03417
C16  40660063.667 6  40660067.348 7 211727626.19916 163721235.39417
C19  22530059.160 8                 117319936.25718
C20  25891001.304 5                 134821230.14615
C22  22445468.484 8                 116879444.51018
C35  22402954.888 8                 116658060.78918
C39  39961782.462 6                 208091491.25816
C44  21874442.986 8                 113905962.89818
C60  40661899.692 6                 211737182.67716
E04  26878051.626 7  26878053.284 6 141245114.74517 106851018.78016
E05  24422656.908 7  24422661.733 8 128341922.74417  97089853.95018
E06  25306443.749 8  25306446.250 8 132986255.17318 100603250.60818
E09  24785159.959 8  24785161.813 9 130246889.21818  98530935.66619
E11  27631592.646 6  27631595.586 7 145204994.27316 109846606.68517
E30  27424989.258 7  27424993.724 8 144119288.64817 109025279.39418
E34  24170818.752 8  24170821.286 9 127018507.05718  96088686.73519
E36  23954614.047 8  23954617.386 9 125882347.02818  95229189.83119
G01  20874034.009 7                  20874037.836 8  20874039.860 9 109693782.97317                  85475692.66718  81914215.13119
G02  20762871.312 8  20762871.939 7                                 109109619.30418  85020489.87517                
G03  22073624.418 7                  22073631.432 7  22073630.143 8 115997671.60117                  90387829.38117  86621664.67418
G08  22336773.301 7                  22336780.842 7  22336777.869 8 117380524.32917                  91465379.28217  87654314.00818
G10  23943902.583 6                  23943909.886 6  23943905.044 6 125826054.86816                  98046304.56716  93961029.00816
G32  22124922.435 8                  22124928.546 8  22124925.345 8 116267245.44518                  90597882.77418  86822957.42118
R01  22610836.948 5                 120867865.79415
R02  19599262.395 8  19599264.653 8 104585413.73318  81344176.15118
R03  20722543.605 8  20722547.285 7 110929397.72318  86278441.82617
R17  19686469.288 8  19686470.395 8 105346272.60118  81935900.76118
R18  19755665.592 8  19755667.307 8 105457083.05418  82022346.69918
> 2025 06 15 12 05 30.0000000  0 30
C05  39279291.365 6  39279289.443 7 204537573.490 6 158161425.571 7
C06  40343840.212 5  40343839.260 6 210080973.831 5 162447920.361 6
C12  23540969.046 6  23540967.693 7 122584000.363 6  94789901.840 7
C16  40655004.030 6  40655007.841 7 211701280.319 6 163700863.110 7
C19  22533330.428 8                 117336970.770 8
C20  25899875.632 5                 134867443.704 5
C22  22439242.467 8                 116847024.819 8
C35  22408126.620 8                 116684991.963 8
C39  39957545.000 6                 208069427.186 6
C44  21871309.655 8                 113889647.844 8
C60  40661846.991 6                 211736908.735 6
E04  26883775.579 6  26883778.204 6 141275198.672 6 106873777.070 6
E05  24414210.079 7  24414215.109 8 128297535.838 7  97056275.615 8
E06  25308761.072 8  25308763.725 8 132998433.733 8 100612463.594 8
E09  24783581.064 8  24783582.573 9 130238590.263 8  98524657.587 9
E11  27638597.506 6  27638600.045 7 145241801.945 6 109874451.377 7
E30  27430499.491 7  27430503.923 8 144148244.914 7 109047184.578 8
E34  24166498.199 8  24166500.890 9 126995803.257 8  96071511.463 9
E36  23957428.060 8  23957430.928 9 125897132.222 8  95240374.725 9
G01  20868900.846 7                  20868904.302 8  20868906.388 9 109666806.580 7                  85454672.117 8  81894070.436 9
G02  20763247.639 8  20763248.298 7                                 109111596.830 8  85022030.811 7                
G03  22065080.246 7                  22065087.344 7  22065085.636 8 115952772.290 7                  90352842.896 7  86588135.971 8
G08  22345489.943 7                  22345497.532 7  22345494.366 8 117426330.309 7                  91501072.190 7  87688519.721 8
G10  23952412.316 6                  23952419.435 6  23952415.341 6 125870772.460 6                  98081149.396 6  93994421.991 6
G32  22127742.452 7                  22127748.313 7  22127745.489 8 116282064.077 7                  90609429.761 7  86834023.287 8
R01  22621847.450 5                 120926721.731 5
R02  19601770.279 8  19601771.503 7 104598794.239 8  81354583.201 7
R03  20713170.925 8  20713174.978 7 110879225.996 8  86239419.395 7
R17  19690983.724 8  19690985.164 7 105370429.131 8  81954689.162 7
R18  19749998.425 8  19749999.975 8 105426832.499 8  81998818.485 8
>                              3  5
              *** Start of Occupation ***                   COMMENT             
1005                                                        MARKER NAME         
1005                                                        MARKER NUMBER       
  3915518.7064  1192079.5493  4876035.3596                  APPROX POSITION XYZ 
        1.4650        0.0000        0.0000                  ANTENNA: DELTA H/E/N
> 2025 06 15 12 05 45.0000000  0 31
C05  39279002.161 6  39279000.457 7 204536068.102 6 158160261.507 7
C06  40338435.949 5  40338434.858 6 210052832.741 5 162426159.921 6
C12  23533847.857 6  23533846.569 7 122546918.954 6  94761228.184 7
C13  40129992.817 5                 208967387.35615
C16  40649950.107 7  40649953.728 7 211674962.647 7 163680512.638 7
C19  22536621.697 8                 117354110.086 8
C20  25908756.088 5                 134913686.850 5
C22  22433035.089 8                 116814701.212 8
C35  22413316.802 8                 116712017.912 8
C39  39953315.215 6                 208047401.305 6
C44  21868196.431 8                 113873436.507 8
C60  40661795.010 6                 211736637.163 6
E04  26889514.843 6  26889517.852 6 141305359.690 6 106896593.69216
E05  24405773.319 7  24405778.107 8 128253198.805 7  97022734.999 8
E06  25311098.605 8  25311101.186 8 133010717.347 8 100621756.058 8
E09  24782022.530 8  24782024.741 9 130230403.563 8  98518464.423 9
E11  27645605.968 6  27645608.439 7 145278631.126 6 109902312.391 7
E30  27436024.346 7  27436028.320 8 144177275.922 7 109069146.298 8
E34  24162186.462 8  24162189.126 9 126973144.597 8  96054370.353 9
E36  23960252.381 8  23960255.304 9 125911974.456 8  95251602.777 9
G01  20863783.091 7                  20863786.246 8  20863788.559 9 109639913.254 7                  85433716.262 8  81873987.772 9
G02  20763641.408 8  20763642.004 7                                 109113666.515 8  85023643.547 7                
G03  22056550.134 7                  22056557.056 7  22056555.000 8 115907944.896 7                  90317912.473 7  86554660.996 8
G08  22354221.040 7                  22354228.278 7  22354225.740 8 117472213.024 7                  91536824.926 7  87722782.742 8
G10  23960926.386 6                  23960933.471 6  23960930.297 7 125915515.554 6                  98116014.134 6  94027833.996 7
G32  22130587.880 8                  22130594.188 7  22130591.482 8 116297018.828 8                  90621082.792 7  86845190.781 8
R01  22632868.047 6                 120985637.399 6
R02  19604311.983 8  19604314.109 7 104612358.259 8  81365133.007 7
R03  20703822.764 8  20703826.502 8 110829183.850 8  86200497.777 8
R17  19695524.774 8  19695526.392 8 105394731.131 8  81973590.677 8
R18  19744354.424 8  19744356.326 8 105396704.188 8  81975385.387 8
> 2025 06 15 12 06  0.0000000  0 31
C05  39278711.965 6  39278710.641 7 204534558.030 6 158159093.813 7
C06  40333036.090 5  40333033.978 6 210024709.906 5 162404413.602 6
C12  23526738.058 6  23526735.989 7 122509894.861 6  94732598.806 7
C13  40132380.491 5  40132383.176 5 208979823.244 5 161596473.48115
C16  40644899.655 6  40644903.472 7 211648666.018 6 163660178.448 7
C19  22539931.984 8                 117371346.887 8
C20  25917641.162 5                 134959952.180 5
C22  22426844.779 8                 116782466.725 8
C35  22418523.787 8                 116739131.356 8
C39  39949091.794 7                 208025406.562 7
C44  21865101.827 8                 113857321.929 8
C60  40661742.098 6                 211736360.859 6
E04  26895268.630 6  26895270.751 6 141335590.548 6 106919463.085 6
E05  24397344.707 7  24397349.224 8 128208904.711 7  96989226.816 8
E06  25313454.268 8  25313457.317 8 133023098.699 8 100631122.468 8
E09  24780484.588 8  24780486.890 9 130222321.906 8  98512350.729 9
E11  27652617.012 6  27652619.464 7 145315474.614 6 109930184.144 7
E30  27441561.287 7  27441565.584 8 144206374.181 7 109091158.892 8
E34  24157881.778 8  24157884.609 9 126950523.986 8  96037258.019 9
E36  23963086.244 8  23963089.180 9 125926866.549 8  95262868.537 9
G01  20858679.699 7                  20858683.264 8  20858685.205 8 109613095.940 7                  85412819.668 8  81853961.854 8
G02  20764051.511 8  20764052.076 7                                 109115821.127 8  85025322.466 7                
G03  22048032.410 7                  22048038.893 7  22048037.061 8 115863182.311 7                  90283032.625 7  86521234.467 8
G08  22362965.917 7                  22362972.774 7  22362970.115 8 117518165.034 7                  91572631.631 7  87757097.484 8
G10  23969443.378 6                  23969451.268 6  23969448.150 7 125960276.919 6                  98150893.057 6  94061259.603 7
G32  22133458.436 8                  22133464.422 7  22133461.842 8 116312102.311 8                  90632836.177 7  86856454.413 8
R01  22643900.904 6                 121044605.365 6
R02  19606886.892 8  19606888.682 7 104626098.385 8  81375819.771 7
R03  20694497.413 8  20694501.520 8 110779264.513 8  86161671.668 8
R17  19700091.820 8  19700093.753 8 105419171.275 8  81992599.692 8
R18  19738732.051 8  19738733.867 8 105366691.208 8  81952041.989 8
> 2025 06 15 12 06 15.0000000  0 32
C05  39278420.483 6  39278419.372 7 204533041.836 6 158157921.403 7
C06  40327638.661 5  40327636.219 6 209996604.240 5 162382680.575 6
C12  23519638.331 6  23519637.035 7 122472926.792 6  94704012.813 7
C13  40134763.470 5  40134768.249 5 208992244.410 5 161606078.314 5
C16  40639853.680 7  40639857.230 7 211622389.242 7 163639859.607 7
C19  22543260.348 8                 117388679.647 8
C20  25926529.317 5                 135006238.144 5
C22  22420671.079 8                 116750320.191 8
C35  22423746.886 7                 116766330.867 7
C39  39944873.917 7                 208003441.587 7
C44  21862025.393 8                 113841302.942 8
C60  40661687.804 6                 211736078.424 6
E04  26901033.942 6  26901036.732 6 141365889.557 6 106942384.080 6
E05  24388923.757 7  24388928.350 9 128164652.324 7  96955750.254 9
E06  25315828.881 7  25315831.804 8 133035576.345 7 100640561.726 8
E09  24778966.239 8  24778968.808 9 130214344.036 8  98506315.526 9
E11  27659630.858 6  27659633.017 7 145352331.066 6 109958065.731 7
E30  27447111.224 7  27447115.313 8 144235538.146 7 109113221.225 8
E34  24153584.388 8  24153587.036 9 126927940.147 8  96020173.506 9
E36  23965929.474 8  23965932.296 9 125941807.167 8  95274171.000 9
G01  20853590.863 7                  20853594.244 8  20853596.234 9 109586353.475 7                  85391981.397 8  81833991.853 9
G02  20764477.617 7  20764477.989 7                                 109118059.469 7  85027066.639 7                
G03  22039526.004 7                  22039533.042 7  22039531.342 8 115818483.472 7                  90248202.365 7  86487855.494 8
G08  22371723.017 7                  22371730.399 7  22371727.467 8 117564184.605 7                  91608491.011 7  87791462.727 8
G10  23977964.585 6                  23977971.578 6  23977968.562 7 126005054.892 6                  98185784.895 6  94094697.647 7
G17  24223258.424 5                                                 127294041.90615                                
G32  22136352.975 7                  22136358.798 7  22136356.346 8 116327313.051 7                  90644688.705 7  86867813.098 8
R01  22654942.308 5                 121103623.527 5
R02  19609494.163 8  19609496.420 7 104640012.741 8  81386642.040 7
R03  20685194.918 8  20685199.054 7 110729467.030 8  86122940.348 7
R17  19704685.102 8  19704686.283 7 105443748.097 8  82011714.955 7
R18  19733131.025 8  19733132.731 7 105336792.634 8  81928787.538 7
> 2025 06 15 12 06 30.0000000  0 32
C05  39278128.580 6  39278126.916 7 204531519.624 6 158156744.338 7
C06  40322244.354 6  40322241.990 6 209968515.724 6 162360960.783 6
C12  23512549.686 6  23512548.634 7 122436015.093 6  94675470.351 7
C13  40137147.736 5  40137150.898 5 209004651.036 5 161615671.910 5
C16  40634811.295 7  40634815.133 7 211596132.305 7 163619556.132 7
C19  22546607.193 8                 117406108.202 8
C20  25935421.961 4                 135052544.47714
C22  22414514.869 8                 116718261.646 8
C35  22428987.010 8                 116793616.389 8
C39  39940661.240 7                 207981506.455 7
C44  21858967.339 8                 113825379.666 8
C60  40661632.505 6                 211735789.939 6
E04  26906812.440 6  26906815.330 6 141396256.591 6 106965356.536 6
E05  24380510.124 7  24380515.390 8 128120441.869 7  96922305.401 8
E06  25318221.584 8  25318224.551 8 133048150.208 8 100650073.760 8
E09  24777467.653 8  24777470.449 9 130206469.941 8  98500358.826 9
E11  27666646.855 6  27666648.982 7 145389200.461 6 109985957.093 7
E30  27452672.785 7  27452677.548 8 144264767.631 7 109135333.117 8
E34  24149293.713 8  24149296.498 9 126905393.197 8  96003116.870 9
E36  23968781.414 8  23968784.637 9 125956796.307 8  95285510.167 9
G01  20848516.608 7                  20848519.370 8  20848521.593 8 109559685.991 7                  85371201.563 8  81814077.842 8
G02  20764919.579 8  20764919.957 7                                 109120381.458 8  85028875.974 7                
G03  22031032.109 7                  22031039.355 7  22031037.210 8 115773848.408 7                  90213421.850 7  86454524.167 8
G08  22380492.885 7                  22380500.234 7  22380497.628 8 117610271.473 7                  91644402.817 7  87825878.199 8
G10  23986488.829 6                  23986496.512 6  23986492.692 7 126049849.359 6                  98220689.685 6  94128148.041 7
G17  24214720.974 6                  24214724.744 5                 127249178.166 6                  99155252.85915
G32  22139271.608 7                  22139277.421 7  22139274.989 8 116342650.899 7                  90656640.269 7  86879266.666 8
R01  22665992.183 5                 121162691.234 5
R02  19612134.558 8  19612136.767 7 104654101.311 8  81397599.812 7
R03  20675915.524 8  20675919.052 7 110679791.781 8  86084304.080 7
R17  19709302.978 8  19709304.530 7 105468461.627 8  82030936.574 7
R18  19727551.636 8  19727553.075 8 105307008.767 8  81905622.303 8
> 2025 06 15 12 06 45.0000000  0 32
C05  39277834.208 6  39277832.999 7 204529986.998 6 158155559.188 7
C06  40316852.698 6  40316850.736 6 209940439.998 6 162339250.896 6
C12  23505471.501 6  23505469.034 7 122399155.535 6  94646968.199 7
C13  40139526.261 5  40139526.124 5 209017038.596 5 161625250.714 5
C16  40629771.942 7  40629776.122 7 211569890.986 7 163599264.710 7
C19  22549971.988 8                 117423627.985 8
C20  25944321.160 5                 135098866.552 5
C22  22408374.542 8                 116686286.904 8
C35  22434242.617 8                 116820983.349 8
C39  39936453.993 7                 207959596.876 7
C44  21855926.949 8                 113809547.888 8
C60  40661575.421 6                 211735490.979 6
E04  26912603.280 6  26912605.844 6 141426687.004 6 106988376.893 6
E05  24372104.706 7  24372109.569 8 128076269.175 7  96888889.117 8
E06  25320631.455 7  25320634.770 8 133060815.726 7 100659655.127 8
E09  24775988.509 8  24775990.918 9 130198695.183 8  98494477.284 9
E11  27673664.400 6  27673666.624 7 145426078.198 6 110013854.811 7
E30  27458246.806 7  27458251.341 8 144294057.957 7 109157491.020 8
E34  24145009.382 8  24145012.183 9 126882878.761 8  95986084.850 9
E36  23971642.378 8  23971645.382 9 125971829.539 8  95296882.712 9
G01  20843455.532 7                  20843458.411 8  20843460.396 8 109533089.281 7                  85350476.854 8  81794216.678 8
G02  20765376.225 8  20765376.908 7                                 109122782.753 8  85030747.112 7                
G03  22022549.636 7                  22022556.643 7  22022554.957 8 115729272.879 7                  90178687.711 7  86421237.278 8
G08  22389275.052 7                  22389282.334 7  22389279.053 8 117656420.886 7                  91680363.379 7  87860340.391 8
G10  23995015.521 6                  23995022.795 6  23995019.737 7 126094655.702 6                  98255603.705 6  94161607.298 7
G17  24206193.731 6                  24206196.959 5                 127204367.326 6                  99120335.405 5
G32  22142213.761 7                  22142219.130 7  22142217.132 8 116358111.235 7                  90668687.288 7  86890811.714 8
R01  22677050.419 4                 121221804.00714
R02  19614806.564 8  19614808.036 7 104668359.229 8  81408689.295 7
R03  20666657.189 8  20666661.089 8 110630234.245 8  86045759.351 8
R17  19713946.007 8  19713947.915 7 105493307.285 8  82050260.930 7
R18  19721992.660 8  19721993.933 7 105277335.364 8  81882542.985 7
> 2025 06 15 12 07  0.0000000  0 31
C05  39277537.905 6  39277535.923 7 204528441.910 6 158154364.435 7
C06  40311463.554 6  40311461.325 6 209912375.237 6 162317549.467 6
C12  23498402.621 6  23498400.703 7 122362346.430 6  94618505.074 7
C13  40141902.052 5  40141901.911 5 209029405.162 5 161634813.405 5
C16  40624734.877 7  40624738.991 7 211543663.295 7 163578983.841 7
C19  22553353.361 8                 117441236.820 8
C20  25953218.340 5                 135145202.399 5
C22  22402249.595 8                 116654394.042 8
C35  22439513.154 8                 116848429.761 8
C39  39932250.900 7                 207937710.878 7
C44  21852903.574 8                 113793805.804 8
C60  40661515.515 6                 211735179.562 6
E04  26918405.616 6  26918408.025 6 141457178.610 6 107011443.568 6
E05  24363705.634 7  24363710.617 8 128032132.490 7  96855500.014 8
E06  25323059.186 7  25323061.983 8 133073570.788 7 100669304.237 8
E09  24774527.595 8  24774529.935 9 130191017.820 8  98488669.417 9
E11  27680682.473 6  27680685.491 7 145462962.360 6 110041757.336 7
E30  27463831.935 7  27463836.181 8 144323406.941 7 109179693.304 8
E34  24140730.775 8  24140733.680 9 126860394.938 8  95969075.993 9
E36  23974511.124 8  23974514.128 9 125986904.900 8  95308287.124 9
G01  20838407.308 7                  20838410.497 8  20838412.315 9 109506561.468 7                  85329805.851 8  81774406.953 9
G02  20765848.091 8  20765848.585 7                                 109125261.354 8  85032678.487 7                
G03  22014078.240 7                  22014084.665 7  22014084.171 8 115684755.020 7                  90143998.491 7  86387993.459 8
G08  22398068.181 7                  22398076.091 7  22398072.410 8 117702630.566 7                  91716370.873 7  87894847.594 8
G10  24003544.163 6                  24003551.473 6  24003547.891 7 126139471.884 6                  98290525.362 6  94195073.883 7
G17  24197676.351 6                  24197681.070 6                 127159607.741 6                  99085457.833 6
G32  22145178.571 7                  22145184.660 7  22145181.877 8 116373691.908 7                  90680828.046 7  86902446.624 8
R02  19617509.741 8  19617511.146 7 104682784.067 8  81419908.625 7
R03  20657421.515 8  20657424.616 7 110580792.990 8  86007305.064 7
R17  19718613.416 8  19718614.848 7 105518282.867 8  82069686.380 7
R18  19716453.856 8  19716455.728 8 105247770.730 8  81859548.292 8
> 2025 06 15 12 07 15.0000000  0 31
C05  39277239.108 6  39277236.976 7 204526885.349 6 158153160.793 7
C06  40306076.288 6  40306074.352 6 209884322.286 6 162295857.163 6
C12  23491343.797 6  23491341.925 7 122325588.874 6  94590081.795 7
C13  40144269.756 5  40144276.188 5 209041751.749 5 161644360.489 5
C16  40619701.142 7  40619705.125 7 211517450.217 7 163558714.267 7
C19  22556752.103 8                 117458935.407 8
C20  25962120.173 5                 135191552.472 5
C22  22396140.977 8                 116622584.090 8
C35  22444799.797 8                 116875956.341 8
C39  39928052.784 6                 207915849.450 6
C44  21849898.181 8                 113778154.427 8
C60  40661453.388 6                 211734856.617 6
E04  26924220.295 6  26924222.037 6 141487732.079 6 107034557.058 6
E05  24355313.856 7  24355318.599 8 127988032.863 7  96822138.976 8
E06  25325503.741 8  25325506.432 8 133086416.190 8 100679021.684 8
E09  24773085.329 8  24773087.683 9 130183438.743 8  98482935.919 9
E11  27687701.527 6  27687705.995 7 145499853.733 6 110069665.379 7
E30  27469427.945 7  27469432.421 8 144352815.197 7 109201940.410 8
E34  24136458.535 8  24136461.077 9 126837942.730 8  95952091.058 9
E36  23977388.124 8  23977391.036 9 126002023.309 8  95319724.079 9
G01  20833372.163 7                  20833375.616 8  20833377.820 9 109480103.652 7                  85309189.369 8  81754649.502 9
G02  20766334.831 8  20766334.989 7                                 109127818.372 8  85034670.966 7                
G03  22005617.808 7                  22005624.792 7  22005623.177 8 115640295.851 7                  90109355.027 7  86354793.489 8
G08  22406873.243 7                  22406880.648 7  22406878.512 8 117748901.111 7                  91752425.789 7  87929400.216 8
G10  24012074.753 6                  24012081.155 6  24012077.737 7 126184298.547 6                  98325455.158 6  94228548.271 7
G17  24189168.409 6                  24189173.017 6                 127114900.628 6                  99050621.143 6
G32  22148166.490 7                  22148171.963 7  22148169.809 8 116389393.694 7                  90693063.209 7  86914171.974 8
R02  19620244.272 8  19620246.214 7 104697376.673 8  81431258.424 7
R03  20648207.201 8  20648211.070 7 110531469.343 8  85968942.271 7
R17  19723305.425 8  19723307.007 8 105543389.206 8  82089213.509 8
R18  19710936.237 8  19710938.096 8 105218316.137 8  81836639.176 8
> 2025 06 15 12 07 30.0000000  0 31
C05  39276936.953 6  39276935.135 7 204525312.107 6 158151944.241 7
C06  40300690.296 6  40300688.126 6 209856276.137 6 162274170.167 6
C12  23484292.521 5  23484292.201 7 122288877.984 5  94561694.628 7
C13  40146638.365 5  40146642.747 6 209054073.026 5 161653888.036 6
C16  40614669.311 7  40614673.041 7 211491246.647 7 163538452.025 7
C19  22560167.166 8                 117476718.459 8
C20  25971027.417 4                 135237911.436 4
C22  22390046.842 8                 116590852.041 8
C35  22450100.242 8                 116903557.919 8
C39  39923858.295 6                 207894007.404 6
C44  21846908.809 8                 113762588.795 8
C60  40661387.928 6                 211734516.970 6
E04  26930044.516 6  26930047.082 6 141518342.097 6 107057713.290 6
E05  24346927.762 7  24346932.688 8 127943965.326 7  96788802.242 8
E06  25327964.169 8  25327966.967 8 133099346.607 8 100688803.451 8
E09  24771660.911 8  24771663.113 9 130175952.804 8  98477272.869 9
E11  27694722.961 6  27694726.480 7 145536747.225 6 110097574.988 7
E30  27475034.271 7  27475039.004 8 144382277.334 7 109224228.294 8
E34  24132190.675 8  24132193.473 9 126815517.067 8  95935126.183 9
E36  23980271.860 8  23980275.199 9 126017179.579 8  95331189.688 9
G01  20828349.901 7                  20828353.379 8  20828355.332 9 109453710.791 7                  85288623.508 8  81734940.547 9
G02  20766835.247 8  20766835.570 7                                 109130448.607 8  85036720.508 7                
G03  21997168.044 7                  21997174.447 7  21997173.001 8 115595890.355 7                  90074753.366 7  86321633.582 8
G08  22415688.527 7                  22415696.327 7  22415693.911 8 117795226.970 7                  91788523.815 7  87963994.133 8
G10  24020605.623 6                  24020612.812 6  24020609.458 7 126229130.298 6                  98360388.982 6  94262026.494 7
G17  24180669.968 5                  24180674.928 5                                                  99015821.482 5
G32  22151176.443 7                  22151182.101 7  22151179.921 8 116405211.227 7                  90705388.551 7  86925983.748 8
R02  19623009.233 8  19623011.352 7 104712131.328 8  81442734.284 7
R03  20639014.284 8  20639017.755 8 110482258.021 8  85930666.829 8
R17  19728020.729 8  19728022.198 8 105568621.085 8  82108838.285 8
R18  19705437.949 8  19705440.067 8 105188966.698 8  81813811.837 8
> 2025 06 15 12 07 45.0000000  0 32
C05  39276631.657 6  39276629.896 7 204523723.450 6 158150715.799 7
C06  40295305.680 6  40295303.419 6 209828238.086 6 162252489.407 6
C12  23477252.909 6  23477251.433 7 122252215.146 6  94533344.595 7
C13  40148999.691 5  40149004.729 6 209066370.128 5 161663396.936 6
C16  40609639.418 7  40609643.053 7 211465053.906 7 163518198.190 7
C19  22563598.473 8                 117494586.986 8
C20  25979926.456 5                 135284280.44215
C22  22383968.860 8                 116559199.262 8
C35  22455415.296 8                 116931235.573 8
C39  39919667.558 7                 207872186.114 7
C44  21843936.186 8                 113747110.262 8
C60  40661319.891 6                 211734161.832 6
E04  26935881.040 6  26935882.921 7 141549009.668 6 107080913.056 7
E05  24338548.489 7  24338553.107 8 127899931.336 7  96755490.862 8
E06  25330441.082 7  25330444.042 8 133112363.202 7 100698650.409 8
E09  24770254.309 8  24770256.524 9 130168561.264 8  98471681.240 9
E11  27701746.219 6  27701747.427 7 145573643.896 6 110125487.057 7
E30  27480650.933 7  27480655.963 8 144411794.410 7 109246557.737 8
E34  24127928.543 8  24127931.181 9 126793119.207 8  95918182.366 9
E36  23983163.841 8  23983166.773 9 126032374.947 8  95342684.883 9
G01  20823340.152 7                  20823343.468 8  20823345.461 9 109427384.300 7                  85268109.368 8  81715281.167 9
G02  20767349.672 8  20767350.418 7                                 109133153.326 8  85038828.082 7                
G03  21988728.304 7                  21988734.599 7  21988733.448 8 115551539.920 7                  90040194.623 7  86288514.777 8
G08  22424514.980 7                  22424522.503 7  22424519.870 8 117841609.147 7                  91824665.723 7  87998630.106 8
G10  24029138.149 6                  24029145.444 6  24029141.957 7 126273968.369 6                  98395327.723 6  94295509.393 7
G17  24172179.969 5                  24172184.534 5                 127025630.53115                  98981060.083 5
G22  24694470.090 4                                                 129770425.44614                                
G32  22154208.642 8                  22154214.390 7  22154212.043 8 116421145.539 8                  90717804.882 7  86937882.751 8
R02  19625804.558 8  19625807.068 8 104727049.135 8  81454336.993 8
R03  20629842.118 8  20629845.863 7 110433160.663 8  85892480.034 7
R17  19732759.233 8  19732760.910 8 105593979.530 8  82128561.513 8
R18  19699959.714 8  19699961.849 8 105159724.004 8  81791067.527 8
> 2025 06 15 12 08  0.0000000  0 32
C05  39276324.543 6  39276322.462 7 204522122.888 6 158149478.141 7
C06  40289923.672 6  40289921.499 6 209800211.660 6 162230817.609 6
C12  23470222.257 5  23470220.507 7 122215604.083 5  94505034.598 7
C13  40151355.515 5  40151361.565 6 209078646.754 5 161672889.957 6
C16  40604611.783 7  40604615.558 7 211438875.518 7 163497955.431 7
C19  22567046.867 8                 117512544.330 8
C20  25988832.678 5                 135330662.602 5
C22  22377906.100 8                 116527629.325 8
C35  22460745.883 8                 116958992.689 8
C39  39915481.656 7                 207850389.064 7
C44  21840980.681 8                 113731722.486 8
C60  40661249.312 6                 211733794.752 6
E04  26941728.557 6  26941730.456 7 141579738.084 6 107104158.882 7
E05  24330176.389 7  24330180.728 8 127855934.669 7  96722207.710 8
E06  25332935.004 8  25332938.013 8 133125469.381 8 100708565.160 8
E09  24768866.373 8  24768868.573 9 130161267.692 8  98466163.704 9
E11  27708767.644 6  27708769.955 6 145610547.359 6 110153404.229 6
E30  27486279.687 7  27486284.177 8 144441369.685 7 109268931.206 8
E34  24123672.795 8  24123675.036 9 126770752.844 8  95901262.362 9
E36  23986063.653 8  23986066.464 9 126047612.989 8  95354212.344 9
G01  20818343.516 7                  20818346.944 8  20818348.987 9 109401127.866 7                  85247649.818 8  81695674.113 9
G02  20767879.224 8  20767880.356 7                                 109135936.142 8  85040996.490 7                
G03  21980299.927 7                  21980306.500 7  21980305.317 8 115507248.170 7                  90005681.623 7  86255439.819 8
G08  22433352.773 7                  22433360.464 7  22433357.281 8 117888050.786 7                  91860853.971 7  88033310.523 8
G10  24037672.246 6                  24037679.537 6  24037675.957 7 126318816.045 6                  98430273.855 6  94328999.468 7
G17  24163701.518 5                  24163706.043 6                 126981072.852 5                  98946339.775 6
G22  24694604.849 5                                                                                                
G32  22157263.914 7                  22157269.655 7  22157266.987 8 116437200.079 7                  90730314.883 7  86949871.496 8
R02  19628631.521 8  19628633.587 8 104742133.559 8  81466069.295 8
R03  20620692.865 8  20620695.942 7 110384181.650 8  85854385.262 7
R17  19737522.370 8  19737523.780 8 105619468.207 8  82148386.030 8
R18  19694502.414 8  19694504.370 8 105130591.900 8  81768409.256 8
> 2025 06 15 12 08 15.0000000  0 33
C05  39276015.424 6  39276013.497 7 204520513.710 6 158148233.815 7
C06  40284544.239 6  40284542.148 6 209772200.234 6 162209157.441 6
C12  23463201.667 5  23463199.886 7 122179048.306 5  94476767.387 7
C13  40153711.073 5  40153715.962 6 209090906.257 5 161682369.824 6
C16  40599588.041 7  40599591.633 7 211412714.885 7 163477726.388 7
C19  22570513.278 8                 117530593.579 8
C20  25997740.878 4                 135377060.96214
C22  22371859.610 8                 116496145.658 8
C34  25533069.364 5                 132957405.75715
C35  22466092.454 8                 116986832.505 8
C39  39911301.001 7                 207828619.660 7
C44  21838044.145 8                 113716428.939 8
C60  40661177.272 6                 211733419.012 6
E04  26947588.352 6  26947590.072 7 141610530.447 6 107127453.106 7
E05  24321812.192 7  24321816.290 8 127811978.873 7  96688955.474 8
E06  25335446.791 7  25335449.726 8 133138668.338 7 100718550.103 8
E09  24767497.891 7  24767499.897 9 130154075.409 7  98460722.793 9
E11  27715792.392 6  27715794.649 6 145647460.972 6 110181329.050 6
E30  27491918.374 7  27491924.031 8 144471006.276 7 109291351.078 8
E34  24119423.180 8  24119425.580 9 126748421.379 8  95884368.764 9
E36  23988972.020 8  23988974.961 9 126062897.012 8  95365774.600 9
G01  20813361.397 7                  20813364.528 8  20813366.543 9 109374945.014 7                  85227247.594 8  81676121.993 9
G02  20768424.427 7  20768425.185 7                                 109138800.378 7  85043228.370 7                
G03  21971883.285 7                  21971889.872 7  21971888.475 8 115463018.627 7                  89971217.099 7  86222411.305 8
G08  22442202.168 7                  22442209.351 7  22442207.396 8 117934554.920 7                  91897090.952 7  88068037.609 8
G10  24046209.022 6                  24046214.697 6  24046212.678 7 126363676.369 6                  98465229.922 6  94362499.088 7
G17  24155232.728 5                  24155238.631 6                 126936571.690 5                  98911663.620 6
G32  22160342.307 8                  22160347.770 7  22160345.755 8 116453377.921 8                  90742921.009 7  86961952.357 8
R01  22743562.241 5                 121577322.00415
R02  19631490.161 8  19631492.135 8 104757387.353 8  81477933.363 8
R03  20611566.032 8  20611569.450 7 110335324.582 8  85816385.342 7
R17  19742310.738 8  19742312.367 7 105645090.479 8  82168314.464 7
R18  19689066.320 8  19689068.236 8 105101574.204 8  81745839.935 8
> 2025 06 15 12 08 30.0000000  0 33
C05  39275703.070 6  39275702.656 7 204518893.956 6 158146981.305 7
C06  40279166.901 6  40279165.360 6 209744202.031 6 162187507.533 6
C12  23456191.786 6  23456190.316 7 122142546.180 6  94448541.649 7
C13  40156061.414 5  40156065.597 6 209103146.604 5 161691834.825 6
C16  40594567.408 7  40594570.720 7 211386570.076 7 163457509.628 7
C19  22573996.801 8                 117548732.669 8
C20  26006655.747 5                 135423473.50215
C22  22365829.942 8                 116464746.497 8
C34  25523841.870 4                                
C35  22471454.054 8                 117014753.024 8
C39  39907125.319 6                 207806875.993 6
C44  21835124.799 8                 113701227.871 8
C60  40661102.567 6                 211733032.731 6
E04  26953459.289 6  26953461.785 7 141641384.770 6 107150794.180 7
E05  24313455.706 7  24313459.333 8 127768062.247 7  96655732.853 8
E06  25337975.138 7  25337978.770 8 133151958.136 7 100728603.720 8
E09  24766147.633 8  24766150.141 9 130146982.548 8  98455357.097 9
E11  27722818.387 6  27722820.842 7 145684382.663 6 110209260.016 7
E30  27497570.031 7  27497575.087 8 144500702.116 7 109313815.757 8
E34  24115180.283 8  24115182.375 9 126726122.995 8  95867500.199 9
E36  23991888.680 8  23991891.768 9 126078225.148 8  95377370.229 9
G01  20808392.551 7                  20808395.823 8  20808397.766 9 109348834.001 7                  85206901.354 8  81656623.509 9
G02  20768984.862 7  20768985.271 7                                 109141744.216 7  85045522.275 7                
G03  21963477.621 7                  21963484.698 7  21963483.582 8 115418849.521 7                  89936799.635 7  86189427.900 8
G08  22451063.419 7                  22451070.554 7  22451068.422 8 117981119.384 7                  91933374.914 7  88102809.720 8
G10  24054747.849 6                  24054754.935 6  24054751.341 7 126408547.426 6                  98500194.401 6  94396006.699 7
G17  24146773.681 5                  24146780.714 6                 126892125.419 5                  98877030.213 6
G32  22163443.781 8                  22163449.545 7  22163447.400 8 116469677.057 8                  90755621.651 7  86974123.783 8
R01  22754673.647 5                 121636721.681 5
R02  19634380.230 8  19634382.350 7 104772808.646 8  81489927.694 7
R03  20602461.618 8  20602464.798 8 110286587.355 8  85778478.660 8
R17  19747123.126 8  19747124.558 7 105670844.167 8  82188345.072 7
R18  19683651.459 8  19683653.147 7 105072669.267 8  81723358.311 7
> 2025 06 15 12 08 45.0000000  0 32
C05  39275389.214 6  39275388.850 7 204517260.845 6 158145718.493 7
C06  40273791.589 5  40273790.332 6 209716214.180 5 162165865.592 6
C12  23449191.848 6  23449191.000 7 122106095.056 6  94420355.347 7
C13  40158408.992 5  40158412.034 6 209115364.953 5 161701282.857 6
C16  40589548.945 7  40589552.392 7 211360438.396 7 163437302.965 7
C19  22577496.790 8                 117566958.561 8
C20  26015568.551 5                 135469897.097 5
C22  22359815.807 8                 116433429.031 8
C35  22476831.080 8                 117042751.229 8
C39  39902954.215 7                 207785155.228 7
C44  21832223.104 8                 113686116.515 8
C60  40661025.838 6                 211732632.980 6
E04  26959341.741 6  26959344.643 7 141672297.921 6 107174179.777 7
E05  24305104.781 7  24305109.162 8 127724182.025 7  96622537.796 8
E06  25340520.950 7  25340524.403 8 133165335.647 7 100738723.724 8
E09  24764816.372 8  24764818.773 9 130139986.192 8  98450064.404 9
E11  27729844.258 6  27729847.817 6 145721309.488 6 110237194.867 6
E30  27503232.112 6  27503236.868 8 144530453.967 6 109336322.798 8
E34  24110942.423 8  24110944.833 9 126703854.819 8  95850654.491 9
E36  23994813.829 8  23994816.555 9 126093594.451 8  95388996.993 9
G01  20803437.106 7                  20803440.291 8  20803442.007 9 109322792.018 7                  85186608.929 8  81637176.599 9
G02  20769559.681 7  20769560.187 7                                 109144764.787 7  85047875.950 7                
G03  21955084.234 7                  21955090.472 7  21955088.909 8 115374738.032 7                  89902427.067 7  86156487.547 8
G08  22459934.914 7                  22459942.292 7  22459939.686 8 118027740.842 7                  91969703.295 7  88137624.426 8
G10  24063288.192 6                  24063294.677 6  24063291.400 7 126453426.206 6                  98535164.849 6  94429519.999 7
G17  24138326.300 6                  24138332.956 6                 126847731.381 6                  98842437.450 6
G32  22166568.075 7                  22166573.447 7  22166571.165 8 116486094.391 7                  90768414.371 7  86986383.459 8
R01  22765792.871 5                 121696159.762 5
R02  19637300.848 8  19637303.152 7 104788393.960 8  81502049.588 7
R03  20593378.789 8  20593381.664 7 110237967.477 8  85740663.226 7
R17  19751959.996 8  19751961.614 7 105696726.399 8  82208475.690 7
R18  19678257.468 8  19678259.060 8 105043874.481 8  81700962.390 8
> 2025 06 15 12 09  0.0000000  0 31
C05  39275074.006 6  39275072.652 7 204515615.610 6 158144446.303 7
C06  40268418.669 5  40268418.247 6 209688237.972 5 162144232.703 6
C12  23442201.858 6  23442200.712 7 122069696.467 6  94392209.678 7
C13  40160751.345 5  40160755.383 6 209127562.729 5 161710714.938 6
C16  40584533.413 7  40584536.751 7 211334321.121 7 163417107.435 7
C19  22581013.498 8                 117585272.322 8
C20  26024488.335 5                 135516332.835 5
C22  22353817.748 8                 116402194.750 8
C35  22482223.071 8                 117070828.336 8
C39  39898787.725 6                 207763458.734 6
C44  21829338.565 8                 113671096.373 8
C60  40660946.551 6                 211732221.128 6
E04  26965235.016 6  26965238.867 7 141703271.026 6 107197610.683 7
E05  24296761.859 7  24296766.142 9 127680339.799 7  96589371.483 9
E06  25343083.733 7  25343086.949 8 133178802.177 7 100748911.026 8
E09  24763503.355 8  24763506.020 9 130133087.678 8  98444845.717 9
E11  27736872.002 5  27736876.148 7 145758242.830 5 110265134.583 7
E30  27508904.686 7  27508909.314 8 144560263.055 7 109358873.100 8
E34  24106710.830 8  24106713.360 9 126681618.350 8  95833832.757 9
E36  23997746.358 8  23997749.330 9 126109006.306 8  95400655.949 9
G01  20798494.846 7                  20798498.082 8  20798499.921 9 109296820.636 7                  85166371.503 8  81617782.393 9
G02  20770148.883 8  20770149.837 7                                 109147863.484 8  85050290.533 7                
G03  21946701.282 7                  21946707.666 7  21946705.865 8 115330685.692 7                  89868100.560 7  86123591.326 8
G08  22468818.000 7                  22468824.912 7  22468821.845 8 118074420.501 7                  92006076.970 7  88172482.502 8
G10  24071830.052 6                  24071836.519 6  24071833.992 6 126498313.779 6                  98570142.073 6  94463039.899 6
G17  24129891.723 6                  24129895.147 6                 126803391.245 6                  98807886.738 6
G32  22169715.263 7                  22169720.183 7  22169717.898 8 116502631.043 7                  90781300.046 7  86998732.251 8
R02  19640252.415 8  19640254.452 7 104804144.459 8  81514299.976 7
R03  20584318.555 8  20584321.608 7 110189467.038 8  85702940.692 7
R17  19756821.424 8  19756822.672 8 105722738.373 8  82228707.183 8
R18  19672883.876 8  19672885.701 8 105015191.509 8  81678653.405 8
> 2025 06 15 12 09 15.0000000  0 31
C05  39274757.138 5  39274756.000 7 204513964.901 5 158143169.891 7
C06  40263051.037 6  40263049.089 6 209660280.221 6 162122614.021 6
C12  23435223.229 5  23435221.901 7 122033357.319 5  94364109.996 7
C13  40163090.441 5  40163095.596 6 209139746.313 5 161720136.021 6
C16  40579521.383 6  40579525.293 7 211308224.929 6 163396928.241 7
C19  22584548.868 8                 117603680.378 8
C20  26033409.799 6                 135562787.045 6
C22  22347836.155 8                 116371050.322 8
C35  22487631.287 8                 117098990.781 8
C39  39894627.167 7                 207741793.170 7
C44  21826472.691 8                 113656174.193 8
C60  40660866.634 6                 211731803.719 6
E04  26971142.287 6  26971145.489 7 141734310.371 6 107221091.746 7
E05  24288427.165 8  24288431.791 9 127636542.412 8  96556239.101 9
E06  25345664.736 7  25345667.726 8 133192364.165 7 100759170.584 8
E09  24762210.789 8  24762213.178 9 130126293.675 8  98439706.094 9
E11  27743902.405 5  27743906.793 7 145795189.164 5 110293084.239 7
E30  27514588.323 7  27514593.862 8 144590135.650 7 109381471.485 8
E34  24102486.713 8  24102489.214 9 126659420.258 8  95817040.055 9
E36  24000688.465 8  24000691.503 9 126124467.349 8  95412352.107 9
G01  20793567.175 7                  20793570.705 8  20793572.551 9 109270926.620 7                  85146194.368 8  81598445.966 9
G02  20770755.010 7  20770755.641 7                                 109151046.978 7  85052771.166 7                
G03  21938330.550 7                  21938337.162 7  21938335.909 8 115286699.207 7                  89833825.416 7  86090744.318 8
G08  22477712.577 7                  22477720.348 7  22477717.350 8 118121164.528 7                  92042500.855 7  88207388.688 8
G10  24080375.287 6                  24080380.998 6  24080378.017 6 126543216.665 6                  98605131.309 6  94496571.216 6
G17  24121463.327 6                  24121469.201 6                 126759111.959 6                  98773383.449 6
G32  22172885.462 8                  22172891.062 7  22172888.633 8 116519293.510 8                  90794283.817 7  87011174.990 8
R02  19643236.118 8  19643238.167 7 104820066.570 8  81526683.855 7
R03  20575281.852 8  20575284.807 7 110141092.903 8  85665316.410 7
R17  19761707.009 8  19761708.973 7 105748886.601 8  82249044.683 7
R18  19667532.809 8  19667534.977 8 104986627.441 8  81656436.907 8
> 2025 06 15 12 09 30.0000000  0 32
C05  39274439.372 6  39274438.374 7 204512311.105 6 158141891.038 7
C06  40257686.478 6  40257683.829 6 209632343.318 6 162101011.477 6
C12  23428256.783 6  23428255.380 7 121997080.147 6  94336058.199 7
C13  40165425.432 5  40165433.253 6 209151918.283 5 161729548.105 6
C16  40574514.631 7  40574518.331 7 211282152.278 7 163376767.218 7
C19  22588102.323 8                 117622184.922 8
C20  26042335.598 6                 135609261.952 6
C22  22341873.101 8                 116339998.240 8
C35  22493056.202 8                 117127240.916 8
C39  39890472.893 6                 207720160.977 6
C44  21823626.744 8                 113641352.445 8
C60  40660785.836 6                 211731383.187 6
E04  26977061.691 6  26977065.001 7 141765418.407 6 107244624.701 7
E05  24280102.033 8  24280106.517 8 127592792.518 8  96523142.619 8
E06  25348264.412 7  25348267.145 8 133206023.914 7 100769504.097 8
E09  24760938.155 8  24760940.654 9 130119606.559 8  98434647.363 9
E11  27750936.294 5  27750940.562 6 145832150.980 5 110321045.512 6
E30  27520285.910 7  27520290.807 8 144620073.924 7 109404119.590 8
E34  24098270.268 8  24098272.843 9 126637263.060 8  95800278.293 9
E36  24003640.671 8  24003643.427 9 126139979.980 8  95424087.310 9
G01  20788654.942 7                  20788658.107 8  20788660.137 9 109245112.535 7                  85126079.506 8  81579169.241 9
G02  20771377.310 8  20771377.951 7                                 109154317.761 8  85055319.837 7                
G03  21929973.017 7                  21929979.874 7  21929978.470 8 115242781.104 7                  89799603.589 7  86057948.392 8
G08  22486620.268 7                  22486628.264 7  22486625.417 8 118167975.005 7                  92078976.512 7  88242344.537 8
G10  24088922.622 6                  24088929.423 6  24088925.976 6 126588137.028 6                  98640134.178 6  94530115.581 6
G17  24113049.726 6                  24113054.875 6                 126714896.136 6                  98738929.596 6
G32  22176080.804 7                  22176086.667 7  22176083.750 8 116536084.036 7                  90807367.335 7  87023713.375 8
R02  19646252.181 8  19646254.742 7 104836162.611 8  81539202.984 7
R03  20566268.599 8  20566272.059 7 110092847.848 8  85627792.501 7
R17  19766619.680 8  19766621.637 7 105775173.790 8  82269490.245 7
R18  19662204.869 8  19662206.731 8 104958184.995 8  81634315.027 8
R19  23423895.006 5                 125302081.18415
> 2025 06 15 12 09 45.0000000  0 32
C05  39274120.379 6  39274119.482 7 204510651.572 6 158140607.811 7
C06  40252324.270 6  40252322.478 6 209604424.758 6 162079423.063 6
C12  23421301.872 6  23421299.594 7 121960862.477 6  94308052.429 7
C13  40167761.295 4  40167767.362 6 209164075.83214 161738949.14516
C16  40569512.002 7  40569515.605 7 211256100.610 7 163356622.463 7
C19  22591674.009 8                 117640783.183 8
C20  26051264.466 6                 135655754.755 6
C22  22335927.678 8                 116309036.015 8
C35  22498497.747 8                 117155575.983 8
C39  39886324.178 6                 207698559.562 6
C44  21820798.879 8                 113626628.720 8
C60  40660703.777 6                 211730956.858 6
E04  26982994.737 6  26982997.171 7 141796592.135 6 107268207.419 7
E05  24271785.101 7  24271789.663 8 127549087.649 7  96490080.201 8
E06  25350881.466 8  25350884.620 8 133219778.716 8 100779909.515 8
E09  24759685.896 8  24759688.012 9 130113023.795 8  98429667.546 9
E11  27757973.469 6  27757976.787 7 145869125.549 6 110349016.482 7
E30  27525995.939 7  27525999.862 8 144650075.154 7 109426815.303 8
E34  24094061.037 8  24094063.610 9 126615144.221 8  95783545.557 9
E36  24006602.066 8  24006604.750 9 126155541.602 8  95435859.570 9
G01  20783757.924 7                  20783760.516 8  20783762.649 8 109219375.944 7                  85106025.044 8  81559950.386 8
G02  20772015.662 8  20772016.552 7                                 109157673.229 8  85057934.483 7                
G03  21921628.320 7                  21921635.010 7  21921633.674 8 115198929.015 7                  89765433.120 7  86025201.713 8
G08  22495540.575 7                  22495548.192 7  22495546.131 8 118214849.031 7                  92115501.711 7  88277347.874 8
G10  24097473.968 6                  24097480.095 6  24097476.533 6 126633072.195 6                  98675148.520 6  94563670.970 6
G17  24104648.523 6                  24104652.713 6                 126670741.521 6                  98704523.413 6
G32  22179299.899 7                  22179305.528 7  22179302.873 8 116552999.837 7                  90820548.479 7  87036345.291 8
R02  19649301.032 8  19649303.167 8 104852429.570 8  81551855.048 8
R03  20557279.904 8  20557283.040 7 110044729.491 8  85590367.128 7
R17  19771557.613 8  19771559.374 7 105801596.914 8  82290041.561 7
R18  19656898.605 8  19656900.973 8 104929861.924 8  81612285.999 8
R19  23412417.902 5                 125240697.239 5
> 2025 06 15 12 10  0.0000000  0 33
C05  39273799.502 5  39273799.118 7 204508982.390 5 158139317.081 7
C06  40246965.238 6  40246964.001 6 209576520.579 6 162057845.752 6
C12  23414357.172 6  23414355.193 7 121924700.739 6  94280089.921 7
C13  40170091.787 4  40170098.611 5 209176215.225 4 161748335.991 5
C16  40564512.550 7  40564516.065 7 211230066.013 7 163336490.916 7
C19  22595262.734 8                 117659470.938 8
C20  26060196.565 6                 135702261.171 6
C22  22329997.872 8                 116278159.790 8
C35  22503954.809 8                 117183991.929 8
C39  39882180.996 6                 207676985.050 6
C44  21817989.507 8                 113611999.176 8
C60  40660619.921 6                 211730520.808 6
E04  26988937.851 6  26988941.066 7 141827827.472 6 107291836.658 7
E05  24263476.044 7  24263480.663 8 127505424.043 7  96457049.002 8
E06  25353516.086 7  25353519.464 8 133233624.438 7 100790383.703 8
E09  24758452.067 8  24758454.465 9 130106541.338 8  98424763.609 9
E11  27765011.450 6  27765014.360 7 145906109.034 6 110376994.116 7
E30  27531714.940 7  27531720.084 8 144680135.073 7 109449555.384 8
E34  24089858.762 8  24089861.024 9 126593059.844 8  95766838.874 9
E36  24009571.537 8  24009574.564 9 126171148.207 8  95447665.862 9
G01  20778874.426 7                  20778877.114 8  20778878.974 8 109193713.031 7                  85086027.945 8  81540786.530 8
G02  20772669.699 8  20772670.134 7                                 109161109.475 8  85060612.071 7                
G03  21913295.127 7                  21913301.990 7  21913300.515 8 115155138.979 7                  89731311.021 7  85992501.402 8
G08  22504471.525 7                  22504478.958 7  22504477.090 8 118261782.392 7                  92152073.114 7  88312395.426 8
G10  24106025.983 6                  24106032.520 6  24106029.357 6 126678017.894 6                  98710171.158 6  94597234.333 6
G17  24096255.329 6                  24096261.111 6                 126626644.432 6                  98670162.006 6
G32  22182542.309 7                  22182547.993 7  22182545.162 8 116570036.724 7                  90833823.944 7  87049067.627 8
R01  22821517.041 5                 121993979.96315
R02  19652380.819 8  19652382.989 7 104868863.241 8  81564636.771 7
R03  20548314.194 8  20548317.306 8 109996734.256 8  85553037.531 8
R17  19776519.843 8  19776521.397 8 105828151.854 8  82310695.388 8
R18  19651614.636 8  19651616.278 8 104901654.448 8  81590346.854 8
R19  23400942.959 5                 125179311.902 5
> 2025 06 15 12 10 15.0000000  0 32
C05  39273477.252 6  39273476.612 7 204507303.698 6 158138019.019 7
C06  40241609.683 6  40241608.030 6 209548630.971 6 162036279.763 6
C12  23407423.842 6  23407421.208 7 121888595.241 6  94252170.863 7
C13  40172417.028 4  40172426.536 5 209188336.38214 161757708.85815
C16  40559515.518 7  40559519.466 7 211204048.734 7 163316372.753 7
C19  22598868.360 8                 117678248.255 8
C20  26069128.983 6                 135748781.201 6
C22  22324084.818 8                 116247369.860 8
C35  22509427.663 8                 117212488.807 8
C39  39878042.912 6                 207655437.610 6
C44  21815198.235 8                 113597464.166 8
C60  40660534.174 6                 211730075.196 6
E04  26994893.489 6  26994896.593 7 141859124.313 6 107315512.448 7
E05  24255174.922 7  24255179.509 8 127461802.047 7  96424049.277 8
E06  25356167.896 7  25356171.650 8 133247561.148 7 100800926.708 8
E09  24757237.656 7  24757240.020 9 130100159.360 7  98419935.707 9
E11  27772050.378 6  27772053.724 6 145943101.316 6 110404978.468 6
E30  27537446.092 7  27537451.497 8 144710253.627 7 109472339.826 8
E34  24085662.840 8  24085665.017 9 126571010.167 8  95750158.440 9
E36  24012550.082 8  24012553.019 9 126186799.990 8  95459506.320 9
G01  20774004.554 7                  20774007.834 8  20774009.658 8 109168124.103 7                  85066088.514 8  81521677.891 8
G02  20773338.962 7  20773339.327 7                                 109164626.643 7  85063352.722 7                
G03  21904974.418 7                  21904981.009 7  21904979.965 8 115111411.305 7                  89697237.579 7  85959847.660 8
G08  22513414.026 7                  22513421.719 7  22513418.925 8 118308774.813 7                  92188690.528 7  88347487.129 8
G10  24114580.888 6                  24114587.246 6  24114584.524 6 126722974.263 6                  98745202.033 6  94630805.542 6
G17  24087874.678 5                  24087880.322 5                 126582605.169 5                  98635845.771 5
G32  22185806.802 7                  22185812.783 7  22185809.951 8 116587194.703 7                  90847193.771 7  87061880.374 8
R02  19655491.281 8  19655493.679 7 104885462.929 8  81577547.646 7
R03  20539371.288 8  20539374.915 7 109948862.640 8  85515804.115 7
R17  19781506.787 8  19781508.834 8 105854838.795 8  82331451.898 8
R18  19646352.281 8  19646353.906 8 104873563.095 8  81568498.017 8
R19  23389467.516 5                 125117925.854 5
> 2025 06 15 12 10 30.0000000  0 31
C05  39273153.191 6  39273152.077 7 204505614.397 6 158136712.754 7
C06  40236256.550 6  40236254.281 6 209520754.947 6 162014724.287 6
C12  23400501.001 6  23400498.518 7 121852545.050 6  94224294.518 7
C16  40554522.179 7  40554526.150 7 211178047.677 7 163296267.114 7
C19  22602491.566 8                 117697113.771 8
C20  26078064.661 6                 135795313.497 6
C22  22318188.383 8                 116216665.171 8
C35  22514915.211 8                 117241065.373 8
C39  39873910.120 6                 207633916.184 6
C44  21812424.735 8                 113583022.679 8
C60  40660446.676 6                 211729618.918 6
E04  27000862.435 6  27000863.601 7 141890481.236 6 107339233.755 7
E05  24246882.002 7  24246886.268 8 127418220.818 7  96391080.387 8
E06  25358837.253 7  25358840.845 8 133261587.606 7 100811537.608 8
E09  24756042.159 8  24756044.469 9 130093876.816 8  98415183.007 9
E11  27779091.179 5  27779094.328 6 145980101.343 5 110432968.648 6
E30  27543189.602 7  27543193.576 8 144740429.366 7 109495167.542 8
E34  24081473.616 8  24081475.501 9 126548994.167 8  95733503.502 9
E36  24015536.995 8  24015539.871 9 126202495.832 8  95471380.125 9
G01  20769149.169 7                  20769152.542 8  20769154.125 8 109142608.228 7                  85046206.006 8  81502623.827 8
G02  20774023.699 7  20774024.038 7                                 109168223.770 7  85066155.666 7                
G03  21896664.805 7                  21896671.847 7  21896670.309 8 115067745.102 7                  89663211.958 7  85927239.767 8
G08  22522367.663 7                  22522374.833 7  22522372.327 8 118355824.938 7                  92225352.930 7  88382621.928 8
G10  24123137.780 6                  24123144.555 6  24123142.043 6 126767939.969 6                  98780240.161 6  94664383.743 6
G17  24079506.233 5                  24079510.797 5                 126538622.945 5                  98601573.967 5
G32  22189094.485 8                  22189100.441 7  22189097.711 8 116604472.416 8                  90860656.918 7  87074782.555 8
R02  19658633.243 8  19658635.054 7 104902227.702 8  81590586.912 7
R03  20530451.526 8  20530454.539 7 109901112.990 8  85478665.515 7
R17  19786518.513 8  19786520.119 7 105881656.506 8  82352310.072 7
R18  19641111.453 8  19641113.584 8 104845587.114 8  81546738.914 8
R19  23377992.832 4  23377996.449 5 125056538.099 4
> 2025 06 15 12 10 45.0000000  0 31
C05  39272826.282 6  39272825.520 7 204503914.048 6 158135397.939 7
C06  40230905.513 6  40230903.713 6 209492892.075 6 161993179.015 6
C12  23393588.264 6  23393586.201 7 121816550.081 6  94196460.945 7
C16  40549532.570 7  40549536.047 7 211152062.505 7 163276173.756 7
C19  22606131.247 8                 117716066.911 8
C20  26087003.256 6                 135841857.478 6
C22  22312308.134 8                 116186045.496 8
C35  22520418.363 8                 117269721.162 8
C39  39869781.894 6                 207612420.364 6
C44  21809669.470 8                 113568674.437 8
C60  40660357.276 6                 211729151.559 6
E04  27006840.162 6  27006841.694 6 141921897.688 6 107363000.121 6
E05  24238596.472 7  24238600.795 8 127374680.064 7  96358142.100 8
E06  25361523.685 7  25361526.969 8 133275703.217 7 100822215.964 8
E09  24754865.300 8  24754867.748 9 130087693.239 8  98410505.161 9
E11  27786131.983 5  27786136.662 6 146017108.571 5 110460964.311 6
E30  27548942.141 7  27548946.589 8 144770661.750 7 109518038.067 8
E34  24077290.363 8  24077292.434 9 126527011.518 8  95716873.762 9
E36  24018532.246 8  24018535.046 9 126218235.324 8  95483286.929 9
G01  20764307.513 7                  20764310.611 8  20764312.419 8 109117165.070 7                  85026380.196 8  81483624.086 8
G02  20774723.335 8  20774723.669 7                                 109171900.259 8  85069020.472 7                
G03  21888366.994 7                  21888373.710 7  21888372.210 8 115024139.933 7                  89629233.943 7  85894677.504 8
G08  22531331.174 7                  22531339.013 7  22531336.609 8 118402931.993 7                  92262059.685 7  88417799.205 8
G10  24131696.220 6                  24131703.625 6  24131700.451 7 126812914.380 6                  98815285.115 6  94697968.469 7
G17  24071148.061 6                  24071152.577 6                 126494697.788 6                  98567346.467 6
G32  22192404.656 7                  22192411.098 7  22192407.892 8 116621869.290 7                  90874212.929 7  87087773.736 8
R02  19661806.037 8  19661807.877 8 104919156.756 8  81603753.943 8
R03  20521554.177 8  20521557.630 7 109853486.038 8  85441622.371 7
R17  19791553.821 8  19791556.767 8 105908604.425 8  82373269.582 8
R18  19635892.065 8  19635893.679 8 104817726.292 8  81525069.414 8
R19  23366515.949 5  23366520.988 5 124995148.818 5  97218414.81715
> 2025 06 15 12 11  0.0000000  0 31
C05  39272498.318 6  39272497.996 7 204502206.537 6 158134077.596 7
C06  40225557.821 6  40225556.104 6 209465046.343 6 161971646.973 6
C12  23386687.307 6  23386684.790 7 121780614.293 6  94168673.113 7
C16  40544545.797 6  40544549.538 7 211126097.144 6 163256095.685 7
C19  22609788.614 8                 117735111.295 8
C20  26095944.535 6                 135888416.696 6
C22  22306444.815 8                 116155514.712 8
C34  25431732.511 4                 132429708.24714
C35  22525936.931 8                 117298459.825 8
C39  39865660.120 6                 207590954.073 6
C44  21806932.857 8                 113554423.484 8
C60  40660266.101 6                 211728676.951 6
E04  27012830.116 6  27012831.735 6 141953377.450 6 107386814.330 6
E05  24230319.198 7  24230323.802 8 127331183.884 7  96325237.582 8
E06  25364227.498 7  25364230.762 8 133289911.771 7 100832964.624 8
E09  24753708.391 8  24753710.515 9 130081612.496 8  98405905.130 9
E11  27793176.165 5  27793181.151 6 146054126.940 5 110488968.414 6
E30  27554707.169 7  27554711.237 8 144800954.387 7 109540954.198 8
E34  24073114.150 8  24073116.392 9 126505066.195 8  95700272.264 9
E36  24021536.219 8  24021539.242 9 126234022.334 8  95495229.686 9
G01  20759480.267 7                  20759483.634 8  20759485.316 8 109091798.751 7                  85006614.244 8  81464681.714 8
G02  20775438.649 7  20775439.139 7                                 109175660.204 7  85071950.301 7                
G03  21880081.441 7                  21880087.853 7  21880086.807 8 114980599.922 7                  89595306.695 7  85862163.895 8
G08  22540307.328 7                  22540314.850 7  22540312.917 8 118450099.538 7                  92298813.532 7  88453021.649 8
G10  24140256.654 6                  24140264.692 6  24140261.651 7 126857901.240 6                  98850339.812 6  94731562.523 7
G17  24062801.006 6                  24062804.364 5                 126450833.760 6                  98533166.795 5
G32  22195739.323 8                  22195744.721 7  22195742.066 8 116639389.060 8                  90887864.678 7  87100856.676 8
R02  19665009.626 8  19665012.035 7 104936253.680 8  81617051.545 7
R03  20512680.514 8  20512683.982 7 109805986.051 8  85404677.963 7
R17  19796615.392 8  19796617.379 8 105935686.443 8  82394333.350 8
R18  19630694.674 8  19630696.885 8 104789985.023 8  81503492.883 8
> 2025 06 15 12 11 15.0000000  0 32
C05  39272169.913 6  39272169.515 7 204500496.368 6 158132755.189 7
C06  40220214.627 6  40220212.470 6 209437222.400 6 161950131.760 6
C12  23379798.392 6  23379796.008 7 121744742.596 6  94140934.842 7
C13  40181696.396 5  40181702.946 6 209236636.02515 161795070.65016
C16  40539564.199 7  40539567.980 7 211100156.208 7 163236036.545 7
C19  22613464.219 8                 117754251.337 8
C20  26104889.696 6                 135934995.563 6
C22  22300599.583 8                 116125077.584 8
C34  25422541.331 4                 132381852.60614
C35  22531472.907 8                 117327285.884 8
C39  39861543.629 6                 207569522.001 6
C44  21804215.590 8                 113540274.489 8
C60  40660174.670 6                 211728199.705 6
E04  27018833.744 6  27018835.190 6 141984924.884 6 107410679.723 6
E05  24222051.950 7  24222056.177 8 127287737.190 7  96292370.467 8
E06  25366950.176 7  25366952.995 8 133304217.773 7 100843787.021 8
E09  24752571.340 8  24752573.869 9 130075639.265 8  98401386.415 9
E11  27800224.037 5  27800228.954 6 146091161.13015 110516984.389 6
E30  27560483.625 7  27560488.235 8 144831311.634 7 109563919.242 8
E34  24068945.917 8  24068948.458 9 126483162.883 8  95683702.561 9
E36  24024550.236 8  24024553.354 9 126249861.512 8  95507211.924 9
G01  20754668.879 7                  20754672.114 8  20754673.588 8 109066514.038 7                  84986911.876 8  81445800.287 8
G02  20776170.837 8  20776171.241 7                                 109179508.288 8  85074948.808 7                
G03  21871809.378 7                  21871815.987 7  21871815.028 8 114937129.814 7                  89561433.861 7  85829702.460 8
G08  22549294.994 7                  22549302.803 7  22549300.780 8 118497331.845 7                  92335617.921 7  88488292.508 8
G10  24148820.949 6                  24148828.745 6  24148825.540 7 126902905.070 6                  98885407.667 6  94765169.247 7
G17  24054467.689 6                  24054470.908 6                 126407035.683 6                  98499038.492 6
G32  22199097.372 7                  22199102.972 7  22199100.061 8 116657036.176 7                  90901615.672 7  87114034.724 8
R02  19668246.034 8  19668248.423 8 104953522.980 8  81630483.207 8
R03  20503831.642 8  20503835.597 8 109758617.932 8  85367836.105 8
R17  19801702.388 8  19801704.315 8 105962907.278 8  82415505.088 8
R18  19625521.540 8  19625523.249 7 104762368.188 8  81482013.113 7
> 2025 06 15 12 11 30.0000000  0 32
C05  39271840.631 6  39271840.467 7 204498783.215 6 158131430.471 7
C06  40214875.348 6  40214873.559 6 209409419.861 6 161928633.105 6
C12  23372921.574 6  23372920.013 7 121708934.749 6  94113245.986 7
C13  40184011.172 5  40184015.818 6 209248679.945 5 161804383.751 6
C16  40534587.299 6  40534591.002 7 211074239.373 6 163215996.034 7
C19  22617158.710 8                 117773486.430 8
C20  26113838.291 6                 135981593.487 6
C22  22294772.785 8                 116094733.760 8
C35  22537025.339 8                 117356198.777 8
C39  39857434.713 6                 207548123.722 6
C44  21801517.845 8                 113526227.194 8
C60  40660082.459 6                 211727719.375 6
E04  27024849.127 6  27024851.413 6 142016539.298 6 107434595.838 6
E05  24213793.125 7  24213797.820 8 127244339.729 7  96259540.597 8
E06  25369690.981 8  25369693.729 8 133318620.676 8 100854682.723 8
E09  24751455.566 8  24751457.536 9 130069773.082 8  98396948.702 9
E11  27807275.714 6  27807279.447 6 146128210.47116 110545011.896 6
E30  27566272.617 7  27566277.373 8 144861732.905 7 109586932.699 8
E34  24064785.957 8  24064788.381 9 126461301.286 8  95667164.403 9
E36  24027574.271 8  24027577.313 9 126265752.433 8  95519233.280 9
G01  20749872.830 7                  20749875.961 8  20749877.721 8 109041310.670 7                  84967272.911 8  81426979.599 8
G02  20776919.770 8  20776920.502 7                                 109183444.081 8  85078015.659 7                
G03  21863550.574 7                  21863557.497 7  21863556.057 8 114893729.261 7                  89527615.318 7  85797293.003 8
G08  22558295.900 7                  22558303.194 7  22558300.647 8 118544628.274 7                  92372472.250 7  88523611.205 8
G10  24157387.711 6                  24157395.735 6  24157391.869 7 126947925.308 6                  98920488.283 6  94798788.185 7
G17  24046144.426 6                  24046148.901 6                 126363303.785 6                  98464961.715 6
G32  22202479.743 7                  22202485.099 7  22202481.864 8 116674810.001 7                  90915465.397 7  87127307.360 8
R02  19671514.339 8  19671516.603 7 104970963.701 8  81644048.211 7
R03  20495007.550 8  20495010.730 7 109711381.375 8  85331096.618 7
R17  19806814.888 8  19806816.296 8 105990266.090 8  82436784.117 8
R18  19620371.240 8  19620373.478 7 104734875.827 8  81460630.156 7
R19  23332095.614 5  23332097.845 6 124811014.25115  97075195.778 6
> 2025 06 15 12 11 45.0000000  0 34
C05  39271511.337 5  39271510.935 7 204497067.680 5 158130103.927 7
C06  40209540.742 6  40209538.279 6 209381639.499 6 161907151.591 6
C12  23366057.525 6  23366055.905 7 121673191.642 6  94085607.191 7
C13  40186322.491 5  40186326.884 6 209260713.066 5 161813688.483 6
C16  40529614.836 6  40529618.741 7 211048347.304 6 163195974.672 7
C19  22620870.679 8                 117792817.053 8
C20  26122791.033 6                 136028210.893 6
C22  22288963.212 8                 116064483.989 8
C34  25404180.467 5                 132286230.72915
C35  22542594.736 8                 117385199.153 8
C39  39853331.982 6                 207526759.890 6
C44  21798839.902 8                 113512282.439 8
C60  40659989.654 6                 211727236.646 6
E04  27030878.989 6  27030880.606 6 142048221.223 6 107458562.991 6
E05  24205544.598 7  24205548.994 9 127200992.359 7  96226748.644 9
E06  25372450.088 7  25372453.014 8 133333121.073 7 100865652.172 8
E09  24750359.692 8  24750361.785 9 130064014.674 8  98392592.496 9
E11  27814330.329 6  27814332.950 6 146165275.702 6 110573051.521 6
E30  27572072.942 7  27572078.608 8 144892218.623 7 109609994.929 8
E34  24060633.522 8  24060636.311 9 126439482.146 8  95650658.388 9
E36  24030608.203 8  24030611.308 9 126281695.813 8  95531294.345 9
G01  20745092.275 7                  20745095.488 8  20745097.242 9 109016189.504 7                  84947697.993 8  81408220.310 9
G02  20777685.715 8  20777686.195 7                                 109187468.327 8  85081151.428 7                
G03  21855305.130 7                  21855312.165 7  21855310.468 8 114850399.162 7                  89493851.613 7  85764936.124 8
G08  22567308.120 7                  22567316.165 7  22567312.676 8 118591989.125 7                  92409376.780 7  88558978.031 8
G10  24165958.379 5                  24165965.873 6  24165963.005 7 126992962.419 5                  98955582.141 6  94832419.788 7
G17  24037836.149 6                  24037840.073 6                 126319638.650 6                  98430936.980 6
G22  24699272.016 5                                                 129795541.95415                                
G32  22205885.736 7                  22205891.790 7  22205888.553 8 116692711.038 7                  90929414.236 7  87140675.022 8
R02  19674814.965 8  19674817.288 8 104988576.475 8  81657747.021 8
R03  20486208.127 8  20486212.188 8 109664277.789 8  85294460.524 8
R17  19811953.703 8  19811955.316 7 106017763.884 8  82458171.298 7
R18  19615244.759 8  19615246.146 7 104707508.906 8  81439344.811 7
R19  23320618.387 5                 124749650.00215
> 2025 06 15 12 12  0.0000000  0 33
C05  39271181.168 6  39271180.773 7 204495348.810 6 158128774.786 7
C06  40204209.373 6  40204207.484 6 209353880.304 6 161885686.468 6
C12  23359205.896 6  23359204.142 7 121637512.516 6  94058017.857 7
C13  40188630.904 6  40188635.632 6 209272734.026 6 161822983.846 6
C16  40524646.847 6  40524650.790 7 211022479.108 6 163175971.797 7
C19  22624601.064 8                 117812241.983 8
C20  26131746.131 6                 136074846.547 6
C22  22283171.798 8                 116034327.390 8
C34  25395004.613 5                 132238449.570 5
C35  22548179.994 8                 117414285.780 8
C39  39849235.245 6                 207505429.586 6
C44  21796181.713 8                 113498439.332 8
C60  40659896.052 6                 211726750.496 6
E04  27036920.211 5  27036922.147 6 142079969.456 5 107482580.346 6
E05  24197305.446 8  24197309.531 8 127157694.299 8  96193993.979 8
E06  25375227.615 8  25375230.611 8 133347717.772 8 100876694.479 8
E09  24749284.360 8  24749286.326 9 130058362.989 8  98388317.053 9
E11  27821385.879 6  27821389.002 6 146202355.828 6 110601102.310 6
E30  27577886.552 7  27577891.778 8 144922767.545 7 109633104.945 8
E34  24056489.416 8  24056492.076 9 126417704.556 8  95634183.799 9
E36  24033651.783 8  24033655.040 9 126297690.632 8  95543394.302 9
G01  20740327.529 7                  20740330.552 8  20740332.115 8 108991149.692 7                  84928186.471 8  81389521.758 8
G02  20778468.156 8  20778468.720 7                                 109191580.080 8  85084355.385 7                
G03  21847072.732 7                  21847079.665 7  21847078.800 8 114807138.559 7                  89460142.087 7  85732631.175 8
G08  22576332.942 7                  22576340.436 7  22576337.471 8 118639413.115 7                  92446330.429 7  88594391.979 8
G10  24174531.877 6                  24174539.036 6  24174536.720 7 127038015.264 6                  98990688.225 6  94866063.051 7
G17  24029535.999 5                  24029542.621 6                 126276039.664 5                  98396963.692 6
G32  22209316.449 8                  22209322.408 7  22209319.699 8 116710738.079 8                  90943461.310 7  87154136.783 8
R02  19678147.450 8  19678150.357 8 105006359.797 8  81671578.480 8
R03  20477433.528 8  20477436.474 7 109617305.797 8  85257926.763 7
R17  19817117.892 8  19817119.864 8 106045399.212 8  82479665.409 8
R18  19610141.075 8  19610142.819 7 104680266.679 8  81418156.434 7
R19  23309151.208 6                 124688293.569 6
> 2025 06 15 12 12 15.0000000  0 33
C05  39270850.296 6  39270849.358 7 204493624.041 6 158127441.101 7
C06  40198882.590 6  40198880.147 7 209326139.787 6 161864235.773 7
C12  23352366.205 6  23352363.880 7 121601895.027 6  94030476.182 7
C13  40190936.467 6  40190941.590 6 209284740.555 6 161832268.039 6
C16  40519683.131 6  40519687.053 7 210996632.262 6 163155985.391 7
C19  22628348.869 8                 117831758.518 8
C20  26140704.583 6                 136121497.592 6
C22  22277398.052 8                 116004261.532 8
C34  25385833.353 5                 132190690.621 5
C35  22553781.198 7                 117443456.013 7
C39  39845145.212 7                 207484130.330 7
C44  21793542.144 8                 113484695.464 8
C60  40659801.293 6                 211726258.402 6
E04  27042967.263 4  27042975.706 6 142111781.28914 107506645.696 6
E05  24189074.829 8  24189079.230 8 127114443.183 8  96161274.804 8
E06  25378023.137 7  25378026.070 8 133362408.096 7 100887807.611 8
E09  24748228.598 8  24748230.703 9 130052815.495 8  98384120.408 9
E11  27828443.677 6  27828447.119 6 146239448.173 6 110629162.392 6
E30  27583711.477 7  27583716.561 8 144953376.869 7 109656260.635 8
E34  24052353.021 8  24052355.219 9 126395966.050 8  95617738.759 9
E36  24036704.754 8  24036708.048 9 126313734.304 8  95555531.231 9
G01  20735577.667 7                  20735580.731 8  20735582.370 9 108966188.833 7                  84908736.461 8  81370882.156 9
G02  20779266.499 8  20779267.395 7                                 109195776.837 8  85087625.600 7                
G03  21838853.157 7                  21838860.343 7  21838859.045 8 114763945.057 7                  89426484.824 7  85700376.317 8
G08  22585368.360 7                  22585376.130 7  22585373.505 8 118686897.227 7                  92483331.046 7  88629850.885 8
G10  24183107.530 6                  24183115.864 6  24183111.935 7 127083081.157 6                  99025804.391 6  94899716.061 7
G17  24021255.176 5                  24021257.605 5                 126232504.389 5                  98363040.177 5
G32  22212770.071 7                  22212776.357 7  22212773.505 8 116728888.419 7                  90957604.397 7  87167690.598 8
R02  19681511.680 8  19681513.624 7 105024310.802 8  81685540.367 7
R03  20468683.291 8  20468686.229 7 109570463.712 8  85221494.062 7
R17  19822307.699 8  19822309.406 8 106073169.621 8  82501264.616 8
R18  19605060.877 8  19605062.485 8 104653146.860 8  81397063.227 8
R19  23297684.007 5  23297685.842 5 124626942.500 5  96932216.39615
> 2025 06 15 12 12 30.0000000  0 33
C05  39270517.013 5  39270516.661 7 204491890.627 5 158126100.712 7
C06  40193557.976 6  40193555.844 6 209298415.362 6 161842797.547 6
C12  23345537.565 6  23345535.215 7 121566336.668 6  94002980.229 7
C13  40193238.823 6  40193243.597 6 209296729.972 6 161841538.966 6
C16  40514723.698 6  40514727.012 7 210970804.101 6 163136013.454 7
C19  22632114.049 8                 117851363.739 8
C20  26149664.911 6                 136168161.214 6
C22  22271641.388 8                 115974283.810 8
C34  25376665.444 5                 132142951.484 5
C35  22559399.551 7                 117472707.045 7
C39  39841060.451 6                 207462859.460 6
C44  21790921.371 8                 113471048.287 8
C60  40659705.381 6                 211725757.584 6
E04                  27049040.902 6                 107530756.906 6
E05  24180852.293 7  24180857.331 8 127071236.458 7  96128589.218 8
E06  25380835.842 7  25380838.888 8 133377189.207 7 100898989.407 8
E09  24747192.178 8  24747194.357 9 130047369.441 8  98380000.515 9
E11  27835504.689 6  27835507.261 6 146276550.018 6 110657229.624 6
E30  27589547.588 7  27589552.247 8 144984043.585 7 109679459.791 8
E34  24048223.251 8  24048225.366 9 126374263.962 8  95601321.278 9
E36  24039766.816 8  24039769.826 9 126329824.114 8  95567703.056 9
G01  20730842.425 7                  20730845.246 8  20730846.984 8 108941304.313 7                  84889345.923 8  81352299.573 8
G02  20780081.059 8  20780081.908 7                                 109200055.863 8  85090959.904 7                
G03  21830646.231 7                  21830652.986 7  21830651.676 8 114720816.098 7                  89392877.835 7  85668169.637 8
G08  22594415.472 7                  22594422.394 7  22594420.479 8 118734438.562 7                  92520376.190 7  88665352.480 8
G10  24191685.207 6                  24191692.394 6  24191689.347 6 127128157.157 6                  99060928.454 6  94933376.646 6
G17  24012981.639 5                  24012984.572 6                 126189030.478 5                  98329164.449 6
G32  22216247.035 8                  22216252.776 7  22216250.089 8 116747159.088 8                  90971841.319 7  87181334.287 8
R02  19684906.323 8  19684908.570 7 105042426.604 8  81699630.427 7
R03  20459955.955 8  20459959.263 7 109523748.779 8  85185160.268 7
R17  19827521.473 8  19827523.461 7 106101072.048 8  82522966.502 7
R18  19600002.685 8  19600004.388 8 104626147.096 8  81376063.415 8
R19  23286215.700 5  23286216.669 5 124565593.954 5  96884500.799 5
> 2025 06 15 12 12 45.0000000  0 32
C05  39270181.807 6  39270181.515 7 204490145.890 6 158124751.565 7
C06  40188236.386 6  40188234.039 7 209270704.284 6 161821369.628 7
C12  23338719.369 6  23338717.394 7 121530834.930 6  93975528.067 7
C13  40195537.403 6  40195541.739 6 209308699.403 6 161850794.458 6
C16  40509766.804 6  40509770.273 7 210944991.973 6 163116053.901 7
C19  22635895.682 8                 117871054.678 8
C20  26158629.473 6                 136214834.352 6
C22  22265900.668 8                 115944391.556 8
C34  25367500.738 5                 132095229.430 5
C35  22565032.072 8                 117502036.006 8
C39  39836981.274 7                 207441614.205 7
C44  21788319.054 8                 113457495.144 8
C60  40659606.928 6                 211725245.357 6
E04                  27055116.996 7                 107554911.656 7
E05  24172638.438 7  24172643.255 8 127028071.542 7  96095935.287 8
E06  25383665.141 8  25383668.471 8 133392058.134 8 100910237.667 8
E09  24746174.666 8  24746176.807 9 130042022.049 8  98375955.254 9
E11  27842565.542 6  27842568.503 6 146313658.500 6 110685301.910 6
E30  27595394.195 7  27595398.313 8 145014764.755 7 109702700.119 8
E34  24044099.912 8  24044101.983 9 126352595.589 8  95584929.306 9
E36  24042836.722 8  24042839.873 9 126345957.275 8  95579907.689 9
G01  20726121.024 7                  20726123.956 8  20726125.830 8 108916493.510 7                  84870012.835 8  81333772.049 8
G02  20780910.119 8  20780911.096 7                                 109204414.447 8  85094356.184 7                
G03  21822451.108 7                  21822457.762 7  21822455.936 8 114677748.919 7                  89359319.027 7  85636009.110 8
G08  22603472.224 7                  22603480.072 7  22603477.988 8 118782033.965 7                  92557463.503 7  88700894.435 8
G10  24200264.792 5                  24200271.787 6  24200268.156 6 127173240.265 5                  99096058.132 6  94967042.564 6
G17  24004719.828 6                  24004722.963 5                 126145615.477 6                  98295334.572 5
G32  22219746.378 8                  22219751.835 7  22219749.486 8 116765547.106 8                  90986169.636 7  87195065.600 8
R02  19688331.751 8  19688333.565 7 105060703.967 8  81713846.142 7
R03  20451252.863 8  20451256.116 7 109477158.606 8  85148923.495 7
R17  19832759.989 8  19832761.491 7 106129103.527 8  82544768.724 7
R18  19594966.786 8  19594968.734 8 104599264.752 8  81355154.969 8
> 2025 06 15 12 13  0.0000000  0 31
C05  39269845.694 6  39269845.183 7 204488394.076 6 158123396.979 7
C06  40182918.204 6  40182915.961 6 209243010.947 6 161799955.430 6
C12  23331913.847 7  23331911.442 7 121495394.394 7  93948123.226 7
C13  40197833.027 6  40197837.911 6 209320653.238 6 161860037.925 6
C16  40504813.132 6  40504817.133 7 210919200.236 6 163096110.132 7
C19  22639694.282 8                 117890835.475 8
C20  26167595.306 6                 136261521.229 6
C22  22260177.302 8                 115914589.219 8
C35  22570679.941 7                 117531447.161 7
C39  39832906.716 6                 207420399.032 6
C44  21785734.957 8                 113444040.579 8
C60  40659507.700 6                 211724726.047 6
E04                  27061204.886 6                 107579113.144 6
E05  24164433.445 7  24164437.878 8 126984953.064 7  96063316.471 8
E06  25386512.166 7  25386515.559 8 133407019.186 7 100921555.608 8
E09  24745176.679 8  24745178.874 9 130036777.715 8  98371987.946 9
E11  27849629.607 6  27849632.000 6 146350777.985 6 110713382.479 6
E30  27601251.907 7  27601255.556 8 145045544.489 7 109725984.755 8
E34  24039983.726 8  24039985.899 9 126330965.422 8  95568566.227 9
E36  24045915.750 8  24045918.998 9 126362138.210 8  95592148.443 9
G01  20721414.316 7                  20721417.559 8  20721419.482 9 108891761.072 7                  84850740.798 8  81315303.021 9
G02  20781755.913 8  20781756.239 7                                 109208856.908 8  85097817.833 7                
G03  21814268.066 7                  21814274.625 7  21814273.753 8 114634748.095 7                  89325811.921 7  85603898.138 8
G08  22612540.616 7                  22612548.341 7  22612546.242 8 118829687.455 7                  92594596.035 7  88736479.784 8
G10  24208845.821 6                  24208853.776 6  24208848.678 6 127218334.741 6                  99131196.583 6  95000716.951 6
G17  23996470.072 6                  23996473.739 5                 126102263.947 6                  98261554.229 5
G32  22223268.669 7                  22223274.215 7  22223271.760 8 116784056.709 7                  91000592.712 7  87208887.700 8
R02  19691787.999 8  19691789.620 7 105079146.625 8  81728190.444 7
R03  20442573.504 8  20442576.525 7 109430697.486 8  85112787.081 7
R17  19838022.978 8  19838025.683 8 106157268.431 8  82566674.761 8
R18  19589953.856 8  19589955.648 8 104572504.681 8  81334341.552 8
> 2025 06 15 12 13 15.0000000  0 33
C05  39269509.040 6  39269508.051 7 204486638.389 6 158122039.363 7
C06  40177604.123 6  40177601.855 6 209215338.647 6 161778557.474 6
C12  23325120.636 7  23325117.809 7 121460018.365 7  93920768.238 7
C13  40200125.670 6  40200130.724 6 209332594.604 6 161869271.738 6
C16  40499865.014 7  40499868.219 7 210893432.097 7 163076184.574 7
C19  22643510.821 8                 117910709.071 8
C20  26176564.226 6                 136308224.667 6
C22  22254472.426 8                 115884879.989 8
C35  22576344.205 7                 117560943.444 7
C39  39828838.571 6                 207399217.004 6
C44  21783170.185 8                 113430687.781 8
C60  40659406.839 6                 211724202.711 6
E04                  27067304.894 7                 107603363.552 7
E05  24156238.125 7  24156242.066 8 126941884.354 7  96030735.301 8
E06  25389376.952 7  25389380.769 8 133422075.380 7 100932945.498 8
E09  24744199.260 8  24744201.058 9 130031639.536 8  98368100.956 9
E11  27856696.392 6  27856698.731 6 146387911.522 6 110741473.733 6
E30  27607120.134 7  27607124.437 8 145076385.637 7 109749315.875 8
E34  24035875.776 8  24035877.805 9 126309376.685 8  95552234.505 9
E36  24049005.022 8  24049007.793 9 126378370.024 8  95604427.702 9
G01  20716723.385 8                  20716727.015 8  20716728.462 9 108867110.188 8                  84831532.336 8  81296894.908 9
G02  20782617.884 8  20782618.279 7                                 109213386.475 8  85101347.358 7                
G03  21806097.996 7                  21806105.485 7  21806104.182 8 114591816.880 7                  89292359.029 7  85571839.140 8
G08  22621620.887 7                  22621628.160 7  22621625.831 8 118877401.891 7                  92631776.090 7  88772110.654 8
G10  24217429.283 5                  24217438.298 6  24217431.447 5 127263443.598 5                  99166346.271 6  95034402.086 5
G17  23988233.789 6                  23988236.607 5                 126058979.486 6                  98227826.085 5
G32  22226814.753 7                  22226820.167 7  22226817.498 8 116802690.846 7                  91015112.824 7  87222802.797 8
R01  22967277.518 5                 122773394.79815
R02  19695275.546 8  19695277.567 7 105097757.930 8  81742665.908 7
R03  20433918.657 8  20433922.185 7 109384369.671 8  85076754.396 7
R17  19843311.969 8  19843313.773 8 106185569.971 8  82588687.060 8
R18  19584964.408 8  19584965.773 7 104545870.421 8  81313626.025 7
R19  23251824.724 5  23251815.546 5 124381575.27415  96741369.737 5
> 2025 06 15 12 13 30.0000000  0 33
C05  39269170.699 6  39269169.801 7 204484877.209 6 158120677.526 7
C06  40172293.676 6  40172291.354 6 209187685.758 6 161757174.540 6
C12  23318339.090 7  23318335.761 7 121424705.645 7  93893462.194 7
C13  40202416.510 6  40202421.404 6 209344521.900 6 161878494.665 6
C16  40494921.149 7  40494923.736 7 210867686.016 7 163056276.104 7
C19  22647345.090 8                 117930673.735 8
C20  26185535.747 6                 136354942.990 6
C22  22248784.546 8                 115855262.480 8
C35  22582025.171 7                 117590523.201 7
C39  39824777.121 6                 207378066.706 6
C44  21780625.553 8                 113417435.345 8
C60  40659305.808 6                 211723673.893 6
E04                  27073416.954 7                 107627661.593 7
E05  24148050.939 7  24148055.611 8 126898864.100 7  95998190.774 8
E06  25392260.261 7  25392263.615 8 133437225.016 7 100944406.090 8
E09  24743240.910 8  24743243.177 9 130026606.002 8  98364293.120 9
E11  27863764.323 6  27863767.794 6 146425057.652 6 110769574.441 6
E30  27613000.314 7  27613004.914 8 145107286.479 7 109772692.132 8
E34  24031774.947 8  24031777.245 9 126287827.912 8  95535933.012 9
E36  24052102.890 8  24052106.020 9 126394651.194 8  95616744.303 9
G01  20712047.740 7                  20712051.271 8  20712052.925 8 108842539.546 7                  84812386.393 8  81278546.698 8
G02  20783495.984 8  20783496.610 7                                 109218001.657 8  85104943.625 7                
G03  21797941.550 7                  21797948.718 7  21797947.591 8 114548953.894 7                  89258959.324 7  85539831.077 8
G08  22630712.368 7                  22630718.947 7  22630716.508 8 118925175.438 7                  92669002.174 7  88807785.648 8
G10  24226016.056 6                  24226023.554 6  24226018.553 6 127308565.180 6                  99201505.905 6  95068096.72916
G17  23980009.011 6                  23980011.925 6                 126015760.819 6                  98194149.180 6
G32  22230383.428 7                  22230389.670 7  22230386.804 8 116821447.771 7                  91029728.609 7  87236809.581 8
R01  22978541.180 5                 122833606.111 5
R02  19698794.300 8  19698796.266 7 105116535.926 8  81757271.013 7
R03  20425288.458 8  20425292.351 7 109338173.337 8  85040823.939 7
R17  19848626.310 8  19848628.146 7 106214006.538 8  82610804.358 7
R18  19579997.967 8  19579999.524 8 104519360.682 8  81293007.357 8
R19  23240359.254 4  23240350.409 5 124320247.463 4  96693670.444 5
> 2025 06 15 12 13 45.0000000  0 32
C05  39268830.863 6  39268830.311 7 204483110.399 6 158119311.327 7
C06  40166986.155 6  40166984.737 7 209160052.211 6 161735806.552 7
C12  23311569.728 7  23311566.904 7 121389456.168 7  93866205.048 7
C13  40204704.388 6  40204709.822 6 209356434.952 6 161887706.565 6
C16  40489980.101 7  40489983.605 7 210841961.930 7 163036384.617 7
C19  22651196.323 8                 117950729.052 8
C20  26194510.840 6                 136401675.726 6
C22  22243114.418 8                 115825736.552 8
C35  22587722.262 8                 117620186.156 8
C39  39820721.816 6                 207356947.962 6
C44  21778099.742 8                 113404283.271 8
C60  40659202.931 6                 211723139.360 6
E04                  27079541.237 7                 107652006.921 7
E05  24139873.739 7  24139878.284 8 126855892.214 7  95965682.875 8
E06  25395160.999 7  25395164.239 8 133452467.754 7 100955937.106 8
E09  24742303.198 8  24742305.145 9 130021676.899 8  98360564.282 9
E11  27870835.822 6  27870838.833 6 146462216.085 6 110797684.434 6
E30  27618891.909 7  27618896.483 8 145138246.568 7 109796113.195 8
E34  24027681.542 8  24027684.270 9 126266319.019 8  95519661.676 9
E36  24055210.931 8  24055213.571 9 126410981.558 8  95629098.093 9
G01  20707387.433 7                  20707390.557 8  20707392.393 9 108818049.059 7                  84793302.893 8  81260258.354 9
G02  20784390.459 8  20784390.729 7                                 109222702.363 8  85108606.493 7                
G03  21789798.073 7                  21789805.290 7  21789803.471 8 114506159.020 7                  89225612.710 7  85507873.887 8
G08  22639813.887 7                  22639821.429 7  22639819.023 8 118973007.527 7                  92706273.907 7  88843504.372 8
G10  24234604.836 6                  24234611.868 6  24234609.011 6 127353699.029 6                  99236675.152 6  95101800.573 6
G17  23971797.109 6                  23971800.846 6                 125972607.927 6                  98160523.624 6
G22  24703841.204 4                                                                                                
G32  22233976.885 7                  22233982.524 7  22233979.396 8 116840327.079 7                  91044439.751 7  87250907.746 8
R02  19702344.915 8  19702347.112 8 105135480.230 8  81772005.456 8
R03  20416684.038 8  20416687.097 7 109292109.021 8  85004996.145 7
R17  19853965.103 8  19853966.854 8 106242577.631 8  82633026.292 8
R18  19575055.030 8  19575057.039 8 104492975.615 8  81272485.636 8
> 2025 06 15 12 14  0.0000000  0 32
C05  39268490.381 6  39268489.687 7 204481335.669 6 158117938.990 7
C06  40161683.595 6  40161681.195 7 209132435.793 6 161714451.825 7
C12  23304811.860 7  23304809.633 7 121354267.924 7  93838995.312 7
C13  40206988.975 6  40206994.530 6 209368331.643 6 161896905.821 6
C16  40485044.185 7  40485047.467 7 210816257.570 7 163016508.397 7
C19  22655064.796 8                 117970872.595 8
C20  26203487.860 6                 136448420.407 6
C22  22237461.447 8                 115796300.051 8
C35  22593433.274 8                 117649929.939 8
C39  39816670.109 6                 207335858.606 6
C44  21775592.919 8                 113391229.422 8
C60  40659098.562 6                 211722596.863 6
E04                  27085676.982 7                 107676397.749 7
E05  24131705.389 7  24131709.753 8 126812966.753 7  95933210.066 8
E06  25398079.034 8  25398082.109 8 133467801.229 8 100967536.777 8
E09  24741384.731 8  24741386.566 9 130016849.952 8  98356912.751 9
E11  27877908.394 6  27877911.795 7 146499384.507 6 110825802.039 7
E30  27624794.081 7  27624798.780 8 145169263.468 7 109819577.219 8
E34  24023596.091 8  24023598.465 9 126244847.814 8  95503418.871 9
E36  24058327.075 8  24058330.065 9 126427358.808 8  95641487.370 9
G01  20702742.158 7                  20702744.838 8  20702746.790 9 108793636.659 7                  84774280.249 8  81242028.317 9
G02  20785301.039 8  20785300.959 7                                 109227486.300 8  85112334.241 7                
G03  21781666.966 7                  21781674.083 7  21781672.439 8 114463430.172 7                  89192317.543 7  85475966.029 8
G08  22648926.636 7                  22648934.519 7  22648931.549 8 119020895.593 7                  92743589.241 7  88879264.894 8
G10  24243195.415 6                  24243202.468 6  24243200.066 6 127398842.908 6                  99271852.158 6  95135511.818 6
G17  23963594.837 6                  23963601.023 6                 125929519.024 6                  98126947.870 6
G22  24704508.877 4                                                                                                
G32  22237591.658 8                  22237597.881 7  22237594.840 8 116859326.329 8                  91059244.356 7  87265095.493 8
R02  19705925.765 8  19705927.626 8 105154587.870 8  81786866.956 8
R03  20408103.006 8  20408106.100 7 109246174.127 8  84969269.052 7
R17  19859329.263 8  19859331.278 8 106271280.913 8  82655351.061 8
R18  19570135.124 8  19570137.098 8 104466713.195 8  81252059.326 8
> 2025 06 15 12 14 15.0000000  0 31
C05  39268148.158 6  39268147.495 7 204479554.888 6 158116561.975 7
C06  40156383.593 6  40156381.114 7 209104838.390 6 161693111.792 7
C12  23298066.437 7  23298064.167 7 121319142.861 7  93811834.432 7
C13  40209270.633 6  40209276.353 6 209380213.606 6 161906093.717 6
C16  40480111.955 7  40480115.203 7 210790574.808 7 162996648.874 7
C19  22658950.182 8                 117991105.996 8
C20  26212467.635 6                 136495178.705 6
C22  22231825.851 8                 115766954.917 8
C35  22599161.335 8                 117679756.194 8
C39  39812625.654 6                 207314800.389 6
C44  21773105.229 8                 113378275.731 8
C60  40658992.853 6                 211722048.195 6
E04                  27091824.326 7                 107700835.219 7
E05  24123545.494 7  24123550.475 8 126770089.661 7  95900773.860 8
E06  25401014.355 8  25401017.437 8 133483227.104 8 100979206.348 8
E09  24740485.910 8  24740487.863 9 130012126.983 8  98353339.861 9
E11  27884984.033 6  27884986.847 6 146536564.655 6 110853928.512 6
E30  27630707.505 7  27630712.135 8 145200338.639 7 109843085.357 8
E34  24019517.630 8  24019520.177 9 126223416.220 8  95487206.013 9
E36  24061453.211 8  24061455.783 9 126443784.795 8  95653913.509 9
G01  20698111.663 7                  20698114.641 8  20698116.571 8 108769304.311 7                  84755319.981 8  81223858.064 8
G02  20786227.516 8  20786227.881 7                                 109232355.382 8  85116128.328 7                
G03  21773548.893 7                  21773555.751 7  21773554.527 8 114420769.289 7                  89159075.292 7  85444108.894 8
G08  22658050.963 7                  22658057.988 7  22658055.588 8 119068841.138 7                  92780949.346 7  88915068.356 8
G10  24251788.079 6                  24251795.106 6  24251792.363 6 127443998.321 6                  99307038.119 6  95169231.705 6
G17  23955409.662 6                  23955413.739 5                 125886495.951 6                  98093423.433 5
G32  22241230.387 7                  22241236.579 7  22241233.461 8 116878447.117 7                  91074143.673 7  87279374.008 8
R02  19709537.253 8  19709539.768 7 105173860.672 8  81801856.903 7
R03  20399546.486 8  20399549.885 7 109200371.244 8  84933644.621 7
R17  19864718.207 8  19864720.183 7 106300118.194 8  82677780.062 7
R18  19565238.620 8  19565240.769 7 104440575.615 8  81231730.112 7
> 2025 06 15 12 14 30.0000000  0 33
C05  39267806.131 6  39267805.127 7 204477771.423 6 158115182.898 7
C06  40151087.951 6  40151085.856 7 209077263.485 6 161671789.165 7
C12  23291333.943 7  23291331.613 7 121284084.712 7  93784725.228 7
C13  40211550.024 6  40211555.614 6 209392084.374 6 161915272.929 6
C16  40475184.878 7  40475187.999 7 210764917.167 7 162976808.781 7
C19  22662853.834 8                 118011432.403 8
C20  26221450.160 6                 136541953.759 6
C22  22226208.845 8                 115737704.638 8
C35  22604905.661 8                 117709668.246 8
C39  39808588.788 6                 207293776.765 6
C44  21770637.351 8                 113365425.742 8
C60  40658887.419 6                 211721496.735 6
E04                  27097983.978 6                 107725321.773 6
E05  24115396.519 7  24115401.259 8 126727264.577 7  95868377.030 8
E06  25403967.726 7  25403971.053 8 133498748.693 7 100990948.339 8
E09  24739607.561 8  24739609.636 9 130007511.394 8  98349848.217 9
E11  27892061.842 6  27892064.929 7 146573759.945 6 110882066.443 7
E30  27636632.221 7  27636637.206 8 145231475.410 7 109866640.076 8
E34  24015447.339 8  24015450.090 9 126202027.767 8  95471025.789 9
E36  24064588.722 8  24064591.473 9 126460262.959 8  95666379.129 9
G01  20693497.416 7                  20693500.483 8  20693502.099 8 108745055.624 7                  84736424.914 8  81205750.286 8
G02  20787170.769 8  20787171.491 7                                 109237312.992 8  85119991.394 7                
G03  21765444.530 7                  21765451.041 7  21765450.257 8 114378179.916 7                  89125888.788 7  85412305.170 8
G08  22667185.534 7                  22667193.105 7  22667191.012 8 119116847.286 7                  92818356.695 7  88950917.048 8
G10  24260383.161 6                  24260390.931 6  24260387.973 6 127489168.653 6                  99342235.719 6  95202962.697 6
G17  23947235.706 6                  23947240.400 5                 125843542.626 6                  98059953.312 5
G32  22244893.198 7                  22244899.108 8  22244895.870 8 116897692.730 7                  91089140.250 8  87293745.721 8
R01  23023671.652 5                 123074862.32915
R02  19713180.451 8  19713182.484 8 105193301.390 8  81816977.476 8
R03  20391015.481 8  20391018.815 8 109154704.439 8  84898126.020 8
R17  19870132.872 8  19870135.223 8 106329092.617 8  82700315.688 8
R18  19560366.651 8  19560368.257 7 104414566.675 8  81211500.947 7
R19  23194502.506 5  23194506.060 5                  96502928.489 5
> 2025 06 15 12 14 45.0000000  0 35
C05  39267463.580 6  39267462.665 7 204475987.668 6 158113803.600 7
C06  40145797.454 6  40145794.937 7 209049713.502 6 161650485.801 7
C09  41119252.626 6  41119251.413 6 214118735.47216 165570188.78516
C12  23284614.690 7  23284612.025 7 121249096.123 7  93757669.834 7
C13  40213828.534 6  40213833.128 6 209403946.245 6 161924445.294 6
C16  40470262.810 6  40470266.313 7 210739287.032 6 162956989.963 7
C19  22666775.510 8                 118031854.049 8
C20  26230439.104 6                 136588747.760 6
C22  22220610.271 8                 115708551.720 8
C35  22610667.400 8                 117739668.324 8
C39  39804559.597 6                 207272790.261 6
C44  21768190.139 8                 113352681.976 8
C60  40658781.153 6                 211720944.924 6
E04                  27104156.082 6                 107749859.104 6
E05  24107257.701 7  24107262.206 8 126684494.187 7  95836021.563 8
E06  25406940.033 7  25406943.345 8 133514368.270 7 101002764.451 8
E09  24738749.826 8  24738752.221 9 130003005.650 8  98346439.648 9
E11  27899143.159 6  27899146.387 6 146610972.803 6 110910217.637 6
E30  27642569.475 7  27642574.400 8 145262675.847 7 109890243.016 8
E34  24011386.159 8  24011388.606 9 126180684.973 8  95454880.107 9
E36  24067734.539 8  24067737.538 9 126476795.736 8  95678886.059 9
G01  20688899.132 7                  20688902.775 8  20688904.070 8 108720893.163 7                  84717597.043 8  81187706.908 8
G02  20788131.585 8  20788132.015 7                                 109242361.663 8  85123925.409 7                
G03  21757353.995 7                  21757360.805 7  21757359.591 8 114335664.645 7                  89092760.014 7  85380556.764 8
G08  22676332.937 7                  22676341.049 7  22676338.377 8 119164916.146 7                  92855812.927 7  88986812.565 8
G10  24268982.333 6                  24268988.952 6  24268985.800 6 127534356.048 6                  99377446.667 6  95236706.462 6
G17  23939075.098 6                  23939079.752 5                 125800661.668 6                  98026539.765 5
G22  24706672.688 4                                                 129834343.90314                                
G32  22248579.288 7                  22248585.410 8  22248582.386 8 116917065.358 7                  91104235.808 8  87308212.307 8
R01  23034960.710 5                 123135262.518 5
R02  19716855.273 8  19716858.021 8 105212912.615 8  81832230.632 8
R03  20382510.390 8  20382513.249 7 109109175.896 8  84862714.967 7
R17  19875573.297 8  19875575.827 8 106358206.897 8  82722960.123 8
R18  19555518.687 8  19555520.546 7 104388689.248 8  81191374.042 7
R19  23183050.508 5  23183048.134 5 124013764.80515  96455264.565 5
> 2025 06 15 12 15  0.0000000  0 34
C05  39267119.970 6  39267119.088 7 204474198.606 6 158112420.189 7
C06  40140510.111 6  40140508.131 7 209022183.604 6 161629197.961 7
C09  41113513.445 6  41113512.403 6 214088850.782 6 165547080.139 6
C12  23277908.056 7  23277905.480 7 121214172.313 7  93730664.537 7
C13  40216104.135 6  40216108.539 6 209415794.313 6 161933606.931 6
C16  40465344.989 6  40465348.553 7 210713679.541 6 162937188.656 7
C19  22670714.861 8                 118052365.777 8
C20  26239430.621 6                 136635555.565 6
C22  22215029.647 8                 115679491.252 8
C35  22616443.570 8                 117769751.402 8
C39  39800535.580 6                 207251835.902 6
C44  21765762.395 8                 113340039.627 8
C60  40658674.177 6                 211720387.793 6
E04                  27110340.118 6                 107774443.275 6
E05  24099128.079 7  24099132.605 8 126641773.680 7  95803703.798 8
E06  25409930.235 7  25409933.314 8 133530080.740 7 101014650.836 8
E09  24737912.536 8  24737914.716 9 129998604.714 8  98343110.354 9
E11  27906227.642 6  27906230.301 6 146648198.191 6 110938378.314 6
E30  27648517.914 7  27648522.794 8 145293934.777 7 109913890.137 8
E34  24007332.602 8  24007334.879 9 126159382.893 8  95438765.229 9
E36  24070890.181 8  24070893.052 9 126493378.089 8  95691430.490 9
G01  20684316.941 7                  20684320.265 8  20684321.554 9 108696812.107 7                  84698832.592 8  81169724.314 9
G02  20789108.568 8  20789109.155 7                                 109247496.396 8  85127926.504 7                
G03  21749276.594 7                  21749283.678 7  21749282.603 8 114293218.523 7                  89059685.113 7  85348860.007 8
G08  22685490.787 7                  22685498.953 7  22685496.451 8 119213042.367 7                  92893313.813 7  89022750.910 8
G10  24277583.506 6                  24277591.334 6  24277586.841 6 127579555.436 6                  99412666.929 6  95270459.195 6
G17  23930928.014 6                  23930934.175 5                 125757848.493 6                  97993178.847 5
G32  22252288.568 7                  22252294.847 7  22252291.940 8 116936559.852 7                  91119426.294 7  87322769.854 8
R01  23046263.719 4                 123195698.36114
R02  19720561.321 8  19720563.686 7 105232688.630 8  81847611.975 7
R03  20374030.572 8  20374033.347 8 109063781.007 8  84827407.842 8
R17  19881039.237 8  19881041.282 8 106387455.660 8  82745709.127 8
R18  19550694.812 8  19550696.845 7 104362938.449 8  81171345.650 7
R19  23171596.148 6  23171595.948 4 123952491.288 6  96407607.620 4
> 2025 06 15 12 15 15.0000000  0 34
C05  39266775.747 6  39266774.804 7 204472406.594 6 158111034.496 7
C06  40135227.540 6  40135225.681 7 208994675.916 6 161607927.315 7
C09  41107774.391 6  41107775.227 6 214058975.137 6 165523978.469 6
C12  23271214.024 7  23271211.268 7 121179315.706 7  93703711.197 7
C13  40218376.453 6  40218381.584 6 209427630.730 6 161942759.633 6
C16  40460432.272 7  40460435.801 7 210688097.006 7 162917406.629 7
C19  22674671.179 8                 118072969.600 8
C20  26248422.601 6                 136682379.121 6
C22  22209467.046 8                 115650525.614 8
C34  25276112.615 4                 131619317.67114
C35  22622237.351 8                 117799919.593 8
C39  39796518.784 7                 207230915.975 7
C44  21763354.592 8                 113327501.037 8
C60  40658566.727 6                 211719827.578 6
E04                  27116536.227 6                 107799075.816 6
E05  24091008.802 7  24091012.981 8 126599105.483 7  95771425.601 8
E06  25412937.829 7  25412941.341 8 133545888.213 7 101026609.071 8
E09  24737095.587 8  24737097.635 9 129994310.800 8  98339862.035 9
E11  27913313.695 6  27913317.100 7 146685438.280 6 110966550.122 7
E30  27654478.862 7  27654482.816 8 145325254.186 7 109937583.020 8
E34  24003287.005 8  24003289.340 9 126138123.878 8  95422682.936 9
E36  24074055.636 8  24074058.467 9 126510012.301 8  95704014.156 9
G01  20679750.411 7                  20679753.690 8  20679755.191 8 108672814.870 7                  84680133.453 8  81151804.282 8
G02  20790102.557 8  20790102.923 7                                 109252719.478 8  85131996.427 7                
G03  21741212.950 7                  21741219.981 7  21741218.456 8 114250843.952 7                  89026666.006 7  85317216.708 8
G08  22694661.105 7                  22694668.466 7  22694665.734 8 119261227.870 7                  92930860.925 7  89058733.543 8
G10  24286187.668 6                  24286195.082 6  24286191.645 6 127624768.927 6                  99447898.127 6  95304222.431 6
G17  23922794.565 6                  23922798.724 5                 125715105.537 6                  97959872.734 5
G32  22256022.115 7                  22256028.313 7  22256025.067 8 116956178.214 7                  91134713.316 7  87337419.908 8
R01  23057572.712 5                 123256171.87815
R02  19724298.735 8  19724300.575 7 105252631.604 8  81863123.170 7
R03  20365575.308 8  20365578.454 7 109018522.248 8  84792206.629 7
R17  19886530.593 8  19886532.904 7 106416841.100 8  82768564.436 7
R18  19545894.910 8  19545896.996 7 104337316.913 8  81151417.784 7
> 2025 06 15 12 15 30.0000000  0 35
C05  39266430.826 6  39266430.172 7 204470611.800 6 158109646.650 7
C06  40129949.475 6  40129947.341 7 208967190.955 6 161586674.224 7
C09  41102038.225 5  41102039.406 6 214029108.953 5 165500884.108 6
C12  23264533.464 7  23264530.437 7 121144526.852 7  93676810.261 7
C13  40220647.997 6  40220652.548 6 209439455.920 6 161951903.613 6
C16  40455523.987 7  40455527.933 7 210662539.659 7 162897644.082 7
C19  22678645.847 8                 118093665.640 8
C20  26257417.349 6                 136729218.479 6
C22  22203922.444 8                 115621655.164 8
C34  25266996.521 4                 131571874.50314
C35  22628048.254 8                 117830172.958 8
C39  39792506.842 6                 207210030.802 6
C44  21760966.656 8                 113315066.630 8
C60  40658458.770 6                 211719264.524 6
E04                  27122744.244 6                 107823756.814 6
E05  24082899.053 7  24082903.700 8 126556490.063 7  95739187.345 8
E06  25415963.989 7  25415967.439 8 133561790.834 7 101038639.271 8
E09  24736298.631 8  24736300.969 9 129990124.203 8  98336694.910 9
E11  27920403.508 6  27920406.671 7 146722693.242 6 110994733.229 7
E30  27660449.962 7  27660454.316 8 145356634.174 7 109961321.717 8
E34  23999249.967 8  23999252.189 9 126116908.318 8  95406633.519 9
E36  24077231.057 8  24077233.800 9 126526698.676 8  95716637.285 9
G01  20675199.328 7                  20675203.045 8  20675204.602 8 108648901.848 7                  84661499.961 8  81133947.192 8
G02  20791113.395 7  20791113.847 6                                 109258031.176 7  85136135.416 6                
G03  21733163.071 7                  21733170.164 7  21733168.721 8 114208541.388 7                  88993703.001 7  85285627.144 8
G08  22703841.559 7                  22703848.820 7  22703845.861 8 119309472.630 7                  92968454.220 7  89094760.450 8
G10  24294793.687 6                  24294801.974 6  24294798.228 6 127669996.532 6                  99483140.469 6  95337996.325 6
G17  23914675.080 6                  23914677.841 4                 125672433.248 6                  97926621.66614
G32  22259779.148 8                  22259785.021 8  22259781.968 8 116975920.528 8                  91150096.922 8  87352162.548 8
R01  23068891.858 5                 123316682.912 5
R02  19728067.473 8  19728069.069 7 105272741.643 8  81878764.305 7
R03  20357146.441 8  20357149.864 7 108973400.647 8  84757112.068 7
R17  19892048.013 8  19892049.436 7 106446363.296 8  82791526.122 7
R18  19541119.411 8  19541121.599 8 104311825.311 8  81131590.980 8
R19  23148701.133 5                 123829972.88215
> 2025 06 15 12 15 45.0000000  0 35
C05  39266085.581 6  39266084.854 7 204468813.815 6 158108256.355 7
C06  40124675.424 6  40124673.377 7 208939728.234 6 161565438.316 7
C09  41096303.156 5  41096305.697 6 213999251.699 5 165477796.683 6
C12  23257865.779 7  23257862.854 7 121109805.570 7  93649961.599 7
C13  40222916.056 5  40222921.295 6 209451269.433 5 161961038.541 6
C16  40450620.747 7  40450624.232 7 210637007.202 7 162877900.798 7
C19  22682638.030 8                 118114453.211 8
C20  26266411.724 5                 136776073.017 5
C22  22198396.767 8                 115592879.521 8
C34  25257890.242 4                 131524459.38214
C35  22633873.260 7                 117860511.069 7
C39  39788502.652 6                 207189179.976 6
C44  21758598.376 8                 113302736.087 8
C60  40658349.811 6                 211718698.243 6
E04  27128960.728 4  27128964.684 6 142563695.15114 107848485.803 6
E05  24074798.977 7  24074804.431 8 126513927.201 7  95706988.857 8
E06  25419007.810 7  25419011.584 8 133577787.985 7 101050741.026 8
E09  24735522.306 8  24735524.610 9 129986044.466 8  98333608.632 9
E11  27927495.897 6  27927499.110 7 146759962.723 6 111022927.270 7
E30  27666432.593 7  27666437.153 8 145388073.975 7 109985105.704 8
E34  23995220.834 8  23995223.244 9 126095735.859 8  95390616.694 9
E36  24080415.993 8  24080418.959 9 126543436.734 8  95729299.503 9
G01  20670665.506 7                  20670668.177 8  20670669.963 9 108625072.838 7                  84642931.907 8  81116152.814 9
G02  20792141.236 8  20792141.390 7                                 109263431.245 8  85140343.257 7                
G03  21725126.758 7                  21725133.898 7  21725132.586 8 114166310.480 7                  88960795.836 7  85254091.104 8
G08  22713033.310 7                  22713040.715 7  22713038.250 8 119357775.894 7                  93006093.108 7  89130831.058 8
G10  24303403.396 6                  24303411.321 6  24303407.519 7 127715237.902 6                  99518393.409 6  95371780.392 7
G17  23906568.671 6                  23906571.492 5                 125629831.646 6                  97893425.57115
G32  22263559.158 8                  22263564.929 7  22263562.174 8 116995786.176 8                  91165576.645 7  87366997.289 8
R01  23080221.947 5                 123377230.398 5
R02  19731867.303 8  19731868.656 7 105293017.809 8  81894534.652 7
R03  20348742.611 8  20348746.178 8 108928415.253 8  84722123.473 8
R17  19897589.948 8  19897592.124 8 106476021.855 8  82814593.876 8
R18  19536368.576 8  19536370.090 7 104286463.443 8  81111865.109 7
R19  23137250.718 5                 123768735.847 5
> 2025 06 15 12 16  0.0000000  0 35
C05  39265739.589 6  39265738.581 7 204467011.332 6 158106862.561 7
C06  40119405.479 6  40119403.784 7 208912286.535 6 161544218.683 7
C09  41090571.831 5  41090573.016 6 213969402.306 5 165454715.282 6
C12  23251210.650 7  23251207.589 7 121075150.691 7  93623164.232 7
C13  40225182.521 6  40225187.859 6 209463069.842 6 161970163.386 6
C16  40445722.048 6  40445725.603 7 210611498.394 6 162858175.796 7
C19  22686647.240 8                 118135330.829 8
C20  26275409.591 5                 136822941.147 5
C22  22192888.609 8                 115564197.504 8
C34  25248792.354 5                 131477071.113 5
C35  22639715.916 8                 117890932.386 8
C39  39784505.377 6                 207168362.227 6
C44  21756250.308 8                 113290508.226 8
C60  40658240.212 6                 211718127.373 6
E04  27135193.050 4  27135197.241 6 142596445.979 4 107873261.529 6
E05  24066709.740 7  24066714.848 8 126471415.757 7  95674829.277 8
E06  25422070.572 7  25422073.452 8 133593878.229 7 101062913.180 8
E09  24734765.397 8  24734768.366 9 129982070.247 8  98330602.169 9
E11  27934590.462 6  27934593.933 7 146797245.327 6 111051131.251 7
E30  27672425.744 7  27672431.083 8 145419572.055 7 110008933.756 8
E34  23991199.564 8  23991202.248 9 126074605.259 8  95374631.534 9
E36  24083610.698 8  24083613.741 9 126560225.185 8  95741999.853 9
G01  20666146.049 7                  20666149.443 8  20666151.322 9 108601326.626 7                  84624428.353 8  81098420.269 9
G02  20793185.483 7  20793185.615 7                                 109268918.227 7  85144618.831 7                
G03  21717104.331 7                  21717110.613 7  21717109.897 8 114124150.043 7                  88927943.584 7  85222607.707 8
G08  22722235.695 7                  22722243.553 7  22722241.353 8 119406136.025 7                  93043776.295 7  89166944.078 8
G10  24312014.573 6                  24312022.542 6  24312019.123 7 127760491.338 6                  99553655.817 6  95405573.498 7
G17  23898474.847 6                  23898478.064 5                 125587299.545 6                  97860283.758 5
G32  22267362.987 8                  22267368.371 7  22267365.900 8 117015773.587 8                  91181151.263 7  87381922.976 8
R01  23091556.685 5                 123437812.884 5
R02  19735697.687 8  19735699.951 7 105313458.264 8  81910432.771 7
R03  20340364.621 8  20340367.367 7 108883565.792 8  84687240.592 7
R17  19903157.462 8  19903159.605 8 106505815.081 8  82837766.378 8
R18  19531641.492 8  19531643.397 7 104261230.281 8  81092239.353 7
R19  23125800.031 5                 123707510.099 5
> 2025 06 15 12 16 15.0000000  0 35
C05  39265392.241 6  39265391.236 7 204465202.150 6 158105463.598 7
C06  40114139.487 6  40114137.423 7 208884863.708 6 161523013.640 7
C09  41084839.993 5  41084841.830 6 213939558.577 5 165431638.297 6
C12  23244568.279 7  23244564.815 7 121040560.291 7  93596416.755 7
C13  40227446.187 5  40227450.995 6 209474855.028 5 161979276.410 6
C16  40440827.255 6  40440830.966 7 210586010.978 6 162838467.340 7
C19  22690673.338 8                 118156296.063 8
C20  26284412.946 5                 136869820.602 5
C22  22187397.776 8                 115535607.005 8
C34  25239702.529 5                 131429707.781 5
C35  22645573.144 8                 117921434.622 8
C39  39780513.094 6                 207147575.394 6
C44  21753921.540 8                 113278380.988 8
C60  40658129.172 6                 211717549.688 6
E04  27141434.070 4  27141441.386 5 142629256.308 4 107898082.27115
E05  24058629.535 7  24058634.650 8 126428953.705 7  95642707.072 8
E06  25425149.592 7  25425152.670 8 133610059.204 7 101075153.993 8
E09  24734029.227 7  24734031.783 9 129978199.351 7  98327673.862 9
E11  27941687.354 6  27941690.671 7 146834538.799 6 111079343.473 7
E30  27678430.631 7  27678435.543 8 145451125.978 7 110032804.075 8
E34  23987186.360 8  23987188.828 9 126053514.376 8  95358676.430 9
E36  24086814.429 8  24086817.646 9 126577061.811 8  95754736.658 9
G01  20661642.817 7                  20661646.285 8  20661647.877 8 108577661.201 7                  84605987.778 8  81080748.029 8
G02  20794245.412 8  20794245.859 7                                 109274490.077 8  85148960.513 7                
G03  21709094.343 7                  21709100.970 7  21709099.477 8 114082058.014 7                  88895144.603 7  85191175.366 8
G08  22731448.551 7                  22731456.466 7  22731454.483 8 119454550.486 7                  93081501.763 7  89203097.644 8
G10  24320628.574 6                  24320636.022 6  24320632.680 7 127805754.566 6                  99588925.811 6  95439373.934 7
G17  23890393.801 7                  23890396.915 4                 125544835.128 7                  97827194.565 4
G32  22271189.414 7                  22271195.007 7  22271191.918 8 117035880.402 7                  91196818.937 7  87396937.796 8
R01  23102895.661 5                 123498427.588 5
R02  19739558.744 8  19739560.746 7 105334060.601 8  81926456.829 7
R03  20332011.077 8  20332014.153 7 108838849.869 8  84652461.551 7
R17  19908749.659 8  19908752.537 8 106535740.897 8  82861042.010 8
R18  19526937.891 8  19526939.809 7 104236123.936 8  81072712.182 7
R19  23114355.549 5                 123646293.639 5
> 2025 06 15 12 16 30.0000000  0 36
C05  39265043.605 6  39265043.126 7 204463388.301 6 158104061.021 7
C06  40108877.979 6  40108875.217 7 208857461.789 6 161501824.759 7
C09  41079111.423 5  41079111.690 6 213909722.550 5 165408567.285 6
C12  23237938.438 7  23237934.739 7 121006036.604 7  93569720.847 7
C13  40229706.810 5  40229711.349 6 209486627.009 5 161988379.240 6
C16  40435937.348 6  40435940.982 7 210560547.134 6 162818777.117 7
C19  22694716.675 8                 118177350.779 8
C20  26293418.424 5                 136916713.067 5
C22  22181925.294 8                 115507110.072 8
C34  25230606.110 5                 131382371.623 5
C35  22651446.948 8                 117952019.638 8
C39  39776527.671 6                 207126821.517 6
C44  21751612.281 8                 113266356.516 8
C60  40658017.931 6                 211716967.292 6
E04  27147691.821 5  27147696.697 5 142662127.625 5 107922949.229 5
E05  24050559.271 7  24050564.159 8 126386543.362 7  95610623.950 8
E06  25428246.169 7  25428249.467 8 133626332.854 7 101087464.908 8
E09  24733312.769 7  24733315.162 8 129974433.806 7  98324825.225 8
E11  27948786.666 6  27948789.852 7 146871845.116 6 111107565.399 7
E30  27684445.928 7  27684451.037 8 145482737.522 7 110056718.008 8
E34  23983180.905 8  23983183.301 8 126032465.359 8  95342753.010 8
E36  24090027.805 8  24090031.123 9 126593948.665 8  95767511.422 9
G01  20657155.598 7                  20657158.850 8  20657160.338 8 108554078.694 7                  84587611.809 8  81063137.718 8
G02  20795322.435 8  20795322.581 6                                 109280148.727 8  85153369.862 6                
G03  21701098.081 7                  21701104.258 7  21701102.973 8 114040036.512 7                  88862400.586 7  85159795.705 8
G08  22740672.388 7                  22740680.015 7  22740677.481 8 119503020.927 7                  93119270.909 7  89239293.063 8
G10  24329244.478 6                  24329251.176 6  24329248.562 7 127851029.437 6                  99624204.898 6  95473183.064 7
G17  23882327.386 7                                                 125502440.699 7                                
G22  24712491.558 5                                                 129865029.26315                                
G32  22275038.602 7                  22275044.101 7  22275040.944 8 117056108.435 7                  91212581.038 7  87412043.152 8
R01  23114240.458 5                 123559075.996 5
R02  19743450.287 8  19743452.253 7 105354826.371 8  81942607.963 7
R03  20323683.639 8  20323686.161 7 108794270.226 8  84617788.561 7
R17  19914367.116 8  19914369.684 7 106565800.959 8  82884422.037 7
R18  19522259.199 8  19522260.874 7 104211146.800 8  81053285.518 7
R19  23102911.500 5                 123585088.606 5
> 2025 06 15 12 16 45.0000000  0 35
C05  39264694.921 6  39264694.271 7 204461571.389 6 158102656.075 7
C06  40103619.110 6  40103617.333 7 208830082.563 6 161480653.438 7
C09  41073383.726 5  41073383.049 6 213879895.873 5 165385503.440 6
C12  23231321.643 6  23231318.290 7 120971581.378 6  93543077.888 7
C13  40231966.332 6  40231969.388 6 209498387.481 6 161997473.190 6
C16  40431052.383 6  40431055.646 7 210535108.374 6 162799106.304 7
C19  22698777.619 8                 118198496.330 8
C20  26302426.504 5                 136963620.054 5
C22  22176471.402 8                 115478708.472 8
C34  25221521.776 5                 131335064.511 5
C35  22657336.685 8                 117982688.963 8
C39  39772548.568 6                 207106102.300 6
C44  21749323.135 8                 113254436.533 8
C60  40657904.997 6                 211716381.655 6
E04  27153962.682 4  27153963.372 5 142695061.886 4 107947863.729 5
E05  24042499.236 7  24042503.506 8 126344186.486 7  95578581.272 8
E06  25431360.934 7  25431364.217 8 133642700.600 7 101099847.004 8
E09  24732616.466 8  24732618.801 9 129970775.118 8  98322057.471 9
E11  27955888.934 7  27955891.856 7 146909165.857 7 111135798.245 7
E30  27690472.469 7  27690477.709 8 145514408.150 7 110080676.534 8
E34  23979183.961 8  23979186.045 9 126011459.921 8  95326862.535 9
E36  24093251.386 8  24093254.458 9 126610887.342 8  95780325.408 9
G01  20652683.888 7                  20652687.428 8  20652688.889 9 108530580.893 7                  84569301.858 8  81045590.699 9
G02  20796415.764 8  20796416.065 7                                 109285895.972 8  85157848.232 7                
G03  21693115.306 7                  21693121.680 7  21693120.500 8 113998087.279 7                  88829712.911 7  85128469.998 8
G08  22749907.211 7                  22749914.673 7  22749911.672 8 119551548.731 7                  93157084.748 7  89275531.330 8
G10  24337862.179 6                  24337869.237 6  24337866.569 7 127896317.486 6                  99659494.226 6  95507001.978 7
G17  23874272.841 7                                                 125460118.093 7                                
G32  22278911.020 7                  22278916.922 7  22278913.580 8 117076459.115 7                  91228438.663 7  87427240.056 8
R01  23125593.237 5                 123619759.560 5
R02  19747372.318 8  19747374.636 7 105375756.957 8  81958887.308 7
R03  20315381.030 8  20315384.683 7 108749828.305 8  84583222.645 7
R17  19920010.189 8  19920012.658 8 106595996.926 8  82907907.770 8
R18  19517604.571 8  19517606.710 8 104186300.785 8  81033960.855 8
R19  23091474.124 5  23091480.590 5 123523897.290 5  96074057.52015
> 2025 06 15 12 17  0.0000000  0 35
C05  39264345.153 6  39264344.730 7 204459751.965 6 158101249.188 7
C06  40098365.663 6  40098363.868 7 208802726.569 6 161459500.067 7
C09  41067656.297 5  41067657.496 6 213850079.254 5 165362447.345 6
C12  23224717.579 6  23224714.575 7 120937195.460 6  93516488.568 7
C13  40234222.400 6  40234225.848 6 209510136.842 6 162006558.517 6
C16  40426172.290 6  40426175.515 7 210509695.514 6 162779455.505 7
C19  22702855.699 8                 118219733.138 8
C20  26311438.167 5                 137010541.875 5
C22  22171035.277 8                 115450402.896 8
C34  25212442.921 5                 131287787.185 5
C35  22663242.758 8                 118013442.989 8
C39  39768576.072 6                 207085418.345 6
C44  21747054.202 8                 113242621.768 8
C60  40657792.796 6                 211715793.492 6
E04  27160241.554 4  27160242.173 5 142728059.142 4 107972825.80815
E05  24034448.656 7  24034453.289 8 126301883.891 7  95546579.652 8
E06  25434493.766 7  25434496.855 8 133659162.968 7 101112300.649 8
E09  24731940.817 8  24731942.939 9 129967223.981 8  98319371.052 9
E11  27962993.892 6  27962996.596 7 146946501.639 6 111164042.428 7
E30  27696511.011 7  27696515.723 8 145546138.069 7 110104680.023 8
E34  23975195.004 8  23975197.182 9 125990498.755 8  95311005.552 9
E36  24096484.693 8  24096487.785 9 126627878.444 8  95793179.054 9
G01  20648228.611 7                  20648232.092 8  20648233.936 9 108507168.624 7                  84551058.516 8  81028107.495 9
G02  20797526.596 8  20797526.734 7                                 109291732.325 8  85162396.043 7                
G03  21685146.289 7                  21685152.639 7  21685151.667 8 113956211.044 7                  88797082.110 7  85097198.832 8
G08  22759152.852 7                  22759160.752 7  22759158.139 8 119600134.121 7                  93194943.464 7  89311812.590 8
G10  24346482.482 6                  24346489.644 6  24346487.042 7 127941619.126 6                  99694794.087 6  95540831.025 7
G17  23866231.923 6                                                 125417868.323 6                                
G32  22282806.972 8                  22282813.153 7  22282809.421 8 117096932.810 8                  91244392.186 7  87442528.845 8
R01  23136951.819 5                 123680478.356 5
R02  19751325.939 8  19751327.829 7 105396853.026 8  81975295.337 7
R03  20307105.084 8  20307107.690 7 108705525.139 8  84548764.657 7
R17  19925678.258 8  19925680.683 7 106626329.418 8  82931499.686 7
R18  19512974.781 8  19512977.271 8 104161586.902 8  81014738.943 8
R19  23080036.118 4  23080040.574 5 123462720.362 4  96026475.521 5
> 2025 06 15 12 17 15.0000000  0 34
C05  39263996.333 6  39263995.304 7 204457931.991 6 158099841.880 7
C06  40093117.002 6  40093115.053 7 208775395.818 6 161438366.208 7
C09  41061933.673 6  41061934.394 6 213820274.721 6 165339400.674 6
C12  23218129.174 6  23218124.872 7 120902881.070 6  93489954.563 7
C13  40236476.708 5  40236480.532 6 209521877.124 5 162015636.784 6
C16  40421297.193 6  40421300.450 7 210484310.461 6 162759826.204 7
C19  22706952.099 8                 118241062.867 8
C20  26320449.100 5                 137057480.200 5
C22  22165618.126 8                 115422195.265 8
C34  25203369.569 6                 131240541.773 6
C35  22669165.555 8                 118044283.566 8
C39  39764611.416 6                 207064771.552 6
C44  21744805.935 8                 113230914.250 8
C60  40657679.128 6                 211715204.645 6
E04  27166531.345 4  27166533.617 5 142761121.165 4 107997836.972 5
E05  24026409.792 7  24026414.218 8 126259637.607 7  95514620.690 8
E06  25437644.501 7  25437647.793 8 133675721.665 7 101124827.198 8
E09  24731285.543 8  24731287.990 9 129963782.219 8  98316767.399 9
E11  27970100.973 6  27970104.516 7 146983854.322 6 111192299.347 7
E30  27702560.746 7  27702565.319 8 145577929.068 7 110128729.684 8
E34  23971214.857 8  23971217.157 9 125969583.845 8  95295183.575 9
E36  24099728.453 8  24099731.453 9 126644923.903 8  95806073.838 9
G01  20643790.341 7                  20643793.425 8  20643795.183 9 108483843.878 7                  84532883.429 8  81010689.699 9
G02  20798654.270 8  20798654.679 7                                 109297659.852 8  85167014.888 7                
G03  21677191.789 7                  21677198.572 7  21677197.113 8 113914409.860 7                  88764509.774 7  85065983.696 8
G08  22768409.151 7                  22768417.520 7  22768415.051 8 119648778.725 7                  93232848.285 7  89348138.026 8
G10  24355105.936 6                  24355113.455 6  24355110.389 7 127986936.053 6                  99730106.000 6  95574671.532 7
G17  23858207.726 6                                                 125375693.451 6                                
G32  22286726.564 8                  22286732.532 7  22286729.109 8 117117531.224 8                  91260442.891 7  87457910.787 8
R01  23148317.018 5                 123741233.865 5
R02  19755310.961 8  19755312.320 7 105418115.907 8  81991833.135 7
R03  20298854.923 8  20298857.901 7 108661362.884 8  84514416.260 7
R17  19931372.932 8  19931375.195 8 106656800.090 8  82955199.075 8
R18  19508370.399 8  19508372.438 7 104137007.316 8  80995621.495 7
> 2025 06 15 12 17 30.0000000  0 34
C05  39263645.917 6  39263645.037 7 204456109.074 6 158098432.284 7
C06  40087872.912 6  40087871.108 7 208748088.060 6 161417250.135 7
C09  41056212.053 5  41056211.831 6 213790479.890 5 165316361.431 6
C12  23211551.665 6  23211548.749 7 120868636.031 6  93463474.172 7
C13  40238728.457 5  40238733.306 6 209533605.864 5 162024706.202 6
C16  40416427.103 6  40416430.439 7 210458950.947 6 162740216.624 7
C19  22711065.362 8                 118262483.051 8
C20  26329466.531 5                 137104432.503 5
C22  22160219.531 8                 115394083.402 8
C34  25194300.714 5                 131193326.285 5
C35  22675104.291 8                 118075208.248 8
C39  39760653.964 6                 207044159.622 6
C44  21742577.887 8                 113219311.810 8
C60  40657565.671 6                 211714612.824 6
E04  27172837.383 4  27172836.856 5 142794245.288 4 108022895.14815
E05  24018380.678 7  24018385.514 8 126217445.602 7  95482702.788 8
E06  25440813.136 7  25440816.624 8 133692374.269 7 101137424.789 8
E09  24730651.196 8  24730653.464 9 129960447.555 8  98314244.746 9
E11  27977211.257 6  27977215.140 7 147021221.415 6 111220567.267 7
E30  27708621.826 7  27708626.289 8 145609778.532 7 110152823.564 8
E34  23967243.354 8  23967245.521 9 125948713.005 8  95279394.918 9
E36  24102981.707 8  24102985.015 9 126662021.430 8  95819007.986 9
G01  20639367.864 7                  20639371.198 8  20639372.964 9 108460604.552 7                  84514774.860 8  80993335.688 9
G02  20799799.570 8  20799799.600 7                                 109303676.226 8  85171702.955 7                
G03  21669251.186 8                  21669257.744 7  21669256.337 8 113872681.509 8                  88731994.244 7  85034822.971 8
G08  22777676.434 7                  22777684.825 7  22777682.458 8 119697479.859 7                  93270797.181 7  89384505.689 8
G10  24363732.530 6                  24363739.131 6  24363735.970 7 128032265.867 6                  99765427.883 6  95608521.699 7
G17  23850197.167 6                  23850199.774 5                 125333591.483 6                  97662550.39115
G32  22290669.767 8                  22290675.444 7  22290672.395 8 117138251.830 8                  91276588.839 7  87473383.987 8
R01  23159688.616 5                 123802023.242 5
R02  19759326.156 8  19759327.930 7 105439542.634 8  82008498.368 7
R03  20290631.066 8  20290633.888 7 108617339.770 8  84480176.091 7
R17  19937092.058 8  19937094.223 7 106687406.590 8  82979004.109 7
R18  19503790.339 8  19503792.536 8 104112559.976 8  80976606.940 8
> 2025 06 15 12 17 45.0000000  0 34
C05  39263295.506 6  39263294.807 7 204454284.271 6 158097021.234 7
C06  40082633.252 6  40082631.174 7 208720804.304 6 161396152.636 7
C09  41050492.117 6  41050492.670 6 213760695.860 6 165293330.571 6
C12  23204988.876 6  23204986.224 7 120834461.621 6  93437048.343 7
C13  40240978.998 5  40240983.738 6 209545324.208 5 162033767.567 6
C16  40411561.611 6  40411565.487 7 210433617.945 6 162720627.571 7
C19  22715196.866 8                 118283994.396 8
C20  26338485.484 5                 137151399.571 5
C22  22154839.301 8                 115366068.312 8
C34  25185241.659 5                 131146141.651 5
C35  22681059.305 8                 118106217.813 8
C39  39756702.078 6                 207023583.639 6
C44  21740369.903 8                 113207815.480 8
C60  40657451.774 6                 211714018.999 6
E04  27179149.237 5  27179152.359 5 142827432.413 5 108048000.96515
E05  24010362.431 7  24010367.214 8 126175309.063 7  95450826.808 8
E06  25444000.485 7  25444003.517 8 133709121.605 7 101150094.027 8
E09  24730037.492 8  24730039.485 9 129957220.875 8  98311803.778 9
E11  27984324.721 6  27984328.893 7 147058604.026 6 111248846.877 7
E30  27714693.721 7  27714698.306 8 145641687.213 7 110176962.229 8
E34  23963280.461 8  23963282.440 9 125927887.208 8  95263640.364 9
E36  24106245.537 8  24106248.696 9 126679171.903 8  95831982.205 9
G01  20634962.056 7                  20634965.354 8  20634966.951 9 108437451.750 7                  84496733.728 8  80976046.253 9
G02  20800961.216 8  20800961.625 7                                 109309782.401 8  85176461.028 7                
G03  21661324.571 7                  21661331.482 7  21661329.971 8 113831027.109 7                  88699536.277 7  85003717.440 8
G08  22786954.936 7                  22786962.905 7  22786960.039 8 119746238.184 7                  93308790.616 7  89420916.066 8
G10  24372361.059 6                  24372367.836 6  24372364.755 7 128077609.376 6                  99800760.413 6  95642382.079 7
G17  23842197.725 6                  23842202.864 5                 125291563.658 6                  97629801.405 5
G32  22294636.028 7                  22294641.875 7  22294639.231 8 117159095.407 7                  91292830.581 7  87488948.983 8
R01  23171067.312 4                                
R02  19763372.341 8  19763374.365 7 105461134.101 8  82025291.733 7
R03  20282432.961 8  20282436.478 8 108573457.055 8  84446045.155 8
R17  19942837.356 8  19942839.408 8 106718149.667 8  83002915.349 8
R18  19499235.670 8  19499236.986 7 104088246.222 8  80957696.215 7
> 2025 06 15 12 18  0.0000000  0 35
C05  39262944.130 6  39262943.700 7 204452454.967 6 158095606.688 7
C06  40077398.057 6  40077395.894 7 208693542.009 6 161375071.732 7
C09  41044774.310 5  41044774.915 6 213730920.194 5 165270306.156 6
C12  23198439.544 7  23198436.142 7 120800355.457 7  93410675.325 7
C13  40243226.342 5  40243232.382 5 209557029.605 5 162042818.907 5
C16  40406701.441 6  40406705.304 7 210408309.032 6 162701057.156 7
C19  22719344.694 8                 118305594.197 8
C20  26347506.889 5                 137198378.673 5
C22  22149477.717 8                 115338147.632 8
C34  25176184.231 5                 131098985.834 5
C35  22687029.867 8                 118137309.603 8
C39  39752758.063 6                 207003041.113 6
C44  21738182.213 8                 113196422.910 8
C60  40657336.817 6                 211713420.593 6
E04  27185477.735 5  27185479.533 5 142860679.82115 108073152.30315
E05  24002354.636 7  24002359.010 8 126133225.600 7  95418990.962 8
E06  25447204.278 7  25447207.889 8 133725960.976 7 101162832.903 8
E09  24729443.441 8  24729445.531 9 129954099.649 8  98309442.576 9
E11  27991442.176 6  27991445.112 7 147095999.406 6 111277136.197 7
E30  27720775.656 7  27720781.071 8 145673652.310 7 110201143.564 8
E34  23959325.334 8  23959327.469 9 125907104.065 8  95247918.051 9
E36  24109518.870 8  24109521.947 9 126696372.852 8  95844994.597 9
G01  20630572.253 7                  20630575.252 8  20630577.195 9 108414383.095 7                  84478758.145 8  80958819.661 9
G02  20802139.775 8  20802140.393 7                                 109315975.892 8  85181287.117 7                
G03  21653411.567 7                  21653418.132 7  21653416.703 8 113789444.199 7                  88667134.033 7  84972665.272 8
G08  22796243.897 7                  22796251.774 7  22796248.532 8 119795050.811 7                  93346826.404 7  89457367.029 8
G10  24380991.620 6                  24380999.058 6  24380995.930 7 128122963.897 6                  99836101.553 6  95676250.671 7
G17  23834213.812 6                  23834218.516 5                 125249607.746 6                  97597108.527 5
G32  22298625.557 7                  22298630.752 7  22298628.562 8 117180059.171 7                  91309165.997 7  87504603.731 8
R01  23182450.260 4                 123923702.53814
R02  19767449.029 8  19767450.579 7 105482887.295 8  82042210.895 7
R03  20274261.861 8  20274264.448 7 108529712.123 8  84412021.321 7
R17  19948607.487 8  19948610.084 8 106749026.556 8  83026930.695 8
R18  19494705.348 8  19494707.016 8 104064063.681 8  80938887.604 8
R19  23034321.519 5  23034320.849 4 123218170.10015  95836269.205 4
> 2025 06 15 12 18 15.0000000  0 35
C05  39262591.233 6  39262590.552 7 204450617.258 6 158094185.651 7
C06  40072166.344 6  40072163.483 7 208666297.440 6 161354004.525 7
C09  41039056.523 5  41039057.229 6 213701148.903 5 165247285.134 6
C12  23191902.118 7  23191898.422 7 120766313.933 7  93384352.241 7
C13  40245471.648 5  40245476.801 5 209568718.130 5 162051857.197 5
C16  40401845.187 6  40401848.928 7 210383020.268 6 162681502.322 7
C19  22723508.625 8                 118327278.346 8
C20  26356533.006 5                 137245365.629 5
C22  22144133.266 8                 115310317.427 8
C34  25167132.378 5                 131051855.055 5
C35  22693016.137 8                 118168479.644 8
C39  39748817.376 6                 206982528.122 6
C44  21736013.935 8                 113185130.251 8
C60  40657220.032 6                 211712813.685 6
E04  27191818.237 5  27191817.012 5 142893983.251 5 108098346.102 5
E05  23994355.158 7  23994360.168 8 126091191.427 7  95387192.426 8
E06  25450425.813 7  25450429.031 8 133742888.245 7 101175638.265 8
E09  24728868.487 8  24728870.903 9 129951079.850 8  98307158.139 9
E11  27998560.389 6  27998563.110 7 147133403.691 6 111305432.222 7
E30  27726868.710 7  27726873.680 8 145705669.553 7 110225364.403 8
E34  23955377.857 8  23955379.986 9 125886359.688 8  95232225.072 9
E36  24112800.809 8  24112804.045 9 126713620.295 8  95858042.158 9
G01  20626197.796 7                  20626200.654 8  20626202.549 9 108391394.757 7                  84460845.185 8  80941653.040 9
G02  20803334.634 8  20803335.274 7                                 109322252.701 8  85186178.132 7                
G03  21645511.799 7                  21645518.159 7  21645516.566 8 113747928.957 7                  88634784.516 7  84941663.686 8
G08  22805542.308 7                  22805550.485 7  22805547.053 8 119843913.511 7                  93384901.152 7  89493855.351 8
G10  24389623.733 6                  24389631.116 6  24389627.829 7 128168325.301 6                  99871448.004 6  95710124.370 7
G17  23826242.628 6                  23826247.313 6                 125207720.042 6                  97564468.777 6
G32  22302636.723 7                  22302642.469 7  22302639.648 8 117201138.937 7                  91325591.804 7  87520345.107 8
R01  23193837.928 5                 123984585.08315
R02  19771555.062 8  19771556.652 7 105504798.003 8  82059252.559 7
R03  20266114.617 8  20266117.465 7 108486101.629 8  84378102.093 7
R17  19954401.915 8  19954404.456 8 106780033.167 8  83051046.909 8
R18  19490199.230 8  19490201.317 8 104040008.755 8  80920178.206 8
R19  23022898.631 5                 123157063.933 5
> 2025 06 15 12 18 30.0000000  0 34
C05  39262236.730 6  39262235.986 7 204448770.415 6 158092757.551 7
C06  40066937.042 6  40066934.639 7 208639069.775 6 161332950.389 7
C09  41033340.046 5  41033340.070 6 213671381.381 5 165224267.053 6
C12  23185377.011 7  23185373.304 7 120732336.316 7  93358078.607 7
C13  40247712.462 5  40247717.689 5 209580388.833 5 162060881.705 5
C16  40396992.924 6  40396996.358 7 210357751.022 6 162661962.563 7
C19  22727689.305 8                 118349045.803 8
C20  26365559.083 5                 137292359.496 5
C22  22138806.077 8                 115282577.072 8
C34  25158085.281 4                                
C35  22699016.711 8                 118199726.940 8
C39  39744883.377 6                 206962043.937 6
C44  21733864.056 8                 113173936.895 8
C60  40657101.427 6                 211712197.500 6
E04  27198163.041 5  27198164.992 5 142927341.635 5 108123581.49015
E05  23986365.881 7  23986370.417 8 126049205.929 7  95355430.744 8
E06  25453663.552 7  25453666.767 8 133759902.555 7 101188509.468 8
E09  24728313.054 8  24728315.419 9 129948160.739 8  98304949.834 9
E11  28005679.240 6  28005682.631 7 147170816.010 6 111333734.325 7
E30  27732971.273 7  27732975.883 8 145737737.999 7 110249623.970 8
E34  23951437.424 8  23951439.789 9 125865653.393 8  95216560.902 9
E36  24116091.706 8  24116094.791 9 126730913.462 8  95871124.313 9
G01  20621838.554 7                  20621841.231 8  20621843.262 9 108368486.134 7                  84442994.302 8  80924545.956 9
G02  20804544.732 7  20804545.188 7                                 109328612.100 7  85191133.519 7                
G03  21637624.415 7                  21637630.746 7  21637629.076 8 113706480.720 7                  88602487.229 7  84910712.124 8
G08  22814849.993 7                  22814857.923 7  22814855.159 8 119892825.066 7                  93423014.004 7  89530380.179 8
G10  24398256.726 6                  24398264.184 6  24398260.685 7 128213692.642 6                  99906799.166 6  95744002.501 7
G17  23818284.742 6                  23818289.578 6                 125165900.043 6                  97531881.742 6
G32  22306669.912 7                  22306675.710 7  22306672.588 8 117222333.771 7                  91342107.223 7  87536172.393 8
R01  23205232.953 4                 124045493.55714
R02  19775690.057 8  19775692.269 7 105526865.087 8  82076415.836 7
R03  20257992.809 8  20257995.685 7 108442624.666 8  84344286.726 7
R17  19960220.366 8  19960222.693 8 106811168.581 8  83075263.330 8
R18  19485716.325 8  19485718.328 8 104016080.876 8  80901567.639 8
> 2025 06 15 12 18 45.0000000  0 34
C05  39261880.581 6  39261879.590 7 204446914.797 6 158091322.679 7
C06  40061711.791 6  40061709.350 7 208611859.589 6 161311909.746 7
C09  41027624.393 5  41027624.709 6 213641618.109 5 165201252.246 6
C12  23178864.631 7  23178860.619 7 120698423.421 7  93331854.978 7
C13  40249950.275 6  40249955.493 5 209592042.401 6 162069893.015 5
C16  40392143.852 6  40392147.054 7 210332501.768 6 162642438.280 7
C19  22731885.475 8                 118370896.852 8
C20  26374584.148 5                 137339360.546 5
C22  22133495.809 8                 115254927.066 8
C34  25149044.993 5                 130957667.46715
C35  22705032.467 8                 118231051.872 8
C39  39740955.635 6                 206941589.039 6
C44  21731733.722 8                 113162843.397 8
C60  40656981.898 6                 211711572.517 6
E04                  27204523.785 5                 108148858.68515
E05  23978385.742 7  23978390.010 9 126007269.896 7  95323706.427 9
E06  25456918.235 7  25456921.104 8 133777004.180 7 101201446.729 8
E09  24727777.041 8  24727779.196 9 129945342.702 8  98302818.010 9
E11  28012799.717 6  28012803.529 7 147208236.749 6 111362042.745 7
E30  27739083.160 7  27739088.100 8 145769857.864 7 110273922.384 8
E34  23947504.701 8  23947506.936 9 125844985.683 8  95200925.927 9
E36  24119391.261 8  24119394.358 9 126748252.782 8  95884241.381 9
G01  20617494.386 7                  20617497.232 8  20617499.195 9 108345657.826 7                  84425206.033 8  80907498.873 9
G02  20805770.558 8  20805771.099 7                                 109335054.760 8  85196153.740 7                
G03  21629749.790 7                  21629756.263 7  21629754.563 8 113665100.106 7                  88570242.603 7  84879811.024 8
G08  22824166.765 7                  22824174.392 7  22824172.321 8 119941785.649 7                  93461165.115 7  89566941.620 8
G10  24406890.546 6                  24406898.370 6  24406895.551 7 128259066.259 6                  99942155.160 6  95777885.335 7
G17  23810339.846 6                  23810344.584 6                 125124148.469 6                  97499348.099 6
G32  22310725.310 7                  22310731.052 7  22310727.525 8 117243643.884 7                  91358712.498 7  87552085.787 8
R01  23216632.956 5                 124106427.80315
R02  19779854.891 8  19779856.731 7 105549088.310 8  82093700.546 7
R03  20249895.844 8  20249899.332 8 108399282.356 8  84310576.056 8
R17  19966062.956 8  19966064.861 7 106842433.080 8  83099580.134 7
R18  19481258.209 8  19481259.813 8 103992280.939 8  80883056.578 8
> 2025 06 15 12 19  0.0000000  0 34
C05  39261522.518 6  39261521.965 7 204445053.075 6 158089883.082 7
C06  40056490.255 6  40056487.724 7 208584669.438 6 161290884.611 7
C09  41021909.606 5  41021910.065 6 213611861.827 5 165178242.812 6
C12  23172365.050 7  23172361.531 8 120664577.991 7  93305683.578 8
C13  40252187.738 6  40252189.586 5 209603681.213 6 162078892.903 5
C16  40387299.233 6  40387302.604 7 210307275.053 6 162622931.406 7
C19  22736098.045 8                 118392833.864 8
C20  26383612.827 6                 137386371.097 6
C22  22128204.044 8                 115227370.076 8
C35  22711063.495 8                 118262456.810 8
C39  39737034.064 6                 206921165.987 6
C44  21729622.816 8                 113151852.455 8
C60  40656860.872 6                 211710941.247 6
E04                  27210893.592 5                 108174179.53815
E05  23970415.926 7  23970419.776 8 125965385.968 7  95292021.557 8
E06  25460189.656 7  25460192.520 8 133794195.532 7 101214451.885 8
E09  24727260.140 8  24727262.686 9 129942628.338 8  98300764.614 9
E11  28019922.944 6  28019926.471 7 147245668.410 6 111390359.539 7
E30  27745206.009 7  27745210.641 8 145802031.436 7 110298261.470 8
E34  23943579.681 8  23943581.843 9 125824359.319 8  95185322.204 9
E36  24122699.744 8  24122703.220 9 126765640.866 8  95897395.337 9
G01  20613165.791 7                  20613168.915 8  20613170.920 9 108322912.587 7                  84407482.489 8  80890513.792 9
G02  20807012.945 7  20807013.748 7                                 109341583.056 7  85201240.741 7                
G03  21621888.830 7                  21621895.044 7  21621893.570 8 113623789.702 7                  88538052.738 7  84848962.404 8
G08  22833493.284 7                  22833501.157 7  22833498.748 8 119990797.616 7                  93499356.209 7  89603541.381 8
G10  24415526.941 6                  24415534.369 6  24415531.370 7 128304448.565 6                  99977517.972 6  95811774.664 7
G17  23802408.961 6                  23802413.149 6                 125082468.142 6                  97466869.910 6
G22  24722741.434 5                                                 129918854.29615                                
G32  22314802.527 7                  22314808.688 7  22314805.223 8 117265071.652 7                  91375409.445 7  87568087.031 8
R01  23228038.239 5                                
R02  19784049.294 8  19784051.374 7 105571470.451 8  82111108.866 7
R03  20241824.609 8  20241827.869 7 108356077.198 8  84276972.100 7
R17  19971929.750 8  19971932.131 7 106873829.110 8  83123999.264 7
R18  19476824.118 8  19476825.854 7 103968611.794 8  80864647.271 7
> 2025 06 15 12 19 15.0000000  0 36
C05  39261164.689 6  39261163.339 7 204443185.573 6 158088439.012 7
C06  40051272.362 6  40051270.172 7 208557499.758 6 161269875.316 7
C09  41016197.001 6  41016197.272 6 213582112.804 6 165155239.007 6
C12  23165878.212 7  23165874.849 7 120630800.625 7  93279564.805 7
C13  40254419.178 6  40254422.243 5 209615305.829 6 162087881.724 5
C16  40382459.224 6  40382462.523 7 210282071.371 6 162603442.342 7
C19  22740327.641 8                 118414856.977 8
C20  26392642.274 6                 137433391.302 6
C21  26305626.310 6                 136980302.78816
C22  22122930.082 8                 115199906.559 8
C35  22717109.638 8                 118293942.010 8
C39  39733117.651 6                 206900775.289 6
C44  21727532.218 8                 113140964.536 8
C60  40656737.955 6                 211710304.074 6
E04                  27217274.461 5                 108199544.12015
E05  23962455.823 8  23962459.739 8 125923554.813 8  95260376.569 8
E06  25463477.923 7  25463481.129 8 133811476.888 7 101227525.112 8
E09  24726763.595 8  24726765.969 9 129940017.948 8  98298789.870 9
E11  28027047.742 6  28027051.871 6 147283111.409 6 111418684.833 6
E30  27751338.929 7  27751343.385 8 145834258.875 7 110322641.303 8
E34  23939662.681 8  23939664.633 9 125803774.689 8  95169750.068 9
E36  24126018.119 8  24126021.404 9 126783078.098 8  95910586.479 9
G01  20608853.319 7                  20608857.094 8  20608858.341 9 108300250.972 7                  84389824.063 8  80873591.163 9
G02  20808271.457 8  20808272.780 7                                 109348197.607 8  85206394.925 7                
G03  21614041.180 7                  21614047.340 7  21614045.663 8 113582550.146 7                  88505918.052 7  84818166.664 8
G08  22842829.696 7                  22842837.868 7  22842835.333 8 120039860.957 7                  93537587.327 7  89640179.534 8
G10  24424165.102 6                  24424172.418 6  24424168.893 7 128349839.818 6                 100012887.773 6  95845670.681 7
G17  23794490.560 6                  23794495.412 6                 125040859.784 6                  97434447.813 6
G22  24723891.172 4                                                 129924881.96114                                
G32  22318902.506 7                  22318908.930 7  22318905.113 8 117286617.225 7                  91392198.195 7  87584176.246 8
R01  23239447.132 5                 124228380.60015
R02  19788273.580 8  19788275.222 8 105594011.299 8  82128640.638 8
R03  20233779.588 8  20233782.614 7 108313010.105 8  84243475.507 7
R17  19977822.090 8  19977823.947 8 106905357.201 8  83148521.079 8
R18  19472414.545 8  19472416.315 7 103945074.108 8  80846340.164 7
R19  22977234.987 5  22977225.533 5 122912745.45815  95598708.14415
> 2025 06 15 12 19 30.0000000  0 36
C05  39260804.437 6  39260803.379 7 204441310.665 6 158086989.224 7
C06  40046058.356 6  40046056.177 7 208530349.063 6 161248880.718 7
C09  41010484.656 5  41010485.608 6 213552369.604 5 165132239.683 6
C12  23159404.126 7  23159400.960 7 120597089.948 7  93253497.607 7
C13  40256648.264 6  40256652.361 5 209626914.527 6 162096858.245 5
C16  40377622.826 6  40377626.071 6 210256889.176 6 162583969.905 6
C19  22744572.686 8                 118436964.398 8
C20  26401674.698 6                 137480419.324 6
C21  26295584.351 7                 136928011.346 7
C22  22117673.483 8                 115172534.966 8
C34  25121963.738 5                 130816544.97315
C35  22723171.276 8                 118325505.772 8
C39  39729207.696 6                 206880415.292 6
C44  21725460.590 8                 113130178.165 8
C60  40656614.359 6                 211709659.422 6
E04                  27223665.525 5                 108224951.06415
E05  23954505.112 7  23954509.420 9 125881774.980 7  95228770.405 9
E06  25466782.801 7  25466786.610 8 133828846.480 7 101240665.099 8
E09  24726286.406 8  24726288.699 9 129937509.935 8  98296892.564 9
E11  28034175.243 6  28034179.236 6 147320564.090 6 111447017.439 6
E30  27757481.077 7  27757485.931 8 145866538.343 7 110347060.475 8
E34  23935752.950 8  23935755.134 9 125783230.308 8  95154208.400 9
E36  24129345.515 8  24129348.656 9 126800562.860 8  95923813.573 9
G01  20604556.493 7                  20604560.151 8  20604561.830 9 108277671.492 7                  84372229.696 8  80856729.874 9
G02  20809546.361 8  20809547.192 7                                 109354896.655 8  85211614.964 7                
G03  21606206.528 7                  21606212.990 7  21606211.341 8 113541379.882 7                  88473837.347 7  84787422.673 8
G08  22852175.715 7                  22852184.312 7  22852181.119 8 120088973.679 7                  93575856.928 7  89676854.620 8
G10  24432804.006 6                  24432811.120 6  24432807.779 7 128395238.265 6                 100048263.155 6  95879572.045 7
G17  23786587.211 6                  23786590.245 5                 124999321.822 6                  97402080.608 5
G32  22323024.551 8                  22323030.920 7  22323027.755 8 117308278.804 8                  91409077.312 7  87600352.082 8
R01  23250862.069 5                 124289397.182 5
R02  19792527.137 8  19792528.784 7 105616708.801 8  82146294.237 7
R03  20225759.848 8  20225762.338 8 108270079.391 8  84210084.966 8
R17  19983737.818 8  19983740.378 8 106937015.423 8  83173144.107 8
R18  19468029.310 8  19468031.044 7 103921666.595 8  80828134.332 7
R19  22965817.979 5  22965816.260 5 122851698.744 5  95551227.43415
> 2025 06 15 12 19 45.0000000  0 36
C05  39260442.557 6  39260441.232 7 204439426.018 6 158085531.888 7
C06  40040847.390 6  40040845.327 7 208503215.049 6 161227899.002 7
C09  41004773.219 5  41004774.146 6 213522629.914 5 165109243.124 6
C12  23152943.241 7  23152939.632 7 120563443.861 7  93227480.330 7
C13  40258873.971 6  40258878.334 5 209638505.059 6 162105820.781 5
C16  40372790.672 7  40372794.009 6 210231726.146 7 162564512.282 6
C19  22748834.318 8                 118459153.599 8
C20  26410708.218 6                 137527452.680 6
C21  26285544.714 7                 136875733.381 7
C22  22112434.524 8                 115145253.111 8
C34  25112941.258 6                 130769572.276 6
C35  22729247.485 8                 118357145.622 8
C39  39725303.686 6                 206860083.771 6
C44  21723408.381 8                 113119491.166 8
C60  40656488.754 6                 211709004.994 6
E04                  27230066.612 5                 108250398.44515
E05  23946563.211 7  23946568.201 9 125840044.281 7  95197201.470 9
E06  25470104.887 7  25470108.324 8 133846301.821 7 101253869.962 8
E09  24725827.986 8  24725830.417 9 129935101.907 8  98295070.925 9
E11  28041303.833 6  28041307.709 7 147358023.975 6 111475355.567 7
E30  27763633.200 7  27763638.130 7 145898867.186 7 110371516.998 7
E34  23931850.671 8  23931852.942 9 125762723.940 8  95138695.470 9
E36  24132681.226 8  24132684.531 9 126818092.796 8  95937074.858 9
G01  20600275.033 7                  20600278.384 8  20600280.323 9 108255172.018 7                  84354697.632 8  80839928.317 9
G02  20810836.894 8  20810837.225 7                                 109361677.922 8  85216899.063 7                
G03  21598384.822 7                  21598391.481 7  21598389.787 8 113500276.702 7                  88441808.937 7  84756728.784 8
G08  22861530.265 6                  22861538.662 7  22861536.264 8 120138133.196 6                  93614162.995 7  89713564.595 8
G10  24441443.678 6                  24441451.655 6  24441448.027 7 128440641.319 6                 100083642.145 6  95913476.886 7
G17  23778694.903 6                  23778699.042 5                 124957852.555 6                  97369766.907 5
G32  22327168.244 8                  22327174.178 7  22327171.295 8 117330053.771 8                  91426044.829 7  87616612.621 8
R01  23262279.095 4                 124350436.91814
R02  19796809.533 8  19796811.288 7 105639560.402 8  82164067.703 7
R03  20217765.262 8  20217768.048 8 108227283.411 8  84176799.231 8
R17  19989678.070 8  19989679.745 7 106968801.326 8  83197866.462 7
R18  19463668.756 8  19463669.987 7 103898387.201 8  80810028.123 7
R19  22954404.245 5  22954403.684 5 122790662.521 5  95503754.924 5
> 2025 06 15 12 20  0.0000000  0 35
C05  39260078.750 6  39260077.564 7 204437532.433 6 158084067.643 7
C06  40035640.330 6  40035638.129 7 208476098.565 6 161206930.863 7
C09  40999063.087 6  40999063.431 6 213492894.580 6 165086249.857 6
C12  23146494.187 7  23146490.413 7 120529863.370 7  93201513.790 7
C13  40261097.689 6  40261100.311 5 209650078.115 6 162114769.803 5
C16  40367962.338 6  40367965.576 6 210206583.177 6 162545070.184 6
C19  22753111.126 8                 118481425.157 8
C20  26419742.414 5                 137574491.959 5
C21  26275508.041 7                 136823469.832 7
C22  22107212.372 8                 115118061.824 8
C34  25103926.460 6                 130722625.626 6
C35  22735338.287 8                 118388862.185 8
C39  39721404.399 7                 206839781.520 7
C44  21721375.229 8                 113108904.413 8
C60  40656361.177 6                 211708341.483 6
E04                  27236487.309 5                 108275888.18815
E05  23938631.595 7  23938636.454 9 125798363.726 7  95165670.473 9
E06  25473442.562 7  25473446.458 8 133863843.593 7 101267140.163 8
E09  24725389.272 8  24725391.306 9 129932794.643 8  98293325.503 9
E11  28048434.190 6  28048437.395 6 147395491.953 6 111503699.791 6
E30  27769795.606 7  27769799.698 8 145931246.042 7 110396011.354 8
E34  23927956.054 8  23927958.180 9 125742256.441 8  95123211.955 9
E36  24136026.002 8  24136029.132 9 126835668.728 8  95950370.923 9
G01  20596008.941 7                  20596012.154 8  20596014.282 9 108232753.434 7                  84337228.614 8  80823187.184 9
G02  20812143.232 8  20812143.569 7                                 109368542.238 8  85222247.877 7                
G03  21590576.163 7                  21590582.501 7  21590580.815 8 113459241.513 7                  88409833.491 7  84726085.651 8
G08  22870894.783 7                  22870902.055 7  22870899.972 8 120187340.006 7                  93652505.899 7  89750309.826 8
G10  24450084.332 6                  24450092.767 6  24450089.663 7 128486049.741 6                 100119025.284 6  95947385.732 7
G17  23770816.866 6                  23770821.122 6                 124916453.107 6                  97337507.631 6
G32  22331333.511 8                  22331339.480 7  22331336.640 8 117351942.764 8                  91443101.202 7  87632958.298 8
R02  19801120.607 8  19801122.660 7 105662566.454 8  82181961.302 7
R03  20209795.838 8  20209799.024 8 108184622.966 8  84143618.924 8
R17  19995642.263 8  19995644.358 8 107000715.336 8  83222688.466 8
R18  19459331.754 8  19459333.451 8 103875236.949 8  80792022.394 8
R19  22942991.599 4  22942995.752 5 122729637.93014  95456291.558 5
> 2025 06 15 12 20 15.0000000  0 36
C05  39259714.056 6  39259713.268 7 204435633.699 6 158082599.421 7
C06  40030436.884 6  40030434.605 7 208449003.429 6 161185979.213 7
C09  40993354.021 5  40993355.199 6 213463167.479 5 165063263.005 6
C12  23140058.832 7  23140055.367 7 120496352.423 7  93175601.019 7
C13  40263316.603 6  40263320.769 6 209661637.465 6 162123708.150 6
C16  40363138.366 7  40363141.517 7 210181464.014 7 162525646.481 7
C19  22757404.652 8                 118503782.591 8
C20  26428774.600 5                 137621540.503 5
C21  26265475.092 7                 136771224.613 7
C22  22102008.790 8                 115090964.920 8
C34  25094911.331 5                 130675708.861 5
C35  22741444.554 8                 118420659.120 8
C39  39717511.717 6                 206819512.358 6
C44  21719362.145 8                 113098421.759 8
C60  40656231.671 6                 211707672.685 6
E04                  27242910.306 4                
E05  23930711.020 7  23930715.096 8 125756737.335 7  95134180.433 8
E06  25476798.256 7  25476801.673 8 133881475.380 7 101280478.485 8
E09  24724969.786 8  24724972.079 9 129930591.914 8  98291659.153 9
E11  28055565.950 6  28055569.434 7 147432971.741 6 111532052.907 7
E30  27775967.132 7  27775971.259 8 145963678.409 7 110420546.211 8
E34  23924069.278 8  23924071.510 9 125721831.705 8  95107760.790 9
E36  24139380.165 8  24139383.217 9 126853294.440 8  95963704.631 9
G01  20591758.996 7                  20591762.282 8  20591764.451 9 108210419.697 7                  84319825.714 8  80806509.410 9
G02  20813465.774 8  20813466.504 7                                 109375493.438 8  85227664.402 7                
G03  21582781.012 7                  21582787.560 7  21582785.650 8 113418278.212 7                  88377914.032 7  84695496.210 8
G08  22880268.198 7                  22880275.872 7  22880272.829 8 120236597.386 7                  93690888.258 7  89787092.893 8
G10  24458726.719 6                  24458734.560 6  24458732.721 7 128531467.104 6                 100154415.373 6  95981301.263 7
G17  23762952.122 6                  23762956.558 6                 124875127.421 6                  97305305.826 6
G32  22335521.551 7                  22335527.624 7  22335524.370 8 117373949.338 7                  91460249.163 7  87649391.760 8
R01  23285132.826 5                 124472590.55315
R02  19805461.771 8  19805463.264 7 105685730.364 8  82199977.650 7
R03  20201852.102 8  20201855.210 7 108142102.033 8  84110547.120 7
R17  20001629.776 8  20001632.227 7 107032761.203 8  83247612.983 7
R18  19455020.230 8  19455022.015 8 103852220.072 8  80774120.354 8
R19  22931587.029 5  22931590.034 5 122668625.06615  95408840.168 5
> 2025 06 15 12 20 30.0000000  0 38
C05  39259348.254 6  39259347.526 7 204433729.242 6 158081126.793 7
C06  40025237.696 6  40025234.877 7 208421929.201 6 161165043.732 7
C09  40987646.251 5  40987647.786 6 213433448.143 5 165040282.149 6
C12  23133637.098 7  23133633.011 7 120462910.855 7  93149741.890 7
C13  40265533.681 6  40265538.224 5 209673182.778 6 162132635.728 5
C16  40358318.892 6  40358322.426 6 210156368.238 6 162506240.900 6
C19  22761714.728 8                 118526225.270 8
C20  26437812.754 5                 137668597.875 5
C21  26255445.659 6                 136718997.424 6
C22  22096823.352 8                 115063962.050 8
C34  25085900.725 5                 130628821.876 5
C35  22747566.607 8                 118452535.776 8
C39  39713626.046 6                 206799275.803 6
C44  21717368.892 8                 113088042.934 8
C60  40656101.481 6                 211706998.088 6
E04                  27249343.363 5                 108326994.93815
E05  23922800.246 7  23922804.084 8 125715164.824 7  95102731.146 8
E06  25480170.459 7  25480173.838 8 133899196.552 7 101293884.441 8
E09  24724570.428 7  24724572.724 8 129928493.232 7  98290071.497 8
E11  28062700.260 6  28062703.683 7 147470462.711 6 111560414.462 7
E30  27782147.371 6  27782153.139 7 145996163.548 6 110445120.976 7
E34  23920190.891 8  23920192.850 8 125701449.330 8  95092341.658 8
E36  24142743.212 8  24142746.675 8 126870969.427 8  95977075.630 8
G01  20587525.398 7                  20587528.461 8  20587530.626 9 108188170.511 7                  84302488.699 8  80789894.759 9
G02  20814804.609 8  20814805.679 6                                 109382531.070 8  85233148.259 6                
G03  21574999.211 7                  21575005.891 7  21575004.744 8 113377386.419 7                  88346050.355 7  84664960.181 8
G08  22889650.818 7                  22889659.121 7  22889655.725 8 120285904.661 7                  93729309.496 7  89823913.240 8
G10  24467371.483 6                  24467378.857 5  24467376.165 7 128576892.731 6                 100189811.974 5  96015223.028 7
G17  23755101.918 6                  23755106.656 5                 124833875.219 6                  97273161.309 5
G22  24729954.197 5                                                                                                
G28  24919378.073 6                  24919386.560 6  24919388.774 7 130952221.33516                 102040714.16116  97789029.21617
G32  22339731.943 8                  22339737.790 7  22339734.210 8 117396072.756 8                  91477488.191 7  87665912.503 8
R01  23296566.304 5                 124533707.08215
R02  19809832.041 8  19809834.233 7 105709051.711 8  82218116.463 7
R03  20193934.976 8  20193938.401 8 108099720.747 8  84077583.945 8
R17  20007643.566 8  20007646.306 8 107064938.612 8  83272639.856 8
R18  19450733.177 8  19450735.172 8 103829336.412 8  80756321.978 8
R19  22920184.230 6  22920190.554 6 122607631.415 6  95361400.853 6
> 2025 06 15 12 20 45.0000000  0 35
C05  39258981.555 6  39258981.332 7 204431822.632 6 158079652.438 7
C06  40020042.954 6  40020040.340 7 208394879.384 6 161144127.107 7
C09  40981941.574 5  40981942.365 6 213403739.993 5 165017309.979 6
C12  23127228.933 7  23127225.024 7 120429542.226 7  93123939.171 7
C13  40267748.768 6  40267753.012 5 209684717.275 6 162141555.022 5
C16  40353504.650 6  40353507.776 7 210131299.420 6 162486856.152 7
C19  22766041.443 8                 118548756.424 8
C21  26245419.583 7                 136666791.902 7
C22  22091655.894 8                 115037056.709 8
C35  22753703.546 8                 118484495.519 8
C39  39709746.161 6                 206779075.354 6
C44  21715396.673 8                 113077771.406 8
C60  40655973.062 6                 211706321.240 6
E04                  27255788.709 5                 108352615.28215
E05  23914900.498 8  23914904.101 9 125673649.891 8  95071325.369 9
E06  25483559.919 7  25483563.704 8 133917010.460 7 101307360.545 8
E09  24724191.242 8  24724193.729 9 129926501.989 8  98288565.149 9
E11  28069837.140 6  28069840.821 7 147507968.418 6 111588787.257 7
E30  27788339.495 6  27788345.322 7 146028704.813 6 110469738.189 7
E34  23916320.981 8  23916322.931 9 125681112.939 8  95076957.307 9
E36  24146116.898 8  24146120.170 9 126888697.194 8  95990486.560 9
G01  20583308.010 7                  20583311.250 8  20583313.470 9 108166009.546 7                  84285220.407 8  80773346.007 9
G02  20816161.193 8  20816161.757 7                                 109389658.735 8  85238702.292 7                
G03  21567232.082 7                  21567239.035 7  21567237.532 8 113336569.794 7                  88314245.229 7  84634480.276 8
G08  22899043.355 7                  22899052.229 7  22899048.993 8 120335265.074 7                  93767772.062 7  89860773.242 8
G10  24476018.398 6                  24476024.436 5  24476022.615 6 128622330.238 6                 100225217.758 5  96049153.557 6
G17  23747266.954 6                  23747271.633 6                 124792700.361 6                  97241077.051 6
G28  24911147.752 6                  24911155.677 7  24911159.080 7 130908970.134 6                 102007011.993 7  97756731.340 7
G32  22343964.418 8                  22343970.309 7  22343967.227 8 117418316.370 8                  91494820.867 7  87682522.973 8
R01  23308004.115 5                 124594853.249 5
R02  19814232.216 8  19814234.438 7 105732533.224 8  82236379.886 7
R03  20186044.725 8  20186047.802 8 108057482.653 8  84044732.112 8
R17  20013681.863 8  20013684.009 8 107097250.847 8  83297771.561 8
R18  19446471.825 8  19446473.625 7 103806589.730 8  80738630.120 7
R19  22908785.948 4  22908791.336 5                  95313976.539 5
> 2025 06 15 12 21  0.0000000  0 35
C05  39258615.686 6  39258614.716 7 204429913.547 6 158078176.259 7
C06  40014853.175 6  40014850.071 7 208367853.866 6 161123229.303 7
C09  40976237.643 5  40976239.779 6 213374043.095 5 164994346.456 6
C12  23120833.895 7  23120830.827 7 120396246.587 7  93098192.863 7
C13  40269961.587 6  40269965.754 5 209696240.981 6 162150465.822 5
C16  40348695.736 6  40348698.821 7 210106257.330 6 162467492.015 7
C19  22770385.332 8                 118571375.584 8
C21  26235398.428 7                 136614607.980 7
C22  22086508.179 8                 115010248.723 8
C35  22759856.917 8                 118516537.942 8
C39  39705873.271 6                 206758910.843 6
C44  21713444.581 8                 113067607.123 8
C60  40655841.854 6                 211705641.787 6
E04                  27262244.505 5                 108378280.83715
E05  23907010.712 7  23907015.043 8 125632192.401 7  95039963.081 8
E06  25486968.027 7  25486971.093 8 133934916.739 7 101320906.527 8
E09  24723832.897 7  24723835.306 9 129924617.973 7  98287139.904 9
E11  28076977.411 6  28076980.685 7 147545488.536 6 111617170.855 7
E30  27794543.565 6  27794548.342 8 146061301.510 6 110494397.367 8
E34  23912459.742 8  23912461.865 9 125660822.317 8  95061607.589 9
E36  24149500.220 8  24149503.625 9 126906477.492 8  96003937.238 9
G01  20579107.811 7                  20579110.770 8  20579113.050 9 108143936.653 7                  84268020.752 8  80756862.993 9
G02  20817534.698 8  20817535.436 7                                 109396876.062 8  85244326.160 7                
G03  21559479.922 7                  21559485.871 7  21559484.400 8 113295828.184 7                  88282498.532 7  84604056.364 8
G08  22908446.688 7                  22908455.187 7  22908452.322 8 120384677.911 7                  93806275.540 7  89897672.396 8
G10  24484667.146 6                  24484673.270 5  24484670.512 7 128667779.014 6                 100260632.263 5  96083092.521 7
G17  23739446.326 6                  23739450.920 6                 124751602.682 6                  97209052.954 6
G28  24902926.344 6                  24902934.644 6  24902938.424 7 130865769.213 6                 101973349.065 6  97724471.015 7
G32  22348219.834 7                  22348226.119 7  22348222.795 8 117440679.637 7                  91512246.769 7  87699222.800 8
R01  23319447.420 5                 124656027.944 5
R02  19818663.014 8  19818664.859 7 105756174.474 8  82254767.518 7
R03  20178181.200 8  20178183.805 8 108015387.708 8  84011991.621 8
R17  20019745.302 8  20019747.825 7 107129697.281 8  83323007.683 7
R18  19442236.349 8  19442238.031 7 103783980.055 8  80721044.812 7
R19  22897391.465 5                 122485703.32215
> 2025 06 15 12 21 15.0000000  0 35
C05  39258248.817 6  39258247.689 7 204428003.042 6 158076698.929 7
C06  40009668.163 6  40009665.370 7 208340853.620 6 161102351.025 7
C09  40970536.928 6  40970538.955 6 213344358.380 6 164971392.417 6
C12  23114454.263 7  23114451.186 7 120363025.193 7  93072503.998 7
C13  40272171.335 6  40272176.719 5 209707754.797 6 162159368.997 5
C16  40343891.659 6  40343895.100 6 210081243.030 6 162448149.419 6
C19  22774745.962 8                 118594083.590 8
C21  26225381.390 7                 136562446.796 7
C22  22081378.485 8                 114983539.257 8
C35  22766026.659 8                 118548663.941 8
C39  39702009.072 6                 206738783.295 6
C44  21711513.314 8                 113057551.199 8
C60  40655711.464 6                 211704960.819 6
E04                  27268712.030 5                 108403992.30315
E05  23899132.228 7  23899137.080 8 125590793.643 7  95008645.242 8
E06  25490392.829 7  25490396.246 8 133952916.289 7 101334523.067 8
E09  24723495.068 7  24723497.423 9 129922842.175 7  98285796.529 9
E11  28084119.172 6  28084123.759 7 147583024.041 6 111645566.190 7
E30  27800758.472 7  27800762.137 7 146093954.583 7 110519099.191 7
E34  23908607.183 8  23908609.588 9 125640578.670 8  95046293.403 9
E36  24152894.198 8  24152897.317 9 126924311.407 8  96017428.463 9
G01  20574924.354 7                  20574927.985 8  20574929.822 9 108121953.096 7                  84250890.706 8  80740446.713 9
G02  20818925.320 8  20818925.971 6                                 109404184.201 8  85250020.808 6                
G03  21551741.042 7                  21551747.467 7  21551745.871 8 113255162.767 7                  88250811.224 7  84573689.358 8
G08  22917859.931 7                  22917868.097 7  22917865.648 8 120434143.976 7                  93844820.471 7  89934611.267 8
G10  24493317.362 6                  24493324.776 5  24493321.491 6 128713239.943 6                 100296056.397 5  96117040.605 6
G17  23731640.041 6                  23731644.989 6                 124710583.785 6                  97177090.252 6
G22  24733857.420 4                                                                                                
G28  24894715.912 6                  24894723.499 7  24894727.109 7 130822619.944 6                 101939726.409 7  97692249.310 7
G32  22352498.576 8                  22352504.170 7  22352501.134 8 117463163.428 8                  91529766.624 7  87716012.624 8
R01  23330898.162 4                 124717232.00114
R02  19823123.132 8  19823125.176 7 105779976.271 8  82273280.009 7
R03  20170344.258 8  20170347.694 8 107973437.492 8  83979363.717 8
R17  20025834.023 8  20025836.346 8 107162279.048 8  83348349.008 8
R18  19438026.715 8  19438028.461 8 103761508.868 8  80703567.228 8
> 2025 06 15 12 21 30.0000000  0 34
C05  39257880.868 6  39257879.865 7 204426088.990 6 158075218.860 7
C06  40004487.192 6  40004484.656 7 208313876.615 6 161081490.717 7
C09  40964838.888 5  40964840.330 6 213314683.691 5 164948446.102 6
C12  23108088.637 7  23108085.456 7 120329876.078 7  93046871.024 7
C13  40274381.760 6  40274386.006 5 209719256.438 6 162168262.772 5
C16  40339092.964 6  40339095.848 7 210056254.395 6 162428826.644 7
C19  22779123.637 8                 118616878.029 8
C21  26215368.121 6                 136510306.377 6
C22  22076267.807 8                 114956926.170 8
C35  22772211.739 8                 118580871.193 8
C39  39698150.456 6                 206718690.627 6
C44  21709602.489 8                 113047601.561 8
C60  40655579.591 6                 211704276.157 6
E04                  27275190.275 5                 108429747.71915
E05  23891265.611 7  23891269.842 8 125549451.585 7  94977370.290 8
E06  25493835.408 7  25493838.685 8 133971006.715 7 101348208.360 8
E09  24723177.273 7  24723179.698 9 129921172.354 7  98284533.319 9
E11  28091265.463 6  28091269.319 7 147620572.839 6 111673971.440 7
E30  27806981.736 6  27806986.064 7 146126661.624 6 110543841.793 7
E34  23904763.463 8  23904765.754 9 125620379.824 8  95031013.118 9
E36  24156297.627 8  24156300.803 9 126942196.672 8  96030958.524 9
G01  20570757.773 7                  20570761.219 8  20570762.998 9 108100056.746 7                  84233828.654 8  80724095.566 9
G02  20820333.083 7  20820333.539 6                                 109411581.020 7  85255784.561 6                
G03  21544016.785 7                  21544022.992 7  21544021.789 8 113214571.396 7                  88219181.619 7  84543377.667 8
G08  22927282.804 7                  22927290.960 7  22927288.240 8 120483660.729 7                  93883404.880 7  89971587.971 8
G10  24501970.115 6                  24501977.853 5  24501975.044 6 128758710.876 6                 100331488.215 5  96150996.061 6
G17  23723850.077 6                  23723854.092 6                 124669641.625 6                  97145187.253 6
G22  24735201.347 4                                                                                                
G28  24886514.068 6                  24886521.348 7  24886525.198 7 130779520.684 6                 101906142.722 7  97660064.934 7
G32  22356799.161 7                  22356805.372 7  22356802.135 8 117485765.287 7                  91547378.465 7  87732890.646 8
R02  19827613.520 8  19827615.393 7 105803936.006 8  82291915.364 7
R03  20162533.982 8  20162537.391 8 107931629.895 8  83946846.714 8
R17  20031947.384 8  20031949.749 8 107194993.628 8  83373793.694 8
R18  19433842.622 8  19433844.463 8 103739174.188 8  80686195.816 8
> 2025 06 15 12 21 45.0000000  0 33
C05  39257512.352 5  39257511.417 7 204424169.946 5 158073734.958 7
C06  39999310.436 6  39999308.197 7 208286921.555 6 161060647.390 7
C09  40959141.903 5  40959142.765 6 213285017.874 5 164925506.667 6
C12  23101736.319 7  23101733.150 7 120296798.135 7  93021293.046 7
C13  40276587.650 6  40276591.629 6 209730744.837 6 162177146.356 6
C16  40334298.611 7  40334301.888 7 210031290.203 7 162409522.790 7
C19  22783517.284 8                 118639757.391 8
C21  26205359.045 6                 136458185.641 6
C22  22071175.679 8                 114930408.207 8
C35  22778412.052 8                 118613158.258 8
C39  39694297.732 6                 206698631.533 6
C44  21707711.955 8                 113037757.017 8
C60  40655447.161 6                 211703586.436 6
E04                  27281680.055 5                 108455545.98215
E05  23883409.226 8  23883413.266 9 125508165.182 8  94946137.411 9
E06  25497294.737 7  25497298.267 8 133989186.594 7 101361961.303 8
E09  24722879.318 7  24722881.834 9 129919607.170 7  98283349.254 9
E30  27813214.635 6  27813220.094 7 146159420.943 6 110568623.996 7
E34  23900927.805 8  23900930.300 9 125600224.580 8  95015765.812 9
E36  24159710.506 8  24159713.782 9 126960132.005 8  96044526.483 9
G01  20566607.719 7                  20566610.581 8  20566612.672 9 108078246.547 7                  84216833.703 8  80707808.733 9
G02  20821757.284 7  20821757.663 7                                 109419065.120 7  85261616.337 7                
G03  21536306.201 7                  21536312.627 7  21536311.161 8 113174052.946 7                  88187608.837 7  84513120.423 8
G08  22936714.462 7                  22936722.936 7  22936719.899 8 120533226.476 7                  93922027.503 7  90008601.297 8
G10  24510624.807 6                  24510632.497 6  24510629.473 7 128804190.154 6                 100366926.544 6  96184957.809 7
G17  23716073.109 6                  23716078.301 6                 124628774.983 6                  97113343.140 6
G28  24878321.574 6                  24878328.805 7  24878331.823 7 130736470.480 6                 101872597.134 7  97627917.120 7
G32  22361122.497 7                  22361128.731 7  22361125.177 8 117508483.708 7                  91565081.128 7  87749855.684 8
R02  19832132.675 8  19832134.187 7 105828051.583 8  82310671.918 7
R03  20154750.719 8  20154753.457 8 107889963.762 8  83914439.763 8
R17  20038085.390 8  20038087.535 8 107227839.718 8  83399340.610 8
R18  19429683.806 8  19429685.894 7 103716975.021 8  80668929.817 7
R19  22863232.760 4                 122302983.13014
> 2025 06 15 12 22  0.0000000  0 33
C05  39257143.009 6  39257141.990 7 204422246.601 6 158072247.712 7
C06  39994138.292 6  39994136.031 7 208259989.008 6 161039821.470 7
C09  40953446.928 5  40953448.561 6 213255361.546 5 164902574.532 6
C12  23095397.967 7  23095394.505 8 120263792.188 7  92995770.768 8
C13  40278791.505 6  40278796.430 5 209742220.315 6 162186019.929 5
C16  40329509.359 7  40329512.735 7 210006351.029 7 162390238.286 7
C19  22787927.432 8                 118662722.066 8
C21  26195353.296 6                 136406085.194 6
C22  22066101.466 8                 114903986.021 8
C35  22784627.787 8                 118645525.546 8
C39  39690452.849 7                 206678606.600 7
C44  21705841.783 8                 113028018.297 8
C60  40655314.011 6                 211702892.273 6
E04                  27288181.277 4                 108481387.37114
E05  23875563.461 7  23875567.413 8 125466935.117 7  94914947.192 8
E06  25500771.636 7  25500775.022 8 134007456.345 7 101375782.236 8
E09  24722601.422 8  24722604.043 9 129918147.141 8  98282244.767 9
E30  27819459.269 6  27819463.935 7 146192232.942 6 110593446.013 7
E34  23897101.001 8  23897103.405 9 125580113.603 8  95000551.997 9
E36  24163133.525 8  24163136.413 9 126978117.997 8  96058132.749 9
G01  20562473.873 7                  20562476.642 8  20562478.843 9 108056523.163 7                  84199906.396 8  80691586.733 9
G02  20823197.966 8  20823198.708 7                                 109426637.272 8  85267516.695 7                
G03  21528609.986 7                  21528616.295 7  21528614.623 8 113133608.122 7                  88156093.420 7  84482918.138 8
G08  22946155.846 7                  22946164.568 7  22946161.103 8 120582841.489 7                  93960688.511 7  90045651.438 8
G10  24519281.640 6                  24519289.386 5  24519285.991 7 128849678.178 6                 100402371.698 5  96218926.068 7
G17  23708311.332 6                  23708315.687 6                 124587984.969 6                  97081558.770 6
G28  24870138.916 5                  24870146.395 7  24870149.776 7 130693470.120 5                 101839090.442 7  97595806.559 7
G32  22365468.036 7                  22365474.467 8  22365471.020 8 117531319.016 7                  91582874.845 8  87766908.018 8
R02  19836681.131 8  19836683.287 7 105852323.391 8  82329549.969 7
R03  20146993.582 8  20146996.922 7 107848440.038 8  83882143.565 7
R17  20044248.107 8  20044250.651 7 107260817.660 8  83424990.128 7
R18  19425550.773 8  19425552.553 7 103694912.196 8  80651769.826 7
R19  22851849.227 5                 122242105.66315
> 2025 06 15 12 22 15.0000000  0 34
C05  39256773.293 6  39256772.281 7 204420319.767 6 158070757.759 7
C06  39988971.051 6  39988968.479 7 208233080.038 6 161019013.787 7
C09  40947753.248 5  40947755.316 6 213225715.585 5 164879650.447 6
C12  23089072.356 7  23089070.202 8 120230859.292 7  92970304.979 8
C13  40280993.473 6  40280996.788 5 209753683.816 6 162194884.234 5
C16  40324725.064 7  40324728.089 7 209981437.827 7 162370973.853 7
C19  22792353.921 8                 118685772.728 8
C21  26185353.825 6                 136354006.171 6
C22  22061045.683 8                 114877660.573 8
C35  22790859.288 8                 118677973.795 8
C39  39686613.401 6                 206658616.718 6
C44  21703992.041 8                 113018386.324 8
C60  40655179.986 6                 211702194.491 6
E04  27294678.690 5  27294692.793 4 143434453.257 5 108507272.38214
E05  23867728.429 7  23867732.468 8 125425762.446 7  94883800.397 8
E06  25504265.036 7  25504268.944 8 134025816.665 7 101389671.694 8
E09  24722343.832 7  24722346.407 9 129916793.130 7  98281220.467 9
E30  27825715.142 6  27825718.091 7 146225098.289 6 110618308.352 7
E34  23893282.607 8  23893285.104 9 125560047.889 8  94985372.414 9
E36  24166565.560 8  24166568.832 9 126996155.478 8  96071777.988 9
G01  20558356.613 7                  20558359.554 8  20558361.764 9 108034887.636 7                  84183047.544 8  80675430.338 9
G02  20824656.037 7  20824656.490 6                                 109434298.213 7  85273486.262 6                
G03  21520927.689 7                  21520934.071 7  21520932.566 8 113093237.868 7                  88124636.091 7  84452771.547 8
G08  22955606.640 7                  22955615.209 7  22955612.368 8 120632506.361 7                  93999388.329 7  90082738.791 8
G10  24527939.740 6                  24527946.580 5  24527943.587 6 128895175.814 6                 100437824.305 5  96252901.498 6
G17  23700563.846 6                  23700566.818 5                 124547272.596 6                  97049834.879 5
G22  24739372.799 5                                                                                                
G28  24861966.075 6                  24861973.501 7  24861976.392 7 130650520.932 6                 101805623.650 7  97563734.253 7
G32  22369835.432 7                  22369841.942 7  22369838.969 8 117554271.890 7                  91600760.174 7  87784048.112 8
R02  19841259.038 8  19841260.821 7 105876752.354 8  82348550.285 7
R03  20139263.562 8  20139266.787 7 107807059.844 8  83849959.008 7
R17  20050435.822 8  20050438.246 8 107293928.202 8  83450742.725 8
R18  19421443.295 8  19421445.205 7 103672986.868 8  80634716.813 7
R19  22840473.237 6  22840483.582 5 122181248.276 6  95029797.82215
> 2025 06 15 12 22 30.0000000  0 34
C05  39256403.079 6  39256402.028 7 204418392.129 6 158069267.185 7
C06  39983808.569 6  39983806.033 7 208206197.271 6 160998226.348 7
C09  40942062.463 5  40942064.609 6 213196082.822 5 164856736.550 6
C12  23082763.379 7  23082760.339 7 120198002.318 7  92944897.903 7
C13  40283192.568 6  40283196.769 6 209765138.089 6 162203741.387 6
C16  40319946.672 7  40319949.248 7 209956553.285 7 162351731.567 7
C19  22796797.459 8                 118708911.764 8
C21  26175356.118 6                 136301951.307 6
C22  22056009.170 8                 114851434.575 8
C35  22797106.697 8                 118710505.571 8
C39  39682781.432 6                 206638664.605 6
C44  21702163.406 8                 113008863.857 8
C60  40655045.725 6                 211701495.770 6
E04  27301203.692 5                 143468730.551 5
E05  23859905.019 7  23859909.060 9 125384650.147 7  94852699.220 9
E06  25507777.052 7  25507780.620 8 134044270.096 7 101403631.577 8
E09  24722107.014 8  24722109.417 9 129915547.777 8  98280278.370 9
E30  27831978.531 6  27831982.984 7 146258019.271 6 110643212.815 7
E34  23889473.234 8  23889475.775 9 125540030.157 8  94970229.148 9
E36  24170008.528 8  24170011.613 9 127014247.164 8  96085464.201 9
G01  20554256.640 7                  20554259.744 8  20554261.984 9 108013342.827 7                  84166259.377 8  80659341.676 9
G02  20826131.274 8  20826131.781 7                                 109442050.676 8  85279527.138 7                
G03  21513259.909 7                  21513266.687 7  21513264.708 8 113052944.977 7                  88093239.084 7  84422682.755 8
G08  22965067.982 7                  22965075.244 7  22965073.174 8 120682223.422 7                  94038128.823 7  90119865.086 8
G10  24536599.402 6                  24536606.681 6  24536603.250 6 128940685.397 6                 100473286.355 6  96286885.929 6
G17  23692830.686 6                  23692836.098 5                 124506640.973 6                  97018173.915 5
G22  24740808.062 4                                                                                                
G28  24853803.169 7                  24853810.548 7  24853813.084 7 130607626.008 7                 101772199.161 7  97531702.500 7
G32  22374226.339 7                  22374232.481 7  22374229.653 8 117577344.739 7                  91618738.985 7  87801277.822 8
R02  19845867.066 8  19845868.754 7 105901340.507 8  82367674.398 7
R03  20131560.412 8  20131563.533 8 107765826.158 8  83817888.355 8
R17  20056648.394 8  20056650.964 7 107327173.851 8  83476600.441 7
R18  19417362.280 8  19417364.784 8 103651202.090 8  80617773.099 8
R19  22829101.886 6  22829104.564 6 122120414.243 6  94982482.453 6
> 2025 06 15 12 22 45.0000000  0 33
C05  39256032.017 6  39256031.413 7 204416462.271 6 158067774.904 7
C06  39978650.755 6  39978648.117 7 208179339.383 6 160977458.154 7
C09  40936376.571 6  40936375.869 6 213166461.830 6 164833831.731 6
C12  23076466.791 7  23076464.945 8 120165220.151 7  92919548.706 8
C13  40285389.762 6  40285394.903 6 209776581.775 6 162212590.317 6
C16  40315172.778 7  40315175.569 6 209931696.118 7 162332510.443 6
C19  22801257.812 8                 118732137.627 8
C21  26165363.176 6                 136249919.420 6
C22  22050991.654 8                 114825306.768 8
C35  22803369.782 8                 118743119.300 8
C39  39678956.961 6                 206618748.931 6
C44  21700355.470 8                 112999449.704 8
C60  40654910.884 6                 211700794.754 6
E04  27307735.656 5                 143503066.397 5
E05  23852092.635 7  23852096.960 8 125343596.942 7  94821642.778 8
E06  25511306.200 7  25511309.642 8 134062815.114 7 101417660.761 8
E09  24721890.314 7  24721892.899 9 129914409.668 7  98279417.406 9
E30  27838251.623 6  27838258.094 7 146290994.405 6 110668158.235 7
E34  23885672.758 8  23885675.422 9 125520059.177 8  94955121.225 9
E36  24173460.898 8  24173464.376 9 127032391.667 8  96099190.381 9
G01  20550173.943 7                  20550176.909 8  20550179.151 9 107991887.493 7                  84149540.946 8  80643319.853 9
G02  20827623.666 8  20827624.438 7                                 109449893.329 8  85285638.296 7                
G03  21505606.863 8                  21505613.597 7  21505612.000 8 113012728.192 8                  88061901.375 7  84392650.782 8
G08  22974538.818 7                  22974545.946 6  22974544.255 8 120731990.908 7                  94076908.707 6  90157029.097 8
G10  24545262.445 6                  24545268.124 6  24545266.209 6 128986205.686 6                 100508756.619 6  96320878.268 6
G17  23685114.894 6                  23685119.014 5                 124466088.874 6                  96986574.833 5
G28  24845650.963 7                  24845657.998 7  24845661.318 7 130564784.318 7                 101738816.151 7  97499710.491 7
G32  22378639.860 7                  22378645.800 7  22378642.746 8 117600536.022 7                  91636810.087 7  87818595.963 8
R02  19850504.171 8  19850506.419 7 105926086.075 8  82386920.938 7
R03  20123885.381 8  20123887.764 7 107724738.065 8  83785930.968 7
R17  20062886.537 8  20062888.773 8 107360553.155 8  83502562.100 8
R18  19413307.871 8  19413309.588 8 103629556.791 8  80600937.879 8
R19  22817732.988 6  22817734.504 5 122059601.859 6  94935183.938 5
> 2025 06 15 12 23  0.0000000  0 33
C05  39255661.476 6  39255660.422 7 204414531.136 6 158066281.644 7
C06  39973498.049 6  39973495.498 7 208152507.323 6 160956709.938 7
C09  40930689.995 5  40930690.232 6 213136853.636 5 164810936.833 6
C12  23070186.258 7  23070184.277 8 120132513.938 7  92894258.209 8
C13  40287586.069 6  40287591.137 5 209788015.756 6 162221431.784 5
C16  40310404.455 7  40310407.043 6 209906867.266 7 162313311.199 6
C19  22805735.196 8                 118755450.954 8
C21  26155376.222 5                 136197911.596 5
C22  22045993.212 8                 114799278.082 8
C35  22809648.811 7                 118775815.729 7
C39  39675139.622 6                 206598870.593 6
C44  21698568.464 8                 112990144.823 8
C60  40654776.186 6                 211700092.329 6
E04  27314281.582 6                 143537461.402 6
E05  23844291.951 7  23844296.188 9 125302603.950 7  94790631.896 9
E06  25514853.030 7  25514856.257 8 134081452.475 7 101431759.787 8
E09  24721694.240 7  24721696.871 9 129913379.707 7  98278638.238 9
E30  27844537.386 6  27844543.275 7 146324024.180 6 110693145.061 7
E34  23881881.825 8  23881884.203 9 125500135.922 8  94940049.425 9
E36  24176923.616 8  24176927.442 9 127050589.890 8  96112957.203 9
G01  20546108.293 7                  20546111.465 8  20546113.551 9 107970522.690 7                  84132893.059 8  80627365.628 9
G02  20829133.608 7  20829134.160 7                                 109457827.103 7  85291820.450 7                
G03  21497968.596 7                  21497975.002 7  21497973.385 8 112972588.580 7                  88030623.759 7  84362676.414 8
G08  22984018.747 7                  22984027.031 7  22984024.530 8 120781809.506 7                  94115728.360 7  90194231.212 8
G10  24553926.080 6                  24553932.975 5  24553931.064 6 129031737.377 6                 100544235.817 5  96354879.149 6
G17  23677413.483 6                  23677417.280 5                 124425617.603 6                  96955038.798 5
G28  24837508.997 6                  24837516.071 7  24837519.719 7 130521997.217 6                 101705475.648 7  97467759.178 7
G32  22383075.828 7                  22383081.027 7  22383078.355 8 117623846.329 7                  91654973.936 7  87836002.983 8
R02  19855171.018 8  19855173.162 7 105950989.806 8  82406290.497 7
R03  20116236.558 8  20116239.497 7 107683796.368 8  83754087.497 7
R17  20069149.114 8  20069151.850 7 107394066.810 8  83528628.240 7
R18  19409278.855 8  19409280.757 7 103608052.094 8  80584211.990 7
R19  22806368.323 6  22806370.561 5 121998812.954 6  94887903.724 5
> 2025 06 15 12 23 15.0000000  0 33
C05  39255290.517 6  39255290.010 7 204412600.434 6 158064788.702 7
C06  39968349.629 6  39968347.972 6 208125702.989 6 160935983.140 6
C09  40925007.049 5  40925007.027 6 213107260.065 5 164788053.238 6
C12  23063920.789 7  23063917.516 8 120099885.638 7  92869027.957 8
C13  40289780.281 6  40289785.714 5 209799441.714 6 162230267.021 5
C16  40305642.144 7  40305644.544 6 209882068.499 7 162294135.253 6
C19  22810229.325 8                 118778853.389 8
C21  26145393.376 5                 136145929.926 5
C22  22041013.956 8                 114773350.397 8
C35  22815944.257 8                 118808596.508 8
C39  39671329.874 6                 206579031.546 6
C44  21696803.020 8                 112980951.126 8
C60  40654640.517 6                 211699390.217 6
E04  27320837.781 5                 143571917.255 5
E05  23836503.373 7  23836507.263 8 125261673.178 7  94759668.082 8
E06  25518417.223 7  25518420.684 8 134100183.831 7 101445929.937 8
E09  24721519.315 7  24721521.748 9 129912459.607 7  98277942.181 9
E30  27850833.195 6  27850839.354 7 146357110.314 6 110718174.494 7
E34  23878099.730 8  23878102.349 9 125480262.314 8  94925015.165 9
E36  24180397.289 8  24180401.010 9 127068843.635 8  96126766.026 9
G01  20542060.646 7                  20542063.545 8  20542065.421 9 107949250.395 7                  84116317.247 8  80611480.479 9
G02  20830660.938 7  20830661.434 6                                 109465853.851 7  85298075.053 6                
G03  21490345.725 8                  21490351.654 7  21490349.925 8 112932527.989 8                  87999407.745 7  84332761.086 8
G08  22993509.267 7                  22993517.441 7  22993514.749 8 120831680.592 7                  94154588.913 7  90231472.563 8
G10  24562592.643 6                  24562600.589 5  24562597.608 6 129077282.075 6                 100579725.145 5  96388889.726 6
G17  23669727.459 6                  23669731.292 5                 124385229.122 6                  96923567.370 5
G28  24829376.814 7                  24829384.638 7  24829387.508 7 130479266.902 7                 101672179.367 7  97435850.252 7
G32  22387534.538 7                  22387539.998 8  22387537.314 8 117647277.296 7                  91673231.843 8  87853500.129 8
R02  19859868.125 8  19859869.719 7 105976052.887 8  82425783.988 7
R03  20108616.179 8  20108618.941 8 107643003.341 8  83722359.594 8
R17  20075437.384 8  20075438.946 8 107427716.526 8  83554800.235 8
R18  19405277.084 8  19405279.285 7 103586690.365 8  80567597.323 7
R19  22795009.398 6  22795006.865 4 121938049.360 6
> 2025 06 15 12 23 30.0000000  0 33
C05  39254920.162 5  39254919.367 7 204410670.883 5 158063296.651 7
C06  39963207.945 6  39963205.929 7 208098927.018 6 160915278.294 7
C09  40919325.954 5  40919326.300 6 213077681.753 5 164765181.474 6
C12  23057669.881 7  23057666.776 7 120067336.168 7  92843858.661 7
C13  40291973.129 6  40291978.420 6 209810860.451 6 162239096.736 6
C16  40300885.625 7  40300888.429 7 209857300.548 7 162274983.153 7
C19  22814740.356 8                 118802345.339 8
C21  26135414.809 5                 136093975.012 5
C22  22036054.281 8                 114747524.397 8
C35  22822255.521 7                 118841462.218 7
C39  39667527.625 6                 206559232.239 6
C44  21695058.829 8                 112971869.357 8
C60  40654506.242 6                 211698689.142 6
E04  27327406.973 5                 143606434.322 5
E05  23828726.567 7  23828730.411 9 125220805.459 7  94728751.953 9
E06  25521999.858 7  25522003.108 8 134119009.681 7 101460171.536 8
E09  24721365.349 8  24721367.686 9 129911650.016 8  98277329.724 9
E30  27857141.435 6  27857145.890 7 146390253.157 6 110743246.804 7
E34  23874327.376 8  23874329.981 9 125460439.035 8  94910018.990 9
E36  24183881.693 8  24183885.305 9 127087153.519 8  96140617.338 9
G01  20538030.238 7                  20538033.298 8  20538035.055 9 107928071.402 7                  84099814.153 8  80595665.007 9
G02  20832205.994 8  20832206.618 7                                 109473974.246 8  85304402.643 7                
G03  21482737.213 7                  21482743.433 7  21482742.532 8 112892547.246 7                  87968253.957 7  84302905.341 8
G08  23003009.363 7                  23003017.291 7  23003014.553 8 120881604.553 7                  94193490.619 7  90268753.399 8
G10  24571262.287 6                  24571270.289 5  24571266.227 6 129122840.252 6                 100615224.965 5  96422910.376 6
G17  23662057.548 6                  23662062.606 6                 124344924.293 6                  96892161.031 6
G28  24821256.554 7                  24821264.211 7  24821267.281 7 130436594.324 7                 101638928.120 7  97403984.461 7
G32  22392015.911 7                  22392021.692 7  22392019.134 8 117670829.367 7                  91691584.079 7  87871087.690 8
R02  19864594.671 8  19864596.214 7 106001275.851 8  82445401.865 7
R03  20101023.724 8  20101026.815 8 107602359.787 8  83690747.981 8
R17  20081751.433 8  20081753.711 8 107461502.856 8  83581078.449 8
R18  19401302.228 8  19401304.643 8 103565472.234 8  80551094.343 8
R19  22783654.753 6  22783656.936 5 121877312.257 6  94793403.21615
> 2025 06 15 12 23 45.0000000  0 33
C05  39254549.288 5  39254548.565 7 204408740.820 5 158061804.215 7
C06  39958071.146 6  39958068.658 7 208072177.873 6 160894594.174 7
C09  40913648.487 5  40913648.479 6 213048117.285 5 164742320.372 6
C12  23051433.834 7  23051430.821 8 120034864.006 7  92818749.117 8
C13  40294164.261 6  40294169.645 5 209822270.291 6 162247919.548 5
C16  40296134.746 7  40296137.867 6 209832561.881 7 162255853.633 6
C19  22819268.911 8                 118825924.968 8
C21  26125443.712 5                 136042045.490 5
C22  22031114.159 8                 114721798.500 8
C35  22828582.921 8                 118874411.020 8
C39  39663732.880 6                 206539471.271 6
C44  21693336.060 8                 112962897.957 8
C60  40654371.261 6                 211697987.402 6
E04  27333983.051 5                 143641010.77115
E05  23820960.755 7  23820965.186 9 125179999.328 7  94697882.417 9
E06  25525599.832 7  25525603.005 8 134137928.163 7 101474483.249 8
E09  24721232.078 8  24721234.368 9 129910949.219 8  98276799.573 9
E30  27863458.548 6  27863462.861 7 146423450.835 6 110768360.594 7
E34  23870564.452 8  23870567.067 9 125440664.575 8  94895059.747 9
E36  24187376.237 8  24187379.930 9 127105517.967 8  96154509.902 9
G01  20534017.372 7                  20534020.410 8  20534022.597 9 107906984.225 7                  84083382.594 8  80579918.095 9
G02  20833768.893 8  20833769.663 7                                 109482186.634 8  85310801.899 7                
G03  21475144.110 8                  21475150.386 7  21475148.979 8 112852644.772 8                  87937161.154 7  84273108.080 8
G08  23012518.835 7                  23012527.303 7  23012524.264 8 120931579.340 7                  94232431.986 7  90306072.191 8
G10  24579934.198 6                  24579941.293 5  24579938.360 6 129168410.140 6                 100650733.964 5  96456939.817 6
G17  23654403.862 7                  23654408.712 6                 124304701.887 7                  96860818.912 6
G28  24813147.093 7                  24813154.771 7  24813158.181 7 130393978.243 7                 101605720.869 7  97372160.832 7
G32  22396520.417 7                  22396526.562 7  22396523.562 8 117694500.624 7                  91710029.201 7  87888764.250 8
R02  19869350.903 8  19869353.121 7 106026656.557 8  82465142.396 7
R03  20093459.003 8  20093461.958 7 107561864.201 8  83659251.434 7
R17  20088090.411 8  20088092.357 7 107495423.967 8  83607461.520 7
R18  19397354.125 8  19397356.389 8 103544396.488 8  80534702.117 8
R19  22772305.528 6                 121816600.510 6
> 2025 06 15 12 24  0.0000000  0 33
C05  39254178.015 6  39254177.171 7 204406807.952 6 158060309.616 7
C06  39952939.139 6  39952936.559 7 208045453.228 6 160873929.056 7
C09  40907972.899 5  40907972.937 6 213018564.350 5 164719468.166 6
C12  23045212.745 7  23045209.294 7 120002467.253 7  92793697.891 7
C13  40296353.568 6  40296357.777 5 209833668.799 6 162256733.614 5
C16  40291389.291 7  40291392.635 7 209807850.195 7 162236745.006 7
C19  22823813.303 8                 118849589.743 8
C21  26115475.481 5                 135990139.108 5
C22  22026192.253 8                 114696170.555 8
C34  24960533.685 5                 129976025.49715
C35  22834926.060 8                 118907440.429 8
C39  39659945.017 6                 206519746.304 6
C44  21691633.923 8                 112954034.849 8
C60  40654236.304 6                 211697282.771 6
E05  23813206.947 7  23813211.343 9 125139252.667 7  94667057.884 9
E06  25529217.329 7  25529220.134 8 134156936.883 7 101488863.220 8
E09  24721119.136 8  24721121.330 9 129910354.883 8  98276349.956 9
E30  27869786.949 6  27869789.924 7 146456700.812 6 110793513.916 7
E34  23866810.678 8  23866813.101 9 125420936.716 8  94880135.764 9
E36  24190880.802 8  24190884.507 9 127123934.617 8  96168441.967 9
G01  20530021.503 7                  20530024.811 8  20530026.631 9 107885986.691 7                  84067020.897 8  80564238.142 9
G02  20835348.363 8  20835349.608 6                                 109490488.614 8  85317270.969 6                
G03  21467564.771 7                  21467571.824 7  21467570.473 8 112812818.398 7                  87906127.605 7  84243367.627 8
G08  23022038.420 7                  23022046.774 7  23022043.557 8 120981602.466 7                  94271410.962 7  90343427.051 8
G10  24588607.043 6                  24588615.569 5  24588612.245 6 129213989.322 6                 100686250.188 5  96490976.166 6
G17  23646764.697 7                  23646769.397 6                 124264559.815 7                  96829539.498 6
G28  24805047.735 7                  24805055.528 7  24805058.865 8 130351416.733 7                 101572556.110 7  97340377.987 8
G32  22401046.956 7                  22401052.809 7  22401050.174 8 117718288.528 7                  91728565.186 7  87906527.922 8
R02  19874136.414 8  19874138.321 7 106052192.332 8  82485003.563 7
R03  20085921.071 8  20085924.152 8 107521514.902 8  83627868.679 8
R17  20094454.073 8  20094456.065 8 107529477.168 8  83633947.304 8
R18  19393432.510 8  19393434.194 8 103523461.181 8  80518419.093 8
R19  22760961.191 6                 121755911.862 6
> 2025 06 15 12 24 15.0000000  0 34
C05  39253806.050 6  39253804.958 7 204404870.140 6 158058811.184 7
C06  39947811.326 6  39947808.294 6 208018751.074 6 160853281.296 6
C09  40902299.015 5  40902299.230 6 212989020.821 5 164696623.254 6
C12  23039005.636 8  23039002.007 8 119970143.784 8  92768703.341 8
C13  40298538.643 6  40298543.941 6 209845053.930 6 162265537.271 6
C16  40286648.353 7  40286651.884 7 209783163.375 7 162217655.622 7
C19  22828373.853 8                 118873337.315 8
C21  26105512.555 5                 135938254.045 5
C22  22021289.423 8                 114670638.401 8
C34  24951639.675 5                 129929663.440 5
C35  22841283.759 7                 118940548.224 7
C39  39656163.223 6                 206500055.260 6
C44  21689952.150 8                 112945277.862 8
C60  40654100.080 6                 211696573.009 6
E05  23805464.484 7  23805468.382 8 125098563.491 7  94636276.823 8
E06  25532850.610 7  25532854.094 8 134176033.476 7 101503309.666 8
E09  24721025.605 8  24721028.065 9 129909864.772 8  98275979.190 9
E30  27876121.450 6  27876127.010 7 146490000.500 6 110818704.909 7
E34  23863064.837 8  23863067.363 9 125401253.338 8  94865245.422 9
E36  24194395.147 8  24194398.562 9 127142401.270 8  96182411.865 9
G01  20526042.556 7                  20526045.344 8  20526047.834 9 107865076.814 7                  84050727.471 8  80548623.627 9
G02  20836944.810 8  20836945.919 7                                 109498878.244 8  85323808.329 7                
G03  21460000.602 7                  21460007.127 7  21460005.655 8 112773066.002 7                  87875151.785 7  84213682.454 8
G08  23031565.859 7                  23031574.273 7  23031571.545 8 121031671.263 7                  94310425.567 7  90380816.036 8
G10  24597282.100 6                  24597290.386 6  24597288.134 6 129259575.537 6                 100721771.855 6  96525017.713 6
G17  23639141.102 6                  23639145.955 6                 124224496.364 6                  96798321.146 6
G28  24796958.820 6                  24796965.865 7  24796969.027 8 130308907.924 6                 101539432.470 7  97308634.547 8
G32  22405595.416 7                  22405601.255 7  22405598.513 8 117742190.684 7                  91747190.245 7  87924376.918 8
R01  23468673.662 5                 125453736.37415
R02  19878950.479 8  19878952.907 7 106077880.606 8  82504983.322 7
R03  20078410.923 8  20078413.724 7 107481309.606 8  83596597.931 7
R17  20100841.866 8  20100843.887 8 107563660.330 8  83660534.198 8
R18  19389536.267 8  19389538.125 8 103502664.026 8  80502243.537 8
R19  22749620.404 6                 121695244.334 6
> 2025 06 15 12 24 30.0000000  0 34
C05  39253433.237 6  39253432.858 7 204402931.692 6 158057312.260 7
C06  39942688.636 6  39942685.817 6 207992075.887 6 160832654.384 6
C09  40896628.275 5  40896628.351 6 212959491.058 5 164673789.007 6
C12  23032812.774 7  23032809.527 7 119937898.285 7  92743769.069 7
C13  40300723.879 5  40300728.876 5 209856430.061 5 162274333.995 5
C16  40281913.254 7  40281916.623 7 209758505.863 7 162198588.906 7
C19  22832950.974 8                 118897171.830 8
C21  26095552.277 6                 135886394.774 6
C22  22016405.024 8                 114645206.535 8
C34  24942745.884 5                 129883339.745 5
C35  22847658.200 8                 118973738.563 8
C39  39652389.334 6                 206480402.453 6
C44  21688291.656 8                 112936631.520 8
C60  40653963.467 6                 211695862.485 6
E05  23797732.903 7  23797737.185 8 125057936.390 7  94605542.721 8
E06  25536502.635 7  25536505.607 8 134195222.163 7 101517825.798 8
E09  24720953.184 8  24720955.477 9 129909483.254 8  98275690.591 9
E30  27882469.566 5  27882474.186 7 146523354.205 5 110843936.729 7
E34  23859328.582 8  23859331.086 9 125381618.980 8  94850392.164 9
E36  24197919.775 8  24197923.010 9 127160922.374 8  96196422.928 9
G01  20522080.979 7                  20522084.095 8  20522086.310 9 107844259.123 7                  84034505.891 8  80533077.941 9
G02  20838559.046 7  20838560.013 7                                 109507359.799 7  85330417.327 7                
G03  21452450.696 7                  21452457.795 7  21452456.111 8 112733392.208 7                  87844237.125 7  84184055.934 8
G08  23041103.485 7                  23041111.155 7  23041108.851 8 121081789.854 7                  94349478.977 7  90418242.197 8
G10  24605959.138 6                  24605967.740 6  24605965.231 6 129305172.858 6                 100757302.153 6  96559067.615 6
G17  23631533.166 6                  23631537.751 5                 124184515.896 6                  96767167.557 5
G28  24788880.196 7                  24788887.163 7  24788890.656 7 130266456.726 7                 101506353.648 7  97276934.052 7
G32  22410166.455 7                  22410172.204 7  22410169.494 8 117766211.242 7                  91765907.553 7  87942314.339 8
R01  23480187.497 5                 125515275.026 5
R02  19883793.860 8  19883796.339 8 106103725.401 8  82525084.810 8
R03  20070927.949 8  20070930.672 8 107441253.204 8  83565442.986 8
R17  20107255.233 8  20107257.254 8 107597977.587 8  83687225.367 8
R18  19385667.239 8  19385669.128 8 103482010.100 8  80486179.370 8
R19  22738283.102 6  22738290.294 4 121634602.890 6  94604536.49814
> 2025 06 15 12 24 45.0000000  0 35
C05  39253061.403 6  39253060.308 7 204400991.548 6 158055812.031 7
C06  39937570.628 6  39937568.045 7 207965426.540 6 160812047.456 7
C09  40890959.783 5  40890960.418 6 212929974.176 5 164650964.734 6
C12  23026635.005 7  23026632.096 8 119905729.912 7  92718894.455 8
C13  40302907.214 6  40302911.718 5 209867796.165 6 162283122.990 5
C16  40277183.227 7  40277186.660 7 209733876.633 7 162179544.063 7
C19  22837544.596 8                 118921092.026 8
C21  26085596.861 5                 135834560.493 5
C22  22011540.213 8                 114619873.900 8
C35  22854047.354 8                 119007010.269 8
C39  39648622.244 6                 206460786.959 6
C44  21686652.289 8                 112928094.867 8
C60  40653826.854 6                 211695150.211 6
E04  27360412.009 5  27360415.243 5 143779868.33715 108768545.88915
E05  23790013.977 7  23790017.677 8 125017370.488 7  94574854.927 8
E06  25540171.330 7  25540174.427 8 134214501.822 7 101532410.701 8
E09  24720901.303 8  24720903.298 8 129909209.221 8  98275483.284 8
E15  27613699.131 4  27613706.739 6 145110976.35514 109775534.83916
E30  27888826.324 6  27888831.360 7 146556760.547 6 110869208.418 7
E34  23855601.246 8  23855603.926 9 125362032.645 8  94835575.241 9
E36  24201454.175 8  24201457.657 9 127179496.835 8  96210474.376 9
G01  20518136.888 7                  20518140.022 8  20518142.387 9 107823532.702 7                  84018355.441 8  80517600.436 9
G02  20840190.264 8  20840191.001 7                                 109515932.317 8  85337097.231 7                
G03  21444916.038 7                  21444922.582 7  21444920.972 8 112693795.960 7                  87813382.935 7  84154487.349 8
G08  23050649.689 7                  23050657.168 7  23050655.455 8 121131956.893 7                  94388570.127 7  90455704.537 8
G10  24614638.167 6                  24614646.303 6  24614643.388 6 129350780.273 6                 100792840.315 6  96593125.050 6
G17  23623941.320 6                  23623945.450 6                 124144617.930 6                  96736078.289 6
G28  24780812.789 6                  24780820.019 7  24780823.448 7 130224062.422 6                 101473319.145 7  97245276.044 7
G32  22414760.084 7                  22414765.457 7  22414762.476 8 117790348.957 7                  91784716.154 7  87960339.229 8
R01  23491703.721 5                 125576837.220 5
R02  19888665.937 8  19888668.166 8 106129725.154 8  82545306.811 8
R03  20063472.159 8  20063474.856 8 107401344.495 8  83534402.898 8
R17  20113692.671 8  20113695.309 8 107632427.875 8  83714020.037 8
R18  19381824.876 8  19381826.682 8 103461498.676 8  80470226.055 8
R19  22726951.956 7  22726957.280 5 121573986.560 7  94557390.558 5
> 2025 06 15 12 25  0.0000000  0 35
C05  39252688.304 5  39252687.502 7 204399051.088 5 158054311.556 7
C06  39932460.417 6  39932455.478 6 207938804.451 6 160791461.612 6
C09  40885294.267 6  40885294.278 6 212900471.576 6 164628151.487 6
C12  23020472.976 7  23020469.504 8 119873640.173 7  92694080.661 8
C13  40305088.996 6  40305092.833 5 209879153.576 6 162291905.278 5
C16  40272459.038 7  40272462.328 7 209709277.111 7 162160522.172 7
C19  22842155.091 8                 118945099.025 8
C21  26075648.151 6                 135782752.471 6
C22  22006694.804 8                 114594641.936 8
C35  22860452.747 8                 119040364.546 8
C39  39644862.345 6                 206441210.091 6
C44  21685034.676 8                 112919669.332 8
C60  40653689.584 6                 211694437.483 6
E04  27367047.060 5  27367049.233 5 143814730.634 5 108794918.96415
E05  23782306.153 7  23782310.060 8 124976867.324 7  94544214.594 8
E06  25543857.869 7  25543860.759 8 134233873.565 7 101547065.286 8
E09  24720869.847 8  24720871.802 9 129909043.960 8  98275358.292 9
E15  27605893.878 5  27605900.600 6 145069953.52115 109744501.259 6
E30  27895194.199 6  27895198.724 7 146590220.713 6 110894520.772 7
E34  23851883.496 8  23851886.241 9 125342495.777 8  94820795.736 9
E36  24204999.467 8  24205002.670 9 127198126.037 8  96224567.225 9
G01  20514210.409 7                  20514213.427 8  20514215.924 9 107802899.078 7                  84002277.300 8  80502192.213 9
G02  20841839.185 7  20841840.183 7                                 109524597.127 7  85343849.013 7                
G03  21437396.322 7                  21437402.733 7  21437401.022 8 112654278.766 7                  87782590.346 7  84124977.787 8
G08  23060205.602 7                  23060213.178 7  23060211.502 8 121182173.350 7                  94427699.816 7  90493203.783 8
G10  24623319.484 6                  24623326.856 5  24623323.576 6 129396398.891 6                 100828387.20215  96627190.854 6
G17  23616364.689 7                  23616368.586 6                 124104803.823 7                  96705054.348 6
G28  24772756.807 7                  24772763.633 7  24772767.191 7 130181726.636 7                 101440330.392 7  97213661.804 7
G32  22419375.887 7                  22419381.590 7  22419378.263 8 117814604.877 7                  91803616.849 7  87978452.414 8
R01  23503223.980 4                                
R02  19893567.681 8  19893570.017 7 106155881.005 8  82565650.240 7
R03  20056045.006 8  20056048.234 7 107361585.401 8  83503479.191 7
R17  20120156.010 8  20120158.287 8 107667012.250 8  83740918.986 8
R18  19378009.383 8  19378011.223 8 103441131.273 8  80454384.721 8
R19  22715626.677 7  22715628.072 5 121513397.308 7  94510265.650 5
> 2025 06 15 12 25 15.0000000  0 36
C05  39252316.530 6  39252315.439 7 204397112.964 6 158052812.877 7
C06  39927353.833 6  39927348.888 6 207912212.313 6 160770898.958 6
C09  40879632.592 6  40879632.645 6 212870986.004 6 164605351.415 6
C12  23014325.555 7  23014323.032 8 119841632.027 7  92669329.948 8
C13  40307267.497 5  40307273.029 5 209890504.926 5 162300682.828 5
C16  40267741.452 7  40267744.802 6 209684709.937 7 162141525.296 6
C19  22846782.334 8                 118969195.271 8
C21  26065705.383 6                 135730973.638 6
C22  22001869.456 8                 114569513.373 8
C34  24916100.360 4                 129744868.79114
C35  22866874.488 7                 119073803.914 7
C39  39641110.664 6                 206421674.549 6
C44  21683438.335 8                 112911357.701 8
C60  40653553.167 6                 211693726.921 6
E04  27373693.902 5  27373694.907 5 143849653.98815 108821338.24015
E05  23774611.360 8  23774614.989 8 124936429.808 8  94513623.915 8
E06  25547561.772 7  25547565.228 8 134253339.922 7 101561791.474 8
E09  24720859.205 7  24720861.577 9 129908990.173 7  98275317.610 9
E15  27598088.254 5  27598095.128 7 145028934.443 5 109713470.637 7
E30  27901573.751 6  27901576.893 7 146623737.108 6 110919875.677 7
E34  23848176.089 8  23848178.537 9 125323011.209 8  94806055.790 9
E36  24208555.441 8  24208558.622 9 127216812.600 8  96238703.494 9
G01  20510302.039 8                  20510305.246 8  20510307.576 9 107782361.075 8                  83986273.664 8  80486855.411 9
G02  20843506.256 7  20843507.083 7                                 109533356.907 7  85350674.814 7                
G03  21429891.645 7                  21429898.472 7  21429896.829 8 112614843.517 7                  87751861.591 7  84095529.386 8
G08  23069771.540 7                  23069779.335 7  23069777.332 8 121232441.663 7                  94466869.868 7  90530741.726 8
G10  24632002.825 6                  24632009.919 5  24632006.541 6 129442031.385 6                 100863944.877 5  96661266.944 6
G17  23608804.674 7                  23608809.273 5                 124065076.579 7                  96674098.081 5
G28  24764712.430 7                  24764718.992 7  24764721.778 7 130139452.535 7                 101407389.633 7  97182093.648 7
G32  22424014.587 7                  22424020.362 7  22424017.298 8 117838981.492 7                  91822611.620 7  87996655.728 8
R01  23514750.439 4                 125700037.47914
R02  19898499.028 8  19898501.111 7 106182195.536 8  82586117.117 7
R03  20048646.208 8  20048648.894 7 107321978.928 8  83472674.179 7
R17  20126644.903 8  20126646.770 7 107701733.373 8  83767924.254 7
R18  19374221.274 8  19374223.285 8 103420910.926 8  80438657.811 8
R19  22704303.098 6  22704308.254 6 121452837.920 6  94463163.887 6
> 2025 06 15 12 25 30.0000000  0 35
C05  39251943.923 6  39251943.379 7 204395175.386 6 158051314.621 7
C06  39922251.186 6  39922247.210 6 207885648.490 6 160750358.154 6
C09  40873972.735 6  40873973.574 5 212841515.678 6 164582563.109 5
C12  23008194.659 7  23008191.566 8 119809703.915 7  92644641.109 8
C13  40309445.944 5  40309450.424 5 209901848.346 5 162309454.229 5
C16  40263029.130 7  40263032.793 6 209660173.428 7 162122552.146 6
C19  22851426.633 8                 118993378.785 8
C21  26055765.862 6                 135679222.407 6
C22  21997063.153 8                 114544486.465 8
C34  24907226.306 5                 129698704.502 5
C35  22873311.904 7                 119107326.406 7
C39  39637366.681 6                 206402178.606 6
C44  21681863.823 8                 112903158.277 8
C60  40653416.840 6                 211693016.785 6
E04  27380347.568 5  27380352.085 5 143884636.276 5 108847802.071 5
E05  23766928.443 8  23766932.154 8 124896056.298 8  94483081.636 8
E06  25551283.695 7  25551287.233 8 134272898.964 7 101576587.744 8
E09  24720869.755 8  24720872.180 9 129909046.022 8  98275359.857 9
E15  27590283.387 5  27590289.899 7 144987917.501 5 109682441.668 7
E30  27907959.182 6  27907965.281 7 146657307.557 6 110945271.485 7
E34  23844477.851 8  23844480.397 9 125303577.167 8  94791354.076 9
E36  24212121.712 8  24212125.127 9 127235554.796 8  96252881.811 9
G01  20506411.853 7                  20506415.007 8  20506417.157 9 107761917.062 7                  83970343.274 8  80471588.786 9
G02  20845190.836 8  20845191.890 7                                 109542209.926 8  85357573.275 7                
G03  21422403.076 7                  21422409.017 7  21422408.080 8 112575488.316 7                  87721195.251 7  84066140.821 8
G08  23079346.292 7                  23079355.399 7  23079352.713 8 121282759.585 7                  94506078.603 7  90568316.751 8
G10  24640689.624 6                  24640695.518 5  24640692.383 6 129487675.608 6                 100899511.815 5  96695351.900 6
G17  23601260.863 6                  23601265.303 5                 124025434.651 6                  96643208.287 5
G28  24756679.080 7                  24756685.809 7  24756688.718 7 130097238.719 7                 101374495.893 7  97150570.440 7
G32  22428675.770 7                  22428681.662 7  22428678.633 8 117863476.791 7                  91841698.832 7  88014947.655 8
R02  19903459.691 8  19903461.829 7 106208666.208 8  82606705.388 7
R03  20041275.473 8  20041278.322 8 107282523.312 8  83441986.505 8
R17  20133158.173 8  20133160.175 8 107736589.202 8  83795034.323 8
R18  19370460.874 8  19370462.936 8 103400836.028 8  80423044.019 8
R19  22692985.509 6  22692992.332 6 121392307.191 6  94416084.443 6
> 2025 06 15 12 25 45.0000000  0 35
C05  39251572.733 6  39251571.934 7 204393241.647 6 158049819.341 7
C06  39917155.496 6  39917151.863 6 207859116.254 6 160729841.808 6
C09  40868317.046 5  40868316.666 5 212812063.845 5 164559789.144 5
C12  23002079.153 7  23002075.603 8 119777859.279 7  92620016.859 8
C13  40311623.075 6  40311628.388 5 209913187.313 6 162318222.223 5
C16  40258323.678 7  40258327.213 6 209635670.906 7 162103605.263 6
C19  22856088.095 8                 119017652.605 8
C21  26045833.612 6                 135627502.173 6
C22  21992277.142 8                 114519564.570 8
C34  24898369.698 5                 129652584.274 5
C35  22879766.243 7                 119140935.193 7
C39  39633631.282 7                 206382725.490 7
C44  21680311.185 8                 112895074.462 8
C60  40653281.297 6                 211692310.329 6
E04  27387016.714 5  27387020.915 6 143919680.493 5 108874312.812 6
E05  23759258.365 8  23759262.284 8 124855750.262 8  94452590.430 8
E06  25555024.415 7  25555027.524 8 134292553.831 7 101591456.524 8
E09  24720901.388 7  24720904.185 9 129909214.718 7  98275487.463 9
E15  27582479.547 6  27582485.459 7 144946906.073 6 109651416.827 7
E30  27914359.358 6  27914364.709 7 146690935.250 6 110970710.595 7
E34  23840790.250 8  23840792.397 9 125284197.091 8  94776693.174 9
E36  24215699.595 8  24215702.885 9 127254355.874 8  96267104.705 9
G01  20502539.870 7                  20502542.862 8  20502545.124 9 107741570.479 7                  83954488.801 8  80456394.925 9
G02  20846893.790 8  20846894.863 7                                 109551159.541 8  85364546.985 7                
G03  21414929.722 7                  21414936.191 7  21414934.470 8 112536216.766 7                  87690594.060 7  84036814.671 8
G08  23088931.874 7                  23088940.497 7  23088938.001 8 121333130.186 7                  94545328.362 7  90605931.110 8
G10  24649377.636 6                  24649383.982 5  24649381.907 6 129533334.869 6                 100935090.456 5  96729448.055 6
G17  23593734.829 6                  23593738.935 5                 123985881.834 6                  96612387.818 5
G28  24748658.146 6                  24748665.606 7  24748668.073 7 130055088.876 6                 101341651.944 7  97119094.970 7
G32  22433359.878 7                  22433365.987 7  22433363.152 8 117888093.792 7                  91860880.905 7  88033330.469 8
R02  19908450.289 8  19908452.199 7 106235295.953 8  82627417.405 7
R03  20033933.772 8  20033936.825 7 107243222.109 8  83411418.937 7
R17  20139697.531 8  20139699.872 7 107771583.002 8  83822251.702 7
R18  19366727.750 8  19366730.324 8 103380910.320 8  80407546.263 8
R19  22681679.312 6  22681681.383 6 121331808.816 6  94369030.142 6
> 2025 06 15 12 26  0.0000000  0 35
C05  39251201.799 6  39251201.420 7 204391310.912 6 158048326.367 7
C06  39912065.831 6  39912062.050 6 207832614.945 6 160709349.347 6
C09  40862664.727 5  40862664.348 6 212782630.001 5 164537029.099 6
C12  22995979.777 7  22995976.378 8 119746097.577 7  92595456.710 8
C13  40313800.525 6  40313805.328 5 209924520.940 6 162326986.128 5
C16  40253624.590 7  40253627.959 6 209611201.604 7 162084684.100 6
C19  22860766.886 8                 119042015.809 8
C21  26035908.278 6                 135575812.369 6
C22  21987511.115 8                 114494746.984 8
C34  24889520.902 6                 129606507.410 6
C35  22886236.879 7                 119174629.291 7
C39  39629903.564 6                 206363314.530 6
C44  21678780.808 8                 112887105.550 8
C60  40653145.858 6                 211691606.811 6
E05  23751600.905 7  23751605.117 8 124815511.145 7  94422149.845 8
E06  25558782.408 7  25558785.824 8 134312303.569 7 101606397.056 8
E09  24720955.322 7  24720957.533 9 129909495.434 7  98275699.820 9
E15  27574676.115 5  27574682.200 7 144905899.497 5 109620395.593 7
E30  27920770.050 6  27920774.516 7 146724619.104 6 110996192.202 7
E34  23837112.213 8  23837114.587 9 125264870.270 8  94762072.564 9
E36  24219288.746 8  24219291.695 9 127273215.101 8  96281371.568 9
G01  20498686.448 7                  20498689.557 8  20498691.724 9 107721320.731 7                  83938709.777 8  80441273.356 9
G02  20848615.138 8  20848616.181 6                                 109560204.918 8  85371595.336 6                
G03  21407472.215 7                  21407478.813 7  21407477.327 8 112497028.124 7                  87660057.473 7  84007550.472 8
G08  23098527.260 7                  23098535.405 7  23098533.230 8 121383552.309 7                  94584618.319 7  90643583.962 8
G10  24658068.691 5                  24658076.865 5  24658073.186 6 129579008.316 5                 100970680.022 5  96763554.715 6
G17  23586225.077 6                  23586229.531 5                 123946417.493 6                  96581636.468 5
G28  24740649.466 7                  24740656.714 7  24740659.889 8 130013002.610 7                 101308857.507 7  97087666.960 8
G32  22438067.507 7                  22438073.555 7  22438070.461 8 117912831.524 7                  91880157.033 7  88051803.418 8
R01  23549352.910 5                                
R02  19913470.183 8  19913472.175 7 106262083.694 8  82648252.298 7
R03  20026620.533 8  20026623.218 8 107204074.896 8  83380971.135 8
R17  20146262.745 8  20146263.879 7 107806713.870 8  83849575.660 7
R18  19363022.830 8  19363025.123 8 103361133.207 8  80392164.065 8
R19  22670379.546 6  22670378.108 6 121271342.212 6  94322000.590 6
> 2025 06 15 12 26 15.0000000  0 35
C05  39250831.447 6  39250830.756 7 204389380.560 6 158046833.700 7
C06  39906981.076 6  39906978.329 6 207806141.807 6 160688878.648 6
C09  40857015.259 5  40857015.090 6 212753211.371 5 164514280.773 6
C12  22989895.443 8  22989892.373 8 119714416.317 8  92570958.751 8
C13  40315975.058 6  40315980.135 6 209935846.504 6 162335743.742 6
C16  40248931.770 7  40248934.903 6 209586762.946 7 162065786.604 6
C19  22865462.016 8                 119066465.356 8
C21  26025985.884 7                 135524150.414 7
C22  21982764.596 8                 114470031.064 8
C34  24880680.208 6                 129560471.593 6
C35  22892723.259 7                 119208405.896 7
C39  39626183.608 7                 206343943.052 7
C44  21677271.923 8                 112879248.963 8
C60  40653010.913 6                 211690903.469 6
E05  23743955.765 7  23743960.007 8 124775336.402 7  94391757.939 8
E06  25562558.255 7  25562561.613 8 134332145.330 7 101621407.203 8
E09  24721030.066 8  24721031.688 9 129909885.382 8  98275994.833 9
E15  27566873.309 6  27566879.173 7 144864894.982 6 109589375.967 7
E30  27927189.362 7  27927194.404 7 146758356.265 7 111021714.075 7
E34  23833443.616 8  23833446.447 9 125245594.084 8  94747490.271 9
E36  24222888.066 8  24222891.116 9 127292129.696 8  96295680.334 9
G01  20494851.099 7                  20494853.922 8  20494856.343 9 107701165.220 7                  83923004.195 8  80426222.159 9
G02  20850354.309 7  20850355.193 7                                 109569343.419 7  85378716.233 7                
G03  21400030.008 7                  21400036.428 7  21400035.250 8 112457919.800 7                  87629583.494 7  83978346.228 8
G08  23108131.090 7                  23108140.117 7  23108136.860 8 121434022.994 7                  94623946.027 7  90681273.028 8
G10  24666761.163 5                  24666770.186 5  24666766.844 6 129624692.860 5                 101006278.393 5  96797669.763 6
G17  23578731.608 6                  23578736.105 6                 123907039.330 6                  96550952.141 6
G28  24732652.315 7                  24732659.369 7  24732662.745 8 129970977.505 7                 101276110.772 7  97056284.691 8
G32  22442797.287 7                  22442803.170 7  22442800.405 8 117937686.969 7                  91899524.909 7  88070364.276 8
R01  23560903.866 5                 125946720.95915
R02  19918519.557 8  19918521.245 7 106289026.495 8  82669207.783 7
R03  20019336.006 8  20019338.974 7 107165079.288 8  83350641.262 7
R17  20152852.416 8  20152854.902 7 107841978.579 8  83877003.771 7
R18  19359345.497 8  19359347.261 8 103341502.395 8  80376895.663 8
R19  22659077.007 6  22659079.430 6 121210904.900 6  94274993.929 6
> 2025 06 15 12 26 30.0000000  0 35
C05  39250459.522 6  39250458.882 7 204387445.434 6 158045337.322 7
C06  39901901.071 6  39901898.906 6 207779691.936 6 160668425.948 6
C09  40851364.797 5  40851367.024 6 212723802.905 5 164491540.336 6
C12  22983826.109 8  22983823.022 8 119682810.725 8  92546519.301 8
C13  40318147.452 6  40318153.015 6 209947159.011 6 162344491.301 6
C16  40244243.334 6  40244246.349 6 209562349.885 6 162046908.905 6
C19  22870172.830 8                 119090996.087 8
C21  26016069.103 7                 135472511.495 7
C22  21978036.936 8                 114445411.800 8
C34  24871846.431 6                 129514471.964 6
C35  22899225.064 7                 119242259.818 7
C39  39622469.922 6                 206324606.093 6
C44  21675784.035 8                 112871499.757 8
C60  40652874.891 6                 211690195.285 6
E05  23736322.240 7  23736325.984 8 124735221.094 7  94361411.038 8
E06  25566350.258 7  25566353.804 8 134352073.797 7 101636482.960 8
E09  24721123.452 8  24721125.646 9 129910379.452 8  98276368.602 9
E15  27559070.394 6  27559075.388 6 144823887.558 6 109558354.226 6
E30  27933618.387 6  27933623.486 7 146792141.227 6 111047272.128 7
E34  23829784.217 8  23829786.866 9 125226363.529 8  94732942.498 9
E36  24226496.966 8  24226500.028 9 127311094.594 8  96310027.142 9
G01  20491032.873 7                  20491035.587 8  20491038.022 9 107681099.032 7                  83907368.208 8  80411237.665 9
G02  20852109.676 7  20852110.616 6                                 109578569.867 7  85385905.676 6                
G03  21392602.811 8                  21392608.707 7  21392607.759 8 112418886.781 8                  87599168.187 7  83949198.236 8
G08  23117743.410 7                  23117752.134 7  23117749.366 8 121484536.734 7                  94663307.295 7  90718994.262 8
G10  24675455.759 5                  24675465.717 5  24675461.765 6 129670383.47615                 101041881.488 5  96831789.335 6
G17  23571252.444 5                  23571257.548 5                 123867742.261 5                  96520331.098 5
G28  24724665.472 7                  24724672.884 7  24724676.065 7 129929008.906 7                 101243407.966 7  97024944.593 7
G32  22447548.155 7                  22447554.298 7  22447551.791 8 117962654.880 7                  91918980.401 7  88089009.123 8
R01  23572453.127 4                                
R02  19923596.100 8  19923598.120 7 106316118.612 8  82690279.445 7
R03  20012078.392 8  20012081.527 8 107126230.097 8  83320425.263 8
R17  20159466.614 8  20159468.555 8 107877372.115 8  83904532.017 8
R18  19355694.411 8  19355695.986 8 103322012.773 8  80361737.063 8
R19  22647782.915 6  22647786.048 6 121150492.133 6  94228006.282 6
> 2025 06 15 12 26 45.0000000  0 33
C05  39250086.479 6  39250085.670 7 204385502.455 6 158043834.900 7
C06  39896825.431 6  39896823.344 6 207753262.195 6 160647988.829 6
C09  40845716.809 4  40845721.554 6 212694401.70614 164468805.50416
C12  22977770.132 7  22977767.126 8 119651277.778 7  92522136.005 8
C13  40320317.345 6  40320322.281 5 209958455.244 6 162353226.257 5
C16  40239559.588 6  40239562.057 6 209537959.330 6 162028048.615 6
C19  22874898.661 8                 119115604.607 8
C21  26006156.599 7                 135420892.536 7
C22  21973326.957 8                 114420886.108 8
C34  24863020.214 6                 129468505.554 6
C35  22905739.838 7                 119276187.738 7
C39  39618762.213 6                 206305300.462 6
C44  21674315.600 8                 112863854.856 8
C60  40652737.074 6                 211689479.062 6
E05  23728699.217 7  23728702.977 9 124695162.249 7  94331106.814 9
E06  25570158.705 7  25570161.912 8 134372085.675 7 101651621.808 8
E09  24721236.851 8  24721238.837 9 129910974.386 8  98276818.678 9
E15  27551265.447 6  27551270.382 6 144782874.133 6 109527327.851 6
E30  27940056.277 6  27940061.232 7 146825970.553 6 111072863.780 7
E34  23826132.773 8  23826135.571 9 125207175.513 8  94718426.893 9
E36  24230114.845 8  24230117.903 9 127330106.598 8  96324409.578 9
G01  20487230.407 7                  20487233.399 8  20487235.972 9 107661119.115 7                  83891799.426 8  80396317.605 9
G02  20853881.900 7  20853882.476 6                                 109587881.200 7  85393161.243 6                
G03  21385188.577 7                  21385194.700 7  21385193.369 8 112379926.032 7                  87568809.163 7  83920104.201 8
G08  23127363.684 7                  23127372.015 7  23127369.611 8 121535089.976 7                  94702699.418 7  90756745.035 8
G10  24684150.122 5                  24684161.070 6  24684156.109 6 129716076.809 5                 101077486.613 6  96865910.902 6
G28  24716689.261 7                  24716696.504 7  24716699.930 7 129887093.962 7                 101210747.014 7  96993644.560 7
G32  22452320.925 7                  22452326.109 7  22452323.732 8 117987731.728 7                  91938520.808 7  88107735.334 8
R02  19928700.697 8  19928703.089 8 106343356.552 8  82711464.497 8
R03  20004847.850 8  20004850.918 7 107087524.396 8  83290320.845 7
R17  20166104.150 8  20166106.064 7 107912890.866 8  83932157.701 7
R18  19352068.952 8  19352071.669 8 103302661.451 8  80346686.045 8
R19  22636494.056 6  22636496.886 6 121090100.966 6  94181035.382 6
> 2025 06 15 12 27  0.0000000  0 34
C05  39249712.749 6  39249711.793 7 204383554.556 6 158042328.665 7
C06  39891755.023 6  39891752.205 6 207726855.547 6 160627569.576 6
C09  40840073.842 4  40840077.327 6 212665010.62814 164446078.51016
C12  22971729.574 7  22971726.160 8 119619820.729 7  92497811.443 8
C13  40322483.652 6  40322488.895 5 209969738.299 6 162361951.003 5
C16  40234880.324 6  40234883.004 6 209513594.272 6 162009208.009 6
C19  22879639.963 8                 119140293.609 8
C21  25996247.747 7                 135369296.740 7
C22  21968635.920 8                 114396457.022 8
C34  24854197.395 5                 129422575.597 5
C35  22912270.502 8                 119310192.463 8
C39  39615062.168 7                 206286029.126 7
C44  21672867.991 8                 112856317.307 8
C60  40652598.323 6                 211688757.729 6
E05  23721087.475 7  23721091.628 8 124655163.057 7  94300847.725 8
E06  25573983.318 7  25573986.392 8 134392183.782 7 101666825.894 8
E09  24721369.388 8  24721371.764 9 129911673.172 8  98277347.300 9
E15  27543459.867 6  27543465.280 6 144741857.706 6 109496299.227 6
E30  27946503.009 7  27946507.647 7 146859847.087 7 111098491.109 7
E34  23822490.370 8  23822492.900 9 125188033.156 8  94703945.815 9
E36  24233742.052 8  24233745.326 9 127349168.685 8  96338829.912 9
G01  20483445.761 7                  20483448.441 8  20483450.779 9 107641228.612 7                  83876300.336 8  80381464.310 9
G02  20855670.463 7  20855670.949 7                                 109597280.368 7  85400485.287 7                
G03  21377788.812 7                  21377795.177 7  21377793.585 8 112341040.625 7                  87538508.872 7  83891066.412 8
G08  23136992.211 7                  23137000.005 7  23136998.113 8 121585685.473 7                  94742124.459 7  90794527.320 8
G10  24692847.871 5                  24692856.689 6  24692852.545 6 129761775.658 5                 101113096.117 6  96900036.635 6
G17  23556340.901 5                  23556347.022 5                 123789398.40715                  96459274.63615
G28  24708724.145 7                  24708730.375 6  24708734.298 7 129845236.054 7                 101178130.567 6  96962387.117 7
G32  22457113.834 7                  22457119.384 7  22457117.054 8 118012920.320 7                  91958148.276 7  88126544.991 8
R02  19933832.669 8  19933834.971 8 106370742.780 8  82732764.877 8
R03  19997644.978 8  19997647.601 8 107048965.229 8  83260330.414 8
R17  20172765.946 8  20172768.095 8 107948537.893 8  83959883.170 8
R18  19348470.384 8  19348472.570 8 103283451.803 8  80331745.205 8
R19  22625208.170 6  22625212.167 6 121029734.729 6  94134083.907 6
> 2025 06 15 12 27 15.0000000  0 35
C05  39249337.184 6  39249337.171 7 204381603.608 6 158040820.061 7
C06  39886689.542 6  39886686.121 6 207700473.907 6 160607169.643 6
C09  40834434.034 5  40834435.176 6 212635631.67915 164423360.88316
C12  22965703.366 7  22965700.016 8 119588441.621 7  92473547.164 8
C13  40324648.162 5  40324650.994 5 209981009.959 5 162370666.947 5
C16  40230206.617 6  40230208.724 6 209489256.608 6 161990388.602 6
C19  22884397.009 8                 119165064.793 8
C21  25986343.130 7                 135317726.045 7
C22  21963963.124 8                 114372126.418 8
C34  24845386.743 6                 129376684.095 6
C35  22918815.669 7                 119344275.637 7
C39  39611367.673 7                 206266794.016 7
C44  21671442.038 8                 112848889.063 8
C60  40652459.193 6                 211688033.243 6
E04  27427250.881 4  27427257.564 6 144131358.05814 109034268.19716
E05  23713487.458 7  23713491.832 8 124615225.519 7  94270635.279 8
E06  25577824.376 7  25577827.604 8 134412369.786 7 101682096.496 8
E09  24721522.965 8  24721524.811 9 129912477.556 8  98277955.818 9
E15  27535654.876 6  27535659.902 7 144700840.230 6 109465269.819 7
E30  27952959.277 7  27952963.234 8 146893772.378 7 111124155.332 8
E34  23818856.985 8  23818859.338 9 125168938.357 8  94689500.734 9
E36  24237379.027 8  24237382.604 9 127368282.717 8  96353289.548 9
G01  20479677.661 7                  20479680.760 8  20479683.037 9 107621429.498 7                  83860872.474 8  80366679.276 9
G02  20857476.272 7  20857476.770 7                                 109606769.219 7  85407879.182 7                
G03  21370403.900 7                  21370410.132 7  21370408.844 8 112302232.523 7                  87508268.796 7  83862086.364 8
G08  23146628.851 7                  23146636.692 7  23146634.467 8 121636324.677 7                  94781583.580 7  90832342.258 8
G10  24701545.889 6                  24701554.308 5  24701550.821 6 129807481.751 6                 101148711.251 5  96934167.782 6
G17  23548910.851 6                  23548914.916 5                 123750344.770 6                  96428843.35515
G28  24700769.622 7                  24700776.871 6  24700780.515 7 129803437.463 7                 101145560.282 6  96931173.937 7
G32  22461928.836 7                  22461934.390 7  22461931.884 8 118038222.298 7                  91977864.089 7  88145439.297 8
R02  19938992.978 8  19938995.424 7 106398278.927 8  82754181.865 7
R03  19990469.350 8  19990472.072 7 107010555.198 8  83230455.972 7
R17  20179451.586 8  20179453.693 7 107984314.604 8  83987709.453 7
R18  19344898.589 8  19344900.975 8 103264385.862 8  80316916.158 8
R19  22613931.515 6  22613931.720 6 120969395.677 6  94087153.554 6
> 2025 06 15 12 27 30.0000000  0 34
C05  39248961.091 6  39248961.007 7 204379644.870 6 158039305.435 7
C06  39881626.775 6  39881623.578 6 207674112.705 6 160586785.511 6
C12  22959691.443 7  22959688.438 8 119557135.958 7  92449339.646 8
C13  40326809.967 6  40326813.671 5 209992265.495 6 162379370.497 5
C16  40225537.348 6  40225539.637 6 209464941.642 6 161971586.741 6
C19  22889168.894 8                 119189913.250 8
C21  25976444.786 7                 135266175.938 7
C22  21959308.706 8                 114347889.683 8
C34  24836578.769 5                 129330826.715 5
C35  22925374.715 7                 119378432.508 7
C39  39607679.519 7                 206247590.453 7
C44  21670035.496 8                 112841565.521 8
C60  40652318.670 6                 211687300.808 6
E04  27433991.255 5  27433997.975 6 144166778.678 5 109061063.654 6
E05  23705898.795 7  23705902.720 9 124575345.143 7  94240466.047 9
E06  25581681.076 7  25581684.559 8 134432638.855 7 101697429.901 8
E09  24721695.094 8  24721697.106 9 129913382.795 8  98278640.634 9
E15  27527848.096 6  27527853.534 7 144659817.135 6 109434236.104 7
E30  27959422.877 7  27959427.457 8 146927741.412 7 111149852.680 8
E34  23815231.271 8  23815233.939 9 125149886.497 8  94675088.139 9
E36  24241025.474 8  24241028.850 9 127387443.981 8  96367784.898 9
G01  20475927.050 7                  20475929.819 8  20475931.944 9 107601717.273 7                  83845512.293 8  80351959.092 9
G02  20859298.298 7  20859299.021 6                                 109616343.170 7  85415339.393 6                
G03  21363032.615 8                  21363039.034 7  21363037.514 8 112263497.104 8                  87478085.384 7  83833160.602 8
G08  23156271.915 7                  23156280.814 7  23156277.912 8 121687002.603 7                  94821072.790 7  90870186.100 8
G10  24710244.551 6                  24710250.470 4  24710249.223 6 129853190.244 6                 101184328.10114  96968300.708 6
G17  23541493.026 5                  23541499.376 5                 123711370.367 5                  96398473.800 5
G28  24692826.409 7                  24692833.216 6  24692836.805 7 129761693.832 7                 101113032.820 6  96900001.788 7
G32  22466764.200 7                  22466770.011 7  22466767.397 8 118063632.637 7                  91997664.352 7  88164414.551 8
R02  19944180.773 8  19944182.690 8 106425959.996 8  82775711.561 8
R03  19983320.341 8  19983323.722 8 106972289.172 8  83200693.519 8
R17  20186160.817 8  20186163.086 8 108020216.306 8  84015632.988 8
R18  19341353.113 8  19341354.809 7 103245459.283 8  80302195.479 7
R19  22602652.608 6  22602656.464 6 120909079.475 6  94040240.996 6
> 2025 06 15 12 27 45.0000000  0 35
C05  39248584.203 5  39248583.573 7 204377678.817 5 158037785.162 7
C06  39876568.322 6  39876564.602 6 207647772.335 6 160566417.533 6
C09  40823153.541 5                 212576892.53715
C12  22953693.618 7  22953690.260 8 119525904.400 7  92425189.451 8
C13  40328968.621 6  40328972.303 5 210003505.482 6 162388061.971 5
C16  40220872.150 6  40220874.866 6 209440649.997 6 161952802.917 6
C19  22893955.778 8                 119214839.204 8
C21  25966549.125 7                 135214647.042 7
C22  21954672.214 8                 114323747.348 8
C34  24827778.556 5                 129285004.020 5
C35  22931948.960 8                 119412663.320 8
C39  39603998.170 7                 206228418.954 7
C44  21668649.215 8                 112834347.280 8
C60  40652176.277 6                 211686560.958 6
E04  27440740.426 4  27440747.776 6 144202248.51714 109087896.288 6
E05  23698320.639 8  23698324.671 9 124535522.525 8  94210340.549 9
E06  25585554.662 7  25585557.481 8 134452991.277 7 101712826.379 8
E09  24721886.596 8  24721888.700 9 129914389.309 8  98279402.049 9
E15  27520040.857 7  27520046.462 7 144618788.832 7 109403198.502 7
E30  27965894.992 7  27965899.828 8 146961754.493 7 111175583.317 8
E34  23811614.166 8  23811616.813 9 125130878.153 8  94660708.458 9
E36  24244680.677 8  24244684.170 9 127406652.900 8  96382316.319 9
G01  20472192.516 7                  20472195.341 8  20472197.534 9 107582092.496 7                  83830220.263 8  80337304.250 9
G02  20861136.290 7  20861137.135 6                                 109626002.743 7  85422866.324 6                
G03  21355675.504 7                  21355681.716 7  21355680.497 8 112224834.981 7                  87447959.065 7  83804289.535 8
G08  23165922.871 6                  23165931.949 7  23165929.215 8 121737719.376 6                  94860592.287 7  90908058.936 8
G10  24718943.294 6                  24718949.573 5  24718948.130 6 129898901.586 6                 101219947.39515  97002435.708 6
G17  23534092.230 5                  23534097.427 4                 123672476.171 5                  96368166.648 4
G28  24684893.185 7                  24684900.384 7  24684903.726 7 129720005.934 7                 101080548.880 7  96868871.295 7
G32  22471620.175 7                  22471626.104 7  22471623.250 8 118089151.612 7                  92017549.271 7  88183470.910 8
R02  19949394.882 8  19949397.140 7 106453785.689 8  82797353.756 7
R03  19976199.210 8  19976202.898 7 106934168.367 8  83171044.041 7
R17  20192893.309 8  20192894.957 7 108056243.021 8  84043653.754 7
R18  19337833.794 8  19337835.574 8 103226672.755 8  80287583.723 8
R19  22591382.801 6  22591385.746 6 120848786.755 6  93993346.672 6
> 2025 06 15 12 28  0.0000000  0 35
C05  39248205.667 6  39248204.933 7 204375708.086 6 158036261.290 7
C06  39871514.607 6  39871511.155 6 207621455.627 6 160546067.821 6
C09  40817517.200 4  40817518.186 6 212547539.741 4 164355226.81316
C12  22947710.553 7  22947707.452 8 119494749.906 7  92401098.815 8
C13  40331124.214 5  40331129.240 5 210014732.460 5 162396743.353 5
C16  40216212.086 6  40216215.287 6 209416384.267 6 161934039.149 6
C19  22898757.954 8                 119239845.066 8
C21  25956658.050 7                 135163142.147 7
C22  21950054.810 8                 114299702.093 8
C34  24818987.428 5                 129239218.902 5
C35  22938537.205 7                 119446970.565 7
C39  39600323.112 7                 206209282.125 7
C44  21667283.626 8                 112827237.035 8
C60  40652033.428 6                 211685816.253 6
E04  27447502.147 5  27447507.065 6 144237769.94215 109114767.940 6
E05  23690754.569 7  23690758.060 8 124495760.546 7  94180260.896 8
E06  25589443.463 7  25589446.594 8 134473429.529 7 101728287.752 8
E09  24722097.699 8  24722100.052 8 129915499.650 8  98280242.041 8
E15  27512232.589 7  27512238.836 7 144577758.033 7 109372158.977 7
E30  27972376.535 7  27972380.896 8 146995813.960 7 111201349.024 8
E34  23808005.636 8  23808008.448 9 125111916.063 8  94646363.765 9
E36  24248345.640 8  24248349.095 9 127425912.163 8  96396885.833 9
G01  20468475.032 7                  20468478.342 8  20468480.184 9 107562558.013 7                  83814998.589 8  80322716.813 9
G02  20862991.181 7  20862992.084 6                                 109635750.344 7  85430461.868 6                
G03  21348332.715 8                  21348339.286 7  21348337.520 8 112186248.855 8                  87417892.021 7  83775475.284 8
G08  23175581.959 7                  23175590.378 7  23175588.251 8 121788477.324 7                  94900143.857 7  90945962.513 8
G10  24727643.007 5                  24727650.322 5  24727648.172 6 129944618.024 5                 101255570.645 5  97036574.609 6
G17  23526707.333 5                  23526711.313 5                 123633664.825 5                  96337924.050 5
G28  24676972.014 6                  24676978.891 7  24676981.490 8 129678376.903 6                 101048110.701 7  96837784.729 8
G32  22476497.454 7                  22476503.519 7  22476500.433 8 118114781.601 7                  92037520.671 7  88202610.181 8
R02  19954637.228 8  19954638.905 7 106481758.517 8  82819110.387 7
R03  19969105.720 8  19969109.039 7 106896195.396 8  83141509.534 7
R17  20199649.661 8  20199652.066 8 108092397.626 8  84071773.962 8
R18  19334341.224 8  19334343.087 8 103208029.218 8  80273083.219 8
R19  22580116.558 6  22580120.142 6 120788520.663 6  93946473.068 6
> 2025 06 15 12 28 15.0000000  0 35
C05  39247826.435 5  39247826.169 7 204373735.687 5 158034736.103 7
C06  39866465.420 6  39866462.149 6 207595165.705 6 160525738.795 6
C09  40811882.464 5  40811884.596 6 212518200.512 5 164332539.884 6
C12  22941743.243 7  22941739.973 8 119463675.624 7  92377070.281 8
C13  40333279.342 5  40333280.774 5 210025949.485 5 162405417.036 5
C16  40211557.358 6  40211560.980 6 209392147.546 6 161915297.807 6
C19  22903575.796 8                 119264933.647 8
C21  25946771.940 7                 135111664.449 7
C22  21945456.371 8                 114275756.979 8
C34  24810199.211 4                                
C35  22945139.907 7                 119481357.167 7
C39  39596655.332 7                 206190183.076 7
C44  21665939.728 8                 112820237.905 8
C60  40651889.912 6                 211685069.742 6
E04  27454272.411 5  27454276.753 6 144273345.579 5 109141680.72116
E05  23683199.831 8  23683203.623 9 124456062.472 8  94150229.577 9
E06  25593349.361 7  25593352.780 8 134493956.474 7 101743816.278 8
E09  24722329.600 8  24722331.723 9 129916716.899 8  98281162.868 9
E15  27504424.888 7  27504431.082 7 144536727.920 7 109341120.030 7
E30  27978866.377 7  27978871.467 7 147029922.616 7 111227151.984 7
E34  23804406.373 8  23804409.510 9 125093003.410 8  94632056.453 9
E36  24252020.680 8  24252024.161 9 127445224.835 8  96411495.721 9
G01  20464775.555 7                  20464778.495 8  20464780.828 9 107543117.004 7                  83799849.773 8  80308199.196 9
G02  20864863.324 7  20864864.396 6                                 109645589.179 7  85438128.483 6                
G03  21341004.984 7                  21341011.568 7  21341009.907 8 112147741.944 7                  87387886.653 7  83746720.154 8
G08  23185249.285 7                  23185257.434 7  23185255.069 8 121839279.095 7                  94939729.638 7  90983898.872 8
G10  24736344.370 6                  24736352.446 5  24736350.192 6 129990342.803 6                 101291200.162 5  97070719.616 6
G17  23519337.414 5                  23519339.697 4                 123594939.786 5                  96307748.75114
G28  24669061.443 6                  24669068.838 7  24669071.238 7 129636810.060 6                 101015721.028 7  96806744.675 7
G32  22481396.816 8                  22481402.280 7  22481399.491 8 118140525.456 8                  92057580.788 7  88221834.459 8
R02  19959907.348 8  19959909.315 7 106509881.265 8  82840983.605 7
R03  19962040.153 8  19962043.185 8 106858373.406 8  83112092.440 8
R17  20206430.283 8  20206432.658 8 108128682.728 8  84099995.684 8
R18  19330876.359 8  19330877.621 8 103189532.158 8  80258696.617 8
R19  22568857.243 7  22568859.998 6 120728284.607 7  93899622.833 6
> 2025 06 15 12 28 30.0000000  0 35
C05  39247449.454 6  39247448.734 7 204371770.487 6 158033216.482 7
C06  39861424.361 6  39861420.125 6 207568911.234 6 160505437.188 6
C09  40806252.523 5  40806253.936 6 212488884.054 5 164309870.566 6
C12  22935792.929 7  22935789.726 8 119432690.612 7  92353110.691 8
C13  40335432.885 5  40335434.905 5 210037165.342 5 162414089.729 5
C16  40206910.228 7  40206913.671 6 209367948.721 7 161896585.773 6
C19  22908411.286 8                 119290113.598 8
C21  25936892.251 7                 135060222.915 7
C22  21940878.875 8                 114251920.917 8
C35  22951761.048 7                 119515831.686 7
C39  39592996.585 7                 206171130.651 7
C44  21664618.576 8                 112813358.849 8
C60  40651747.621 6                 211684330.259 6
E04  27461056.558 5  27461058.440 5 144308984.485 5 109168641.386 5
E05  23675659.334 7  23675663.311 8 124416437.303 7  94120253.443 8
E06  25597274.525 7  25597277.573 8 134514580.928 7 101759418.496 8
E09  24722583.108 8  24722585.350 9 129918049.837 8  98282171.231 9
E15  27496619.097 7  27496624.959 7 144495707.469 7 109310088.374 7
E30  27985368.154 7  27985373.359 8 147064089.155 7 111252998.708 8
E34  23800819.314 8  23800821.574 9 125074149.144 8  94617793.345 9
E36  24255707.890 8  24255711.005 9 127464599.775 8  96426152.745 9
G01  20461095.647 7                  20461098.814 8  20461100.735 9 107523778.546 7                  83784780.846 8  80293758.150 9
G02  20866754.744 7  20866755.553 6                                 109655528.207 7  85445873.158 6                
G03  21333694.314 7                  21333700.479 7  21333699.434 8 112109323.292 7                  87357950.054 7  83718030.910 8
G08  23194926.547 7                  23194934.628 7  23194932.475 8 121890133.328 7                  94979356.288 7  91021874.386 8
G10  24745048.853 5                  24745055.466 4  24745053.056 6 130036084.394 5                                  97104877.260 6
G17  23511987.263 5                  23511991.264 5                 123556310.213 5                  96277647.685 5
G22  24782019.723 4                                                                                                
G28  24661165.199 7                  24661173.072 7  24661175.685 7 129595314.854 7                 100983387.105 7  96775758.037 7
G32  22486318.340 7                  22486324.398 7  22486321.420 8 118166391.814 7                  92077736.358 7  88241150.208 8
R02  19965206.881 8  19965209.184 7 106538162.174 8  82862979.898 7
R03  19955004.639 8  19955007.555 7 106820712.125 8  83082800.370 7
R17  20213237.309 8  20213239.262 7 108165107.454 8  84128325.993 7
R18  19327440.333 8  19327442.213 8 103171190.750 8  80244431.083 8
R19  22557601.944 6  22557603.865 5 120668087.884 6  93852803.102 5
> 2025 06 15 12 28 45.0000000  0 34
C05  39247072.699 5  39247071.963 7 204369808.626 5 158031699.445 7
C06  39856387.697 6  39856384.281 6 207542688.600 6 160485160.245 6
C09  40800626.667 5  40800627.155 6 212459586.424 5 164287215.865 6
C12  22929858.873 7  22929855.579 8 119401791.323 7  92329217.411 8
C13  40337585.583 5  40337588.742 5 210048376.267 5 162422758.781 5
C16  40202270.015 6  40202273.070 6 209343784.083 6 161877900.121 6
C19  22913263.541 8                 119315380.849 8
C21  25927020.092 7                 135008813.997 7
C22  21936321.412 8                 114228190.113 8
C35  22958397.603 7                 119550390.338 7
C39  39589346.141 7                 206152121.099 7
C44  21663319.912 8                 112806596.120 8
C60  40651606.127 6                 211683594.030 6
E04  27467849.018 5  27467851.686 5 144344682.469 5 109195646.63515
E05  23668132.267 8  23668136.135 9 124376881.478 8  94090329.753 9
E06  25601216.850 7  25601220.134 8 134535298.849 7 101775091.475 8
E09  24722858.186 8  24722860.389 9 129919494.643 8  98283264.216 9
E15  27488814.440 7  27488819.889 7 144454692.942 7 109279061.186 7
E30  27991880.556 7  27991885.542 8 147098309.428 7 111278886.120 8
E34  23797241.715 8  23797244.086 9 125055349.552 8  94603571.583 9
E36  24259405.868 8  24259409.150 9 127484033.191 8  96440853.977 9
G01  20457434.514 7                  20457437.433 8  20457439.567 9 107504538.957 7                  83769788.969 8  80279390.938 9
G02  20868664.054 7  20868665.120 6                                 109665563.587 7  85453692.964 6                
G03  21326399.774 8                  21326405.871 7  21326404.418 8 112070989.077 8                  87328079.281 7  83689404.771 8
G08  23204612.447 6                  23204621.258 7  23204618.271 8 121941035.906 6                  95019020.586 7  91059885.980 8
G10  24753754.842 5                  24753762.016 5  24753758.959 6 130081839.107 5                 101362495.87115  97139044.649 6
G17  23504654.381 5                  23504657.825 6                 123517772.333 5                  96247618.253 6
G28  24653281.786 7                  24653289.202 7  24653291.695 7 129553887.733 7                 100951106.280 7  96744822.235 7
G32  22491263.364 7                  22491269.188 7  22491266.184 8 118192376.572 7                  92097984.224 7  88260554.401 8
R02  19970535.625 8  19970538.263 7 106566597.539 8  82885096.259 7
R03  19947998.752 8  19948001.544 8 106783207.896 8  83053630.419 8
R17  20220069.264 8  20220071.160 7 108201667.586 8  84156761.645 7
R18  19324032.888 8  19324034.552 8 103153001.540 8  80230283.927 8
R19  22546354.839 6  22546357.276 6 120607927.173 6  93806011.571 6
> 2025 06 15 12 29  0.0000000  0 35
C05  39246695.733 6  39246695.167 7 204367847.863 6 158030183.251 7
C06  39851355.848 6  39851354.598 6 207516495.598 6 160464906.160 6
C09  40795004.090 5  40795004.475 6 212430305.589 5 164264574.121 6
C12  22923941.119 7  22923938.068 8 119370975.698 7  92305388.820 8
C13  40339737.374 5  40339741.533 5 210059580.023 5 162431422.178 5
C16  40197635.663 7  40197637.962 7 209319651.305 7 161859239.170 7
C19  22918132.107 7                 119340732.956 7
C21  25917153.761 7                 134957435.427 7
C22  21931784.176 8                 114204562.396 8
C35  22965050.233 7                 119585030.537 7
C39  39585703.091 7                 206133152.205 7
C44  21662042.944 8                 112799947.550 8
C60  40651465.031 6                 211682858.741 6
E04  27474652.050 5  27474655.494 5 144380436.911 5 109222694.61915
E05  23660616.731 7  23660621.628 8 124337392.817 7  94060456.889 8
E06  25605176.324 7  25605180.159 8 134556107.749 7 101790833.290 8
E09  24723154.562 8  24723156.108 9 129921048.904 8  98284440.005 9
E15  27481010.709 7  27481015.400 7 144413682.089 7 109248036.771 7
E30  27998402.317 7  27998407.124 7 147132580.940 7 111304812.268 7
E34  23793674.038 8  23793676.562 9 125036602.432 8  94589389.525 9
E36  24263114.247 8  24263117.887 9 127503522.743 8  96455597.691 9
G01  20453791.983 7                  20453794.516 8  20453796.889 9 107485396.099 7                  83754872.471 8  80265095.953 9
G02  20870591.572 7  20870592.507 6                                 109675693.008 7  85461585.994 6                
G03  21319120.432 8                  21319126.640 7  21319125.392 8 112032737.229 8                  87298272.651 7  83660840.095 8
G08  23214307.692 7                  23214316.572 7  23214313.651 8 121991984.191 7                  95058720.446 7  91097931.723 8
G10  24762463.355 5                  24762475.076 5  24762467.740 6 130127604.251 5                 101398156.96215  97173219.867 6
G17  23497337.557 6                  23497342.444 6                 123479324.174 6                  96217658.642 6
G22  24786030.674 4                                                                                                
G28  24645410.688 7                  24645418.042 7  24645420.898 7 129512526.724 7                 100918877.017 7  96713935.874 7
G32  22496230.245 7                  22496236.355 7  22496233.165 8 118218477.216 7                  92118322.373 7  88280045.139 8
R02  19975892.820 8  19975895.424 8 106595184.221 8  82907330.337 8
R03  19941021.276 8  19941024.023 8 106745857.883 8  83024580.416 8
R17  20226926.147 8  20226928.738 8 108238360.658 8  84185300.664 8
R18  19320653.226 8  19320655.359 8 103134962.300 8  80216253.409 8
R19  22535115.541 6  22535116.484 5 120547800.122 6  93759246.207 5
> 2025 06 15 12 29 15.0000000  0 33
C05  39246319.637 6  39246318.659 7 204365885.447 6 158028665.793 7
C06  39846330.436 6  39846329.836 6 207490329.440 6 160444672.867 6
C09  40789382.341 5  40789384.030 6 212401038.620 5 164241943.044 6
C12  22918038.735 7  22918035.588 8 119340241.208 7  92281622.953 8
C13  40341885.994 5  40341891.864 5 210070773.82515 162440077.93515
C16  40193007.752 7  40193009.019 7 209295547.761 7 161840600.773 7
C19  22923016.700 8                 119366166.926 8
C21  25907291.711 7                 134906084.810 7
C22  21927266.036 8                 114181035.089 8
C35  22971717.495 7                 119619749.449 7
C39  39582067.487 7                 206114221.189 7
C44  21660787.546 8                 112793410.483 8
E04  27481465.908 5  27481469.769 5 144416245.04315 109249783.18815
E05  23653115.680 7  23653119.407 8 124297968.777 7  94030632.902 8
E06  25609153.295 7  25609156.750 8 134577004.736 7 101806641.707 8
E09  24723470.061 8  24723472.210 9 129922709.820 8  98285696.481 9
E15  27473206.109 7  27473211.549 7 144372672.210 7 109217013.092 7
E30  28004933.393 6  28004937.794 7 147166900.662 6 111330774.885 7
E34  23790116.048 8  23790118.662 9 125017905.153 8  94575245.138 9
E36  24266833.785 8  24266836.810 9 127523065.679 8  96470381.774 9
G01  20450166.660 7                  20450169.454 8  20450171.901 9 107466347.318 7                  83740029.279 8  80250871.240 9
G02  20872536.680 7  20872537.517 6                                 109685913.759 7  85469550.199 6                
G03  21311856.691 8                  21311862.759 7  21311861.475 8 111994564.989 8                  87268528.084 7  83632334.894 8
G08  23224011.003 7                  23224019.539 7  23224017.383 8 122042975.022 7                  95098453.529 7  91136009.229 8
G10  24771173.800 5                  24771184.803 4  24771179.229 5 130173376.962 5                 101433824.04614  97207400.838 5
G17  23490035.568 5                  23490041.245 6                 123440963.459 5                  96187767.178 6
G28  24637552.518 7                  24637559.600 7  24637562.536 7 129471229.582 7                 100886697.468 7  96683097.179 7
G32  22501218.352 7                  22501224.607 7  22501221.301 8 118244690.753 7                  92138748.496 7  88299620.177 8
R02  19981277.830 8  19981279.972 7 106623919.292 8  82929679.831 7
R03  19934072.475 8  19934075.377 7 106708660.029 8  82995648.811 7
R17  20233807.439 8  20233810.049 7 108275183.713 8  84213940.802 7
R18  19317301.875 8  19317303.542 7 103117070.598 8  80202337.654 7
R19  22523881.527 6  22523881.365 5 120487704.676 6  93712505.420 5
> 2025 06 15 12 29 30.0000000  0 34
C05  39245941.188 5  39245941.060 7 204363918.261 5 158027144.636 7
C06  39841310.001 6  39841309.730 6 207464187.044 6 160424457.941 6
C09  40783765.741 5  40783765.355 6 212371782.605 5 164219320.510 6
C12  22912151.595 7  22912148.336 8 119309584.799 7  92257917.494 8
C13  40344032.332 5  40344038.616 5 210081954.560 5 162448723.554 5
C16  40188383.550 7  40188385.251 6 209271470.277 7 161821982.555 6
C19  22927916.092 8                 119391679.390 8
C21  25897435.496 7                 134854759.000 7
C22  21922766.405 8                 114157605.022 8
C35  22978399.462 7                 119654543.719 7
C39  39578439.192 7                 206095324.902 7
C44  21659553.358 8                 112786981.832 8
C60  40651180.556 6                 211681373.49616
E04  27488292.393 5  27488293.381 5 144452103.317 5 109276909.65215
E05  23645625.479 8  23645628.775 8 124258606.357 8  94000855.511 8
E06  25613145.650 7  25613149.472 8 134597986.469 7 101822514.221 8
E09  24723805.883 8  24723807.982 9 129924474.123 8  98287031.186 9
E15  27465401.478 7  27465407.311 7 144331660.196 7 109185987.812 7
E30  28011472.351 6  28011477.211 7 147201265.129 6 111356771.344 7
E34  23786566.831 8  23786569.644 9 124999254.547 8  94561136.092 9
E36  24270561.578 8  24270565.196 9 127542658.775 8  96485203.820 9
G01  20446559.244 7                  20446562.097 8  20446564.446 9 107447389.645 7                  83725257.055 8  80236714.508 9
G02  20874498.677 7  20874499.282 6                                 109696222.560 7  85477583.040 6                
G03  21304607.080 7                  21304613.196 7  21304612.234 8 111956469.300 7                  87238843.167 7  83603886.855 8
G08  23233721.760 7                  23233731.026 7  23233728.474 8 122094004.901 7                  95138217.023 7  91174115.890 8
G10  24779884.951 4                  24779892.333 4  24779888.853 5                                                  97241585.037 5
G17  23482752.727 5                  23482757.789 6                 123402687.146 5                  96157941.490 6
G28  24629705.658 6                  24629712.713 7  24629715.074 7 129429993.398 6                 100854565.394 7  96652304.012 7
G32  22506227.460 7                  22506233.396 7  22506230.723 8 118271013.712 7                  92159259.896 7  88319276.936 8
R02  19986690.210 8  19986692.374 7 106652799.038 8  82952141.882 7
R03  19927151.376 8  19927154.440 7 106671611.259 8  82966833.129 7
R17  20240712.499 8  20240714.573 8 108312133.249 8  84242679.274 8
R18  19313977.224 8  19313978.422 7 103099323.469 8  80188534.331 7
R19  22512651.618 6  22512654.742 6 120427637.916 6  93665786.918 6
> 2025 06 15 12 29 45.0000000  0 33
C05  39245562.406 5  39245562.004 7 204361944.585 5 158025618.459 7
C06  39836296.030 6  39836293.690 6 207438066.911 6 160404260.238 6
C09  40778149.012 5  40778148.423 6 212342535.836 5 164196705.119 6
C12  22906279.023 7  22906276.136 8 119279005.221 7  92234271.443 8
C13  40346178.840 6  40346182.749 5 210093120.638 6 162457357.846 5
C16  40183763.975 7  40183765.935 7 209247417.338 7 161803383.334 7
C19  22932830.152 8                 119417268.473 8
C21  25887583.330 7                 134803456.550 7
C22  21918285.442 8                 114134270.657 8
C35  22985095.406 7                 119689411.665 7
C39  39574816.537 7                 206076461.800 7
C44  21658339.366 8                 112780660.091 8
E04  27495122.913 5  27495126.201 5 144488009.805 5 109304072.65915
E05  23638146.012 7  23638149.679 8 124219304.080 7  93971123.609 8
E06  25617154.368 7  25617157.948 8 134619051.110 7 101838449.486 8
E09  24724160.540 8  24724163.046 9 129926340.117 8  98288442.800 9
E15  27457596.703 7  27457602.424 7 144290644.432 7 109154959.671 7
E30  28018019.708 7  28018024.982 8 147235672.422 7 111382800.205 8
E34  23783026.358 8  23783029.137 9 124980649.114 8  94547061.192 9
E36  24274299.614 8  24274302.847 9 127562300.398 8  96500062.571 9
G01  20442968.799 7                  20442971.966 8  20442973.926 9 107428521.482 7                  83710554.597 8  80222624.659 9
G02  20876476.598 8  20876477.747 7                                 109706617.796 8  85485683.212 7                
G03  21297371.781 8                  21297378.529 7  21297376.849 8 111918448.651 8                  87209216.686 7  83575494.817 8
G08  23243440.026 7                  23243448.816 7  23243446.133 8 122145071.861 7                  95178009.426 7  91212250.254 8
G10  24788596.153 4                  24788601.254 4  24788600.159 5 130264933.93814                 101505166.90114  97275771.147 5
G17  23475486.846 6                  23475489.601 6                 123364493.849 6                  96128180.499 6
G28  24621869.920 6                  24621877.473 7  24621878.842 7 129388816.937 6                 100822479.892 7  96621555.406 7
G32  22511257.220 7                  22511262.953 7  22511260.324 8 118297444.254 7                  92179855.062 7  88339013.985 8
R02  19992128.887 8  19992131.338 7 106681821.277 8  82974714.691 7
R03  19920257.919 8  19920260.849 8 106634710.212 8  82938132.342 8
R17  20247640.441 8  20247643.064 8 108349207.237 8  84271514.639 8
R18  19310679.016 8  19310680.944 7 103081719.415 8  80174842.300 7
R19  22501429.479 6  22501432.749 6 120367598.223 6  93619089.432 6
> 2025 06 15 12 30  0.0000000  0 33
C05  39245181.575 6  39245181.422 7 204359963.085 6 158024086.233 7
C06  39831284.130 6  39831281.966 6 207411967.698 6 160384078.719 6
C09  40772533.903 5  40772533.210 6 212313297.104 5 164174095.929 6
C12  22900421.305 7  22900417.948 8 119248501.246 7  92210683.859 8
C13  40348319.581 5  40348325.212 5 210104270.686 5 162465979.750 5
C16  40179149.257 6  40179151.384 6 209223387.615 6 161784802.041 6
C19  22937758.629 8                 119442932.712 8
C21  25877735.115 7                 134752176.347 7
C22  21913822.198 8                 114111030.678 8
C34  24748950.995 5                 128874225.67115
C35  22991805.558 8                 119724351.683 8
C39  39571200.315 7                 206057630.616 7
C44  21657145.282 8                 112774443.974 8
E04  27501965.847 5  27501967.722 5 144523963.059 5 109331270.97515
E05  23630678.160 7  23630682.058 9 124180060.743 7  93941436.330 9
E06  25621178.418 7  25621181.883 8 134640197.144 7 101854446.300 8
E09  24724534.927 8  24724537.214 9 129928306.465 8  98289930.331 9
E15  27449791.078 7  27449796.592 7 144249623.669 7 109123927.745 7
E30  28024575.763 7  28024580.606 8 147270120.989 7 111408860.317 8
E34  23779494.561 8  23779497.115 9 124962087.588 8  94533019.524 9
E36  24278046.281 8  24278049.503 9 127581989.224 8  96514957.026 9
G01  20439395.328 7                  20439398.136 8  20439400.164 9 107409741.697 7                  83695920.997 8  80208600.814 9
G02  20878470.954 7  20878472.210 7                                 109717098.251 7  85493849.791 7                
G03  21290151.184 8                  21290157.564 7  21290155.680 8 111880501.780 8                  87179647.753 7  83547157.890 8
G08  23253164.245 7                  23253173.136 7  23253170.151 8 122196174.290 7                  95217829.403 7  91250411.044 8
G17  23468233.573 6                  23468237.670 6                 123326382.608 6                  96098483.423 6
G28  24614045.281 6                  24614051.851 7  24614054.986 7 129347699.163 6                 100790440.171 7  96590850.616 7
G32  22516307.063 7                  22516312.386 7  22516309.998 8 118323980.703 7                  92200532.830 7  88358830.144 8
R02  19997593.786 8  19997596.303 8 106710984.442 8  82997397.138 8
R03  19913391.676 8  19913395.102 7 106597955.429 8  82909545.305 7
R17  20254592.272 8  20254594.001 8 108386404.504 8  84300445.767 8
R18  19307408.063 8  19307409.641 7 103064257.509 8  80161260.827 7
R19  22490209.788 6  22490212.558 6 120307584.624 6  93572412.220 6
> 2025 06 15 12 30 15.0000000  0 34
C05  39244800.312 6  39244799.619 7 204357975.957 6 158022549.659 7
C06  39826276.897 6  39826274.460 6 207385891.525 6 160363915.001 6
C09  40766921.110 5  40766920.345 6 212284068.758 5 164151494.710 6
C12  22894578.447 7  22894575.246 8 119218075.337 7  92187156.622 8
C13  40350458.162 5  40350463.687 5 210115406.757 5 162474590.879 5
C16  40174539.592 6  40174541.841 6 209199383.272 6 161766240.408 6
C19  22942702.230 8                 119468673.916 8
C21  25867892.041 7                 134700920.590 7
C22  21909378.145 8                 114087887.293 8
C34  24740228.627 5                 128828815.207 5
C35  22998529.470 8                 119759365.749 8
C39  39567590.041 7                 206038833.414 7
C44  21655972.437 8                 112768335.728 8
E04  27508816.500 5  27508818.416 5 144559965.002 5 109358506.15615
E05  23623222.322 7  23623226.148 8 124140878.740 7  93911795.419 8
E06  25625218.260 7  25625221.701 8 134661426.536 7 101870506.193 8
E09  24724928.513 8  24724930.826 9 129930375.145 8  98291495.280 9
E15  27441985.006 7  27441990.135 7 144208600.060 7 109092893.703 7
E30  28031139.153 7  28031144.273 8 147304612.777 7 111434953.053 8
E34  23775971.120 8  23775973.746 9 124943572.191 8  94519012.753 9
E36  24281802.535 8  24281805.571 9 127601727.361 8  96529888.776 9
G01  20435839.165 7                  20435841.647 8  20435843.757 9 107391052.580 7                  83681358.059 8  80194644.651 9
G02  20880482.090 7  20880482.984 6                                 109727666.020 7  85502084.407 6                
G03  21282944.582 8                  21282950.838 7  21282949.100 8 111842630.912 8                  87150137.991 7  83518877.721 8
G08  23262895.825 7                  23262904.914 7  23262901.478 8 122247313.885 7                  95257678.386 7  91288599.659 8
G10  24806019.793 5                                  24806027.216 6 130356515.69615                                  97344147.351 6
G17  23460995.474 6                  23461001.906 5                 123288355.709 6                  96068852.162 5
G28  24606232.168 6                  24606239.003 6  24606243.420 7 129306642.700 6                 100758448.153 6  96560191.635 7
G32  22521376.959 7                  22521382.641 7  22521380.123 8 118350624.992 7                  92221294.579 7  88378726.833 8
R02  20003085.827 8  20003087.922 7 106740290.235 8  83020190.529 7
R03  19906553.535 8  19906556.674 7 106561349.529 8  82881074.091 7
R17  20261566.082 8  20261568.760 7 108423726.821 8  84329474.221 7
R18  19304163.842 8  19304165.617 8 103046940.013 8  80147791.670 8
R19  22478995.745 6  22479000.016 6 120247599.896 6  93525757.498 6
> 2025 06 15 12 30 30.0000000  0 34
C05  39244418.663 6  39244418.078 7 204355988.363 6 158021012.722 7
C06  39821274.460 6  39821271.765 6 207359843.743 6 160343773.233 6
C09  40761310.480 5  40761310.587 6 212254855.867 5 164128905.470 6
C12  22888750.779 7  22888748.128 8 119187732.845 7  92163693.891 8
C13  40352594.816 5  40352598.920 5 210126534.133 5 162483195.276 5
C16  40169935.893 6  40169937.483 6 209175409.628 6 161747702.455 6
C19  22947661.208 8                 119494497.104 8
C21  25858054.115 6                 134649694.736 6
C22  21904952.859 8                 114064845.743 8
C34  24731516.053 5                 128783448.744 5
C35  23005269.029 7                 119794458.978 7
C39  39563987.903 7                 206020075.481 7
C44  21654821.282 8                 112762340.631 8
E04  27515677.085 5  27515679.049 5 144596020.573 5 109385781.96515
E05  23615778.959 7  23615782.827 8 124101763.438 7  93882204.989 8
E06  25629275.397 7  25629278.381 8 134682744.387 7 101886632.996 8
E09  24725342.729 8  24725344.933 9 129932551.414 8  98293141.614 9
E15  27434178.313 7  27434184.131 7 144167579.021 7 109061861.591 7
E30  28037711.417 6  28037717.076 8 147339152.680 6 111461082.204 8
E34  23772457.323 8  23772460.136 9 124925108.298 8  94505044.935 9
E36  24285568.580 8  24285572.050 9 127621520.073 8  96544861.819 9
G01  20432300.628 7                  20432303.566 8  20432305.731 9 107372459.537 7                  83666869.983 8  80180760.245 9
G02  20882510.456 7  20882511.276 7                                 109738326.346 7  85510391.169 7                
G03  21275753.162 8                  21275759.730 7  21275757.897 8 111804841.470 8                  87120691.672 7  83490658.355 8
G08  23272635.651 6                  23272644.105 7  23272641.337 8 122298495.616 6                  95297560.215 7  91326819.733 8
G10  24814734.618 5                                  24814740.175 5 130402307.810 5                                  97378342.704 5
G17  23453777.260 6                  23453781.731 5                 123250418.811 6                  96039290.978 5
G28  24598432.159 6                  24598438.867 7  24598443.268 8 129265653.093 6                 100726508.284 7  96529582.621 8
G32  22526468.815 7                  22526474.711 7  22526471.746 8 118377382.138 7                  92242144.317 7  88398707.794 8
R02  20008605.027 8  20008607.831 7 106769743.410 8  83043098.549 7
R03  19899743.865 8  19899746.935 8 106524898.008 8  82852722.909 8
R17  20268565.476 8  20268567.887 8 108461179.234 8  84358603.871 8
R18  19300947.796 8  19300949.445 8 103029772.664 8  80134439.284 8
R19  22467787.902 6  22467793.786 7 120187649.631 6  93479129.434 7
> 2025 06 15 12 30 45.0000000  0 34
C05  39244036.563 6  39244036.023 7 204353999.197 6 158019474.566 7
C06  39816277.073 6  39816274.738 6 207333823.315 6 160323652.591 6
C09  40755702.931 6  40755703.650 6 212225657.433 6 164106327.399 6
C12  22882939.984 7  22882936.955 8 119157472.883 7  92140294.989 8
C13  40354729.367 5  40354734.834 6 210137651.785 5 162491792.132 6
C16  40165337.334 6  40165339.406 7 209151465.593 6 161729187.431 7
C19  22952635.576 8                 119520401.043 8
C21  25848222.678 7                 134598497.831 7
C22  21900547.378 8                 114041905.042 8
C34  24722812.498 5                 128738125.624 5
C35  23012023.108 8                 119829630.093 8
C39  39560393.057 7                 206001355.772 7
C44  21653691.278 8                 112756457.704 8
E04  27522545.623 5  27522549.780 5 144632128.658 5 109413097.42615
E05  23608347.644 8  23608351.817 8 124062713.992 8  93852664.373 8
E06  25633347.920 7  25633351.666 8 134704149.459 7 101902825.779 8
E09  24725777.381 8  24725779.325 9 129934834.126 8  98294868.468 9
E15  27426372.303 6  27426378.406 7 144126559.473 6 109030830.618 7
E30  28044292.842 6  28044298.835 8 147373739.328 6 111487246.771 8
E34  23768953.244 8  23768956.099 9 124906694.894 8  94491115.325 9
E36  24289345.383 8  24289348.717 9 127641366.280 8  96559875.335 9
G01  20428780.476 7                  20428783.612 8  20428785.721 9 107353961.669 7                  83652456.043 8  80166946.881 9
G02  20884556.658 7  20884557.644 7                                 109749078.226 7  85518769.231 7                
G03  21268577.154 8                  21268583.819 7  21268582.196 8 111767132.403 8                  87091308.026 7  83462499.026 8
G08  23282382.971 6                  23282391.429 7  23282388.758 8 122349718.173 6                  95337473.813 7  91365070.275 8
G10  24823450.972 5                  24823458.710 5  24823455.376 5 130448107.018 5                 101647892.60215  97412543.300 5
G17  23446575.972 6                  23446578.943 5                 123212570.981 6                  96009799.165 5
G28  24590645.043 6                  24590652.179 7  24590654.617 7 129224729.757 6                 100694620.062 7  96499023.002 7
G32  22531581.613 7                  22531587.986 7  22531584.889 8 118404250.811 7                  92263080.916 7  88418772.038 8
R02  20014152.098 8  20014154.728 7 106799342.896 8  83066120.359 7
R03  19892963.563 8  19892966.191 8 106488600.134 8  82824491.243 8
R17  20275588.160 8  20275590.638 7 108498760.793 8  84387833.924 7
R18  19297759.562 8  19297761.496 8 103012754.576 8  80121203.006 8
R19  22456590.151 7  22456592.472 6 120127732.872 7  93432527.572 6
> 2025 06 15 12 31  0.0000000  0 34
C05  39243654.550 6  39243654.135 7 204352010.366 6 158017936.671 7
C06  39811285.797 6  39811282.836 6 207307832.107 6 160303554.567 6
C09  40750097.471 6  40750099.454 6 212196475.332 6 164083762.003 6
C12  22877144.873 7  22877142.079 8 119127297.482 7  92116961.485 8
C13  40356863.950 6  40356869.088 5 210148761.502 6 162500382.805 5
C16  40160744.595 6  40160747.465 7 209127553.048 6 161710696.770 7
C19  22957626.084 8                 119546387.275 8
C21  25838397.057 6                 134547331.816 6
C22  21896161.346 8                 114019067.006 8
C34  24714116.837 4                 128692847.88514
C35  23018792.366 8                 119864880.737 8
C39  39556805.819 7                 205982676.163 7
C44  21652583.537 8                 112750688.838 8
E04  27529429.362 4  27529430.410 4 144668290.79614
E05  23600930.283 8  23600933.739 9 124023732.378 8  93823175.071 9
E06  25637438.648 7  25637441.821 8 134725643.427 7 101919085.812 8
E09  24726232.098 8  24726234.297 9 129937225.036 8  98296677.161 9
E15  27418567.369 6  27418572.957 7 144085543.366 6 108999802.261 7
E30  28050884.080 6  28050889.741 8 147408374.343 6 111513447.947 8
E34  23765459.623 8  23765462.038 9 124888333.945 8  94477225.409 9
E36  24293132.436 8  24293135.885 9 127661267.790 8  96574930.688 9
G01  20425278.843 7                  20425281.794 8  20425284.289 9 107335560.875 7                  83638117.770 8  80153206.047 9
G02  20886620.383 7  20886621.181 6                                 109759923.461 7  85527220.063 6                
G03  21261417.438 8                  21261423.527 7  21261421.911 8 111729505.706 8                  87061988.531 7  83434401.204 8
G08  23292138.470 6                  23292146.812 7  23292144.167 8 122400982.967 6                  95377420.350 7  91403352.382 8
G10  24832168.108 5                  24832176.311 5  24832172.283 5 130493914.891 5                 101683587.029 5  97446750.407 5
G17  23439390.248 6                  23439393.680 5                 123174814.349 6                  95980378.506 5
G28  24582870.564 6                  24582876.873 6  24582880.264 7 129183874.755 6                 100662785.031 6  96468514.464 7
G32  22536716.129 7                  22536722.406 7  22536719.458 8 118431232.586 7                  92284105.667 7  88438920.758 8
R02  20019726.884 8  20019729.226 7 106829089.810 8  83089256.822 7
R03  19886211.449 8  19886214.321 7 106452457.714 8  82796380.479 7
R17  20282635.929 8  20282637.711 7 108536472.821 8  84417165.497 7
R18  19294599.846 8  19294601.830 8 102995887.881 8  80108084.447 8
R19  22445393.627 7  22445397.878 7 120067851.933 7  93385953.543 7
> 2025 06 15 12 31 15.0000000  0 32
C05  39243272.700 6  39243271.881 7 204350021.240 6 158016398.562 7
C06  39806300.153 6  39806297.084 6 207281869.615 6 160283478.725 6
C09  40744497.389 6  40744498.298 6 212167309.149 6 164061208.908 6
C12  22871366.739 7  22871363.158 7 119097206.374 7  92093693.144 7
C13  40358995.667 6  40359000.594 5 210159862.644 6 162508966.880 5
C16  40156157.498 6  40156161.616 7 209103671.506 6 161692230.072 7
C19  22962632.244 8                 119572455.053 8
C21  25828575.638 6                 134496196.354 6
C22  21891795.409 8                 113996331.160 8
C35  23025577.260 8                 119900210.243 8
C39  39553225.874 7                 205964036.116 7
C44  21651497.479 8                 112745033.609 8
E05  23593524.933 8  23593528.698 9 123984818.275 8  93793736.821 9
E06  25641545.396 7  25641548.780 8 134747225.558 7 101935412.555 8
E09  24726707.099 7  24726709.739 9 129939723.525 7  98298567.265 9
E15  27410762.514 6  27410768.453 7 144044530.256 6 108968776.109 7
E30  28057484.268 6  28057489.654 8 147443057.047 6 111539685.151 8
E34  23761975.562 8  23761977.969 9 124870024.998 8  94463374.809 9
E36  24296930.353 8  24296933.431 9 127681224.088 8  96590027.486 9
G01  20421795.861 7                  20421798.694 8  20421801.119 9 107317256.818 7                  83623854.896 8  80139537.462 9
G02  20888701.749 7  20888702.622 6                                 109770861.440 7  85535743.153 6                
G03  21254272.714 7                  21254279.017 7  21254277.379 8 111691960.911 7                  87032732.895 7  83406364.558 8
G08  23301901.580 7                  23301909.615 7  23301907.998 8 122452289.153 7                  95417399.152 7  91441665.362 8
G10  24840886.259 5                  24840894.395 5  24840889.523 5 130539730.725 5                 101719287.726 5  97480963.543 5
G17  23432223.296 6                  23432226.126 5                 123137148.599 6                  95951028.535 5
G28  24575108.549 6                  24575115.854 6  24575118.690 7 129143088.049 6                 100631003.136 6  96438056.873 7
G32  22541872.370 7                  22541878.328 7  22541875.417 8 118458326.682 7                  92305217.919 7  88459153.327 8
R02  20025328.788 8  20025331.310 8 106858983.229 8  83112507.261 8
R03  19879488.903 8  19879491.618 8 106416470.395 8  82768390.404 8
R17  20289707.058 8  20289709.617 8 108574314.785 8  84446598.123 8
R18  19291468.573 8  19291470.394 8 102979172.267 8  80095083.450 8
R19  22434208.071 6  22434209.647 6 120008006.847 6  93339407.447 6
> 2025 06 15 12 31 30.0000000  0 32
C05  39242890.425 6  39242889.621 7 204348029.983 6 158014858.795 7
C06  39801319.454 6  39801316.865 6 207255934.013 6 160263423.686 6
C09  40738899.433 6  40738900.188 6 212138157.087 6 164038666.696 6
C12  22865603.663 7  22865600.297 8 119067197.905 7  92070488.677 8
C13  40361126.594 6  40361130.830 5 210170953.572 6 162517543.073 5
C16  40151578.174 6  40151581.212 7 209079819.137 6 161673785.928 7
C19  22967653.419 7                 119598602.324 7
C21  25818761.538 6                 134445089.602 6
C22  21887448.581 8                 113973695.681 8
C35  23032376.910 7                 119935616.623 7
C39  39549653.721 7                 205945433.760 7
C44  21650432.912 8                 112739490.211 8
E05  23586131.968 7  23586136.072 8 123945969.953 7  93764348.363 8
E06  25645668.483 7  25645672.175 8 134768893.839 7 101951804.421 8
E09  24727202.780 7  24727205.340 9 129942327.729 7  98300537.323 9
E15  27402958.470 6  27402964.074 7 144003518.254 6 108937750.858 7
E30  28064092.776 6  28064098.100 8 147477785.238 6 111565956.773 8
E34  23758500.908 8  23758503.444 9 124851766.264 8  94449562.211 9
E36  24300737.733 8  24300741.040 9 127701233.280 8  96605164.286 9
G01  20418330.730 7                  20418333.638 8  20418336.035 9 107299047.801 7                  83609666.039 8  80125939.821 9
G02  20890800.599 7  20890801.275 7                                 109781890.438 7  85544337.171 7                
G03  21247143.499 7                  21247149.628 7  21247148.036 8 111654496.307 7                  87003539.716 7  83378387.760 8
G08  23311671.743 6                  23311680.794 7  23311678.718 8 122503634.579 6                  95457408.421 7  91480007.611 8
G10  24849605.562 5                  24849613.666 5  24849608.097 5 130585552.735 5                 101754993.094 5  97515181.117 5
G17  23425071.996 6                  23425075.269 5                 123099572.207 6                  95921748.252 5
G28  24567359.910 6                  24567366.852 7  24567369.459 7 129102368.019 6                 100599273.386 7  96407649.158 7
G32  22547048.298 7                  22547055.155 7  22547051.983 8 118485530.963 7                  92326416.035 7  88479468.174 8
R02  20030957.665 8  20030960.710 7 106889020.997 8  83135869.967 7
R03  19872795.062 8  19872797.739 8 106380636.818 8  82740519.854 8
R17  20296802.449 8  20296805.170 8 108612284.616 8  84476130.170 8
R18  19288364.897 8  19288366.797 7 102962606.172 8  80082198.716 7
R19  22423026.158 6  22423029.005 6 119948195.954 6  93292887.890 6
> 2025 06 15 12 31 45.0000000  0 32
C05  39242507.811 5  39242507.248 7 204346039.683 5 158013319.765 7
C06  39796344.412 6  39796342.009 6 207230028.436 6 160243391.876 6
C09  40733303.720 6  40733304.885 6 212109022.200 6 164016137.829 6
C12  22859857.121 7  22859853.881 8 119037275.376 7  92047350.684 8
C13  40363252.798 5  40363258.424 5 210182037.192 5 162526113.696 5
C16  40147003.464 6  40147006.751 7 209055999.086 6 161655366.752 7
C19  22972690.266 7                 119624831.931 7
C21  25808953.681 6                 134394015.117 6
C22  21883121.345 8                 113951163.686 8
C35  23039191.340 8                 119971102.654 8
C39  39546089.267 7                 205926872.225 7
C44  21649390.904 8                 112734061.801 8
E05  23578752.556 7  23578756.441 8 123907190.678 7  93735012.119 8
E06  25649808.451 7  25649812.533 8 134790651.158 7 101968263.688 8
E09  24727718.998 7  24727721.526 9 129945040.599 7  98302589.588 9
E15  27395154.673 6  27395160.256 7 143962510.582 6 108906728.834 7
E30  28070710.172 6  28070715.691 7 147512561.653 6 111592264.874 7
E34  23755036.795 8  23755039.193 9 124833560.954 8  94435789.992 9
E36  24304555.988 8  24304559.271 9 127721298.427 8  96620343.436 9
G01  20414884.207 7                  20414887.249 8  20414889.698 9 107280937.021 7                  83595553.748 8  80112415.531 9
G02  20892917.051 7  20892917.948 6                                 109793013.371 7  85553004.398 6                
G03  21240030.035 8                  21240036.373 7  21240034.557 8 111617115.008 8                  86974411.454 7  83350473.185 8
G08  23321451.801 7                  23321459.321 7  23321457.237 8 122555021.824 7                  95497450.428 7  91518381.143 8
G10  24858326.405 5                  24858335.976 5  24858329.409 5 130631383.664 5                 101790705.462 5  97549405.47815
G17  23417939.513 6                  23417943.045 5                 123062088.414 6                  95892540.109 5
G28  24559624.069 7                  24559631.496 7  24559634.924 7 129061718.200 7                 100567598.267 7  96377293.870 7
G32  22552247.317 7                  22552253.443 7  22552250.226 8 118512848.256 7                  92347702.217 7  88499867.441 8
R02  20036614.175 8  20036617.345 8 106919205.636 8  83159346.875 8
R03  19866130.248 8  19866132.823 7 106344959.883 8  82712771.153 7
R17  20303923.152 8  20303925.869 8 108650385.175 8  84505763.924 8
R18  19285290.220 8  19285292.317 7 102946192.925 8  80069432.858 7
R19  22411850.332 6  22411853.989 6 119888422.771 6  93246397.721 6
> 2025 06 15 12 32  0.0000000  0 32
C05  39242125.312 6  39242124.805 7 204344046.366 6 158011778.409 7
C06  39791374.717 6  39791371.892 6 207204149.073 6 160223380.315 6
C09  40727712.012 6  40727712.150 6 212079900.600 6 163993619.242 6
C12  22854126.710 7  22854123.416 8 119007435.054 7  92024276.254 8
C13  40365380.163 5  40365384.543 6 210193109.654 5 162534675.638 6
C16  40142434.210 7  40142437.507 7 209032207.411 7 161636969.527 7
C19  22977742.383 8                 119651139.670 8
C21  25799152.468 7                 134342968.841 7
C22  21878813.828 8                 113928731.280 8
C35  23046020.609 7                 120006664.370 7
C39  39542531.956 7                 205908347.596 7
C44  21648369.377 8                 112728744.559 8
E05  23571386.213 7  23571389.385 9 123868476.670 7  93705725.247 9
E06  25653964.842 7  25653968.920 8 134812493.388 7 101984787.179 8
E09  24728255.243 7  24728257.677 9 129947858.129 7  98304721.031 9
E15  27387351.096 6  27387356.678 7 143921503.290 6 108875707.139 7
E30  28077335.917 6  28077341.776 7 147547382.229 6 111618606.369 7
E34  23751581.297 8  23751584.244 9 124815405.147 8  94422055.249 9
E36  24308384.358 8  24308387.420 9 127741415.578 8  96635561.923 9
G01  20411455.776 7                  20411459.027 8  20411461.144 9 107262920.662 7                  83581515.048 8  80098961.762 9
G02  20895051.046 7  20895051.541 6                                 109804226.360 7  85561741.780 6                
G03  21232931.648 8                  21232938.224 7  21232936.231 8 111579813.224 8                  86945345.146 7  83322617.981 8
G08  23331237.195 7                  23331245.303 7  23331243.242 8 122606446.758 7                  95537521.750 7  91556782.823 8
G10  24867049.231 5                  24867058.138 5  24867052.811 5 130677219.509 5                 101826421.673 5  97583633.505 5
G17  23410822.225 6                  23410827.407 5                 123024693.669 6                  95863401.415 5
G28  24551901.552 6                  24551908.616 7  24551912.223 7 129021134.990 6                 100535975.069 7  96346988.331 7
G32  22557465.836 7                  22557472.288 7  22557469.390 7 118540274.344 7                  92369073.219 7  88520347.950 7
R02  20042297.865 8  20042300.180 7 106949532.932 8  83182934.759 7
R03  19859493.620 8  19859496.478 8 106309436.131 8  82685141.607 8
R17  20311066.473 8  20311069.742 8 108688612.200 8  84535496.011 8
R18  19282243.813 8  19282245.217 7 102929928.866 8  80056783.018 7
R19  22400684.248 7  22400687.016 6 119828683.352 7  93199933.736 6
>                              2  1
              *** Start of Kinematic Data ***               COMMENT             
