     3.04           OBSERVATION DATA    Mixed(MIXED)        RINEX VERSION / TYPE
cnvtToRINEX 3.14.0  convertToRINEX OPR  20250615 162126 UTC PGM / RUN BY / DATE 
----------------------------------------------------------- COMMENT             
1004                                                        MARKER NAME         
1004                                                        MARKER NUMBER       
GEODETIC                                                    MARKER TYPE         
GNSS Observer       Trimble                                 OBSERVER / AGENCY   
6337S22116          Geo Explorer 3      6.26                REC # / TYPE / VERS 
                    UNKNOWN EXT     NONE                    ANT # / TYPE        
  3915574.5636  1191537.0569  4876138.0140                  APPROX POSITION XYZ 
        1.1720        0.0000        0.0000                  ANTENNA: DELTA H/E/N
R    4 C1C C2C L1C L2C                                      SYS / # / OBS TYPES 
G    8 C1C C2W C2X C5X L1C L2W L2X L5X                      SYS / # / OBS TYPES 
C    4 C2I C7I L2I L7I                                      SYS / # / OBS TYPES 
E    4 C1X C8X L1X L8X                                      SYS / # / OBS TYPES 
    15.000                                                  INTERVAL            
  2025     6    15    11    12   30.0000000     GPS         TIME OF FIRST OBS   
  2025     6    15    11    39   45.0000000     GPS         TIME OF LAST OBS    
     0                                                      RCV CLOCK OFFS APPL 
  7 R01  1 R02 -4 R03  5 R16 -1 R17  4 R18 -3 R24  2        GLONASS SLOT / FRQ #
R L2C -0.25000                                              SYS / PHASE SHIFT   
G L2X -0.25000                                              SYS / PHASE SHIFT   
    18                                                      LEAP SECONDS        
    33                                                      # OF SATELLITES     
   C05     1     0     1     0                              PRN / # OF OBS      
   C12     7     6     6     5                              PRN / # OF OBS      
   C13     5     0     4     0                              PRN / # OF OBS      
   C19   110     0   110     0                              PRN / # OF OBS      
   C20    96     0    96     0                              PRN / # OF OBS      
   C22   110     0   110     0                              PRN / # OF OBS      
   C29    61     0    60     0                              PRN / # OF OBS      
   C35   110     0   110     0                              PRN / # OF OBS      
   C39    61     0    61     0                              PRN / # OF OBS      
   C44   110     0   110     0                              PRN / # OF OBS      
   E02   103   102   101   102                              PRN / # OF OBS      
   E04    91    97    90    97                              PRN / # OF OBS      
   E05    25    25    25    25                              PRN / # OF OBS      
   E06   110   110   110   110                              PRN / # OF OBS      
   E09   110   110   110   110                              PRN / # OF OBS      
   E11   110   110   110   110                              PRN / # OF OBS      
   E30   110   110   110   110                              PRN / # OF OBS      
   E34   110   110   110   110                              PRN / # OF OBS      
   E36   110   110   110   110                              PRN / # OF OBS      
   G01   110     0   110   110   110     0   110   110      PRN / # OF OBS      
   G02   110   110     0     0   110   110     0     0      PRN / # OF OBS      
   G03    93     0    84    93    90     0    84    93      PRN / # OF OBS      
   G08   110     0   110   110   110     0   110   110      PRN / # OF OBS      
   G10   110     0   110   110   110     0   110   110      PRN / # OF OBS      
   G27   110     0   110   110   110     0   110   110      PRN / # OF OBS      
   G32   110     0   110   110   110     0   110   110      PRN / # OF OBS      
   R01   110     0   110     0                              PRN / # OF OBS      
   R02   110   110   110   110                              PRN / # OF OBS      
   R03   110   110   110   110                              PRN / # OF OBS      
   R16    72    72    72    72                              PRN / # OF OBS      
   R17   110   110   110   110                              PRN / # OF OBS      
   R18   103   100   101    99                              PRN / # OF OBS      
   R24   107   106   103   106                              PRN / # OF OBS      
DBHZ                                                        SIGNAL STRENGTH UNIT
                                                            END OF HEADER       
>                              2  1
              *** Start of Kinematic Data ***               COMMENT             
> 2025 06 15 11 12 30.0000000  0 27
C13  39500757.397 4                                
C19  22239860.573 8                 115808781.73918
C20  24123699.923 7                 125618435.44517
C22  24030027.462 7                 125130669.66517
C35  21643084.170 8                 112701223.26018
C44  22831970.788 7                 118892064.00217
E02  26673578.656 5  26673562.693 7 140170414.74015 106038046.34217
E04  25957158.388 7  25957160.058 7 136405785.77517 103190055.58817
E06  25190141.424 8  25190144.820 8 132375084.21818 100140906.46818
E09  25480446.906 7  25480450.375 8 133900653.23017 101294988.50518
E11  26159178.219 7  26159178.409 7 137467412.65117 103993170.00417
E30  26543372.680 7  26543375.931 8 139486356.84417 105520538.32518
E34  25155028.579 8  25155031.784 9 132190565.34218 100001316.17319
E36  23504563.669 8  23504566.008 9 123517312.87818  93440055.58119
G01  22165822.551 7                  22165827.153 8  22165828.724 8 116482180.32917                  90765356.69118  86983475.78618
G02  20959822.656 7  20959823.373 6                                 110144608.59917  85826971.22016                
G03  24039737.262 5                                  24039746.314 5 126329609.23415                                  94337131.84115
G08  20815042.128 8                  20815048.161 7  20815045.361 9 109383778.62818                  85234142.20817  81682706.14319
G10  22217463.669 8                  22217470.098 7  22217465.890 8 116753559.84818                  90976824.13017  87186106.70118
G27  22777837.141 7                  22777844.510 7  22777842.966 8 119698338.66517                  93271462.83817  89385143.92718
G32  22041319.955 8                  22041326.240 8  22041323.157 8 115827915.55018                  90255547.13018  86494886.10018
R01  20583429.305 7                 110030203.93017
R02  19788116.529 8  19788118.475 7 105593178.87418  82128188.87317
R03  23034534.639 7  23034542.855 7 123305673.69017  95904442.42817
R16  23082305.519 7  23082310.964 7 123301533.97117  95901020.04817
R17  19245738.518 8  19245739.682 7 102987835.94018  80101704.22017
R24  21607113.738 7  21607116.682 7 115542944.74417  89866738.04617
> 2025 06 15 11 12 45.0000000  0 26
C19  22238391.822 8                 115801135.724 8
C20  24130412.228 6                 125653383.296 6
C22  24020686.548 7                 125082027.612 7
C35  21644271.325 8                 112707406.635 8
C44  22825489.404 7                 118858313.448 7
E02  26681368.524 4  26681355.522 6                 106069025.213 6
E04  25959148.393 7  25959149.656 7 136416240.448 7 103197964.479 7
E06  25188094.556 8  25188098.476 8 132364330.402 8 100132771.311 8
E09  25474794.375 7  25474798.575 8 133870951.487 7 101272519.347 8
E11  26165281.309 7  26165282.117 7 137499488.876 7 104017435.398 7
E30  26545182.371 7  26545185.498 8 139495867.121 7 105527732.793 8
E34  25149301.351 7  25149304.525 9 132160468.309 7  99978547.965 9
E36  23505226.815 8  23505229.518 9 123520799.417 8  93442693.114 9
G01  22158120.648 7                  22158125.125 8  22158126.785 8 116441706.722 7                  90733818.850 8  86953251.998 8
G02  20956882.167 8  20956882.848 6                                 110129155.116 8  85814929.559 6                
G03  24029071.525 5                  24029081.878 5  24029077.836 5 126273560.57415                  98395064.99815  94295276.65315
G08  20819593.319 8                  20819599.560 8  20819596.341 9 109407695.259 8                  85252778.499 8  81700565.935 9
G10  22224225.697 7                  22224232.105 8  22224227.717 8 116789093.106 7                  91004512.394 8  87212641.288 8
G27  22787636.570 7                  22787644.116 7  22787642.296 8 119749835.426 7                  93311590.171 7  89423599.246 8
G32  22038477.732 8                  22038483.588 7  22038480.543 8 115812979.773 8                  90243908.898 7  86483732.788 8
R01  20590171.128 7                 110066242.250 7
R02  19783001.657 8  19783003.682 7 105565884.352 8  82106959.806 7
R03  23021755.627 7  23021763.547 7 123237263.500 7  95851234.668 7
R16  23089281.666 7  23089286.415 7 123338800.090 7  95930004.771 7
R17  19244700.682 8  19244702.067 7 102982281.479 8  80097384.090 7
R24  21615605.635 7  21615608.698 7 115588354.316 7  89902056.513 7
>                              3  5
              *** Start of Occupation ***                   COMMENT             
1004                                                        MARKER NAME         
1004                                                        MARKER NUMBER       
  3915574.5636  1191537.0569  4876138.0140                  APPROX POSITION XYZ 
        1.1720        0.0000        0.0000                  ANTENNA: DELTA H/E/N
> 2025 06 15 11 13  0.0000000  0 27
C19  22236946.495 8                 115793607.899 8
C20  24137137.959 7                 125688404.560 7
C22  24011354.580 8                 125033435.109 8
C35  21645476.948 8                 112713682.435 8
C44  22819017.880 7                 118824618.513 7
E02  26689143.355 5  26689154.284 6 140252347.70315 106100027.914 6
E04  25961157.306 7  25961158.240 7 136426795.181 7 103205949.061 7
E06  25186067.995 8  25186071.289 8 132353678.042 8 100124712.896 8
E09  25469157.556 7  25469161.740 8 133841330.009 7 101250110.979 8
E11  26171389.032 6  26171389.614 7 137531583.497 6 104041714.742 7
E30  26547010.835 7  26547014.134 8 139505477.322 7 105535002.816 8
E34  25143577.202 7  25143581.215 9 132130392.919 7  99955796.138 9
E36  23505898.547 8  23505901.661 9 123524331.284 8  93445364.964 9
G01  22150427.064 7                  22150430.924 7  22150432.809 8 116401274.529 7                  90702313.213 7  86923059.121 8
G02  20953954.165 8  20953955.237 6                                 110113769.102 8  85802940.424 6                
G03  24018410.906 5                  24018425.404 6  24018417.198 6 126217539.256 5                  98351412.139 6  94253442.603 6
G08  20824167.599 7                  20824173.864 8  20824171.028 9 109431732.440 7                  85271508.802 8  81718515.781 9
G10  22230998.384 8                  22231004.618 7  22231001.061 8 116824685.380 8                  91032246.620 7  87239219.902 8
G27  22797446.333 7                  22797453.900 7  22797452.123 8 119801384.928 7                  93351758.603 7  89462093.980 8
G32  22035660.655 8                  22035666.686 7  22035663.370 8 115798174.950 8                  90232372.715 7  86472677.261 8
R01  20596940.875 7                 110102431.556 7
R02  19777920.060 8  19777922.779 8 105538769.771 8  82085870.712 8
R03  23008982.055 7  23008990.817 7 123168888.789 7  95798054.461 7
R16  23096282.727 7  23096287.686 7 123376197.916 7  95959091.901 7
R17  19243685.617 8  19243687.216 7 102976850.163 8  80093159.714 7
R18  21249384.517 6                 113430647.60716
R24  21624110.774 7  21624114.698 7 115633837.080 7  89937432.002 7
> 2025 06 15 11 13 15.0000000  0 28
C19  22235523.917 8                 115786200.003 8
C20  24143876.628 6                 125723500.762 6
C22  24002032.821 8                 124984894.063 8
C29  24814023.631 6                 129213145.042 6
C35  21646700.162 8                 112720052.475 8
C44  22812559.057 7                 118790981.214 7
E02  26696948.387 4  26696958.172 6 140293362.84614 106131055.43816
E04  25963184.885 7  25963186.088 7 136437451.620 7 103214010.600 7
E06  25184060.166 7  25184063.702 8 132343128.961 7 100116732.584 8
E09  25463536.647 7  25463540.496 8 133811790.864 7 101227764.848 8
E11  26177500.500 7  26177500.535 7 137563698.123 7 104066009.246 7
E30  26548858.825 7  26548862.223 8 139515189.026 7 105542349.649 8
E34  25137859.213 8  25137862.318 8 132100340.908 8  99933062.009 8
E36  23506580.291 8  23506582.795 9 123527910.300 8  93448072.463 9
G01  22142741.204 7                  22142745.489 8  22142746.929 8 116360885.511 7                  90670841.328 8  86892898.570 8
G02  20951039.188 8  20951040.848 6                                 110098452.396 8  85791005.335 6                
G03  24007756.584 5                  24007768.923 5  24007765.170 6 126161547.298 5                  98307782.126 5  94211630.535 6
G08  20828764.754 7                  20828770.992 7  20828768.434 9 109455891.841 7                  85290334.300 7  81736556.867 9
G10  22237782.568 8                  22237788.922 7  22237785.964 8 116860338.148 8                  91060027.946 7  87265843.663 8
G27  22807265.934 7                  22807273.759 7  22807271.988 8 119852988.715 7                  93391969.285 7  89500629.209 8
G32  22032868.738 8                  22032874.848 7  22032872.104 8 115783502.914 8                  90220939.998 7  86461720.911 8
R01  20603739.037 7                 110138773.301 7
R02  19772872.952 8  19772874.999 7 105511836.892 8  82064922.952 7
R03  22996215.888 7  22996224.309 7 123100551.922 7  95744903.639 7
R16  23103308.067 7  23103313.521 7 123413728.484 7  95988282.322 7
R17  19242693.691 8  19242695.394 7 102971543.961 8  80089032.678 7
R18  21240389.231 5                 113382627.282 5
R24  21632629.834 7  21632634.618 7 115679394.661 7  89972865.646 7
> 2025 06 15 11 13 30.0000000  0 27
C19  22234125.232 8                 115778916.356 8
C20  24150631.900 6                 125758675.931 6
C22  23992721.559 7                 124936408.976 7
C29  24822588.264 5                 129257764.771 5
C35  21647942.358 8                 112726521.080 8
C44  22806111.253 7                 118757405.967 7
E02  26704766.926 5  26704769.726 6 140334414.93815 106162111.04416
E04  25965232.684 7  25965234.185 7 136448214.064 7 103222152.293 7
E06  25182073.424 7  25182076.817 8 132332687.536 7 100108833.734 8
E09  25457932.916 7  25457935.910 8 133782338.503 7 101205484.374 8
E11  26183616.080 7  26183616.550 7 137595837.230 7 104090322.234 7
E30  26550726.967 7  26550730.481 8 139525006.548 7 105549776.537 8
E34  25132145.899 8  25132148.844 8 132070316.707 8  99910348.912 8
E36  23507271.197 8  23507273.717 9 123531540.792 8  93450818.905 9
G01  22135064.494 7                  22135068.563 8  22135070.801 8 116320544.335 7                  90639406.626 8  86862773.681 8
G02  20948138.884 8  20948140.210 6                                 110083209.387 8  85779127.676 6                
G03  23997108.025 5                  23997119.156 5  23997117.791 6 126105589.236 5                  98264178.549 5  94169843.765 6
G08  20833386.179 8                  20833392.947 8  20833389.189 9 109480177.597 8                  85309258.258 8  81754692.338 9
G10  22244579.494 7                  22244585.095 7  22244582.778 8 116896055.540 7                  91087859.666 7  87292515.698 8
G27  22817097.051 7                  22817104.597 7  22817103.030 8 119904650.845 7                  93432225.434 7  89539207.992 8
G32  22030102.746 8                  22030109.069 8  22030105.737 8 115768968.188 8                  90209614.241 8  86450867.086 8
R01  20610566.467 7                 110175271.164 7
R02  19767860.862 8  19767862.499 7 105485090.501 8  82044120.220 7
R03  22983457.526 7  22983466.226 6 123032257.544 7  95691785.976 6
R16  23110359.797 7  23110364.500 6 123451395.891 7  96017579.157 6
R17  19241726.759 8  19241727.984 7 102966367.666 8  80085006.662 7
R24  21641163.852 7  21641168.500 7 115725031.231 7  90008360.706 7
> 2025 06 15 11 13 45.0000000  0 28
C19  22232749.384 8                 115771752.201 8
C20  24157401.844 7                 125793925.106 7
C22  23983420.360 7                 124887975.396 7
C29  24831164.627 6                 129302417.308 6
C35  21649202.675 8                 112733083.638 8
C44  22799674.300 7                 118723888.285 7
E02  26712591.564 5  26712588.513 5 140375499.364 5 106193191.02415
E04  25967299.548 7  25967301.394 7 136459077.601 7 103230370.523 7
E06  25180106.051 8  25180109.346 8 132322349.044 8 100101012.750 8
E09  25452343.442 7  25452346.871 8 133752968.406 7 101183266.109 8
E11  26189735.972 7  26189736.427 7 137627996.045 7 104114650.107 7
E30  26552614.089 7  26552617.884 8 139534925.004 7 105557279.779 8
E34  25126437.065 8  25126439.701 9 132040315.634 8  99887653.312 9
E36  23507970.960 8  23507973.503 9 123535218.026 8  93453600.712 9
G01  22127396.066 7                  22127399.671 7  22127402.329 8 116280246.271 7                  90608005.553 7  86832681.011 8
G02  20945251.298 8  20945252.436 6                                 110068035.348 8  85767303.781 6                
G03  23986466.421 4                                  23986475.245 6 126049660.498 4                                  94128078.900 6
G08  20838030.498 8                  20838037.330 8  20838033.485 8 109504584.803 8                  85328276.866 8  81772918.504 8
G10  22251387.875 7                  22251393.745 7  22251390.467 8 116931832.547 7                  91115737.839 7  87319232.280 8
G27  22826937.806 7                  22826946.056 7  22826943.830 8 119956366.207 7                  93472523.060 7  89577826.569 8
G32  22027362.077 8                  22027368.342 8  22027365.043 8 115754566.118 8                  90198391.870 8  86440112.321 8
R01  20617422.592 7                 110211920.118 7
R02  19762882.373 8  19762884.803 7 105458526.080 8  82023459.021 7
R03  22970707.083 7  22970715.482 7 122964001.247 7  95638697.860 7
R16  23117436.322 7  23117440.807 7 123489194.788 7  96046978.305 7
R17  19240782.688 8  19240784.179 7 102961316.422 8  80081077.920 7
R18  21222439.868 5  21222449.000 5 113286730.91715  88111907.33815
R24  21649712.488 7  21649716.911 7 115770742.203 7  90043913.598 7
> 2025 06 15 11 14  0.0000000  0 27
C19  22231396.765 8                 115764709.732 8
C20  24164185.107 7                 125829250.226 7
C22  23974129.831 8                 124839595.791 8
C29  24839746.602 6                 129347104.729 6
C35  21650481.606 8                 112739742.350 8
C44  22793248.499 7                 118690430.586 7
E02  26720412.101 6                 140416617.710 6
E04  25969385.661 6  25969388.263 7 136470044.554 6 103238666.882 7
E06  25178159.202 8  25178162.064 8 132312115.865 8 100093271.430 8
E09  25446770.713 7  25446774.049 8 133723682.942 7 101161111.881 8
E11  26195859.942 7  26195860.398 7 137660176.615 7 104138994.505 7
E30  26554521.811 7  26554524.838 8 139544946.576 7 105564861.029 8
E34  25120732.970 8  25120735.715 9 132010339.962 8  99864976.939 9
E36  23508679.965 8  23508682.600 9 123538944.284 8  93456419.593 9
G01  22119735.822 7                  22119740.222 8  22119742.758 8 116239993.754 7                  90576639.981 8  86802622.348 8
G02  20942377.367 8  20942378.183 6                                 110052932.698 8  85755535.474 6                
G08  20842698.715 8                  20842705.599 8  20842702.157 8 109529115.548 8                  85347391.723 8  81791236.923 8
G10  22258207.853 7                  22258213.755 7  22258210.596 8 116967671.200 7                  91143664.064 7  87345994.919 8
G27  22836789.971 7                  22836797.403 7  22836795.576 8 120008136.811 7                  93512863.735 7  89616486.415 8
G32  22024647.390 8                  22024653.215 7  22024650.154 8 115740299.070 8                  90187274.713 7  86429458.392 8
R01  20624307.962 7                 110248722.025 7
R02  19757938.640 8  19757940.612 7 105432145.878 8  82002941.129 7
R03  22957963.700 7  22957971.552 7 122895785.673 7  95585641.398 7
R16  23124536.715 7  23124541.541 7 123527127.028 7  96076481.111 7
R17  19239862.820 8  19239864.031 7 102956392.932 8  80077248.546 7
R18  21213483.718 5  21213469.647 4 113238866.04215
R24  21658275.142 7  21658278.989 7 115816529.269 7  90079525.669 7
> 2025 06 15 11 14 15.0000000  0 26
C19  22230067.470 8                 115757787.947 8
C20  24170983.261 7                 125864649.998 7
C22  23964849.125 8                 124791269.368 8
C29  24848336.047 6                 129391825.872 6
C35  21651778.260 8                 112746496.200 8
C44  22786834.867 8                 118657032.060 8
E02  26728243.226 6  26728244.107 5 140457768.785 6 106255425.14215
E04  25971491.534 6  25971494.550 7 136481113.578 6 103247040.556 7
E06  25176230.838 7  25176234.714 8 132301986.963 7 100085609.007 8
E09  25441214.354 7  25441217.159 8 133694481.291 7 101139021.050 8
E11  26201987.597 7  26201988.121 7 137692378.030 7 104163354.594 7
E30  26556448.219 7  26556451.135 8 139555070.168 7 105572519.451 8
E34  25115033.395 8  25115036.237 9 131980388.738 8  99842319.047 9
E36  23509398.243 8  23509400.782 9 123542718.492 8  93459274.749 9
G01  22112084.451 7                  22112089.052 7  22112091.016 8 116199785.813 7                  90545309.144 7  86772596.984 8
G02  20939516.909 8  20939517.208 6                                 110037900.398 8  85743822.018 6                
G08  20847390.049 8                  20847396.744 8  20847393.304 8 109553768.594 8                  85366601.849 8  81809646.634 8
G10  22265039.319 7                  22265045.192 7  22265041.544 8 117003570.221 7                  91171637.306 7  87372802.623 8
G27  22846651.491 7                  22846659.851 7  22846657.866 8 120059961.336 7                  93553246.444 7  89655186.505 8
G32  22021958.050 8                  22021963.556 7  22021960.703 8 115726166.125 8                  90176262.065 7  86418904.594 8
R01  20631220.682 7                 110285675.186 7
R02  19753029.585 8  19753031.495 8 105405949.049 8  81982565.823 8
R03  22945227.711 7  22945235.133 7 122827610.433 7  95532616.339 7
R16  23131662.930 7  23131667.374 7 123565190.944 7  96106086.349 7
R17  19238966.214 8  19238967.419 7 102951595.850 8  80073517.489 7
R24  21666851.879 8  21666855.439 7 115862391.263 8  90115196.085 7
> 2025 06 15 11 14 30.0000000  0 27
C19  22228761.302 8                 115750985.288 8
C20  24177795.287 7                 125900122.693 7
C22  23955579.192 8                 124742994.773 8
C29  24856929.535 6                 129436579.099 6
C35  21653093.292 8                 112753343.712 8
C44  22780432.460 8                 118623691.340 8
E02  26736076.115 6  26736080.243 6 140498950.929 6 106286579.089 6
E04  25973617.496 6  25973620.162 7 136492283.161 6 103255490.279 7
E06  25174322.758 7  25174326.925 8 132291960.881 7 100078024.377 8
E09  25435672.290 7  25435675.881 8 133665362.063 7 101116992.596 8
E11  26208118.942 7  26208119.533 7 137724598.628 7 104187729.222 7
E30  26558393.326 7  26558396.763 8 139565294.114 7 105580253.788 8
E34  25109337.867 8  25109341.117 8 131950460.426 8  99819678.513 8
E36  23510125.208 8  23510127.835 9 123546539.131 8  93462165.044 9
G01  22104441.599 7                  22104446.019 7  22104447.555 8 116159621.127 7                  90514012.042 7  86742603.907 8
G02  20936669.536 8  20936669.440 6                                 110022936.979 8  85732162.198 6                
G08  20852104.133 7                  20852111.139 8  20852107.342 9 109578542.258 7                  85385905.995 8  81828146.452 9
G10  22271882.040 7                  22271887.520 7  22271884.144 8 117039527.896 7                  91199656.262 7  87399654.118 8
G27  22856523.663 7                  22856531.011 7  22856529.921 8 120111837.939 7                  93593669.720 7  89693925.464 8
G32  22019293.400 8                  22019299.547 7  22019296.246 8 115712165.881 8                  90165352.817 7  86408449.887 8
R01  20638161.398 7                 110322777.625 7
R02  19748154.428 8  19748156.984 8 105379934.572 8  81962332.327 8
R03  22932499.102 7  22932505.918 7 122759474.197 7  95479621.601 7
R16  23138812.817 8  23138817.907 7 123603384.439 8  96135792.361 7
R17  19238093.050 8  19238094.665 7 102946923.958 8  80069883.778 7
R18  21195560.705 4  21195557.748 5 113143250.08214  88000318.51315
R24  21675442.262 8  21675445.945 7 115908326.856 8  90150923.729 7
> 2025 06 15 11 14 45.0000000  0 28
C19  22227478.172 8                 115744304.224 8
C20  24184622.274 7                 125935670.491 7
C22  23946319.036 8                 124694774.711 8
C29  24865529.471 4                                
C35  21654426.897 8                 112760287.409 8
C44  22774041.142 8                 118590411.084 8
E02  26743919.483 5  26743923.040 5 140540166.258 5 106317758.156 5
E04  25975763.625 7  25975765.227 8 136503555.643 7 103264017.865 8
E06  25172434.869 7  25172439.203 8 132282040.118 7 100070519.430 8
E09  25430147.383 7  25430150.837 8 133636327.985 7 101095028.520 8
E11  26214254.829 7  26214255.049 7 137756840.879 7 104212120.260 7
E30  26560358.292 7  26560362.088 8 139575620.860 7 105588065.842 8
E34  25103646.835 7  25103650.724 8 131920557.590 7  99797057.232 8
E36  23510861.471 8  23510864.115 9 123550408.710 8  93465092.363 9
G01  22096807.207 7                  22096811.281 8  22096813.117 8 116119502.289 7                  90482750.632 8  86712645.067 8
G02  20933835.716 8  20933835.376 6                                 110008045.116 8  85720558.140 6                
G03  23943950.404 5                  23943961.436 5  23943960.343 6 125826259.28115                  98046511.88415  93961252.267 6
G08  20856841.977 7                  20856848.704 8  20856845.447 8 109603438.849 7                  85405305.917 8  81846738.047 8
G10  22278735.742 8                  22278741.779 7  22278738.574 8 117075546.436 8                  91227722.636 7  87426551.056 8
G27  22866405.641 7                  22866413.122 7  22866411.728 8 120163768.825 7                  93634135.281 7  89732704.965 8
G32  22016655.030 8                  22016661.026 7  22016658.294 8 115698300.945 8                  90154548.962 7  86398096.217 8
R01  20645131.073 7                 110360031.565 7
R02  19743314.250 8  19743316.435 7 105354104.871 8  81942242.574 7
R03  22919779.175 7  22919785.087 7 122691380.172 7  95426659.718 7
R16  23145986.847 7  23145992.729 7 123641709.616 7  96165600.780 7
R17  19237244.315 8  19237245.227 7 102942380.285 8  80066349.811 7
R18  21186613.372 5  21186608.910 4 113095523.559 5  87963198.11914
R24  21684046.461 7  21684050.966 7 115954338.003 7  90186710.183 7
> 2025 06 15 11 15  0.0000000  0 27
C19  22226216.800 8                 115737735.808 8
C20  24191461.063 7                 125971284.179 7
C22  23937066.696 7                 124646600.437 7
C35  21655777.035 8                 112767318.380 8
C44  22767659.800 8                 118557182.619 8
E02  26751766.167 6  26751770.921 5 140581405.497 6 106348955.381 5
E04  25977926.388 7  25977928.259 7 136514922.022 7 103272616.440 7
E06  25170565.481 7  25170569.649 8 132272215.843 7 100063087.423 8
E09  25424636.374 7  25424640.292 8 133607370.151 7 101073122.147 8
E11  26220392.930 7  26220393.076 7 137789095.789 7 104236520.878 7
E30  26562342.122 8  26562345.109 8 139586041.236 8 105595948.771 8
E34  25097959.791 7  25097963.519 8 131890671.271 7  99774448.438 8
E36  23511605.547 8  23511608.022 9 123554318.239 8  93468049.878 9
G01  22089179.989 7                  22089183.943 7  22089186.125 8 116079420.453 7                  90451518.022 7  86682713.855 8
G02  20931013.683 8  20931014.328 6                                 109993215.809 8  85709002.868 6                
G03  23933335.359 5                  23933346.302 6  23933344.198 6 125770478.652 5                  98003046.505 6  93919597.967 6
G08  20861601.492 7                  20861607.754 7  20861604.845 8 109628449.202 7                  85424794.517 7  81865414.577 8
G10  22285600.117 8                  22285605.721 7  22285602.518 8 117111616.670 8                  91255829.267 7  87453486.584 8
G27  22876296.442 7                  22876303.801 7  22876302.046 8 120215744.718 7                  93674635.958 7  89771518.075 8
G32  22014040.739 8                  22014046.535 7  22014043.932 8 115684562.388 8                  90143843.635 7  86387836.959 8
R01  20652125.857 7                 110397427.372 7
R02  19738506.510 8  19738508.621 7 105328451.017 8  81922289.597 7
R03  22907064.767 7  22907070.501 7 122623319.244 7  95373723.545 7
R16  23153184.356 7  23153189.339 7 123680156.917 7  96195504.168 7
R17  19236417.218 8  19236418.384 8 102937955.408 8  80062908.224 8
R18  21177681.443 4  21177677.293 4                  87926109.886 4
R24  21692663.321 8  21692667.492 7 116000415.770 8  90222548.418 7
> 2025 06 15 11 15 15.0000000  0 26
C19  22224976.105 8                 115731274.697 8
C20  24198311.588 7                 126006958.286 7
C22  23927823.087 7                 124598466.946 7
C35  21657143.188 8                 112774431.364 8
C44  22761287.440 7                 118524000.799 7
E02  26759616.768 6  26759623.087 6 140622663.271 6 106380166.44216
E04  25980106.542 7  25980108.330 8 136526376.756 7 103281281.885 8
E06  25168713.952 7  25168717.330 8 132262482.668 7 100055724.365 8
E09  25419139.468 7  25419143.287 8 133578483.427 7 101051269.571 8
E11  26226531.955 7  26226532.478 7 137821358.022 7 104260927.025 7
E30  26564342.427 8  26564344.868 8 139596549.829 8 105603898.427 8
E34  25092274.547 7  25092278.497 8 131860796.222 7  99751848.171 8
E36  23512356.016 8  23512358.577 9 123558262.394 8  93471033.604 9
G01  22081558.795 7                  22081562.544 7  22081564.686 8 116039370.401 7                  90420310.214 7  86652806.369 8
G02  20928202.523 8  20928203.644 6                                 109978443.803 8  85697492.210 6                
G03  23922727.045 4                  23922735.024 5  23922732.765 6 125714716.18714                  97959595.354 5  93877957.408 6
G08  20866381.593 7                  20866387.463 8  20866384.688 9 109653567.774 7                  85444367.427 8  81884171.954 9
G10  22292472.527 8                  22292479.051 7  22292475.482 8 117147732.907 8                  91283971.781 7  87480456.497 8
G27  22886195.150 7                  22886202.422 7  22886200.331 8 120267760.026 7                  93715167.332 7  89810360.613 8
G32  22011449.192 8                  22011455.036 7  22011452.521 8 115670945.068 8                  90133232.742 7  86377668.198 8
R01  20659146.681 7                 110434958.994 7
R02  19733730.898 8  19733733.041 7 105302967.937 8  81902469.456 7
R03  22894355.549 7  22894362.175 7 122555286.888 7  95320809.662 7
R16  23160403.696 7  23160408.205 7 123718720.335 7  96225497.946 7
R17  19235611.271 8  19235612.868 7 102933644.210 8  80059555.106 7
R24  21701291.080 7  21701295.325 7 116046554.317 7  90258433.813 7
> 2025 06 15 11 15 30.0000000  0 25
C19  22223755.909 8                 115724922.399 8
C20  24205174.222 6                 126042693.984 6
C22  23918588.032 7                 124550375.962 7
C35  21658526.374 8                 112781627.872 8
C44  22754924.865 8                 118490867.330 8
E02  26767472.965 6  26767478.245 6 140663940.639 6 106411392.441 6
E04  25982302.914 7  25982305.348 8 136537921.355 7 103290015.290 8
E06  25166879.776 8  25166882.677 8 132252842.163 8 100048431.416 8
E09  25413656.423 7  25413660.106 8 133549669.545 7 101029472.073 8
E11  26232673.123 7  26232673.358 7 137853629.013 7 104285339.759 7
E30  26566358.790 8  26566361.633 8 139607148.021 8 105611915.906 8
E34  25086592.089 7  25086595.823 8 131830933.966 7  99729257.577 8
E36  23513113.256 8  23513115.997 9 123562242.659 8  93474044.650 9
G01  22073943.392 7                  22073947.838 8  22073949.806 8 115999353.773 7                  90389128.463 8  86622923.849 8
G02  20925402.940 8  20925403.342 6                                 109963730.783 8  85686027.522 6                
G08  20871182.687 7                  20871188.313 8  20871185.314 8 109678795.931 7                  85464025.690 8  81903011.132 8
G10  22299354.032 8                  22299360.453 7  22299357.403 8 117183896.527 8                  91312151.219 7  87507461.775 8
G27  22896100.819 7                  22896108.325 7  22896106.251 8 120319815.858 7                  93755730.288 7  89849233.449 8
G32  22008881.466 8                  22008887.140 7  22008884.786 8 115657450.595 8                  90122717.544 7  86367591.149 8
R01  20666193.648 7                 110472627.693 7
R02  19728987.356 8  19728990.249 8 105277657.446 8  81882783.553 8
R03  22881652.508 7  22881658.868 7 122487284.718 7  95267919.212 7
R16  23167644.865 7  23167649.350 7 123757401.021 7  96255582.927 7
R17  19234827.353 8  19234829.174 8 102929448.344 8  80056291.645 8
R24  21709930.744 7  21709934.844 7 116092755.027 7  90294367.679 7
> 2025 06 15 11 15 45.0000000  0 26
C19  22222556.773 8                 115718678.391 8
C20  24212047.476 6                 126078490.643 6
C22  23909360.790 7                 124502327.212 7
C35  21659922.823 8                 112788907.481 8
C44  22748571.302 8                 118457781.927 8
E02  26775331.335 6  26775336.912 6 140705236.858 6 106442632.700 6
E04  25984516.780 7  25984519.123 7 136549555.220 7 103298816.212 7
E06  25165062.544 8  25165065.722 8 132243293.937 8 100041208.259 8
E09  25408187.418 7  25408190.757 8 133520928.127 7 101007729.440 8
E11  26238815.505 7  26238815.971 7 137885908.226 7 104309758.764 7
E30  26568391.891 7  26568395.414 8 139617835.285 7 105620000.753 8
E34  25080912.208 7  25080915.546 8 131801084.017 7  99706676.329 8
E36  23513877.390 8  23513880.217 9 123566258.618 8  93477082.698 9
G01  22066334.315 7                  22066339.548 7  22066341.344 8 115959370.226 7                  90357972.508 7  86593066.058 8
G02  20922614.050 8  20922614.390 6                                 109949076.259 8  85674608.411 6                
G03  23901514.309 5                  23901524.111 6  23901523.123 6 125603256.22315                  97872739.699 6  93794720.668 6
G08  20876003.452 8                  20876009.843 8  20876006.829 8 109704132.999 8                  85483768.825 8  81921931.640 8
G10  22306244.594 8                  22306250.534 7  22306247.607 8 117220106.801 8                  91340366.995 7  87534501.888 8
G27  22906014.608 7                  22906021.516 7  22906019.853 8 120371911.530 7                  93796324.267 7  89888136.029 8
G32  22006336.776 8                  22006342.946 7  22006340.091 8 115644078.526 8                  90112297.764 7  86357605.527 8
R01  20673265.731 7                 110510432.573 7
R02  19724276.606 8  19724278.551 7 105252519.063 8  81863231.469 7
R03  22868954.998 7  22868961.006 7 122419312.446 7  95215052.084 7
R16  23174907.421 7  23174912.582 7 123796197.713 7  96285758.112 7
R17  19234064.500 8  19234066.785 8 102925367.546 8  80053117.733 8
R24  21718582.377 7  21718586.719 7 116139017.315 7  90330349.459 7
> 2025 06 15 11 16  0.0000000  0 28
C19  22221377.923 7                 115712540.578 7
C20  24218933.540 6                 126114345.822 6
C22  23900141.367 8                 124454318.765 8
C29  24908606.318 5                 129705628.43415
C35  21661336.119 8                 112796268.065 8
C44  22742226.407 8                 118424742.683 8
E02  26783194.303 6  26783198.907 7 140746549.479 6 106473885.476 7
E04  25986747.749 7  25986749.526 7 136561276.082 7 103307682.926 7
E06  25163263.261 7  25163265.894 8 132233835.893 7 100034053.347 8
E09  25402731.329 7  25402734.739 8 133492257.292 7 100986040.172 8
E11  26244958.850 7  26244959.633 7 137918193.568 7 104334182.369 7
E30  26570441.197 7  26570445.900 8 139628609.430 7 105628151.322 8
E34  25075233.754 8  25075237.194 8 131771244.400 8  99684102.854 8
E36  23514648.305 8  23514650.824 9 123570308.123 8  93480146.109 9
G01  22058731.885 7                  22058736.967 7  22058739.191 8 115919417.793 7                  90326840.763 7  86563231.495 8
G02  20919836.131 8  20919836.299 6                                 109934478.276 8  85663233.361 6                
G03  23890918.490 5                  23890923.703 6  23890922.826 7 125547551.291 5                  97829333.342 6  93753122.946 7
G08  20880845.676 7                  20880851.724 8  20880848.529 8 109729576.679 7                  85503595.068 8  81940931.786 8
G10  22313143.871 8                  22313150.086 7  22313146.573 8 117256361.350 8                  91368617.303 7  87561575.095 8
G27  22915934.665 7                  22915942.317 7  22915940.498 8 120424044.614 7                  93836947.425 7  89927066.558 8
G32  22003815.166 8                  22003821.507 7  22003817.213 8 115630826.885 8                  90101971.839 7  86347709.839 8
R01  20680363.092 7                 110548370.780 7
R02  19719597.592 8  19719599.064 7 105227550.736 8  81843811.643 7
R03  22856261.828 7  22856268.423 7 122351368.805 7  95162207.129 7
R16  23182191.873 8  23182196.696 7 123835108.069 8  96316021.651 7
R17  19233323.028 8  19233324.722 7 102921399.776 8  80050031.643 7
R18  21142021.478 5                 112857516.81515
R24  21727244.948 7  21727248.559 7 116185339.018 7  90366377.398 7
> 2025 06 15 11 16 15.0000000  0 28
C19  22220219.862 7                 115706511.190 7
C20  24225830.933 6                 126150261.426 6
C22  23890929.275 8                 124406353.138 8
C29  24917226.929 5                 129750542.423 5
C35  21662766.338 8                 112803711.969 8
C44  22735891.158 8                 118391752.116 8
E02  26791057.952 6  26791064.164 7 140787880.832 6 106505152.305 7
E04  25988995.064 7  25988997.064 7 136573086.215 7 103316617.199 7
E06  25161480.677 7  25161483.760 8 132224470.445 7 100026968.434 8
E09  25397289.384 7  25397292.661 8 133463659.474 7 100964406.141 8
E11  26251104.205 7  26251104.966 7 137950487.298 7 104358612.343 7
E30  26572508.687 7  26572513.349 8 139639472.604 7 105636369.236 8
E34  25069558.081 8  25069561.206 9 131741417.433 8  99661538.968 9
E36  23515425.884 8  23515428.281 9 123574393.464 8  93483236.654 9
G01  22051135.475 7                  22051140.326 7  22051142.609 8 115879498.959 7                  90295735.163 7  86533421.977 8
G02  20917069.790 7  20917069.645 6                                 109919939.131 7  85651904.154 6                
G03  23880320.857 5                  23880326.530 5  23880326.069 7 125491866.593 5                  97785942.762 5  93711540.313 7
G08  20885707.506 8                  20885714.298 8  20885711.095 8 109755129.090 8                  85523506.049 8  81960013.144 8
G10  22320051.721 7                  22320058.188 7  22320054.550 8 117292662.262 7                  91396903.705 7  87588682.897 8
G27  22925863.485 7                  22925870.642 7  22925867.922 8 120476217.138 7                  93877601.298 7  89966026.506 8
G32  22001316.481 8                  22001323.064 7  22001319.296 8 115617698.095 8                  90091741.644 7  86337905.913 8
R01  20687485.467 7                 110586444.335 7
R02  19714950.981 8  19714952.906 7 105202755.159 8  81824526.256 7
R03  22843576.304 7  22843581.016 7 122283456.348 7  95109386.458 7
R16  23189497.380 7  23189502.779 7 123874133.526 7  96346374.778 7
R17  19232603.103 8  19232604.540 7 102917547.521 8  80047035.479 7
R18  21133117.709 5  21133115.576 5 112810018.461 5  87741199.13315
R24  21735918.515 7  21735922.186 7 116231722.149 7  90402453.092 7
> 2025 06 15 11 16 30.0000000  0 28
C19  22219084.208 8                 115700593.837 8
C20  24232740.927 7                 126186240.933 7
C22  23881726.925 7                 124358434.165 7
C29  24925859.024 5                 129795480.614 5
C35  21664213.012 8                 112811242.861 8
C44  22729565.369 8                 118358813.983 8
E02  26798923.495 5  26798933.096 7 140829234.286 5 106536435.733 7
E04  25991260.428 7  25991261.770 7 136584989.098 7 103325621.645 7
E06  25159716.095 8  25159719.792 8 132215201.199 8 100019956.330 8
E09  25391861.912 7  25391865.117 8 133435138.530 7 100942830.256 8
E11  26257251.235 7  26257252.534 7 137982793.034 7 104383051.387 7
E30  26574593.862 7  26574598.248 8 139650428.423 7 105644657.232 8
E34  25063885.532 8  25063888.408 9 131711606.794 8  99638987.446 9
E36  23516210.463 8  23516213.282 9 123578518.343 8  93486357.101 9
G01  22043546.670 7                  22043551.088 7  22043552.513 8 115839617.386 7                  90264658.663 7  86503640.306 8
G02  20914315.030 8  20914314.986 6                                 109905462.563 8  85640623.742 6                
G03  23869732.232 5                  23869733.700 5  23869733.406 7 125436205.959 5                  97742571.054 5  93669975.647 7
G08  20890591.416 7                  20890598.083 7  20890595.012 8 109780793.717 7                  85543504.462 7  81979178.283 8
G10  22326969.210 7                  22326975.249 7  22326971.703 8 117329012.971 7                  91425228.904 7  87615827.844 8
G27  22935800.160 7                  22935807.085 7  22935803.887 8 120528432.502 7                  93918288.537 7  90005018.439 8
G32  21998842.505 8                  21998848.591 7  21998846.292 8 115604695.947 8                  90081610.112 7  86328196.533 8
R01  20694634.128 7                 110624656.522 7
R02  19710337.564 8  19710339.923 7 105178136.372 8  81805378.329 7
R03  22830894.728 7  22830900.524 7 122215579.453 7  95056593.440 7
R16  23196825.450 7  23196830.584 7 123913277.681 7  96376820.196 7
R17  19231905.525 8  19231907.452 7 102913814.685 8  80044132.151 7
R18  21124222.946 4  21124225.307 6 112762562.75714  87704289.050 6
R24  21744604.991 7  21744608.987 7 116278170.342 7  90438579.417 7
> 2025 06 15 11 16 45.0000000  0 27
C19  22217968.918 8                 115694787.615 8
C20  24239662.046 6                 126222283.130 6
C22  23872533.893 7                 124310561.196 7
C29  24934486.102 5                 129840442.030 5
C35  21665675.007 8                 112818859.841 8
C44  22723250.093 7                 118325927.584 7
E02  26806798.887 5  26806806.198 7 140870608.37915 106567734.962 7
E04  25993542.666 7  25993543.928 7 136596983.735 7 103334695.536 7
E06  25157970.107 7  25157973.903 8 132206027.362 7 100013016.404 8
E09  25386448.946 7  25386452.244 8 133406693.697 7 100921311.950 8
E11  26263401.867 6  26263402.433 7 138015109.854 6 104407498.795 7
E30  26576696.737 7  26576700.479 8 139661475.820 7 105653014.503 8
E34  25058215.505 8  25058218.601 8 131681811.666 8  99616447.634 8
E36  23517002.866 8  23517005.529 9 123582681.875 8  93489506.786 9
G01  22035964.066 7                  22035968.766 7  22035970.675 8 115799772.462 7                  90233610.640 7  86473885.979 8
G02  20911571.642 7  20911571.924 6                                 109891047.850 7  85629391.520 6                
G08  20895496.818 7                  20895503.372 8  20895500.080 9 109806569.482 7                  85563589.457 8  81998426.393 9
G10  22333895.410 7                  22333901.902 7  22333897.885 8 117365412.328 7                  91453592.007 7  87643009.172 8
G27  22945743.469 7                  22945751.500 7  22945748.417 8 120580689.503 7                  93959008.200 7  90044041.440 8
G32  21996392.423 8                  21996398.539 8  21996395.945 8 115591819.612 8                  90071576.632 8  86318581.088 8
R01  20701808.292 7                 110663005.956 7
R02  19705756.564 8  19705758.894 7 105153693.489 8  81786367.204 7
R03  22818222.881 7  22818227.389 7 122147737.238 7  95003827.407 7
R16  23204175.686 7  23204179.981 7 123952539.067 7  96407356.754 7
R17  19231230.487 8  19231231.933 7 102910200.538 8  80041321.160 7
R18  21115340.371 4  21115341.836 5 112715149.141 4  87667411.832 5
R24  21753302.971 7  21753306.862 7 116324682.557 7  90474755.508 7
> 2025 06 15 11 17  0.0000000  0 28
C19  22216876.010 8                 115689097.817 8
C20  24246596.459 6                 126258393.209 6
C22  23863350.188 8                 124262739.763 8
C29  24943130.580 5                 129885431.60515
C35  21667155.053 8                 112826568.253 8
C44  22716945.596 8                 118293098.499 8
E02  26814677.676 5  26814683.481 7 140912008.409 5 106599053.729 7
E04  25995843.810 7  25995844.498 7 136609075.468 7 103343842.837 7
E06  25156243.890 7  25156247.378 8 132196954.348 7 100006152.746 8
E09  25381051.649 7  25381054.941 8 133378330.543 7 100899855.447 8
E11  26269554.648 7  26269555.296 7 138047443.063 7 104431958.671 7
E30  26578817.497 7  26578820.980 8 139672620.080 7 105661445.058 8
E34  25052550.075 8  25052552.894 9 131652037.459 8  99593923.653 9
E36  23517803.214 8  23517806.172 9 123586889.419 8  93492689.757 9
G01  22028390.244 7                  22028393.528 7  22028396.296 8 115759969.587 7                  90202595.435 7  86444163.075 8
G02  20908841.264 8  20908841.599 6                                 109876700.438 8  85618211.712 6                
G03  23848559.425 6                  23848566.137 5  23848563.023 6 125324956.59816                  97655886.41515  93586902.900 6
G08  20900423.890 7                  20900430.366 8  20900427.246 8 109832461.581 7                  85583765.088 8  82017761.375 8
G10  22340831.932 8                  22340838.391 7  22340834.864 8 117401865.513 8                  91481997.047 7  87670230.664 8
G27  22955696.826 7                  22955704.495 7  22955701.959 8 120632993.101 7                  93999764.209 7  90083099.286 8
G32  21993967.193 7                  21993973.321 7  21993970.399 8 115579074.574 7                  90061645.449 7  86309063.707 8
R01  20709008.447 7                 110701497.622 7
R02  19701210.332 8  19701212.488 8 105129431.923 8  81767497.089 8
R03  22805555.558 7  22805561.255 7 122079936.222 7  94951093.356 7
R16  23211547.922 7  23211552.914 7 123991922.230 7  96437988.079 7
R17  19230578.179 8  19230579.950 8 102906710.532 8  80038606.702 8
R18  21106467.616 6  21106470.151 6 112667782.895 6  87630571.516 6
R24  21762013.738 7  21762018.040 7 116371264.031 7  90510985.527 7
> 2025 06 15 11 17 15.0000000  0 28
C19  22215805.282 8                 115683522.660 8
C20  24253543.611 6                 126294569.061 6
C22  23854175.236 7                 124214968.342 7
C29  24951772.648 5                 129930447.399 5
C35  21668653.266 8                 112834366.422 8
C44  22710651.827 8                 118260325.151 8
E02  26822561.287 6  26822565.911 7 140953432.426 6 106630390.632 7
E04  25998162.457 7  25998163.556 7 136621262.422 7 103353062.144 7
E06  25154536.994 7  25154539.733 8 132187980.487 7  99999364.080 8
E09  25375669.722 7  25375672.930 8 133350047.468 7 100878459.553 8
E11  26275709.950 7  26275710.839 7 138079790.949 7 104456429.571 7
E30  26580956.235 7  26580959.512 8 139683859.388 7 105669947.511 8
E34  25046887.827 8  25046890.711 9 131622282.474 8  99571414.209 9
E36  23518612.100 8  23518614.887 9 123591139.236 8  93495904.721 9
G01  22020823.655 7                  22020827.064 7  22020829.783 8 115720207.178 7                  90171611.775 7  86414470.390 8
G02  20906123.464 8  20906124.583 6                                 109862418.546 8  85607082.979 6                
G03  23837980.758 6                  23837988.983 5  23837986.588 6 125269375.675 6                  97612576.655 5  93545397.778 6
G08  20905372.878 7                  20905378.988 8  20905376.000 8 109858468.076 7                  85604029.858 8  82037181.779 8
G10  22347779.031 8                  22347784.675 7  22347781.546 8 117438370.508 8                  91510442.490 7  87697490.873 8
G27  22965658.302 7                  22965665.933 7  22965664.021 8 120685341.421 7                  94040555.047 7  90122190.503 8
G32  21991565.993 8                  21991572.418 8  21991569.499 8 115566459.219 8                  90051815.339 8  86299643.194 8
R01  20716235.349 7                 110740129.307 7
R02  19696697.245 8  19696699.023 7 105105350.560 8  81748767.129 7
R03  22792899.280 7  22792902.982 7 122012174.631 7  94898390.050 7
R16  23218942.789 7  23218947.315 7 124031425.411 7  96468712.786 7
R17  19229948.537 8  19229950.305 8 102903343.200 8  80035987.681 8
R18  21097605.103 5  21097605.405 5 112620463.188 5  87593767.337 5
R24  21770737.422 7  21770741.471 7 116417912.863 7  90547267.942 7
> 2025 06 15 11 17 30.0000000  0 28
C19  22214756.997 8                 115678063.926 8
C20  24260504.896 6                 126330812.356 6
C22  23845012.093 8                 124167249.060 8
C29  24960424.507 5                 129975491.517 5
C35  21670167.647 7                 112842256.150 7
C44  22704368.955 8                 118227609.563 8
E02  26830456.357 6  26830453.419 7 140994881.965 6 106661746.880 7
E04  26000501.284 7  26000501.156 7 136633546.308 7 103362354.853 7
E06  25152847.342 7  25152851.235 8 132179107.589 7  99992651.813 8
E09  25370303.516 7  25370306.434 8 133321846.467 7 100857125.737 8
E11  26281869.249 7  26281869.447 7 138112155.289 7 104480912.968 7
E30  26583113.414 7  26583116.583 8 139695195.482 7 105678523.166 8
E34  25041228.875 8  25041232.546 8 131592548.584 8  99548920.738 8
E36  23519429.464 8  23519431.976 9 123595433.199 8  93499153.071 9
G01  22013265.609 7                  22013268.791 7  22013271.370 8 115680487.200 7                  90140661.204 7  86384809.402 8
G02  20903418.601 8  20903420.193 6                                 109848204.112 8  85596006.809 6                
G03  23827409.326 5                  23827417.460 5  23827417.589 6 125213824.10815                  97569289.701 5  93503914.573 6
G08  20910343.433 7                  20910350.136 7  20910347.099 8 109884590.613 7                  85624385.078 7  82056688.855 8
G10  22354735.985 8                  22354741.682 7  22354738.444 8 117474928.975 8                  91538929.597 7  87724790.990 8
G27  22975628.851 7                  22975636.421 7  22975634.445 8 120737735.944 7                  94081381.923 7  90161316.219 8
G32  21989190.240 8                  21989196.514 7  21989193.662 8 115553975.457 8                  90042087.751 7  86290320.941 8
R01  20723488.566 7                 110778902.536 7
R02  19692218.508 8  19692220.418 7 105081450.992 8  81730178.639 7
R03  22780245.243 7  22780252.152 7 121944454.523 7  94845718.964 7
R16  23226360.324 7  23226365.872 7 124071049.928 7  96499531.783 7
R17  19229342.851 8  19229344.842 8 102900100.501 8  80033465.571 8
R18  21088748.645 5  21088749.620 6 112573191.816 5  87557000.691 6
R24  21779473.592 7  21779478.154 7 116464630.763 7  90583603.944 7
> 2025 06 15 11 17 45.0000000  0 27
C19  22213730.631 8                 115672719.777 8
C20  24267476.805 6                 126367120.945 6
C22  23835857.882 8                 124119580.151 8
C35  21671700.113 7                 112850235.651 7
C44  22698096.823 8                 118194950.104 8
E02  26838348.669 6  26838345.394 7 141036354.906 6 106693120.795 7
E04  26002855.663 7  26002857.005 7 136645925.179 7 103371719.428 7
E06  25151177.950 7  25151181.625 8 132170333.889 7  99986014.597 8
E09  25364951.952 7  25364955.219 8 133293725.943 7 100835852.768 8
E11  26288031.320 7  26288030.842 7 138144534.191 7 104505407.383 7
E30  26585288.805 7  26585291.724 8 139706626.416 7 105687170.562 8
E34  25035574.434 7  25035577.983 9 131562834.009 7  99526441.900 9
E36  23520254.055 8  23520257.147 9 123599769.451 8  93502433.422 9
G01  22005714.561 7                  22005718.672 7  22005720.720 8 115640807.983 7                  90109742.365 7  86355178.873 8
G02  20900726.266 8  20900726.915 6                                 109834055.386 8  85584981.839 6                
G03  23816843.165 6                  23816851.920 5  23816851.435 5 125158300.363 6                  97526024.428 5  93462452.063 5
G08  20915336.064 7                  20915342.653 8  20915339.551 8 109910827.189 7                  85644829.147 8  82076281.076 8
G10  22361702.594 8                  22361708.492 7  22361705.309 8 117511538.750 8                  91567456.688 7  87752129.487 8
G27  22985607.691 7                  22985615.190 7  22985613.168 8 120790174.529 7                  94122243.120 7  90200474.840 8
G32  21986839.617 8                  21986845.726 7  21986843.177 8 115541621.576 8                  90032461.349 7  86281095.633 8
R01  20730768.383 7                 110817814.823 7
R02  19687773.369 8  19687775.819 7 105057731.878 8  81711730.444 7
R03  22767603.935 7  22767609.389 7 121876774.822 7  94793079.291 7
R16  23233800.708 7  23233805.659 7 124110793.160 7  96530443.108 7
R17  19228760.018 8  19228761.826 7 102896980.812 8  80031039.128 7
R18  21079902.134 5  21079903.256 5 112525967.203 5  87520270.526 5
R24  21788222.754 7  21788227.238 7 116511415.544 7  90619992.075 7
> 2025 06 15 11 18  0.0000000  0 28
C19  22212727.475 8                 115667493.352 8
C20  24274464.753 6                 126403497.672 6
C22  23826713.475 7                 124071965.063 7
C29  24977737.073 5                 130065659.02715
C35  21673250.764 8                 112858308.143 8
C44  22691836.252 8                 118162350.114 8
E02  26846260.904 5  26846242.801 7 141077854.338 5 106724514.687 7
E04  26005229.879 7  26005231.620 7 136658402.219 7 103381158.229 7
E06  25149527.724 7  25149531.540 8 132161662.629 7  99979454.882 8
E09  25359616.807 7  25359620.035 8 133265689.199 7 100814643.214 8
E11  26294195.692 7  26294195.671 7 138176930.858 7 104529915.201 7
E30  26587482.451 7  26587485.724 8 139718155.173 7 105695892.003 8
E34  25029924.564 8  25029927.732 9 131533142.019 8  99503980.138 9
E36  23521088.220 8  23521090.953 9 123604151.215 8  93505748.198 9
G01  21998172.331 7                  21998176.762 8  21998178.824 8 115601172.844 7                  90078857.903 8  86325581.260 8
G02  20898047.075 8  20898047.546 6                                 109819975.731 8  85574010.686 6                
G03  23806282.518 5                  23806292.222 5  23806287.490 4 125102807.606 5                  97482783.49415  93421012.81414
G08  20920350.846 8                  20920357.516 8  20920354.249 8 109937180.783 8                  85665364.396 8  82095960.686 8
G10  22368679.834 7                  22368685.538 7  22368681.715 8 117548202.875 7                  91596026.108 7  87779508.517 8
G27  22995595.098 7                  22995603.182 7  22995601.031 8 120842660.100 7                  94163140.904 7  90239668.535 8
G32  21984514.162 8                  21984520.223 7  21984516.669 8 115529400.818 8                  90022938.707 7  86271969.748 8
R01  20738074.780 7                 110856868.985 7
R02  19683363.058 8  19683365.316 8 105034196.488 8  81693425.151 8
R03  22754969.748 7  22754974.282 7 121809139.435 7  94740474.093 7
R16  23241263.483 6  23241268.488 7 124150657.883 6  96561448.969 7
R17  19228200.524 8  19228201.751 7 102893987.387 8  80028710.934 7
R18  21071065.186 5  21071065.734 6 112478792.893 5  87483579.476 6
R24  21796985.609 7  21796988.603 7 116558270.581 7  90656434.892 7
> 2025 06 15 11 18 15.0000000  0 29
C05  39248583.195 5                 204377603.51415
C19  22211745.695 8                 115662382.185 8
C20  24281463.617 6                 126439939.988 6
C22  23817578.938 7                 124024401.572 7
C29  24986405.157 6                 130110785.071 6
C35  21674817.770 8                 112866471.129 8
C44  22685587.086 8                 118129807.361 8
E02  26854148.887 5  26854144.083 7 141119377.241 5 106755926.503 7
E04  26007621.193 6  26007624.434 7 136670974.737 6 103390669.256 7
E06  25147897.716 7  25147900.570 8 132153091.417 7  99972970.844 8
E09  25354297.312 7  25354300.320 8 133237733.997 7 100793495.312 8
E11  26300363.712 7  26300363.568 7 138209342.788 7 104554434.596 7
E30  26589694.946 7  26589698.029 8 139729779.326 7 105704685.586 8
E34  25024277.974 8  25024281.459 9 131503470.220 8  99481533.633 9
E36  23521930.508 8  23521933.028 9 123608576.028 8  93509095.534 9
G01  21990638.119 7                  21990642.376 8  21990644.376 8 115561579.517 7                  90048005.979 8  86296014.838 8
G02  20895380.287 8  20895381.228 6                                 109805962.732 8  85563091.440 6                
G03  23795726.970 5                  23795738.065 6  23795730.551 5                                  97439565.025 6  93379595.14615
G08  20925387.775 8                  20925394.237 7  20925390.936 8 109963648.752 8                  85685988.798 7  82115725.729 8
G10  22375666.688 7                  22375672.841 7  22375668.411 8 117584918.672 7                  91624635.802 7  87806926.120 8
G27  23005591.464 7                  23005599.542 7  23005596.663 8 120895189.884 7                  94204073.208 7  90278895.288 8
G32  21982213.623 8                  21982219.629 7  21982216.192 8 115517310.869 8                  90013518.000 7  86262941.568 8
R01  20745406.544 7                 110896062.093 7
R02  19678986.506 8  19678988.489 8 105010842.661 8  81675261.091 8
R03  22742342.517 7  22742347.239 7 121741545.800 7  94687901.430 7
R16  23248748.639 6  23248753.952 7 124190641.155 6  96592547.053 7
R17  19227664.253 8  19227665.714 7 102891117.904 8  80026479.079 7
R18  21062236.485 6  21062237.685 6 112431666.479 6  87446925.714 6
R24  21805759.806 7  21805763.585 7 116605193.121 7  90692930.117 7
> 2025 06 15 11 18 30.0000000  0 28
C19  22210786.987 8                 115657391.283 8
C20  24288474.277 6                 126476452.521 6
C22  23808455.741 7                 123976894.975 7
C29  24995076.572 6                 130155942.540 6
C35  21676404.245 8                 112874729.756 8
C44  22679349.188 8                 118097327.105 8
E02  26862046.308 5  26862051.646 7 141160928.473 5 106787359.808 7
E04  26010034.053 6  26010035.683 7 136683647.792 6 103400256.335 7
E06  25146286.218 8  25146289.587 8 132144625.405 8  99966566.354 8
E09  25348994.049 7  25348997.107 8 133209865.568 7 100772413.041 8
E11  26306534.302 7  26306535.040 7 138241775.002 7 104578969.351 7
E30  26591925.822 8  26591928.888 8 139741503.809 8 105713555.047 8
E34  25018636.869 8  25018639.724 8 131473823.709 8  99459106.255 8
E36  23522781.657 8  23522784.272 9 123613049.012 8  93512479.323 9
G01  21983112.189 7                  21983116.924 8  21983118.622 8 115522033.196 7                  90017190.671 8  86266483.512 8
G02  20892727.345 8  20892728.772 6                                 109792021.466 8  85552228.155 6                
G03  23785179.363 5                  23785189.954 6  23785190.282 4 124991914.09015                  97396373.107 6  93338203.067 4
G08  20930446.602 7                  20930453.457 7  20930450.402 8 109990235.981 7                  85706706.100 7  82135579.853 8
G10  22382663.880 7                  22382670.025 7  22382666.156 8 117621690.971 7                  91653289.509 7  87834385.916 8
G27  23015596.492 7                  23015605.427 7  23015602.037 8 120947768.750 7                  94245043.682 7  90318158.646 8
G32  21979939.196 8                  21979945.126 7  21979941.563 8 115505356.867 8                  90004203.199 7  86254014.915 8
R01  20752765.390 7                 110935398.802 7
R02  19674645.300 8  19674647.211 7 104987675.571 8  81657242.232 7
R03  22729723.557 7  22729728.192 7 121673999.533 7  94635365.569 7
R16  23256256.328 7  23256261.751 7 124230747.596 7  96623740.919 7
R17  19227152.024 8  19227153.808 7 102888377.737 8  80024347.852 7
R18  21053418.374 4  21053418.933 6 112384593.971 4  87410313.728 6
R24  21814548.515 8  21814552.604 7 116652188.043 8  90729481.681 7
> 2025 06 15 11 18 45.0000000  0 28
C19  22209853.221 8                 115652526.600 8
C20  24295506.748 6                 126513041.117 6
C22  23799345.379 7                 123929451.473 7
C29  25003756.129 5                 130201137.519 5
C35  21678009.534 8                 112883090.017 8
C44  22673125.294 8                 118064915.579 8
E02  26869961.907 5  26869965.594 7 141202514.223 5 106818819.146 7
E04  26012466.128 6  26012467.520 7 136696427.366 6 103409924.074 7
E06  25144696.849 8  25144699.838 8 132136270.666 8  99960246.063 8
E09  25343707.792 7  25343711.596 8 133182090.128 7 100751401.142 8
E11  26312710.955 7  26312711.756 7 138274233.653 7 104603524.051 7
E30  26594176.562 7  26594179.867 8 139753334.606 7 105722504.955 8
E34  25013001.277 8  25013004.145 8 131444208.642 8  99436702.667 8
E36  23523643.022 8  23523645.783 9 123617576.256 8  93515904.143 9
G01  21975596.878 7                  21975601.829 8  21975603.173 8 115482540.092 7                  89986416.816 8  86236991.919 8
G02  20890089.490 8  20890090.448 6                                 109778158.296 8  85541425.683 6                
G03  23774638.694 4                  23774649.893 5  23774650.021 6 124936524.717 4                  97353212.554 5  93296840.94116
G08  20935530.549 8                  20935536.732 7  20935533.658 9 110016948.446 8                  85727521.006 7  82155527.459 9
G10  22389673.488 7                  22389679.320 7  22389675.817 8 117658525.598 7                  91681991.816 7  87861892.288 8
G27  23025612.342 7                  23025620.815 7  23025618.123 8 121000402.401 7                  94286056.877 7  90357462.971 8
G32  21977690.804 8                  21977697.190 8  21977694.638 8 115493545.101 8                  89994999.206 8  86245194.433 8
R01  20760151.792 7                 110974884.939 7
R02  19670339.775 8  19670342.307 8 104964701.550 8  81639373.567 8
R03  22717115.720 7  22717120.024 7 121606507.416 7  94582871.786 7
R16  23263788.817 7  23263793.493 7 124270982.799 7  96655034.942 7
R17  19226665.526 8  19226667.470 8 102885773.179 8  80022322.095 8
R18  21044611.813 6  21044607.370 5 112337582.48816  87373748.393 5
R24  21823351.844 7  21823355.291 7 116699261.520 7  90766094.346 7
> 2025 06 15 11 19  0.0000000  0 28
C19  22208943.418 8                 115647790.526 8
C20  24302550.164 6                 126549707.862 6
C22  23790246.947 8                 123882073.632 8
C29  25012442.815 5                 130246372.024 5
C35  21679634.811 8                 112891554.316 8
C44  22666914.263 8                 118032575.268 8
E02  26877886.818 6  26877886.216 7 141244136.428 6 106850306.012 7
E04  26014918.723 6  26014920.277 7 136709315.674 6 103419673.959 7
E06  25143128.141 7  25143131.610 8 132128029.600 7  99954011.761 8
E09  25338441.246 7  25338444.169 8 133154410.218 7 100730461.511 8
E11  26318892.708 7  26318893.997 7 138306720.954 7 104628100.468 7
E30  26596448.628 7  26596451.864 8 139765273.942 7 105731536.959 8
E34  25007371.437 8  25007374.837 9 131414627.447 8  99414324.691 9
E36  23524515.976 8  23524518.052 9 123622160.086 8  93519371.790 9
G01  21968092.379 7                  21968096.562 8  21968098.262 8 115443102.658 7                  89955686.401 8  86207541.924 8
G02  20887466.849 8  20887467.621 6                                 109764375.526 8  85530685.868 6                
G03  23764105.810 4                  23764114.937 4  23764117.601 6 124881178.306 4                  97310085.57014  93255510.871 6
G08  20940637.927 7                  20940644.193 8  20940641.072 8 110043788.228 7                  85748435.138 8  82175570.141 8
G10  22396695.432 7                  22396700.807 7  22396697.672 8 117695424.727 7                  91710744.369 7  87889446.818 8
G27  23035639.427 7                  23035647.688 7  23035645.292 8 121053092.995 7                  94327114.415 7  90396809.774 8
G32  21975470.739 8                  21975476.776 7  21975474.374 8 115481877.887 8                  89985907.912 7  86236481.943 8
R01  20767566.922 8                 111014522.390 8
R02  19666071.238 8  19666073.107 7 104941923.147 8  81621657.039 7
R03  22704517.953 7  22704521.918 7 121539072.255 7  94530422.366 7
R16  23271345.174 7  23271349.890 7 124311348.916 7  96686430.818 7
R17  19226204.538 8  19226206.728 8 102883306.758 8  80020403.753 8
R18  21035816.614 6  21035815.115 5 112290632.784 6  87337232.07815
R24  21832169.497 7  21832173.400 7 116746415.643 7  90802769.726 7
> 2025 06 15 11 19 15.0000000  0 28
C19  22208058.213 8                 115643182.454 8
C20  24309605.701 5                 126586451.922 5
C22  23781160.699 8                 123834761.187 8
C29  25021142.585 6                 130291645.409 6
C35  21681280.481 8                 112900122.127 8
C44  22660717.340 8                 118000305.896 8
E02  26885811.454 6  26885813.267 7 141285794.262 6 106881819.864 7
E04  26017393.059 7  26017393.535 7 136722312.114 7 103429505.715 7
E06  25141581.267 8  25141584.833 8 132119901.748 8  99947863.107 8
E09  25333191.657 7  25333194.904 8 133126825.534 7 100709593.922 8
E11  26325081.047 7  26325081.602 7 138339236.503 7 104652698.239 7
E30  26598740.669 7  26598744.765 8 139777321.244 7 105740650.636 8
E34  25001748.940 8  25001751.858 8 131385079.630 8  99391971.998 8
E36  23525398.547 8  23525401.015 9 123626800.040 8  93522881.894 9
G01  21960598.388 7                  21960602.376 8  21960603.653 8 115403720.605 7                  89924999.089 8  86178133.248 8
G02  20884859.235 7  20884859.631 6                                 109750672.753 7  85520008.380 6                
G03  23753585.629 6                                  23753593.382 7 124825874.47016                                  93214212.649 7
G08  20945769.614 7                  20945775.708 7  20945772.882 8 110070754.685 7                  85769447.930 7  82195707.424 8
G10  22403729.370 7                  22403734.490 7  22403731.686 8 117732387.665 7                  91739546.636 7  87917048.944 8
G27  23045677.143 7                  23045684.887 7  23045682.445 8 121105839.615 7                  94368215.644 7  90436198.455 8
G32  21973277.643 8                  21973284.110 7  21973280.969 8 115470354.937 8                  89976928.988 7  86227877.157 8
R01  20775010.254 8                 111054310.261 8
R02  19661838.927 8  19661841.503 8 104919340.059 8  81604092.462 8
R03  22691930.870 7  22691934.259 6 121471693.991 7  94478017.160 6
R16  23278926.215 7  23278931.740 7 124351844.476 7  96717927.320 7
R17  19225769.159 8  19225770.658 8 102880978.124 8  80018592.581 8
R18  21027030.970 5  21027031.949 6 112243745.435 5  87300764.175 6
R24  21841002.371 7  21841006.584 7 116793650.076 7  90839507.606 7
> 2025 06 15 11 19 30.0000000  0 28
C19  22207196.661 8                 115638694.825 8
C20  24316673.134 5                 126623265.619 5
C22  23772085.802 8                 123787506.754 8
C29  25029838.778 5                 130336950.16815
C35  21682944.067 8                 112908785.954 8
C44  22654532.554 8                 117968100.092 8
E02  26893739.649 5  26893745.634 7 141327479.82615 106913354.727 7
E04  26019884.466 7  26019885.749 7 136735408.981 7 103439413.420 7
E06  25140054.347 7  25140058.049 8 132111879.572 7  99941794.398 8
E09  25327959.224 7  25327962.400 9 133099328.628 7 100688792.718 9
E11  26331272.055 7  26331273.187 7 138371772.524 7 104677311.490 7
E30  26601052.064 7  26601056.368 8 139789468.771 7 105749840.151 8
E34  24996130.908 8  24996133.904 8 131355557.659 8  99369638.849 8
E36  23526290.361 8  23526293.218 9 123631488.527 8  93526428.693 9
G01  21953112.761 7                  21953117.050 7  21953118.936 8 115364386.410 7                  89894349.146 7  86148760.353 8
G02  20882265.411 8  20882265.660 6                                 109737042.481 8  85509387.396 6                
G03  23743065.771 5                                  23743075.680 6 124770605.875 5                                  93172940.612 6
G08  20950923.197 7                  20950929.690 7  20950927.526 9 110097839.984 7                  85790553.362 7  82215933.450 9
G10  22410773.599 7                  22410778.805 7  22410776.392 8 117769406.487 7                  91768392.440 7  87944692.840 8
G27  23055723.445 7                  23055731.749 7  23055729.320 8 121158634.521 7                  94409354.456 7  90475623.138 8
G32  21971111.105 8                  21971117.395 8  21971114.299 8 115458968.631 8                  89968056.589 8  86219374.437 8
R01  20782479.741 7                 111094240.289 7
R02  19657641.930 8  19657644.162 8 104896944.580 8  81586673.753 8
R03  22679353.079 7  22679357.528 6 121404365.432 7  94425650.652 6
R16  23286529.865 7  23286535.208 7 124392461.812 7  96749518.505 7
R17  19225358.665 8  19225360.390 8 102878779.857 8  80016882.847 8
R18  21018258.150 5  21018260.228 6 112196913.269 5  87264339.087 6
R24  21849848.974 7  21849853.140 7 116840956.506 7  90876301.398 7
> 2025 06 15 11 19 45.0000000  0 28
C19  22206357.275 8                 115634323.883 8
C20  24323750.879 5                 126660144.76415
C22  23763022.541 8                 123740306.891 8
C29  25038545.175 4                 130382282.55514
C35  21684625.342 8                 112917542.097 8
C44  22648359.079 8                 117935954.372 8
E02  26901693.822 5  26901682.834 7 141369189.38015 106944907.591 7
E04  26022394.586 6  26022396.375 7 136748602.422 6 103449394.160 7
E06  25138547.793 7  25138550.780 8 132103959.376 7  99935802.804 8
E09  25322743.125 7  25322745.918 8 133071915.872 7 100668055.174 8
E11  26337467.069 6  26337467.870 7 138404325.325 6 104701937.432 7
E30  26603382.397 7  26603386.333 8 139801712.663 7 105759102.542 8
E34  24990517.939 8  24990520.409 8 131326057.859 8  99347322.435 8
E36  23527191.078 8  23527193.911 9 123636221.782 8  93530009.372 9
G01  21945636.075 7                  21945640.609 8  21945642.273 8 115325096.531 7                  89863733.636 8  86119420.537 8
G02  20879684.447 8  20879685.083 6                                 109723480.943 8  85498819.981 6                
G03  23732555.277 5                                  23732563.962 6 124715368.957 5                                  93131692.275 6
G08  20956100.121 8                  20956105.965 7  20956103.264 9 110125040.262 8                  85811748.352 7  82236245.292 9
G10  22417827.715 7                  22417833.095 7  22417830.500 8 117806477.269 7                  91797278.771 7  87972375.563 8
G27  23065778.341 7                  23065786.376 7  23065784.430 8 121211473.561 7                  94450527.718 7  90515080.813 8
G32  21968970.534 8                  21968976.166 8  21968972.984 8 115447715.384 8                  89959287.815 8  86210971.024 8
R01  20789975.474 8                 111134307.981 8
R02  19653479.668 8  19653481.700 7 104874733.330 8  81569398.351 7
R03  22666784.007 7  22666789.036 6 121337083.083 7  94373320.010 6
R16  23294155.121 7  23294161.011 7 124433196.187 7  96781200.798 7
R17  19224971.985 8  19224973.440 7 102876708.106 8  80015271.498 7
R18  21009495.938 6  21009495.653 6 112150132.731 6  87227954.173 6
R24  21858708.330 7  21858712.644 7 116888331.213 7  90913148.389 7
> 2025 06 15 11 20  0.0000000  0 27
C19  22205540.263 8                 115630067.940 8
C20  24330847.896 6                 126697087.574 6
C22  23753967.183 8                 123693160.138 8
C29  25047253.809 4                 130427640.54114
C35  21686324.340 8                 112926388.898 8
C44  22642197.290 8                 117903867.262 8
E04  26024924.915 6  26024925.159 7 136761890.686 6 103459446.623 7
E06  25137059.183 7  25137062.549 8 132096139.429 7  99929887.080 8
E09  25317542.218 7  25317545.158 8 133044585.782 7 100647380.168 8
E11  26343664.072 6  26343665.462 7 138436893.174 6 104726574.749 7
E30  26605731.023 7  26605734.347 8 139814051.080 7 105768436.492 8
E34  24984907.807 8  24984910.789 8 131296578.591 8  99325021.574 8
E36  23528100.388 8  23528102.728 9 123640998.186 8  93533622.686 9
G01  21938168.316 7                  21938172.436 8  21938173.921 8 115285849.372 7                  89833151.468 8  86090112.626 8
G02  20877116.568 8  20877117.780 6                                 109709986.652 8  85488304.968 6                
G03  23722050.476 5                                  23722057.914 6 124660162.076 5                                  93090466.402 6
G08  20961297.250 7                  20961303.643 8  20961300.839 9 110152353.535 7                  85833031.399 8  82256641.543 9
G10  22424891.403 7                  22424897.257 7  22424894.599 8 117843598.099 7                  91826204.053 7  88000095.625 8
G27  23075841.431 7                  23075849.393 7  23075847.150 8 121264354.801 7                  94491733.802 7  90554569.979 8
G32  21966853.327 8                  21966859.694 7  21966856.466 8 115436593.569 8                  89950621.474 7  86202665.783 8
R01  20797496.285 7                 111174511.362 7
R02  19649351.448 8  19649353.401 7 104852704.688 8  81552264.959 7
R03  22654223.514 7  22654228.120 7 121269845.530 7  94321024.229 7
R16  23301802.646 7  23301808.158 7 124474045.514 7  96812972.418 7
R17  19224607.707 8  19224609.653 8 102874761.206 8  80013757.235 8
R18  21000739.456 4  21000741.249 6                  87191608.346 6
R24  21867580.180 7  21867584.937 7 116935772.270 7  90950046.949 7
> 2025 06 15 11 20 15.0000000  0 26
C19  22204744.136 8                 115625925.590 8
C20  24337954.174 6                 126734092.437 6
C22  23744923.638 8                 123646065.302 8
C35  21688040.552 8                 112935325.017 8
C44  22636046.260 8                 117871837.598 8
E04  26027469.920 5  26027471.807 7 136775272.166 5 103469569.667 7
E06  25135589.919 7  25135593.302 8 132088418.478 7  99924046.235 8
E09  25312357.079 8  25312359.995 8 133017337.158 8 100626766.788 8
E11  26349864.433 6  26349865.633 7 138469474.733 6 104751222.443 7
E30  26608097.102 7  26608100.112 8 139826482.650 7 105777840.890 8
E34  24979301.654 8  24979304.729 8 131267118.511 8  99302735.242 8
E36  23529016.909 8  23529019.591 9 123645816.306 8  93537267.553 9
G01  21930707.283 7                  21930711.847 8  21930713.697 8 115246643.721 7                  89802601.636 8  86060835.695 8
G02  20874561.133 8  20874562.960 6                                 109696558.203 8  85477841.266 6                
G03  23711550.323 6                  23711559.011 5  23711558.926 6 124604984.181 6                  97094843.86215  93049262.192 6
G08  20966516.056 8                  20966522.671 8  20966519.339 9 110179778.300 8                  85854401.291 8  82277121.037 9
G10  22431964.334 7                  22431970.634 7  22431967.454 8 117880767.385 7                  91855167.069 7  88027851.886 8
G27  23085911.966 7                  23085920.047 7  23085918.134 8 121317276.558 7                  94532971.544 7  90594089.427 8
G32  21964761.511 8                  21964768.056 7  21964764.839 8 115425601.867 8                  89942056.563 7  86194457.729 8
R01  20805042.284 7                 111214848.631 7
R02  19645257.450 8  19645259.754 7 104830857.203 8  81535272.504 7
R03  22641670.996 7  22641676.395 7 121202652.047 7  94268762.747 7
R16  23309470.049 7  23309476.674 7 124515007.622 7  96844831.815 7
R17  19224267.215 8  19224269.033 8 102872938.038 8  80012339.234 8
R18  20991994.551 5  20991996.558 6 112056721.10715  87155300.636 6
R24  21876464.312 7  21876468.896 7 116983278.087 7  90986995.850 7
> 2025 06 15 11 20 30.0000000  0 26
C19  22203970.792 8                 115621897.204 8
C20  24345072.090 6                 126771159.575 6
C22  23735891.828 8                 123599023.066 8
C35  21689773.940 8                 112944350.937 8
C44  22629906.618 8                 117839866.018 8
E04  26030031.776 4  26030036.128 7 136788747.33614 103479763.559 7
E06  25134139.672 7  25134143.182 8 132080796.970 7  99918280.622 8
E09  25307187.184 8  25307190.315 8 132990170.615 8 100606215.491 8
E11  26356067.495 7  26356068.553 7 138502070.320 7 104775880.756 7
E30  26610479.557 7  26610483.684 8 139839007.668 7 105787315.985 8
E34  24973699.280 7  24973702.437 8 131237678.125 7  99280463.830 8
E36  23529941.675 8  23529944.465 9 123650676.680 8  93540944.392 9
G01  21923254.645 7                  21923259.098 8  21923260.949 8 115207480.172 7                  89772084.606 8  86031590.215 8
G02  20872018.588 8  20872019.838 6                                 109683196.340 8  85467429.397 6                
G03  23701055.618 6                  23701064.662 5  23701063.100 6 124549835.855 6                  97051871.193 5  93008080.143 6
G08  20971756.135 7                  20971762.659 8  20971759.213 9 110207314.732 7                  85875858.294 8  82297683.979 9
G10  22439046.912 7                  22439052.789 7  22439049.606 8 117917985.308 7                  91884168.045 7  88055644.475 8
G27  23095990.539 7                  23095998.480 7  23095996.673 8 121370239.079 7                  94574240.977 7  90633639.287 8
G32  21962695.343 8                  21962701.281 7  21962698.563 8 115414740.880 8                  89933593.500 7  86186347.287 8
R01  20812612.870 7                 111255319.801 7
R02  19641197.088 8  19641199.757 8 104809191.421 8  81518421.357 8
R03  22629126.582 7  22629131.654 7 121135503.407 7  94216536.129 7
R16  23317159.884 7  23317165.719 7 124556082.583 7  96876778.940 7
R17  19223949.418 8  19223951.230 8 102871238.988 8  80011017.729 8
R18  20983259.683 5  20983261.199 5 112010089.662 5  87119031.803 5
R24  21885360.156 7  21885364.376 7 117030849.043 7  91023995.427 7
> 2025 06 15 11 20 45.0000000  0 25
C19  22203219.783 8                 115617986.175 8
C20  24352202.734 6                 126808292.053 6
C22  23726866.307 8                 123552037.058 8
C35  21691525.030 8                 112953470.010 8
C44  22623778.340 8                 117807956.133 8
E06  25132709.322 7  25132712.560 8 132073278.377 7  99912592.891 8
E09  25302033.945 8  25302036.846 8 132963089.749 8 100585729.010 8
E11  26362273.441 7  26362274.821 7 138534683.441 7 104800552.316 7
E30  26612881.358 7  26612885.491 8 139851629.423 7 105796864.285 8
E34  24968101.142 7  24968104.562 8 131208260.945 7  99258209.943 8
E36  23530875.337 8  23530877.971 9 123655582.696 8  93544655.761 9
G01  21915811.099 7                  21915815.342 8  21915816.940 8 115168362.306 7                  89741603.161 8  86002378.847 8
G02  20869489.270 8  20869490.121 6                                 109669904.437 8  85457072.067 6                
G03  23690566.965 5                  23690574.316 5  23690572.658 6 124494720.690 5                  97008924.292 5  92966922.805 6
G08  20977017.765 8                  20977024.818 8  20977021.273 9 110234966.180 8                  85897404.839 8  82318332.759 9
G10  22446138.898 7                  22446145.604 7  22446141.717 8 117955255.179 7                  91913209.476 7  88083475.842 8
G27  23106077.546 7                  23106084.977 7  23106083.283 8 121423245.427 7                  94615544.583 7  90673221.895 8
G32  21960653.950 8                  21960659.831 7  21960656.789 8 115404014.147 8                  89925234.999 7  86178337.072 8
R01  20820209.593 7                 111295927.764 7
R02  19637171.992 8  19637173.821 7 104787711.441 8  81501714.695 7
R03  22616591.835 7  22616596.504 7 121068403.512 7  94164347.398 7
R16  23324870.736 6  23324876.993 7 124597273.655 6  96908816.411 7
R17  19223655.579 8  19223657.208 8 102869668.100 8  80009795.945 8
R18  20974532.557 5  20974535.126 6 111963511.388 5  87082804.507 6
R24  21894269.355 8  21894274.400 7 117078488.320 8  91061048.216 7
> 2025 06 15 11 21  0.0000000  0 25
C19  22202491.212 8                 115614192.397 8
C20  24359346.622 6                 126845489.507 6
C22  23717854.248 7                 123505107.476 7
C35  21693294.477 8                 112962682.276 8
C44  22617662.464 8                 117776108.063 8
E06  25131298.193 7  25131301.519 8 132065862.721 7  99906983.002 8
E09  25296896.920 7  25296899.836 8 132936094.624 7 100565307.401 8
E11  26368483.121 7  26368484.151 7 138567313.931 7 104825237.043 7
E30  26615301.683 7  26615305.703 8 139864347.865 7 105806485.656 8
E34  24962508.149 8  24962511.102 9 131178866.980 8  99235973.607 9
E36  23531817.771 8  23531820.237 9 123660534.356 8  93548401.645 9
G01  21908375.995 7                  21908380.127 8  21908381.800 8 115129290.205 7                  89711157.390 8  85973201.671 8
G02  20866973.291 8  20866973.840 6                                 109656682.428 8  85446769.216 6                
G03  23680083.024 5                  23680094.514 5  23680094.241 6                                  96966003.512 5  92925790.432 6
G08  20982301.628 8                  20982308.144 7  20982305.253 8 110262732.328 8                  85919040.775 7  82339067.219 8
G10  22453241.373 8                  22453247.541 7  22453244.217 8 117992576.559 8                  91942291.071 7  88111345.709 8
G27  23116172.001 7                  23116180.104 7  23116178.282 8 121476295.265 7                  94656882.028 7  90712836.960 8
G32  21958638.164 8                  21958643.516 7  21958641.279 8 115393421.614 8                  89916981.082 7  86170427.104 8
R01  20827831.540 7                 111336672.063 7
R02  19633180.849 8  19633183.447 7 104766417.149 8  81485152.512 7
R03  22604065.971 7  22604071.993 7 121001352.833 7  94112197.006 7
R16  23332603.109 6  23332609.217 7 124638580.231 6  96940943.616 7
R17  19223386.482 8  19223388.020 7 102868225.348 8  80008673.786 7
R18  20965816.879 6  20965819.704 6 111916987.633 6  87046619.194 6
R24  21903190.577 7  21903194.973 7 117126195.896 7  91098154.043 7
> 2025 06 15 11 21 15.0000000  0 25
C19  22201786.663 8                 115610520.817 8
C20  24366503.631 5                 126882756.788 5
C22  23708853.518 7                 123458239.412 7
C35  21695082.324 8                 112971992.717 8
C44  22611559.594 8                 117744326.988 8
E06  25129907.569 7  25129910.929 8 132058555.023 7  99901454.791 8
E09  25291777.109 7  25291780.298 8 132909190.493 7 100544954.631 8
E11  26374696.733 7  26374697.535 7 138599966.848 7 104849938.756 7
E30  26617741.495 7  26617745.086 8 139877167.726 7 105816183.802 8
E34  24956919.715 8  24956923.046 8 131149501.285 8  99213758.692 8
E36  23532769.608 8  23532772.225 9 123665536.666 8  93552185.868 9
G01  21900950.315 7                  21900954.733 8  21900955.736 8 115090269.016 7                  89680751.321 8  85944062.528 8
G02  20864471.349 8  20864471.744 6                                 109643535.617 8  85436524.956 6                
G03  23669608.639 4                  23669620.100 6  23669621.818 6                                  96923112.729 6  92884686.854 6
G08  20987607.766 7                  20987614.685 7  20987611.669 8 110290618.081 7                  85940769.918 7  82359890.982 8
G10  22460354.311 7                  22460360.051 7  22460357.236 8 118029954.396 7                  91971416.635 7  88139257.712 8
G27  23126276.052 7                  23126284.697 7  23126282.647 8 121529393.397 7                  94698257.110 7  90752488.075 8
G32  21956649.190 8                  21956654.763 7  21956652.339 8 115382968.497 8                  89908835.779 7  86162621.187 8
R01  20835479.890 7                 111377557.255 7
R02  19629226.440 8  19629228.589 7 104745313.666 8  81468738.707 7
R03  22591550.556 7  22591556.147 7 120934357.005 7  94060089.232 7
R16  23340359.293 6  23340364.051 7 124680006.575 6  96973164.046 7
R17  19223141.485 8  19223143.146 7 102866915.906 8  80007655.325 7
R18  20957111.829 5  20957114.875 6 111870522.858 5  87010479.905 6
R24  21912125.688 7  21912129.156 7 117173976.785 7  91135316.900 7
> 2025 06 15 11 21 30.0000000  0 25
C19  22201103.108 8                 115606964.014 8
C20  24373670.417 5                 126920086.338 5
C22  23699863.824 7                 123411425.724 7
C29  25099630.280 5                 130700320.84515
C35  21696888.150 8                 112981393.931 8
C44  22605467.433 8                 117712605.702 8
E06  25128536.153 7  25128539.344 8 132051347.894 7  99896002.625 8
E09  25286673.190 7  25286676.585 8 132882369.998 7 100524665.143 8
E11  26380914.083 7  26380914.077 7 138632634.641 7 104874651.689 7
E30  26620199.169 7  26620202.325 8 139890081.534 7 105825952.992 8
E34  24951335.251 7  24951338.876 9 131120156.495 7  99191559.569 9
E36  23533729.688 8  23533732.315 9 123670582.163 8  93556002.765 9
G01  21893533.139 7                  21893537.019 8  21893538.907 8 115051291.453 7                  89650379.197 8  85914955.919 8
G02  20861982.458 8  20861982.493 6                                 109630456.489 8  85426333.424 6                
G08  20992936.241 8                  20992942.443 8  20992939.446 8 110318615.667 8                  85962586.225 8  82380798.260 8
G10  22467476.161 7                  22467481.710 7  22467478.864 8 118067380.913 7                  92000580.172 7  88167206.071 8
G27  23136388.473 7                  23136396.422 7  23136394.240 8 121582531.939 7                  94739663.702 7  90792169.398 8
G32  21954685.042 8                  21954691.184 8  21954688.835 8 115372647.284 8                  89900793.331 8  86154913.829 8
R01  20843153.516 7                 111418575.387 7
R02  19625305.906 8  19625308.122 8 104724393.736 8  81452467.672 8
R03  22579044.190 7  22579050.042 7 120867408.567 7  94008018.308 7
R16  23348135.105 7  23348141.183 7 124721544.777 7  97005471.565 7
R17  19222920.243 8  19222921.977 7 102865732.208 8  80006734.676 7
R18  20948419.485 6  20948419.106 5 111824109.985 6  86974381.087 5
R24  21921073.489 7  21921077.404 7 117221822.861 7  91172530.555 7
> 2025 06 15 11 21 45.0000000  0 25
C19  22200441.877 8                 115603520.687 8
C20  24380852.837 6                 126957476.384 6
C22  23690883.826 8                 123364665.453 8
C35  21698710.316 8                 112990884.705 8
C44  22599386.822 8                 117680943.222 8
E02  26965324.507 5  26965331.434 7 141703738.02115 107197944.35417
E06  25127182.864 7  25127186.632 8 132044240.093 7  99890625.614 8
E09  25281584.644 7  25281588.635 8 132855632.135 7 100504438.133 8
E11  26387132.646 7  26387133.068 7 138665316.119 7 104899375.010 7
E30  26622674.382 7  26622677.312 8 139903087.925 7 105835792.244 8
E34  24945755.481 8  24945758.373 8 131090831.402 8  99169375.334 8
E36  23534697.875 8  23534700.431 9 123675669.652 8  93559851.412 9
G01  21886124.014 7                  21886127.495 7  21886129.677 8 115012356.442 7                  89620040.261 7  85885881.091 8
G02  20859506.563 7  20859506.770 6                                 109617443.931 7  85416193.771 6                
G08  20998284.310 8                  20998291.273 8  20998288.056 9 110346723.737 8                  85984488.601 8  82401788.029 9
G10  22474606.974 8                  22474613.095 7  22474609.921 8 118104854.739 8                  92029780.501 7  88195189.748 8
G27  23146508.033 7                  23146516.206 7  23146513.380 8 121635709.480 7                  94781100.702 7  90831879.842 8
G32  21952745.943 8                  21952751.807 7  21952748.700 8 115362456.920 8                  89892852.801 7  86147304.156 8
R01  20850851.431 7                 111459724.654 7
R02  19621419.703 8  19621421.704 8 104703656.254 8  81436338.533 8
R03  22566546.377 7  22566551.845 7 120800506.503 7  93955983.459 7
R16  23355931.679 7  23355937.061 7 124763192.883 7  97037864.439 7
R17  19222722.490 8  19222724.177 8 102864673.196 8  80005911.001 8
R18  20939733.031 6  20939735.002 5 111777748.192 6  86938321.943 5
R24  21930032.331 7  21930037.191 7 117269733.159 7  91209794.050 7
> 2025 06 15 11 22  0.0000000  0 26
C19  22199805.200 8                 115600203.475 8
C20  24388044.961 5                 126994939.419 5
C22  23681916.434 7                 123317971.395 7
C29  25117153.541 5                 130791453.20015
C35  21700552.837 8                 113000477.693 8
C44  22593320.393 8                 117649352.352 8
E02  26973304.377 6  26973308.053 7 141745655.767 6 107229654.730 7
E06  25125851.870 7  25125855.364 8 132037244.437 7  99885333.445 8
E09  25276515.472 7  25276518.704 8 132828989.761 7 100484283.407 8
E11  26393356.025 7  26393357.292 7 138698023.975 7 104924118.263 7
E30  26625169.395 8  26625172.501 8 139916199.551 8 105845711.091 8
E34  24940180.954 8  24940184.085 9 131061538.829 8  99147215.709 9
E36  23535676.500 8  23535678.948 9 123680811.909 8  93563741.505 9
G01  21878725.098 7                  21878729.607 8  21878730.931 8 114973476.889 7                  89589744.459 8  85856847.649 8
G02  20857045.795 8  20857046.074 6                                 109604510.908 8  85406116.098 6                
G08  21003657.357 7                  21003663.549 7  21003660.597 9 110374954.815 7                  86006486.820 7  82422869.656 9
G10  22481749.536 7                  22481755.546 7  22481751.918 8 118142388.375 7                  92059027.449 7  88223218.071 8
G27  23156637.121 7                  23156645.257 7  23156642.788 8 121688938.442 7                  94822577.761 7  90871628.679 8
G32  21950833.813 8                  21950840.060 8  21950836.746 8 115352410.211 8                  89885024.198 8  86139801.758 8
R01  20858575.754 7                 111501017.548 7
R02  19617570.444 8  19617572.545 8 104683114.034 8  81420361.248 8
R03  22554059.529 7  22554064.437 7 120733665.230 7  93903995.874 7
R16  23363751.592 7  23363756.362 7 124804963.577 7  97070352.714 7
R17  19222550.447 8  19222552.274 8 102863752.059 8  80005194.561 8
R18  20931059.970 6  20931062.332 4 111731450.721 6  86902312.733 4
R24  21939006.476 7  21939010.851 7 117317720.150 7  91247117.196 7
> 2025 06 15 11 22 15.0000000  0 25
C19  22199191.754 8                 115597010.318 8
C20  24395254.799 5                 127032473.171 5
C22  23672961.725 7                 123271341.874 7
C35  21702414.239 8                 113010170.986 8
C44  22587267.071 8                 117617831.355 8
E02  26981286.012 5  26981290.473 8 141787602.623 5 107261387.114 8
E06  25124541.863 7  25124545.156 8 132030358.991 7  99880124.656 8
E09  25271462.998 7  25271466.360 8 132802441.130 7 100464199.561 8
E11  26399584.579 6  26399586.003 7 138730756.275 6 104948879.975 7
E30  26627683.937 7  26627687.339 8 139929414.299 7 105855707.957 8
E34  24934612.437 8  24934615.867 9 131032276.854 8  99125079.226 9
E36  23536665.276 8  23536667.536 8 123686006.979 8  93567671.535 8
G01  21871337.132 7                  21871340.988 7  21871342.532 8 114934650.896 7                  89559490.481 7  85827854.233 8
G02  20854598.828 8  20854599.911 6                                 109591655.377 8  85396098.797 6                
G08  21009052.105 8                  21009058.993 8  21009055.555 9 110403306.749 8                  86028579.238 8  82444041.548 9
G10  22488903.327 7                  22488908.814 7  22488905.361 8 118179979.585 7                  92088319.304 7  88251289.415 8
G27  23166775.165 7                  23166783.840 7  23166781.332 8 121742216.645 7                  94864093.146 7  90911414.258 8
G32  21948948.746 8                  21948955.116 7  21948951.839 8 115342505.269 8                  89877306.112 7  86132405.254 8
R01  20866327.155 7                 111542451.808 7
R02  19613756.546 8  19613758.603 7 104662765.637 8  81404534.729 7
R03  22541583.476 7  22541588.687 7 120666882.032 7  93852053.447 7
R16  23371593.657 7  23371598.521 6 124846854.273 7  97102934.366 6
R17  19222403.284 8  19222405.255 8 102862966.901 8  80004583.895 8
R18  20922398.329 6  20922402.097 6 111685215.835 6  86866352.429 6
R24  21947994.212 7  21947998.493 7 117365781.948 7  91284498.529 7
> 2025 06 15 11 22 30.0000000  0 27
C19  22198601.547 8                 115593938.257 8
C20  24402477.036 6                 127070074.624 6
C22  23664018.721 7                 123224774.078 7
C29  25134668.473 5                 130882716.54815
C35  21704294.163 8                 113019961.626 8
C44  22581226.426 8                 117586377.474 8
E02  26989271.584 5  26989277.666 7 141829575.339 5 107293139.153 7
E04                  26051221.563 7                 103563984.109 7
E06  25123251.982 7  25123255.248 8 132023580.745 7  99874996.976 8
E09  25266428.742 7  25266431.424 8 132775983.352 7 100444184.450 8
E11  26405817.944 7  26405818.862 7 138763509.912 7 104973657.833 7
E30  26630217.506 7  26630221.128 8 139942729.070 7 105865780.501 8
E34  24929049.764 8  24929052.772 9 131003042.516 8  99102963.667 9
E36  23537663.143 8  23537665.543 9 123691251.871 8  93571639.261 9
G01  21863958.046 7                  21863962.148 8  21863963.816 8 114895875.672 7                  89529276.070 8  85798898.749 8
G02  20852166.863 8  20852167.981 6                                 109578874.406 8  85386139.619 6                
G08  21014469.591 8                  21014476.513 8  21014473.469 9 110431776.359 8                  86050763.299 8  82465301.289 9
G10  22496066.673 7                  22496072.932 7  22496069.179 8 118217625.232 7                  92117653.538 7  88279401.377 8
G27  23176923.006 7                  23176931.493 7  23176928.553 8 121795540.706 7                  94905644.331 7  90951234.105 8
G32  21947090.363 8                  21947096.453 7  21947093.818 8 115332739.191 8                  89869696.193 7  86125112.419 8
R01  20874104.040 7                 111584023.673 7
R02  19609979.159 8  19609981.398 7 104642607.860 8  81388856.463 7
R03  22529117.177 7  22529123.506 7 120600154.937 7  93800154.698 7
R16  23379457.644 7  23379463.037 7 124888861.486 7  97135606.603 7
R17  19222282.132 8  19222283.554 7 102862314.868 8  80004076.750 7
R18  20913747.893 6  20913750.258 6 111639040.888 6  86830438.595 6
R24  21956995.694 7  21957000.522 7 117413915.079 7  91321935.379 7
> 2025 06 15 11 22 45.0000000  0 27
C19  22198034.985 8                 115590985.785 8
C20  24409709.708 6                 127107741.926 6
C22  23655087.780 8                 123178266.780 8
C29  25143427.751 5                 130928389.429 5
C35  21706192.867 8                 113029848.147 8
C44  22575198.963 8                 117554989.428 8
E02  26997301.024 5  26997269.618 8 141871572.15715 107324909.491 8
E04                  26053954.999 7                 103574851.391 7
E06  25121982.587 7  25121985.397 8 132016908.303 7  99869949.337 8
E09  25261410.760 8  25261413.605 8 132749615.156 8 100424237.108 8
E11  26412054.448 6  26412055.429 7 138796283.414 6 104998450.777 7
E30  26632770.007 7  26632773.673 8 139956142.351 7 105875927.550 8
E34  24923491.452 8  24923494.622 8 130973834.456 8  99080867.980 8
E36  23538670.370 8  23538672.854 9 123696545.132 8  93575643.569 9
G01  21856588.614 7                  21856592.657 8  21856594.383 8 114857149.908 7                  89499100.132 8  85769980.185 8
G02  20849748.735 8  20849749.098 6                                 109566166.733 8  85376237.542 6                
G08  21019909.173 8                  21019916.046 8  21019913.111 9 110460361.930 8                  86073037.757 8  82486647.644 9
G10  22503240.073 7                  22503246.826 7  22503243.299 8 118255323.591 7                  92147028.856 7  88307552.693 8
G27  23187078.678 7                  23187086.905 7  23187084.364 8 121848908.921 7                  94947229.876 7  90991086.922 8
G32  21945258.642 8                  21945264.147 7  21945260.830 8 115323110.600 8                  89862193.397 7  86117922.229 8
R01  20881906.455 7                 111625731.221 7
R02  19606236.973 8  19606239.637 7 104622639.342 8  81373325.437 7
R03  22516662.715 7  22516668.748 7 120533482.465 7  93748298.463 7
R16  23387343.005 7  23387347.843 7 124930983.045 7  97168367.747 7
R17  19222184.187 8  19222186.171 8 102861794.508 8  80003672.024 8
R18  20905110.237 6  20905111.861 6 111592924.527 6  86794570.387 6
R24  21966009.847 7  21966014.704 7 117462117.887 7  91359426.411 7
> 2025 06 15 11 23  0.0000000  0 27
C19  22197490.529 8                 115588151.716 8
C20  24416952.539 5                 127145473.847 5
C22  23646167.835 8                 123131819.137 8
C29  25152203.874 5                 130974090.103 5
C35  21708109.906 8                 113039829.535 8
C44  22569183.514 8                 117523666.342 8
E02  27005277.315 5  27005265.679 7 141913592.088 5 107356697.129 7
E04                  26056707.211 7                 103585792.440 7
E06  25120733.247 7  25120735.559 8 132010340.596 7  99864980.946 8
E09  25256410.343 8  25256412.732 8 132723335.611 8 100404356.822 8
E11  26418294.598 6  26418295.592 7 138829075.749 6 105023257.922 7
E30  26635340.797 7  26635344.719 8 139969652.887 7 105886148.144 8
E34  24917938.295 8  24917941.232 8 130944651.640 8  99058791.373 8
E36  23539686.915 8  23539689.146 9 123701885.718 8  93579683.675 9
G01  21849228.653 7                  21849232.624 8  21849234.475 8 114818472.600 7                  89468962.027 8  85741097.835 8
G02  20847344.414 8  20847343.983 6                                 109553531.242 8  85366391.687 6                
G08  21025371.058 8                  21025377.245 7  21025374.355 9 110489062.193 8                  86095401.606 7  82508079.626 9
G10  22510423.815 7                  22510430.250 7  22510427.008 8 118293073.346 7                  92176444.225 7  88335742.404 8
G27  23197242.498 7                  23197250.557 7  23197248.415 8 121902319.906 7                  94988848.748 7  91030971.675 8
G32  21943452.061 8                  21943457.636 7  21943454.229 8 115313618.474 8                  89854796.900 7  86110833.934 8
R01  20889733.370 7                 111667572.989 7
R02  19602530.653 8  19602532.496 7 104602859.289 8  81357940.952 7
R03  22504217.814 7  22504224.044 7 120466864.439 7  93696484.515 7
R16  23395249.409 7  23395254.238 7 124973217.262 7  97201216.542 7
R17  19222111.720 8  19222113.352 7 102861405.009 8  80003369.079 7
R18  20896480.350 6  20896484.791 6 111546866.031 6  86758747.062 6
R24  21975036.042 7  21975040.675 7 117510389.436 7  91396970.929 7
> 2025 06 15 11 23 15.0000000  0 28
C13  39614137.495 5                 206281157.72815
C19  22196968.758 8                 115585436.224 8
C20  24424209.576 5                 127183270.059 5
C22  23637259.187 8                 123085431.504 8
C29  25160983.025 5                 131019818.95515
C35  21710044.815 8                 113049905.927 8
C44  22563180.308 7                 117492408.599 7
E02  27013262.013 6  27013266.103 7 141955634.728 6 107388501.985 7
E04                  26059477.909 7                 103596807.290 7
E06  25119501.472 7  25119505.816 8 132003877.879 7  99860091.945 8
E09  25251426.513 8  25251428.972 8 132697145.036 8 100384543.854 8
E11  26424538.768 7  26424539.477 7 138861886.988 7 105048079.338 7
E30  26637930.160 7  26637933.996 8 139983260.741 7 105896442.364 8
E34  24912389.630 8  24912392.734 8 130915494.272 8  99036734.028 8
E36  23540712.239 8  23540714.518 9 123707273.747 8  93583759.691 9
G01  21841877.770 7                  21841882.207 8  21841884.416 8 114779844.146 7                  89438861.955 8  85712251.928 8
G02  20844953.517 8  20844953.378 6                                 109540968.268 8  85356602.367 6                
G08  21030854.098 8                  21030860.500 7  21030857.700 8 110517877.159 8                  86117854.811 7  82529597.269 8
G10  22517617.173 8                  22517623.331 7  22517620.094 8 118330874.408 8                  92205899.585 7  88363970.447 8
G27  23207414.438 7                  23207422.501 7  23207420.026 8 121955773.481 7                  95030500.840 7  91070888.272 8
G32  21941671.697 8                  21941677.525 7  21941674.852 8 115304262.965 8                  89847506.938 7  86103847.720 8
R01  20897585.945 7                 111709548.585 7
R02  19598858.795 8  19598861.753 7 104583267.967 8  81342703.247 7
R03  22491783.190 7  22491788.561 7 120400301.089 7  93644713.055 7
R16  23403176.784 6  23403181.910 7 125015564.126 6  97234152.931 7
R17  19222063.577 8  19222064.950 7 102861146.427 8  80003167.953 7
R18  20887866.594 7  20887867.410 6 111500865.951 7  86722969.252 6
R24  21984076.750 7  21984081.894 7 117558729.444 7  91434568.563 7
> 2025 06 15 11 23 30.0000000  0 28
C13  39616717.788 4                 206294607.008 4
C19  22196470.096 8                 115582837.361 8
C20  24431485.115 5                 127221128.605 5
C22  23628362.188 7                 123039102.171 7
C29  25169768.355 5                 131065573.914 5
C35  21711998.020 8                 113060075.397 8
C44  22557190.280 8                 117461214.427 8
E02  27021265.926 6  27021270.407 7 141997697.872 6 107420322.422 7
E04                  26062266.710 7                 103607894.326 7
E06  25118291.590 7  25118295.631 8 131997518.222 7  99855280.884 8
E09  25246459.145 8  25246461.831 9 132671041.669 8 100364796.828 9
E11  26430785.720 7  26430786.508 7 138894715.146 7 105072913.631 7
E30  26640537.020 7  26640541.462 8 139996963.783 7 105906808.645 8
E34  24906845.678 8  24906848.742 9 130886360.487 8  99014694.506 9
E36  23541745.922 8  23541748.511 9 123712707.310 8  93587870.166 9
G01  21834536.936 7                  21834540.559 8  21834542.411 8 114741262.714 7                  89408798.526 8  85683441.120 8
G02  20842576.131 8  20842576.517 6                                 109528476.043 8  85346868.175 6                
G08  21036358.754 8                  21036365.414 7  21036362.483 9 110546804.606 8                  86140395.649 7  82551198.911 9
G10  22524819.918 7                  22524825.949 7  22524823.118 8 118368724.679 7                  92235393.263 7  88392235.218 8
G27  23217593.758 7                  23217601.991 7  23217599.621 8 122009267.526 7                  95072184.438 7  91110835.037 8
G32  21939916.851 8                  21939922.829 7  21939920.203 8 115295042.296 8                  89840322.041 7  86096962.193 8
R01  20905462.681 7                 111751655.714 7
R02  19595222.671 8  19595224.648 7 104563863.368 8  81327610.798 7
R03  22479359.154 7  22479364.194 7 120333790.908 7  93592982.967 7
R16  23411124.974 7  23411129.457 7 125058020.677 7  97267174.650 7
R17  19222039.076 8  19222041.074 7 102861017.071 8  80003067.344 7
R18  20879255.257 6  20879259.774 6 111454922.488 6  86687235.409 6
R24  21993128.866 7  21993133.967 7 117607135.806 7  91472217.905 7
> 2025 06 15 11 23 45.0000000  0 29
C13  39619296.357 4                 206308045.035 4
C19  22195993.648 8                 115580357.390 8
C20  24438764.693 4                 127259051.55014
C22  23619476.203 7                 122992833.687 7
C29  25178549.055 4                 131111357.00314
C35  21713969.248 8                 113070340.385 8
C44  22551212.328 8                 117430086.478 8
E02  27029272.965 5  27029278.665 7 142039783.808 5 107452160.097 7
E04                  26065073.710 6                 103619055.355 6
E06  25117103.052 7  25117105.463 8 131991264.040 7  99850549.613 8
E09  25241508.504 8  25241511.625 9 132645028.054 8 100345117.746 9
E11  26437036.545 7  26437037.367 7 138927562.714 7 105097762.552 7
E30  26643163.869 7  26643167.444 8 140010764.392 7 105917248.688 8
E34  24901305.931 8  24901309.628 9 130857252.738 8  98992674.714 9
E36  23542788.830 8  23542791.572 9 123718188.896 8  93592016.938 9
G01  21827204.209 7                  21827208.054 8  21827209.785 8 114702730.819 7                  89378773.720 8  85654667.362 8
G02  20840212.900 8  20840213.351 6                                 109516057.059 8  85337191.053 6                
G03  23565247.366 5                  23565253.962 4  23565254.511 6 123836134.41215                  96495763.79614  92475144.197 6
G08  21041885.525 8                  21041891.878 7  21041889.097 8 110575846.793 8                  86163025.916 7  82572886.255 8
G10  22532032.464 7                  22532038.914 7  22532035.388 8 118406626.289 7                  92264927.004 7  88420538.388 8
G27  23227781.580 7                  23227789.999 7  23227787.188 8 122062804.111 7                  95113901.218 7  91150813.607 8
G32  21938188.506 8                  21938194.613 8  21938191.831 8 115285959.004 8                  89833244.133 8  86090179.201 8
R01  20913365.017 7                 111793896.350 7
R02  19591621.781 8  19591623.810 8 104544648.165 8  81312665.660 8
R03  22466944.864 7  22466950.180 7 120267337.120 7  93541296.796 7
R16  23419093.465 7  23419098.591 6 125100589.096 7  97300283.366 6
R17  19222039.742 8  19222040.779 7 102861019.588 8  80003069.304 7
R18  20870660.126 6  20870663.286 6 111409038.547 6  86651547.879 6
R24  22002193.300 7  22002199.017 7 117655610.789 7  91509920.570 7
> 2025 06 15 11 24  0.0000000  0 27
C19  22195540.828 8                 115577998.055 8
C22  23610603.172 7                 122946628.105 7
C29  25187393.082 5                 131157164.62015
C35  21715959.276 8                 113080702.614 8
C44  22545247.466 8                 117399026.647 8
E02  27037288.707 5  27037292.014 7 142081894.091 5 107484016.146 7
E04  26067906.005 5  26067899.926 6 136987739.60915 103630291.564 6
E06  25115933.226 8  25115935.755 8 131985117.058 8  99845899.496 8
E09  25236575.541 8  25236578.842 8 132619106.102 8 100325507.992 8
E11  26443291.422 7  26443291.956 7 138960431.330 7 105122627.419 7
E30  26645809.084 7  26645812.432 8 140024664.146 7 105927763.760 8
E34  24895772.517 8  24895776.036 9 130828172.848 8  98970676.006 9
E36  23543841.476 8  23543844.084 9 123723720.216 8  93596201.343 9
G01  21819881.430 7                  21819885.313 8  21819887.045 8 114664250.466 7                  89348789.055 8  85625932.064 8
G02  20837864.217 8  20837864.692 6                                 109503713.048 8  85327572.344 6                
G03  23554850.559 5                                  23554857.418 6 123781498.247 5                                  92434344.479 6
G08  21047434.378 7                  21047440.938 8  21047437.716 8 110605005.229 7                  86185746.790 8  82594660.442 8
G10  22539254.870 7                  22539261.511 7  22539258.435 8 118444580.862 7                  92294501.949 7  88448881.061 8
G27  23237977.832 7                  23237986.252 7  23237983.281 8 122116384.754 7                  95155652.305 7  91190825.050 8
G32  21936486.230 8                  21936492.558 7  21936489.546 8 115277014.796 8                  89826274.663 7  86083500.111 8
R01  20921291.804 7                 111836271.489 7
R02  19588056.848 8  19588058.880 8 104525624.334 8  81297869.323 8
R03  22454541.375 7  22454546.754 7 120200941.774 7  93489656.040 7
R16  23427083.829 7  23427087.882 6 125143270.640 7  97333480.112 6
R17  19222064.802 8  19222066.377 7 102861155.741 8  80003175.223 7
R18  20862078.677 6  20862078.337 5 111363216.095 6  86615908.128 5
R24  22011272.496 7  22011276.878 7 117704156.065 7  91547677.946 7
> 2025 06 15 11 24 15.0000000  0 27
C19  22195112.740 8                 115575769.454 8
C22  23601744.107 7                 122900495.733 7
C29  25196182.960 5                 131203017.75215
C35  21717970.019 8                 113091172.267 8
C44  22539297.800 8                 117368045.336 8
E02  27045309.317 5  27045311.826 7 142124038.699 5 107515898.109 7
E04  26070748.147 5  26070747.335 6 137002702.183 5 103641610.720 6
E06  25114785.184 7  25114788.501 8 131979087.627 7  99841338.297 8
E09  25231662.066 7  25231665.478 8 132593286.229 7 100305975.467 8
E11  26449551.641 7  26449552.482 7 138993331.262 7 105147515.948 7
E30  26648474.647 7  26648478.475 8 140038673.214 7 105938361.509 8
E34  24890246.280 8  24890249.709 9 130799131.131 8  98948706.146 9
E36  23544904.880 8  23544908.013 9 123729311.563 8  93600431.164 9
G01  21812570.322 7                  21812574.665 8  21812576.429 8 114625831.977 7                  89318852.565 8  85597242.929 8
G02  20835531.552 8  20835531.817 6                                 109491454.481 8  85318020.220 6                
G03  23544462.472 6                                  23544470.216 6 123726911.931 6                                  92393582.040 6
G08  21053006.694 8                  21053013.387 8  21053010.428 8 110634290.041 8                  86208566.092 8  82616528.933 8
G10  22546489.063 7                  22546496.394 7  22546492.529 8 118482598.363 7                  92324125.955 7  88477270.734 8
G27  23248183.912 7                  23248192.419 7  23248190.030 8 122170019.337 7                  95197445.432 7  91230876.779 8
G32  21934812.852 8                  21934818.829 7  21934815.876 8 115268220.108 8                  89819421.631 7  86076932.670 8
R01  20929246.156 7                 111878791.224 7
R02  19584529.418 8  19584531.615 8 104506802.205 8  81283229.931 8
R03  22442150.711 7  22442156.018 7 120134615.467 7  93438068.998 7
R16  23435096.932 7  23435101.526 6 125186075.242 7  97366772.556 6
R17  19222117.561 8  19222119.592 7 102861436.185 8  80003393.328 7
R18  20853508.453 6  20853508.156 6 111317465.906 6  86580324.728 6
R24  22020365.875 7  22020370.048 7 117752781.908 7  91585498.020 7
> 2025 06 15 11 24 30.0000000  0 27
C19  22194708.610 8                 115573665.454 8
C22  23592897.291 7                 122854430.726 7
C29  25204982.909 5                 131248904.536 5
C35  21719999.868 8                 113101743.241 8
C44  22533362.220 8                 117337136.604 8
E02  27053335.603 5  27053337.346 7 142166211.001 5 107547801.148 7
E04  26073615.031 5  26073614.579 6 137017768.005 5 103653007.984 6
E06  25113658.815 7  25113662.443 8 131973169.626 7  99836861.395 8
E09  25226767.462 7  25226770.284 8 132567562.449 7 100286515.638 8
E11  26455816.921 7  26455817.783 7 139026256.271 7 105172423.462 7
E30  26651160.992 7  26651164.115 8 140052785.331 7 105949037.229 8
E34  24884726.188 8  24884729.455 8 130770121.494 8  98926760.588 8
E36  23545979.224 8  23545982.270 9 123734956.784 8  93604701.733 9
G01  21805270.135 7                  21805274.471 8  21805276.132 8 114587469.356 7                  89288959.650 8  85568595.548 8
G02  20833213.802 8  20833214.793 6                                 109479274.988 8  85308529.705 6                
G03  23534083.628 5                  23534092.701 5  23534092.242 7 123672369.673 5                  96368157.98015  92352852.471 7
G08  21058602.318 8                  21058609.029 8  21058605.899 8 110663694.794 8                  86231478.862 8  82638487.008 8
G10  22553734.175 7                  22553741.150 7  22553736.958 8 118520672.425 7                  92353794.034 7  88505702.648 8
G27  23258399.514 7                  23258407.869 7  23258405.633 8 122223701.454 7                  95239275.606 7  91270964.018 8
G32  21933166.713 8                  21933172.450 7  21933170.404 8 115259568.727 8                  89812680.337 7  86070472.266 8
R01  20937226.397 7                 111921449.269 7
R02  19581038.839 8  19581040.915 8 104488175.682 8  81268742.649 8
R03  22429772.301 7  22429777.629 7 120068352.448 7  93386531.154 7
R16  23443131.764 7  23443136.481 6 125228995.956 7  97400155.257 6
R17  19222195.787 8  19222197.108 7 102861854.742 8  80003718.879 7
R18  20844948.657 6  20844952.378 6 111271781.894 6  86544792.921 6
R24  22029472.900 7  22029477.581 7 117801481.890 7  91623375.782 7
> 2025 06 15 11 24 45.0000000  0 28
C19  22194327.794 8                 115571680.977 8
C22  23584063.308 7                 122808428.272 7
C29  25213826.311 5                 131294819.833 5
C35  21722048.621 8                 113112410.618 8
C39  40644814.570 5                 211648222.83415
C44  22527439.455 8                 117306295.704 8
E02  27061360.842 5  27061366.831 7 142208405.795 5 107579721.257 7
E04  26076499.558 5  26076500.561 6 137032931.963 5 103664479.457 6
E06  25112552.565 7  25112556.468 8 131967358.047 7  99832464.979 8
E09  25221889.523 8  25221892.367 8 132541929.900 8 100267124.805 8
E11  26462086.552 7  26462086.975 7 139059201.352 7 105197346.196 7
E30  26653864.917 8  26653868.161 8 140066995.333 8 105959786.984 8
E34  24879210.755 8  24879214.338 9 130741138.969 8  98904835.511 9
E36  23547063.493 8  23547065.845 9 123740650.878 8  93609009.288 9
G01  21797979.919 7                  21797983.524 8  21797985.896 8 114549157.740 7                  89259106.459 8  85539986.269 8
G02  20830910.336 8  20830911.470 6                                 109467169.703 8  85299097.023 6                
G03  23523712.079 6                  23523721.079 6  23523720.911 7 123617866.564 6                  96325688.048 6  92312152.129 7
G08  21064219.730 7                  21064226.286 8  21064223.402 9 110693214.285 7                  86254481.070 8  82660530.773 9
G10  22560989.755 7                  22560995.394 7  22560991.447 7 118558797.797 7                  92383502.147 7  88534172.875 7
G27  23268623.174 7                  23268630.736 7  23268629.519 8 122277425.756 7                  95281138.682 7  91311082.780 8
G32  21931546.805 8                  21931552.297 7  21931549.908 8 115251055.769 8                  89806046.877 7  86064115.207 8
R01  20945231.209 7                 111964239.323 7
R02  19577583.918 8  19577586.165 8 104469739.981 8  81254403.769 8
R03  22417404.572 7  22417410.154 7 120002148.196 7  93335039.072 7
R16  23451187.136 7  23451191.498 6 125272027.264 7  97433624.040 6
R17  19222298.757 8  19222300.756 7 102862406.469 8  80004147.991 7
R18  20836401.549 5  20836403.573 6 111226159.559 5  86509308.814 6
R24  22038592.721 7  22038597.393 7 117850250.802 7  91661307.023 7
> 2025 06 15 11 25  0.0000000  0 27
C19  22193969.412 8                 115569816.294 8
C22  23575241.254 7                 122762488.868 7
C35  21724115.275 8                 113123174.667 8
C39  40639530.792 6                 211620702.350 6
C44  22521529.839 8                 117275523.104 8
E02  27069395.846 6  27069400.720 7 142250623.256 6 107611658.466 7
E04  26079404.082 5  26079405.294 6 137048194.270 5 103676025.350 6
E06  25111467.324 7  25111470.743 8 131961653.221 7  99828149.317 8
E09  25217029.161 8  25217032.127 8 132516389.019 8 100247803.313 8
E11  26468359.224 7  26468360.258 7 139092166.804 7 105222284.325 7
E30  26656587.377 7  26656590.961 8 140081303.351 7 105970610.925 8
E34  24873700.897 8  24873704.351 8 130712183.940 8  98882931.231 8
E36  23548156.697 8  23548158.807 9 123746394.146 8  93613354.029 9
G01  21790699.143 7                  21790703.011 8  21790705.142 8 114510897.577 7                  89229293.367 8  85511415.393 8
G02  20828620.928 8  20828621.634 6                                 109455139.190 8  85289722.604 6                
G03  23513348.361 6                  23513356.885 6  23513355.717 7 123563403.097 6                  96283248.920 6  92271481.355 7
G08  21069859.380 7                  21069865.471 7  21069863.027 8 110722848.628 7                  86277572.750 7  82682660.278 8
G10  22568255.131 7                  22568261.264 7  22568256.577 7 118596974.606 7                  92413250.323 7  88562681.520 7
G27  23278854.670 7                  23278862.344 7  23278860.887 8 122331192.345 7                  95323034.670 7  91351233.083 8
G32  21929952.928 8                  21929958.925 7  21929955.549 8 115242681.608 8                  89799521.583 7  86057861.757 8
R01  20953260.581 7                 112007161.501 7
R02  19574164.794 8  19574167.091 7 104451495.338 8  81240213.502 7
R03  22405048.118 7  22405053.758 7 119936003.551 7  93283593.282 7
R16  23459263.626 7  23459268.308 6 125315169.007 7  97467178.729 6
R17  19222426.721 8  19222428.843 7 102863091.938 8  80004681.159 7
R18  20827863.163 5  20827869.077 6 111180599.30015  86473873.054 6
R24  22047726.072 7  22047730.535 7 117899088.758 7  91699292.079 7
> 2025 06 15 11 25 15.0000000  0 27
C19  22193634.080 8                 115568071.763 8
C22  23566430.709 7                 122716613.225 7
C35  21726201.640 8                 113134035.788 8
C39  40634249.631 6                 211593205.780 6
C44  22515633.603 8                 117244819.448 8
E02  27077436.041 6  27077438.845 7 142292863.597 6 107643612.951 7
E04  26082326.174 5  26082328.672 6 137063555.306 5 103687645.827 6
E06  25110401.955 7  25110405.364 8 131956055.574 7  99823914.754 8
E09  25212186.283 8  25212189.354 8 132490940.423 8 100228551.632 8
E11  26474636.230 7  26474637.376 7 139125153.024 7 105247238.164 7
E30  26659328.812 7  26659332.358 8 140095709.771 7 105981509.291 8
E34  24868195.504 8  24868199.638 9 130683256.885 8  98861048.136 9
E36  23549258.960 8  23549261.205 9 123752187.067 8  93617736.347 9
G01  21783428.201 7                  21783432.369 8  21783434.345 8 114472689.463 7                  89199520.822 8  85482883.378 8
G02  20826345.792 8  20826345.827 6                                 109443183.931 8  85280406.821 6                
G03  23502991.527 6                  23503000.173 5  23502998.783 7 123508979.821 6                  96240841.193 5  92230840.697 7
G08  21075520.755 7                  21075526.637 7  21075524.150 9 110752598.001 7                  86300754.055 7  82704875.712 9
G10  22575529.852 7                  22575535.445 7  22575531.364 7 118635203.075 7                  92443038.699 7  88591228.700 7
G27  23289094.405 7                  23289102.012 7  23289100.646 8 122385001.280 7                  95364963.662 7  91391415.051 8
G32  21928386.301 8                  21928392.541 8  21928388.233 8 115234446.715 8                  89793104.814 8  86051712.346 8
R01  20961314.813 7                 112050216.028 7
R02  19570781.766 8  19570783.812 8 104433442.518 8  81226172.451 8
R03  22392703.153 7  22392708.237 7 119869919.021 7  93232194.266 7
R16  23467360.494 7  23467365.683 6 125358420.898 7  97500819.084 6
R17  19222580.038 8  19222581.752 7 102863911.533 8  80005318.612 7
R18  20819341.777 6  20819346.504 6 111135103.84716  86438486.178 6
R24  22056871.998 7  22056876.601 7 117947995.969 7  91737331.017 7
> 2025 06 15 11 25 30.0000000  0 28
C19  22193321.994 8                 115566445.546 8
C22  23557632.649 7                 122670799.663 7
C29  25240280.114 5                 131432750.11815
C35  21728305.681 8                 113144992.242 8
C39  40628974.004 6                 211565731.236 6
C44  22509750.195 8                 117214183.123 8
E02  27085478.144 6  27085480.899 7 142335124.724 6 107675583.113 7
E04  26085268.371 5  26085269.805 6 137079013.003 5 103699339.37716
E06  25109356.945 7  25109360.173 8 131950563.353 7  99819759.919 8
E09  25207361.198 8  25207363.920 8 132465582.378 8 100209368.478 8
E11  26480918.028 7  26480918.029 7 139158158.180 7 105272206.302 7
E30  26662088.792 7  26662092.162 8 140110212.663 7 105992480.619 8
E34  24862696.154 8  24862699.754 9 130654356.084 8  98839184.856 9
E36  23550370.204 8  23550372.576 9 123758027.803 8  93622154.836 9
G01  21776167.558 7                  21776171.322 8  21776173.029 8 114434531.735 7                  89169787.537 8  85454388.996 8
G02  20824084.699 8  20824084.342 6                                 109431302.177 8  85271148.303 6                
G03  23492642.969 6                  23492651.136 5  23492649.313 7 123454595.075 6                  96198463.681 5  92190228.843 7
G08  21081203.022 8                  21081209.033 7  21081206.490 8 110782460.404 8                  86324023.447 7  82727175.539 8
G10  22582813.324 7                  22582820.019 7  22582815.640 8 118673481.140 7                  92472865.732 7  88619812.938 8
G27  23299341.502 7                  23299349.264 7  23299347.796 8 122438850.592 7                  95406924.094 7  91431627.100 8
G32  21926845.246 8                  21926851.232 8  21926847.204 8 115226349.398 8                  89786795.203 8  86045665.627 8
R01  20969393.529 7                 112093400.397 7
R02  19567434.354 8  19567436.550 7 104415579.587 8  81212279.063 7
R03  22380369.427 7  22380374.155 7 119803893.615 7  93180841.280 7
R16  23475477.505 7  23475481.986 6 125401780.766 7  97534543.373 6
R17  19222757.578 8  19222759.851 7 102864863.467 8  80006058.992 7
R18  20810832.900 6  20810834.243 6 111089667.829 6  86403147.111 6
R24  22066030.137 7  22066035.260 7 117996970.449 7  91775422.234 7
> 2025 06 15 11 25 45.0000000  0 29
C19  22193032.738 8                 115564937.202 8
C20  24497497.211 5                 127565108.21115
C22  23548846.951 7                 122625048.149 7
C29  25249116.412 5                 131478776.71215
C35  21730428.081 8                 113156043.646 8
C39  40623702.362 6                 211538278.663 6
C44  22503879.355 8                 117183614.033 8
E02  27093524.826 6  27093526.722 7 142377405.932 6 107707568.512 7
E04  26088229.220 5  26088229.407 6 137094566.742 5 103711105.754 6
E06  25108331.635 7  25108335.072 8 131945176.211 7  99815684.578 8
E09  25202553.075 8  25202555.644 8 132440314.785 8 100190253.719 8
E11  26487201.753 7  26487202.163 7 139191181.925 7 105297188.500 7
E30  26664866.108 7  26664870.309 8 140124811.495 7 106003524.553 8
E34  24857201.785 8  24857204.812 8 130625481.176 8  98817341.194 8
E36  23551490.695 8  23551493.162 9 123763916.067 8  93626609.271 9
G01  21768915.766 7                  21768919.557 8  21768921.270 8 114396424.175 7                  89140093.349 8  85425932.089 8
G02  20821837.526 8  20821837.378 6                                 109419493.611 8  85261946.819 6                
G03  23482301.126 6                  23482309.229 6  23482307.729 7 123400248.817 6                  96156116.005 6  92149645.694 7
G08  21086906.744 8                  21086912.877 7  21086910.175 8 110812435.268 8                  86347380.502 7  82749559.341 8
G10  22590106.964 7                  22590113.602 7  22590109.901 8 118711808.285 7                  92502730.971 7  88648433.780 8
G27  23309596.075 7                  23309603.861 7  23309602.493 8 122492739.474 7                  95448915.434 7  91471868.734 8
G32  21925330.790 8                  21925336.058 7  21925333.545 8 115218389.317 8                  89780592.481 7  86039721.415 8
R01  20977495.648 7                 112136713.580 7
R02  19564122.308 8  19564124.512 7 104397906.417 8  81198533.265 7
R03  22368045.461 7  22368051.128 7 119737926.934 7  93129533.934 7
R16  23483614.898 7  23483618.967 6 125445247.543 7  97568350.812 6
R17  19222960.379 8  19222962.209 8 102865947.694 8  80006902.255 8
R18  20802332.138 7  20802334.439 6 111044292.935 7  86367855.646 6
R24  22075201.029 7  22075206.652 7 118046011.668 7  91813565.370 7
> 2025 06 15 11 26  0.0000000  0 29
C19  22192764.766 7                 115563544.036 7
C20  24504894.379 6                 127603618.090 6
C22  23540071.966 7                 122579356.090 7
C29  25257960.967 5                 131524827.099 5
C35  21732568.320 8                 113167187.377 8
C39  40618435.378 6                 211510845.306 6
C44  22498021.351 8                 117153109.664 8
E02  27101571.409 6  27101575.920 7 142419704.475 6 107739566.956 7
E04  26091202.737 5  26091206.911 6 137110214.191 5 103722942.866 6
E06  25107326.591 8  25107329.570 8 131939891.431 8  99811686.715 8
E09  25197761.133 8  25197764.102 8 132415135.011 8 100171205.420 8
E11  26493488.985 7  26493489.360 7 139224221.470 7 105322182.684 7
E30  26667661.628 7  26667665.984 8 140139503.533 7 106014638.945 8
E34  24851711.641 8  24851714.612 9 130596629.576 8  98795515.175 9
E36  23552619.159 8  23552622.242 9 123769849.139 8  93631097.599 9
G01  21761672.982 7                  21761677.087 8  21761678.287 8 114358364.196 7                  89110436.291 8  85397510.725 8
G02  20819603.913 8  20819604.087 6                                 109407755.691 8  85252800.396 6                
G03  23471965.659 5                  23471973.408 5  23471973.660 7 123345938.484 5                  96113796.352 5  92109089.399 7
G08  21092631.853 7                  21092638.301 8  21092634.866 8 110842519.685 7                  86370822.884 8  82772024.965 8
G10  22597409.037 7                  22597415.680 7  22597411.903 8 118750181.513 7                  92532632.144 7  88677089.081 8
G27  23319857.895 6                  23319865.824 7  23319864.341 8 122546665.047 6                  95490935.306 7  91512137.758 8
G32  21923841.363 8                  21923847.165 7  21923844.758 8 115210563.763 8                  89774494.691 7  86033877.683 8
R01  20985622.024 7                 112180152.670 7
R02  19560845.593 8  19560847.280 8 104380420.361 8  81184933.028 8
R03  22355733.339 7  22355738.482 7 119672017.177 7  93078270.850 7
R16  23491770.978 7  23491776.261 6 125488818.196 7  97602239.077 6
R17  19223187.264 8  19223189.199 7 102867161.383 8  80007846.251 7
R18  20793843.983 6  20793841.186 4 110998977.169 6  86332610.130 4
R24  22084383.794 6  22084389.428 7 118095116.705 6  91851758.059 7
> 2025 06 15 11 26 15.0000000  0 29
C19  22192519.982 8                 115562269.626 8
C20  24512299.115 6                 127642190.040 6
C22  23531309.259 7                 122533727.430 7
C29  25266813.738 4                 131570904.92714
C35  21734726.652 8                 113178427.068 8
C39  40613169.418 6                 211483434.930 6
C44  22492176.374 8                 117122673.820 8
E02  27109623.320 6  27109629.014 7 142462023.545 6 107771581.010 7
E04  26094200.220 5  26094202.486 5 137125958.521 5 103734853.276 5
E06  25106340.365 7  25106344.102 8 131934712.719 7  99807769.084 8
E09  25192987.464 8  25192989.908 8 132390046.991 8 100152226.493 8
E11  26499780.016 7  26499780.231 7 139257280.487 7 105347191.602 7
E30  26670476.298 7  26670480.129 8 140154292.259 7 106025826.483 8
E34  24846226.441 8  24846229.563 9 130567805.023 8  98773709.598 9
E36  23553757.616 8  23553760.350 9 123775830.745 8  93635622.622 9
G01  21754440.180 7                  21754444.083 7  21754445.761 8 114320355.689 7                  89080819.278 7  85369127.787 8
G02  20817384.704 8  20817385.203 6                                 109396092.233 8  85243712.004 6                
G03  23461638.499 5                  23461644.662 5  23461646.321 7 123291668.152 5                  96071507.75115  92068562.824 7
G08  21098378.058 8                  21098384.853 7  21098381.330 8 110872717.142 8                  86394353.351 7  82794574.987 8
G10  22604720.694 7                  22604726.911 7  22604723.350 7 118788604.280 7                  92562571.947 7  88705781.382 7
G27  23330126.954 7                  23330135.287 7  23330133.537 8 122600630.629 7                  95532986.370 7  91552436.685 8
G32  21922378.277 8                  21922384.560 7  21922381.741 8 115202876.551 8                  89768504.704 7  86028137.256 8
R01  20993772.395 7                 112223720.824 7
R02  19557604.571 8  19557605.867 7 104363125.274 8  81171481.292 7
R03  22343431.769 7  22343437.971 7 119606168.166 7  93027055.068 7
R16  23499947.517 7  23499952.564 6 125532495.717 7  97636210.477 6
R17  19223439.335 8  19223441.087 7 102868508.678 8  80008894.165 7
R18  20785362.518 6  20785367.630 6 110953724.29916  86297413.468 6
R24  22093579.843 6  22093584.685 7 118144289.355 6  91890003.409 7
> 2025 06 15 11 26 30.0000000  0 28
C19  22192299.092 8                 115561117.237 8
C20  24519720.468 6                 127680827.328 6
C22  23522559.572 8                 122488165.717 8
C35  21736904.049 8                 113189766.079 8
C39  40607910.888 6                 211456050.880 6
C44  22486345.667 8                 117092310.131 8
E02  27117680.502 6  27117686.697 7 142504366.376 6 107803612.996 7
E04  26097218.070 4  26097217.957 6 137141803.22314 103746839.49016
E06  25105375.683 7  25105379.532 8 131929643.567 7  99803934.314 8
E09  25188230.688 8  25188233.942 8 132365054.155 8 100133319.594 8
E11  26506075.344 7  26506075.555 7 139290362.331 7 105372217.784 7
E30  26673310.567 7  26673313.442 8 140169180.860 7 106037089.636 8
E34  24840746.940 8  24840750.076 9 130539010.916 8  98751927.066 9
E36  23554906.027 8  23554908.565 9 123781864.247 8  93640186.897 9
G01  21747218.046 7                  21747221.421 7  21747222.850 8 114282402.175 7                  89051245.124 7  85340785.896 8
G02  20815179.982 8  20815180.575 6                                 109384506.626 8  85234684.260 6                
G03  23451318.946 5                                  23451327.285 7 123237441.080 5                                  92028068.586 7
G08  21104146.646 8                  21104153.115 7  21104150.387 8 110903030.744 8                  86417974.313 7  82817211.766 8
G10  22612042.711 7                  22612048.337 7  22612044.840 7 118827079.814 7                  92592552.858 7  88734513.095 7
G27  23340404.698 7                  23340412.738 7  23340410.811 8 122654639.391 7                  95575071.037 7  91592767.838 8
G32  21920942.740 8                  21920948.682 7  21920945.172 8 115195331.193 8                  89762625.185 7  86022502.703 8
R01  21001947.124 7                 112267421.025 7
R02  19554399.860 8  19554401.848 8 104346024.526 8  81158180.730 8
R03  22331142.438 7  22331148.348 7 119540383.671 7  92975889.470 7
R16  23508144.788 8  23508149.702 7 125576283.022 8  97670267.202 7
R17  19223716.434 8  19223718.305 8 102869992.992 8  80010048.610 8
R18  20776901.882 6  20776901.211 5 110908538.039 6  86262268.525 5
R24  22102787.859 6  22102794.033 7 118193532.429 6  91928303.530 7
> 2025 06 15 11 26 45.0000000  0 28
C19  22192100.427 8                 115560084.691 8
C20  24527152.319 6                 127719527.536 6
C22  23513823.305 8                 122442668.966 8
C35  21739100.156 8                 113201202.234 8
C39  40602656.340 6                 211428691.142 6
C44  22480528.083 8                 117062016.569 8
E02  27125743.816 6  27125748.444 7 142546730.509 6 107835661.106 7
E04  26100248.418 5  26100251.911 6 137157745.66615 103758899.864 6
E06  25104432.221 7  25104435.265 8 131924681.781 7  99800180.755 8
E09  25183492.701 8  25183495.620 8 132340154.511 8 100114483.209 8
E11  26512375.034 7  26512374.876 7 139323464.880 7 105397259.611 7
E30  26676162.601 8  26676165.153 8 140184167.087 8 106048426.638 8
E34  24835273.049 8  24835276.138 9 130510245.181 8  98730166.002 9
E36  23556063.646 8  23556066.199 9 123787947.457 8  93644788.829 9
G01  21740005.526 7                  21740009.434 7  21740011.025 8 114244501.604 7                  89021712.249 7  85312483.551 8
G02  20812989.466 8  20812990.486 6                                 109372996.620 8  85225715.443 6                
G03  23441007.882 5                  23441015.994 6  23441014.436 7 123183255.252 5                  95987027.43216  91987605.254 7
G08  21109937.122 8                  21109943.625 8  21109940.396 8 110933458.215 8                  86441684.012 8  82839933.525 8
G10  22619373.388 7                  22619379.717 7  22619376.153 8 118865605.652 7                  92622572.994 7  88763282.404 8
G27  23350689.913 7                  23350698.352 7  23350696.030 8 122708688.886 7                  95617187.466 7  91633129.368 8
G32  21919533.264 7                  21919539.575 8  21919536.098 8 115187925.413 7                  89756854.454 8  86016972.457 8
R01  21010146.868 7                 112311250.347 7
R02  19551231.168 8  19551233.300 7 104329116.279 8  81145029.884 7
R03  22318864.816 7  22318870.508 7 119474662.395 7  92924772.990 7
R16  23516362.040 8  23516366.871 6 125620177.484 8  97704407.285 6
R17  19224019.297 8  19224020.914 7 102871612.169 8  80011307.985 7
R18  20768445.095 6  20768448.860 6 110863416.531 6  86227174.077 6
R24  22112009.932 7  22112015.017 7 118242844.074 7  91966656.988 7
> 2025 06 15 11 27  0.0000000  0 29
C19  22191926.054 8                 115559175.707 8
C20  24534598.464 6                 127758294.164 6
C22  23505099.004 8                 122397241.193 8
C29  25293417.518 5                 131709322.46215
C35  21741315.835 8                 113212739.326 8
C39  40597407.766 6                 211401359.465 6
C44  22474724.188 7                 117031797.173 7
E02  27133811.259 6  27133815.064 7 142589119.502 6 107867728.095 7
E04  26103302.031 5  26103304.716 6 137173789.63615 103771037.043 6
E06  25103509.868 8  25103512.247 8 131919831.127 8  99796511.298 8
E09  25178773.102 7  25178775.851 8 132315352.069 7 100095720.330 8
E11  26518678.558 7  26518678.884 7 139356591.888 7 105422319.915 7
E30  26679033.038 7  26679036.249 8 140199254.699 7 106059840.300 8
E34  24829805.177 8  24829808.404 8 130481511.688 8  98708429.324 8
E36  23557231.510 8  23557233.958 9 123794084.292 8  93649431.296 9
G01  21732804.270 7                  21732808.208 8  21732809.564 8 114206657.968 7                  88992223.699 8  85284223.713 8
G02  20810814.292 8  20810815.437 6                                 109361566.371 8  85216808.758 6                
G03  23430705.380 5                  23430715.226 6  23430712.533 7 123129114.995 5                  95944840.056 6  91947175.828 7
G08  21115749.262 8                  21115756.200 8  21115752.169 8 110964003.024 8                  86465485.151 8  82862742.964 8
G10  22626715.102 7                  22626721.020 7  22626717.819 8 118904185.514 7                  92652635.137 7  88792091.974 8
G27  23360983.843 7                  23360992.030 7  23360989.674 8 122762782.543 7                  95659338.293 7  91673523.930 8
G32  21918151.351 8                  21918157.419 8  21918154.724 8 115180663.208 8                  89751195.590 8  86011549.382 8
R01  21018370.790 7                 112355212.509 7
R02  19548099.360 8  19548101.085 7 104312404.312 8  81132031.653 7
R03  22306600.158 7  22306606.525 7 119409008.179 7  92873708.676 7
R16  23524599.724 7  23524604.812 6 125664182.421 7  97738633.379 6
R17  19224347.882 8  19224349.471 8 102873370.369 8  80012675.455 8
R18  20760008.347 6  20760009.855 6 110818364.122 6  86192133.221 6
R24  22121244.162 7  22121250.075 7 118292227.664 7  92005066.379 7
> 2025 06 15 11 27 15.0000000  0 28
C19  22191775.441 8                 115558388.541 8
C20  24542050.982 6                 127797125.218 6
C22  23496387.789 7                 122351880.993 7
C35  21743550.479 7                 113224375.785 7
C39  40592163.498 5                 211374054.439 5
C44  22468935.356 8                 117001650.479 8
E02  27141880.801 7  27141886.161 7 142631531.593 7 107899812.445 7
E04  26106374.634 6  26106376.621 6 137189933.482 6 103783249.81016
E06  25102606.418 7  25102609.901 8 131915090.075 7  99792924.729 8
E09  25174071.627 8  25174074.245 8 132290645.284 8 100077029.846 8
E11  26524986.321 7  26524987.054 7 139389741.622 7 105447397.411 7
E30  26681922.615 7  26681926.382 8 140214441.912 7 106071329.271 8
E34  24824343.308 8  24824346.374 8 130452808.881 8  98686715.848 8
E36  23558409.109 8  23558411.613 9 123800273.069 8  93654113.070 9
G01  21725613.249 7                  21725617.434 8  21725618.998 8 114168869.804 7                  88962778.362 8  85256005.255 8
G02  20808654.388 8  20808655.183 6                                 109350214.400 8  85207963.039 6                
G03  23420410.918 5                  23420419.408 5  23420418.781 7 123075018.547 5                  95902687.183 5  91906779.248 7
G08  21121584.208 7                  21121590.638 7  21121587.065 8 110994663.408 7                  86489376.330 7  82885638.692 8
G10  22634066.830 7                  22634072.697 7  22634069.165 7 118942817.423 7                  92682737.937 7  88820940.479 7
G27  23371285.792 7                  23371293.705 7  23371292.056 8 122816918.456 7                  95701522.091 7  91713950.022 8
G32  21916796.341 7                  21916802.239 7  21916799.505 8 115173542.869 7                  89745647.313 7  86006232.284 8
R01  21026619.036 7                 112399305.363 7
R02  19545004.111 8  19545006.120 7 104295887.011 8  81119184.906 7
R03  22294347.339 7  22294353.219 7 119343420.093 7  92822695.744 7
R16  23532857.448 7  23532862.763 6 125708295.829 7  97772943.711 6
R17  19224701.982 8  19224703.598 7 102875266.022 8  80014149.865 7
R18  20751578.619 6  20751583.081 6 110773379.214 6  86157144.996 6
R24  22130492.783 7  22130497.667 6 118341681.272 7  92043530.271 6
> 2025 06 15 11 27 30.0000000  0 28
C19  22191648.541 8                 115557726.557 8
C20  24549516.728 6                 127836023.815 6
C22  23487690.221 7                 122306591.898 7
C35  21745804.772 8                 113236114.927 8
C39  40586925.427 5                 211346779.365 5
C44  22463160.440 7                 116971580.034 7
E02  27149956.745 7  27149962.002 7 142673969.776 7 107931916.583 7
E04  26109467.835 6  26109468.122 6 137206180.521 6 103795540.53816
E06  25101725.147 7  25101729.019 8 131910461.966 7  99789423.588 8
E09  25169388.932 7  25169391.591 9 132266037.676 7 100058414.391 9
E11  26531299.081 6  26531300.214 7 139422917.449 6 105472494.720 7
E30  26684831.984 7  26684836.049 8 140229731.898 7 106082896.051 8
E34  24818887.946 8  24818890.846 8 130424140.184 8  98665028.188 8
E36  23559597.233 8  23559599.865 9 123806517.194 8  93658836.722 9
G01  21718433.597 7                  21718437.622 8  21718439.905 8 114131140.517 7                  88933379.000 8  85227830.838 8
G02  20806509.932 8  20806509.755 6                                 109338943.893 8  85199180.844 6                
G03  23410126.315 5                  23410133.836 5  23410133.839 6 123020969.635 5                  95860571.051 5  91866418.036 6
G08  21127441.520 8                  21127447.524 7  21127444.262 8 111025442.478 8                  86513360.031 7  82908623.070 8
G10  22641428.670 7                  22641434.958 7  22641430.618 7 118981504.601 7                  92712883.791 7  88849830.271 7
G27  23381596.274 7                  23381603.751 7  23381602.595 8 122871099.833 7                  95743741.251 7  91754410.057 8
G32  21915469.337 8                  21915475.054 7  21915471.448 8 115166567.979 8                  89740212.295 7  86001023.738 8
R01  21034892.752 7                 112443531.657 7
R02  19541945.743 8  19541948.010 7 104279568.018 8  81106492.355 7
R03  22282108.665 7  22282115.135 7 119277901.665 7  92771737.019 7
R16  23541136.729 7  23541141.797 6 125752520.010 7  97807340.310 6
R17  19225082.474 8  19225083.960 7 102877302.572 8  80015733.862 7
R18  20743167.302 6  20743168.831 6 110728465.771 6  86122212.337 6
R24  22139755.304 6  22139759.408 6 118391208.372 6  92082051.259 6
> 2025 06 15 11 27 45.0000000  0 28
C19  22191544.748 8                 115557188.360 8
C20  24557000.964 6                 127874988.626 6
C22  23479006.957 8                 122261372.854 8
C35  21748078.765 8                 113247955.472 8
C39  40581693.866 5                 211319533.063 5
C44  22457400.219 8                 116941584.810 8
E02  27158036.312 7  27158042.320 7 142716432.665 7 107964039.362 7
E04  26112578.954 5  26112579.499 6 137222529.317 5 103807908.202 6
E06  25100866.344 7  25100869.553 8 131905945.515 7  99786006.960 8
E09  25164724.797 7  25164727.715 9 132241528.219 7 100039873.151 9
E11  26537617.078 6  26537618.236 7 139456118.173 6 105497610.796 7
E30  26687760.946 7  26687764.921 8 140245123.287 7 106094539.520 8
E34  24813438.495 8  24813441.588 8 130395504.396 8  98643365.424 8
E36  23560796.068 8  23560798.354 9 123812815.433 8  93663601.288 9
G01  21711265.446 7                  21711268.217 7  21711271.338 8 114093469.125 7                  88904024.714 7  85199699.656 8
G02  20804380.373 8  20804380.455 6                                 109327753.763 8  85190461.271 6                
G03  23399846.718 5                  23399854.561 5  23399858.747 6 122966966.986 5                  95818491.13815  91826091.495 6
G08  21133320.736 7                  21133326.847 7  21133323.611 8 111056338.827 7                  86537435.068 7  82931694.991 8
G10  22648800.954 7                  22648807.515 7  22648803.454 7 119020245.644 7                  92743071.546 7  88878760.258 7
G27  23391915.176 7                  23391922.484 7  23391921.248 8 122925324.960 7                  95785994.517 7  91794902.757 8
G32  21914169.031 8                  21914175.205 7  21914171.938 8 115159737.205 8                  89734889.664 7  85995922.863 8
R01  21043190.811 7                 112487889.453 7
R02  19538924.576 8  19538926.852 7 104263445.950 8  81093952.973 7
R03  22269882.284 7  22269888.114 7 119212452.517 7  92720832.188 7
R16  23549436.325 7  23549440.833 6 125796853.795 7  97841822.084 6
R17  19225489.004 8  19225490.813 7 102879479.003 8  80017426.615 7
R18  20734764.673 5  20734768.968 6 110683622.730 5  86087334.478 6
R24  22149030.040 6  22149035.276 6 118440807.398 6  92120628.306 6
> 2025 06 15 11 28  0.0000000  0 28
C19  22191464.980 8                 115556776.441 8
C20  24564499.210 6                 127914021.715 6
C22  23470336.330 7                 122216226.608 7
C35  21750372.294 8                 113259899.987 8
C39  40576465.630 5                 211292318.277 5
C44  22451654.703 8                 116911667.540 8
E02  27166122.348 7  27166127.898 7 142758922.443 7 107996182.489 7
E04  26115712.685 5  26115710.885 6 137238982.161 5 103820354.72916
E06  25100028.779 7  25100031.963 8 131901543.387 7  99782676.768 8
E09  25160079.908 7  25160082.958 9 132217119.534 7 100021408.166 9
E11  26543940.500 7  26543941.328 7 139489346.259 7 105522747.587 7
E30  26690709.498 7  26690713.446 8 140260618.567 7 106106261.583 8
E34  24807996.149 8  24807999.045 8 130366904.145 8  98621729.540 8
E36  23562005.568 8  23562007.695 9 123819170.332 8  93668408.746 9
G01  21704107.770 7                  21704111.408 7  21704114.053 8 114055858.322 7                  88874717.593 7  85171613.697 8
G02  20802266.714 8  20802267.293 6                                 109316646.616 8  85181806.370 6                
G03  23389582.092 5                  23389588.065 5  23389593.373 6 122913013.450 5                  95776449.537 5  91785801.645 6
G08  21139222.752 7                  21139228.633 7  21139225.673 8 111087354.705 7                  86561603.273 7  82954856.162 8
G10  22656183.423 7                  22656190.298 7  22656186.741 8 119059042.750 7                  92773303.067 7  88907732.085 8
G27  23402242.805 7                  23402249.847 7  23402248.464 8 122979596.194 7                  95828283.755 7  91835429.924 8
G32  21912896.968 8                  21912903.342 7  21912899.544 8 115153053.168 8                  89729681.343 7  85990931.555 8
R01  21051513.710 7                 112532381.247 7
R02  19535940.933 8  19535942.673 7 104247523.784 8  81081569.080 7
R03  22257669.148 7  22257674.350 7 119147075.395 7  92669983.371 7
R16  23557756.775 7  23557761.342 6 125841298.851 7  97876390.481 6
R17  19225922.797 8  19225924.320 7 102881797.889 8  80019230.209 7
R18  20726378.025 6  20726382.459 6 110638852.854 6  86052513.525 6
R24  22158319.045 6  22158323.966 6 118490481.135 6  92159263.428 6
> 2025 06 15 11 28 15.0000000  0 27
C19  22191410.731 8                 115556492.286 8
C20  24572007.841 6                 127953124.545 6
C22  23461679.517 7                 122171154.900 7
C35  21752686.149 8                 113271950.017 8
C39  40571246.808 6                 211265136.438 6
C44  22445924.830 8                 116881829.937 8
E02  27174213.060 6  27174218.454 7 142801440.489 6 108028346.992 7
E04  26118860.870 6  26118862.181 6 137255540.722 6 103832881.115 6
E06  25099213.320 7  25099216.403 8 131897257.094 7  99779434.217 8
E09  25155454.236 7  25155457.741 9 132192813.312 7 100003020.705 9
E11  26550269.706 7  26550269.916 7 139522603.259 7 105547906.288 7
E30  26693678.960 7  26693681.956 8 140276219.132 7 106118063.280 8
E34  24802560.677 8  24802563.607 8 130338341.034 8  98600121.749 8
E36  23563226.097 8  23563228.068 9 123825583.473 8  93673260.249 9
G01  21696962.166 7                  21696966.094 7  21696968.764 8 114018309.769 7                  88845459.016 7  85143574.203 8
G02  20800168.952 8  20800169.985 6                                 109305624.160 8  85173217.442 6                
G08  21145147.744 8                  21145153.805 7  21145150.536 8 111118491.447 8                  86585865.671 7  82978107.611 8
G10  22663577.389 7                  22663583.395 7  22663580.152 7 119097897.315 7                  92803579.347 7  88936746.829 7
G27  23412579.175 7                  23412586.594 7  23412584.619 8 123033914.763 7                  95870609.855 7  91875992.440 8
G32  21911653.500 7                  21911659.445 7  21911656.072 8 115146517.511 7                  89724588.622 7  85986051.013 8
R01  21059862.029 7                 112577008.090 7
R02  19532994.698 8  19532996.383 7 104231802.939 8  81069341.788 7
R03  22245469.923 7  22245475.487 7 119081772.028 7  92619191.907 7
R16  23566098.214 7  23566103.426 6 125885856.320 7  97911046.212 6
R17  19226382.977 8  19226384.648 7 102884260.869 8  80021145.855 7
R18  20718006.961 6  20718008.963 6 110594158.206 6  86017751.075 6
R24  22167622.287 7  22167627.569 6 118540230.752 7  92197957.385 6
> 2025 06 15 11 28 30.0000000  0 27
C19  22191379.618 8                 115556329.705 8
C20  24579530.964 7                 127992290.678 7
C22  23453038.763 7                 122126151.807 7
C35  21755019.896 8                 113284099.396 8
C39  40566031.988 6                 211237981.502 6
C44  22440208.893 8                 116852066.079 8
E02  27182308.059 6  27182313.616 7 142843980.320 6 108060528.035 7
E04  26122032.298 5  26122032.266 7 137272198.602 5 103845482.633 7
E06  25098417.779 7  25098421.652 8 131893080.437 7  99776274.641 8
E09  25150847.561 7  25150850.799 9 132168603.593 7  99984706.234 9
E11  26556601.544 7  26556602.807 7 139555882.996 7 105573082.124 7
E30  26696666.335 7  26696669.550 8 140291918.631 7 106129939.822 8
E34  24797131.319 8  24797134.191 8 130309808.951 8  98578537.430 8
E36  23564456.308 8  23564458.387 8 123832048.729 8  93678151.165 8
G01  21689827.958 7                  21689831.398 7  21689833.980 8 113980817.484 7                  88816244.235 7  85115576.729 8
G02  20798086.367 8  20798087.344 6                                 109294680.183 8  85164689.663 6                
G08  21151094.837 7                  21151100.731 7  21151097.822 8 111149742.727 7                  86610217.304 7  83001444.565 8
G10  22670980.684 7                  22670987.252 7  22670983.243 7 119136802.962 7                  92833895.431 7  88965799.710 7
G27  23422923.478 7                  23422930.695 7  23422928.845 8 123088274.233 7                  95912967.861 7  91916585.500 8
G32  21910437.159 7                  21910442.468 7  21910440.007 8 115140124.074 7                  89719606.746 7  85981276.705 8
R01  21068234.510 7                 112621763.338 7
R02  19530085.306 8  19530087.203 7 104216277.617 8  81057266.543 7
R03  22233283.649 7  22233288.798 7 119016537.450 7  92568453.931 7
R16  23574459.065 7  23574464.098 6 125930519.567 7  97945784.296 6
R17  19226869.129 8  19226870.647 8 102886862.111 8  80023169.029 8
R18  20709646.281 7  20709647.552 6 110549532.916 7  85983042.500 6
R24  22176938.780 7  22176943.555 6 118590049.559 7  92236705.415 6
> 2025 06 15 11 28 45.0000000  0 28
C19  22191372.278 8                 115556290.996 8
C20  24587065.010 7                 128031522.225 7
C22  23444410.129 8                 122081219.961 8
C35  21757372.284 8                 113296350.564 8
C39  40560823.357 6                 211210855.984 6
C44  22434507.406 7                 116822378.608 7
E02  27190408.700 6  27190413.213 7 142886544.142 6 108092727.205 7
E04  26125218.130 5  26125221.603 7 137288957.833 5 103858160.968 7
E06  25097644.640 7  25097648.243 8 131889015.922 7  99773199.874 8
E09  25146259.407 7  25146262.733 9 132144492.928 7  99966466.680 9
E11  26562939.473 7  26562940.309 7 139589187.850 7 105598276.979 7
E30  26699672.871 7  26699676.331 8 140307719.399 7 106141892.981 8
E34  24791708.264 8  24791711.171 9 130281310.398 8  98556978.478 9
E36  23565696.427 8  23565699.071 9 123838568.512 8  93683083.321 9
G01  21682704.590 7                  21682708.303 7  21682710.928 8 113943383.976 7                  88787075.331 7  85087623.177 8
G02  20796019.511 8  20796020.090 6                                 109283817.342 8  85156225.117 6                
G03  23358836.450 6                  23358844.381 5  23358844.327 6 122751456.03616                  95650550.748 5  91665148.659 6
G08  21157063.649 8                  21157070.375 7  21157066.828 8 111181110.691 8                  86634659.855 7  83024868.689 8
G10  22678394.610 7                  22678401.083 7  22678396.950 7 119175761.929 7                  92864253.030 7  88994892.414 7
G27  23433275.588 7                  23433283.389 7  23433281.337 8 123142676.788 7                  95955359.354 7  91957210.687 8
G32  21909247.882 8                  21909253.673 7  21909251.444 8 115133875.325 8                  89714737.583 7  85976610.445 8
R01  21076631.686 7                 112666648.634 7
R02  19527212.838 8  19527214.690 7 104200949.998 8  81045345.034 7
R03  22221111.490 7  22221116.231 7 118951373.703 7  92517771.104 7
R16  23582839.884 7  23582845.063 6 125975290.320 7  97980605.980 6
R17  19227381.774 8  19227383.281 7 102889604.043 8  80025301.629 7
R18  20701299.296 7  20701302.536 6 110504979.644 7  85948389.954 6
R24  22186268.845 6  22186273.176 6 118639940.191 6  92275509.111 6
> 2025 06 15 11 29  0.0000000  0 28
C19  22191387.636 8                 115556371.864 8
C20  24594609.971 6                 128070814.604 6
C22  23435794.144 7                 122036355.285 7
C35  21759744.046 8                 113308699.245 8
C39  40555618.930 6                 211183755.659 6
C44  22428820.078 8                 116792763.363 8
E02  27198511.431 6  27198516.548 7 142929127.320 6 108124941.053 7
E04  26128426.625 6  26128429.104 7 137305814.360 6 103870912.748 7
E06  25096892.312 7  25096895.382 8 131885059.211 7  99770206.640 8
E09  25141688.952 7  25141692.510 9 132120477.036 7  99948298.865 9
E11  26569281.315 7  26569282.176 7 139622513.387 7 105623487.535 7
E30  26702698.495 7  26702701.506 8 140323616.941 7 106153919.385 8
E34  24786290.726 8  24786293.560 9 130252841.088 8  98535441.647 9
E36  23566946.988 8  23566949.266 9 123845138.530 8  93688053.468 9
G01  21675591.393 7                  21675595.905 7  21675597.931 8 113906005.143 7                  88757948.946 7  85059710.433 8
G02  20793967.248 8  20793967.636 6                                 109273031.397 8  85147820.503 6                
G03  23348604.206 5                  23348617.333 5  23348611.855 6 122697689.136 5                  95608654.462 5  91624998.166 6
G08  21163054.204 8                  21163061.014 8  21163056.607 8 111212590.815 8                  86659189.816 8  83048376.566 8
G10  22685817.581 7                  22685824.260 7  22685820.031 7 119214769.578 7                  92894648.643 7  89024021.473 7
G27  23443635.619 7                  23443643.383 7  23443640.602 8 123197117.683 7                  95997780.773 7  91997864.536 8
G32  21908085.036 8                  21908091.057 7  21908089.323 8 115127766.990 8                  89709977.854 7  85972049.054 8
R01  21085051.277 7                 112711659.391 7
R02  19524376.403 8  19524378.893 7 104185815.610 8  81033573.865 7
R03  22208949.870 7  22208954.935 7 118886277.119 7  92467140.540 7
R16  23591240.289 7  23591246.220 5 126020163.690 7  98015507.403 5
R17  19227919.179 8  19227920.851 7 102892482.188 8  80027540.190 7
R18  20692966.530 6  20692969.538 6 110460494.439 6  85913790.263 6
R24  22195611.890 6  22195616.837 6 118689897.725 6  92314364.869 6
> 2025 06 15 11 29 15.0000000  0 28
C19  22191427.551 8                 115556578.895 8
C20  24602169.148 6                 128110174.375 6
C22  23427192.312 7                 121991564.632 7
C35  21762135.266 8                 113321152.136 8
C39  40550420.552 6                 211156687.314 6
C44  22423149.003 8                 116763227.340 8
E02  27206618.972 6  27206625.041 7 142971736.427 6 108157174.532 7
E04  26131652.705 4  26131656.485 7 137322774.58414 103883743.066 7
E06  25096161.040 8  25096163.952 8 131881217.045 8  99767300.095 8
E09  25137137.797 7  25137141.871 9 132096562.976 7  99930208.069 9
E11  26575628.066 7  26575629.233 7 139655866.484 7 105648718.882 7
E30  26705743.824 7  26705746.455 8 140339617.953 7 106166024.029 8
E34  24780879.968 8  24780882.856 9 130224407.897 8  98513932.119 9
E36  23568208.029 8  23568210.387 9 123851765.511 8  93693066.745 9
G01  21668490.528 7                  21668494.340 8  21668496.078 8 113868687.876 7                  88728870.599 8  85031843.660 8
G02  20791930.370 8  20791931.127 6                                 109262329.131 8  85139481.081 6                
G03  23338383.093 6                  23338394.477 5  23338390.365 6 122643972.633 6                  95566797.415 5  91584885.251 6
G08  21169067.183 8                  21169073.957 8  21169069.864 8 111244189.648 8                  86683812.263 8  83071973.082 8
G10  22693250.702 7                  22693256.916 7  22693253.917 8 119253832.575 7                  92925087.260 7  89053191.858 8
G27  23454003.843 7                  23454011.310 7  23454009.273 8 123251603.520 7                  96040237.205 7  92038551.957 8
G32  21906950.710 8                  21906956.991 7  21906954.694 8 115121805.861 8                  89705332.861 7  85967597.596 8
R01  21093496.309 7                 112756801.754 7
R02  19521577.720 8  19521580.005 8 104170881.636 8  81021958.547 8
R03  22196803.437 7  22196808.981 7 118821254.639 7  92416567.543 7
R16  23599661.472 7  23599666.188 6 126065145.888 7  98050493.473 6
R17  19228483.858 8  19228485.786 8 102895503.648 8  80029890.208 8
R18  20684648.967 7  20684649.289 6 110416084.382 7  85879249.177 6
R24  22204968.526 7  22204971.760 6 118739929.146 7  92353278.158 6
> 2025 06 15 11 29 30.0000000  0 28
C19  22191492.321 8                 115556917.271 8
C20  24609739.703 6                 128149606.453 6
C22  23418606.283 7                 121946853.543 7
C29  25382394.842 5                 132173075.16915
C35  21764547.232 8                 113333714.438 8
C39  40545229.454 6                 211129656.270 6
C44  22417492.846 8                 116733775.914 8
E02  27214734.771 6  27214739.359 7 143014376.536 6 108189431.415 7
E06  25095452.587 7  25095455.544 8 131877494.757 7  99764484.229 8
E09  25132608.326 8  25132611.547 9 132072756.095 8  99912198.343 9
E11  26581981.557 7  26581982.402 7 139689252.337 7 105673974.993 7
E30  26708808.876 7  26708812.001 8 140355727.458 7 106178210.771 8
E34  24775477.024 8  24775479.959 8 130196016.136 8  98492453.970 8
E36  23569480.646 8  23569483.363 9 123858454.802 8  93698127.147 9
G01  21661401.657 7                  21661406.232 8  21661407.755 8 113831437.577 7                  88699844.416 8  85004026.914 8
G02  20789910.355 8  20789911.399 6                                 109251715.854 8  85131210.986 6                
G03  23328172.146 5                  23328180.661 5  23328179.304 7 122590311.814 5                  95524983.942 5  91544813.841 7
G08  21175104.043 7                  21175110.552 8  21175106.853 8 111275912.207 7                  86708531.109 8  83095662.021 8
G10  22700696.006 7                  22700702.153 7  22700699.369 8 119292955.942 7                  92955572.981 7  89082407.329 8
G27  23464381.814 6                  23464388.675 7  23464386.985 8 123306139.219 6                  96082732.511 7  92079276.605 8
G32  21905845.812 7                  21905851.636 7  21905848.083 8 115115997.284 7                  89700806.682 7  85963260.017 8
R01  21101966.925 7                 112802080.715 7
R02  19518817.782 8  19518819.872 7 104156153.496 8  81010503.359 7
R03  22184670.914 7  22184677.065 7 118756312.559 7  92366057.159 7
R16  23608103.455 7  23608108.547 6 126110241.902 7  98085568.188 6
R17  19229076.349 8  19229077.291 7 102898674.104 8  80032356.142 7
R18  20676341.717 7  20676345.186 6 110371755.104 7  85844770.877 6
R24  22214338.621 6  22214342.588 6 118790039.767 6  92392253.047 6
> 2025 06 15 11 29 45.0000000  0 28
C19  22191582.093 8                 115557383.272 8
C20  24617326.543 6                 128189106.854 6
C22  23410034.251 8                 121902218.510 8
C29  25391326.275 5                 132219605.575 5
C35  21766980.772 8                 113346382.533 8
C39  40540044.815 6                 211102658.985 6
C44  22411851.714 8                 116704405.696 8
E02  27222853.441 7  27222858.988 7 143057043.719 7 108221708.764 7
E06  25094766.301 7  25094769.269 8 131873888.711 7  99761756.290 8
E09  25128097.827 8  25128100.913 9 132049052.892 8  99894267.046 9
E11  26588340.981 7  26588341.180 7 139722667.229 7 105699253.120 7
E30  26711894.556 7  26711897.606 8 140371941.747 7 106190476.786 8
E34  24770081.819 8  24770084.490 9 130167662.214 8  98471004.417 9
E36  23570764.809 8  23570767.498 9 123865202.751 8  93703231.910 9
G01  21654325.293 7                  21654329.872 8  21654331.848 8 113794250.787 7                  88670867.742 8  84976257.571 8
G02  20787907.240 8  20787907.567 6                                 109241188.096 8  85123007.547 6                
G03  23317969.282 5                  23317979.066 6  23317978.116 7 122536703.203 5                  95483211.045 6  91504781.547 7
G08  21181163.619 8                  21181169.950 8  21181166.551 8 111307754.711 8                  86733343.395 8  83119440.474 8
G10  22708151.786 7                  22708157.468 7  22708155.184 8 119332135.794 7                  92986102.724 7  89111664.994 8
G27  23474768.623 7                  23474776.228 7  23474773.559 8 123360720.874 7                  96125263.645 7  92120035.569 8
G32  21904769.136 7                  21904774.776 7  21904771.927 8 115110337.630 7                  89696396.542 7  85959033.668 8
R01  21110462.406 7                 112847492.179 7
R02  19516095.687 8  19516098.000 7 104141627.498 8  80999205.345 7
R03  22172553.798 7  22172559.861 7 118691447.393 7  92315606.562 7
R16  23616565.715 6  23616570.804 5 126155447.531 6  98120728.109 5
R17  19229695.734 8  19229697.586 7 102901989.687 8  80034934.913 7
R18  20668050.912 7  20668055.527 6 110327503.268 7  85810352.839 6
R24  22223724.212 6  22223729.286 6 118840225.439 6  92431286.271 6
> 2025 06 15 11 30  0.0000000  0 29
C19  22191694.748 8                 115557971.237 8
C20  24624923.697 6                 128228669.910 6
C22  23401476.132 7                 121857654.100 7
C29  25400269.740 5                 132266165.438 5
C35  21769432.588 8                 113359150.840 8
C39  40534866.359 6                 211075689.782 6
C44  22406226.565 8                 116675111.262 8
E02  27230976.647 6  27230982.335 7 143099732.069 6 108254002.131 7
E04  26141456.374 5  26141459.576 7 137374257.70215 103922715.208 7
E06  25094100.914 7  25094104.126 8 131870393.229 7  99759111.987 8
E09  25123605.338 7  25123608.956 9 132025447.821 7  99876410.001 9
E11  26594703.491 7  26594704.252 7 139756105.522 7 105724548.940 7
E30  26714998.105 7  26715001.997 8 140388255.069 7 106202817.671 8
E34  24764692.300 8  24764695.038 9 130139340.553 8  98449579.279 9
E36  23572059.154 8  23572061.642 9 123872003.718 8  93708376.806 9
G01  21647259.561 7                  21647264.319 8  21647266.094 8 113757121.961 7                  88641936.219 8  84948531.538 8
G02  20785919.045 8  20785919.275 6                                 109230740.312 8  85114866.399 6                
G03  23307779.427 5                  23307788.185 6  23307784.524 7 122483141.361 5                  95441474.593 6  91464784.147 7
G08  21187244.424 8                  21187250.878 7  21187248.378 8 111339711.158 8                  86758244.516 7  83143304.048 8
G10  22715616.911 7                  22715622.934 7  22715620.556 8 119371366.277 7                  93016671.888 7  89140960.442 8
G27  23485162.572 7                  23485170.273 7  23485167.916 8 123415342.553 7                  96167825.903 7  92160824.400 8
G32  21903718.923 8                  21903724.729 8  21903722.383 8 115104821.271 8                  89692098.088 8  85954914.326 8
R01  21118981.072 7                 112893029.704 7
R02  19513410.286 8  19513412.434 7 104127298.020 8  80988060.225 7
R03  22160449.579 7  22160455.089 7 118626653.979 7  92265211.761 7
R16  23625047.578 6  23625052.292 5 126200756.410 6  98155968.190 5
R17  19230341.597 8  19230343.581 8 102905444.783 8  80037622.207 8
R18  20659775.852 7  20659778.491 6 110283323.433 7  85775990.775 6
R24  22233121.561 6  22233127.058 6 118890480.085 6  92470373.193 6
> 2025 06 15 11 30 15.0000000  0 28
C19  22191829.673 8                 115558673.870 8
C20  24632530.815 5                 128268287.990 5
C22  23392930.185 7                 121813153.312 7
C29  25409212.554 5                 132312440.55515
C35  21771902.396 8                 113372012.063 8
C39  40529690.716 6                 211048741.498 6
C44  22400614.296 8                 116645885.485 8
E02  27239102.531 6  27239108.130 7 143142433.921 6 108286305.728 7
E04  26144762.142 5  26144764.044 7 137391623.145 5 103935852.039 7
E06  25093455.700 7  25093458.656 8 131867001.004 7  99756545.802 8
E09  25119131.364 8  25119134.245 9 132001933.770 8  99858621.793 9
E11  26601070.189 7  26601070.355 7 139789559.872 7 105749856.901 7
E30  26718120.234 7  26718123.687 8 140404659.920 7 106215227.795 8
E34  24759307.816 8  24759310.347 9 130111043.870 8  98428173.040 9
E36  23573361.589 8  23573364.522 9 123878850.361 8  93713556.246 9
G01  21640204.419 7                  21640208.296 8  21640210.136 8 113720043.988 7                  88613044.297 8  84920843.453 8
G02  20783945.008 8  20783945.581 6                                 109220365.320 8  85106781.990 6                
G08  21193345.850 8                  21193351.971 7  21193349.512 8 111371774.038 8                  86783228.591 7  83167247.099 8
G10  22723090.290 7                  22723096.916 7  22723093.380 8 119410639.845 7                  93047274.640 7  89170288.106 8
G27  23495563.087 7                  23495570.961 7  23495568.223 8 123469996.563 7                  96210413.382 7  92201637.438 8
G32  21902695.238 8                  21902700.943 7  21902698.054 8 115099440.910 8                  89687905.631 7  85950896.538 8
R01  21127521.687 7                 112938685.480 7
R02  19510760.387 8  19510762.653 8 104113157.692 8  80977062.192 8
R03  22148357.870 7  22148363.332 7 118561924.985 7  92214867.013 7
R16  23633547.904 6  23633551.116 5 126246160.498 6  98191282.468 5
R17  19231012.331 8  19231014.279 8 102909032.182 8  80040412.415 8
R18  20651513.677 7  20651514.670 6 110239208.494 7  85741679.235 6
R24  22242530.086 5  22242537.366 7 118940796.499 5  92509508.091 7
> 2025 06 15 11 30 30.0000000  0 27
C19  22191986.167 8                 115559488.367 8
C20  24640150.995 5                 128307958.216 5
C22  23384396.308 7                 121768713.755 7
C35  21774389.838 8                 113384963.565 8
C39  40524518.974 6                 211021811.651 6
C44  22395014.557 8                 116616726.012 8
E02  27247230.421 6  27247236.110 7 143185146.479 6 108318617.394 7
E04  26148084.353 5  26148085.540 7 137409077.786 5 103949056.253 7
E06  25092829.119 7  25092832.279 8 131863709.367 7  99754055.702 8
E09  25114673.731 7  25114676.418 9 131978508.133 7  99840900.488 9
E11  26607438.843 7  26607439.107 7 139823027.581 7 105775174.961 7
E30  26721258.599 7  26721262.265 8 140421153.449 7 106227705.056 8
E34  24753927.329 8  24753929.971 9 130082769.588 8  98406783.738 9
E36  23574672.548 8  23574675.588 9 123885740.072 8  93718768.258 9
G01  21633157.714 7                  21633161.473 8  21633163.742 8 113683014.289 7                  88584190.015 8  84893191.433 8
G02  20781983.859 8  20781984.891 6                                 109210060.603 8  85098752.364 6                
G03  23287415.157 5                  23287422.049 6  23287421.792 7 122376135.10215                  95358092.588 6  91384876.288 7
G08  21199467.179 8                  21199473.650 8  21199470.147 8 111403940.488 8                  86808293.347 8  83191267.471 8
G10  22730571.540 7                  22730577.728 7  22730574.577 8 119449953.631 7                  93077908.758 7  89199645.808 8
G27  23505969.351 7                  23505976.850 7  23505974.621 8 123524680.085 7                  96253023.854 7  92242472.446 8
G32  21901696.182 8                  21901702.739 7  21901699.518 8 115094193.914 8                  89683817.097 7  85946978.346 8
R01  21136084.069 7                 112984456.405 7
R02  19508145.825 8  19508147.541 7 104099203.842 8  80966209.223 7
R03  22136277.530 7  22136282.544 7 118497258.318 7  92164570.831 7
R17  19231706.852 8  19231708.270 8 102912749.163 8  80043303.372 8
R18  20643259.127 7  20643261.523 6 110195156.072 7  85707416.259 6
R24  22251951.796 7  22251957.870 7 118991171.434 7  92548688.485 7
> 2025 06 15 11 30 45.0000000  0 27
C19  22192165.110 8                 115560420.169 8
C20  24647780.676 5                 128347685.855 5
C22  23375875.202 8                 121724340.978 8
C35  21776895.497 8                 113398010.784 8
C39  40519352.408 6                 210994905.707 6
C44  22389428.332 8                 116587638.458 8
E02  27255361.906 6  27255367.206 7 143227874.846 6 108350941.101 7
E04  26151421.465 4  26151424.982 7                 103962331.936 7
E06  25092223.555 8  25092226.132 8 131860523.822 8  99751645.868 8
E09  25110233.562 8  25110236.493 9 131955176.611 8  99823250.352 9
E11  26613810.532 7  26613811.414 7 139856514.109 7 105800507.306 7
E30  26724414.123 7  26724418.689 8 140437741.056 7 106240253.476 8
E34  24748551.717 8  24748554.829 9 130054523.266 8  98385415.583 9
E36  23575993.478 8  23575995.891 9 123892678.360 8  93724017.021 9
G01  21626121.411 7                  21626124.946 8  21626127.257 8 113646038.591 7                  88555377.733 8  84865579.702 8
G02  20780037.259 8  20780038.017 6                                 109199831.396 8  85090781.553 6                
G03  23277244.955 6                  23277253.275 6  23277252.272 7 122322693.042 6                  95316449.385 6  91344968.295 7
G08  21205608.979 7                  21205615.125 7  21205611.529 8 111436215.783 7                  86833442.877 7  83215369.106 8
G10  22738061.466 7                  22738068.082 7  22738064.582 8 119489312.922 7                  93108578.326 7  89229037.460 8
G27  23516381.363 7                  23516389.747 7  23516387.084 8 123579398.204 7                  96295661.263 7  92283333.310 8
G32  21900724.798 8                  21900730.769 7  21900727.653 8 115089085.890 8                  89679836.788 7  85943163.865 8
R01  21144668.747 7                 113030347.470 7
R02  19505566.466 8  19505568.697 7 104085442.058 8  80955505.609 7
R03  22124209.953 7  22124215.156 7 118432659.800 7  92114327.579 7
R17  19232426.249 8  19232428.061 8 102916601.476 8  80046299.633 8
R18  20635020.046 7  20635021.586 6 110151172.047 7  85673206.441 6
R24  22261383.977 6  22261388.449 6 119041610.713 6  92587918.903 6
> 2025 06 15 11 31  0.0000000  0 27
C19  22192366.306 8                 115561467.441 8
C20  24655424.033 5                 128387468.839 5
C22  23367365.854 8                 121680033.499 8
C35  21779418.869 8                 113411151.985 8
C39  40514190.092 6                 210968022.018 6
C44  22383855.982 8                 116558621.319 8
E02  27263495.774 7  27263500.858 7 143270617.213 7 108383275.342 7
E04  26154780.861 5  26154782.197 7 137444268.13115 103975677.650 7
E06  25091636.859 8  25091639.763 8 131857442.642 8  99749314.972 8
E09  25105811.719 8  25105814.308 8 131931937.577 8  99805670.176 8
E11  26620186.291 7  26620186.914 7 139890017.722 7 105825852.533 7
E30  26727588.807 7  26727592.745 8 140454420.887 7 106252871.619 8
E34  24743181.975 8  24743184.696 8 130026303.195 8  98364067.312 8
E36  23577322.693 8  23577325.158 9 123899663.515 8  93729301.232 9
G01  21619095.087 8                  21619098.782 7  21619100.920 8 113609115.257 8                  88526606.316 7  84838007.091 8
G02  20778104.695 8  20778104.965 6                                 109189676.115 8  85082868.364 6                
G03  23267083.691 5                  23267091.849 6  23267089.509 7 122269292.161 5                  95274838.413 6  91305091.048 7
G08  21211770.922 7                  21211777.301 7  21211773.828 8 111468597.874 7                  86858675.667 7  83239550.522 8
G10  22745559.848 7                  22745566.376 7  22745562.710 8 119528715.789 7                  93139281.821 7  89258461.636 8
G27  23526800.130 6                  23526808.578 7  23526806.032 8 123634148.903 6                  96338324.092 7  92324218.520 8
G32  21899778.790 8                  21899784.666 7  21899780.936 8 115084114.992 8                  89675963.391 7  85939451.869 8
R01  21153276.011 7                 113076356.395 7
R02  19503023.382 8  19503025.463 7 104071870.591 8  80944950.015 7
R03  22112155.386 8  22112160.193 7 118368128.834 8  92064136.905 7
R17  19233171.788 8  19233172.914 7 102920587.410 8  80049399.775 7
R18  20626793.765 7  20626794.459 6 110107254.929 7  85639048.675 6
R24  22270829.018 6  22270834.337 6 119092112.038 6  92627197.727 6
> 2025 06 15 11 31 15.0000000  0 27
C19  22192589.057 8                 115562627.327 8
C20  24663077.117 4                 128427304.343 4
C22  23358869.218 8                 121635788.757 8
C35  21781959.738 8                 113424384.423 8
C39  40509030.893 6                 210941157.855 6
C44  22378296.722 8                 116529671.982 8
E02  27271630.757 6  27271636.407 7 143313370.450 6 108415617.809 7
E04  26158155.367 6  26158156.415 7 137461999.347 6 103989091.206 7
E06  25091069.681 7  25091072.828 8 131854463.008 7  99747060.902 8
E09  25101406.289 7  25101409.178 8 131908788.363 7  99788157.960 8
E11  26626564.859 7  26626565.137 7 139923535.596 7 105851208.555 7
E30  26730779.976 7  26730783.865 8 140471189.938 7 106265557.288 8
E34  24737816.727 8  24737819.081 9 129998106.697 8  98342736.845 9
E36  23578659.997 8  23578662.768 9 123906692.696 8  93734618.769 9
G01  21612078.275 8                  21612082.372 7  21612084.587 8 113572241.581 8                  88497873.658 7  84810471.593 8
G02  20776185.890 8  20776186.044 6                                 109179592.068 8  85075010.668 6                
G03  23256929.851 6                  23256937.857 6  23256935.728 7 122215929.921 6                  95233257.529 6  91265242.671 7
G08  21217952.078 7                  21217959.144 7  21217955.963 8 111501083.804 7                  86883989.377 7  83263809.477 8
G10  22753065.631 6                  22753072.436 7  22753068.253 7 119568159.148 6                  93170016.889 7  89287916.070 7
G27  23537225.079 6                  23537232.856 7  23537230.891 8 123688929.182 6                  96381009.926 7  92365125.759 8
G32  21898857.947 8                  21898863.794 7  21898860.804 8 115079278.518 8                  89672194.745 7  85935840.248 8
R01  21161904.161 7                 113122480.012 7
R02  19500515.472 8  19500517.204 8 104058486.820 8  80934540.424 8
R03  22100111.983 7  22100117.021 7 118303661.941 7  92013996.069 7
R17  19233940.397 8  19233941.789 7 102924704.278 8  80052601.790 7
R18  20618576.981 7  20618579.888 6 110063402.310 7  85604941.125 6
R24  22280282.823 4  22280288.022 6                  92666522.490 6
> 2025 06 15 11 31 30.0000000  0 27
C19  22192833.030 8                 115563899.345 8
C20  24670739.793 5                 128467191.305 5
C22  23350385.246 8                 121591606.503 8
C35  21784518.808 8                 113437707.646 8
C39  40503875.534 5                 210914312.830 5
C44  22372750.651 8                 116500790.223 8
E02  27279769.556 6  27279774.113 7 143356133.806 6 108447967.949 7
E04  26161545.880 5  26161547.262 7 137479819.489 5 104002572.081 7
E06  25090521.489 7  25090525.072 8 131851584.498 7  99744883.350 8
E09  25097017.468 7  25097020.991 8 131885728.649 7  99770713.471 8
E11  26632945.360 7  26632945.959 7 139957067.242 7 105876574.999 7
E30  26733988.799 7  26733991.895 8 140488047.693 7 106278310.055 8
E34  24732455.219 8  24732457.906 9 129969933.344 8  98321423.905 9
E36  23580006.091 8  23580008.706 9 123913765.523 8  93739969.317 9
G01  21605070.761 7                  21605074.830 7  21605077.187 8 113535417.378 7                  88469179.491 7  84782973.021 8
G02  20774280.088 8  20774280.334 6                                 109169578.944 8  85067208.225 6                
G03  23246782.617 5                  23246790.772 6  23246789.176 7 122162606.053 5                  95191706.560 6  91225422.999 7
G08  21224154.186 7                  21224161.081 8  21224157.100 8 111533672.896 7                  86909383.449 8  83288145.479 8
G10  22760579.015 6                  22760585.889 7  22760581.298 7 119607642.457 6                  93200783.065 7  89317400.314 7
G27  23547654.106 6                  23547661.835 7  23547660.747 8 123743738.234 6                  96423718.242 7  92406054.510 8
G32  21897963.234 8                  21897969.412 7  21897966.429 8 115074576.111 8                  89668530.514 7  85932328.688 8
R01  21170553.699 7                 113168717.247 7
R02  19498042.084 8  19498044.133 7 104045290.265 8  80924276.459 7
R03  22088081.121 7  22088086.041 7 118239259.707 7  91963905.539 7
R17  19234734.245 8  19234736.179 8 102928951.736 8  80055905.378 8
R18  20610375.191 7  20610375.364 5 110019614.012 7  85570883.590 5
R24  22289749.597 6  22289754.824 6 119193291.55116  92705892.614 6
> 2025 06 15 11 31 45.0000000  0 28
C19  22193098.499 8                 115565282.115 8
C20  24678409.867 5                 128507128.50415
C22  23341912.726 8                 121547485.668 8
C29  25462987.658 5                 132592349.75615
C35  21787094.488 8                 113451120.295 8
C39  40498724.155 5                 210887485.729 5
C44  22367216.524 8                 116471974.968 8
E02  27287906.917 6  27287913.282 7 143398905.863 6 108480324.624 7
E04  26164953.777 6  26164954.811 7 137497727.289 6 104016119.289 7
E06  25089992.864 7  25089996.281 8 131848805.894 7  99742781.349 8
E09  25092646.993 7  25092649.659 8 131862757.337 7  99753335.832 8
E11  26639329.254 7  26639329.298 7 139990611.385 7 105901950.893 7
E30  26737213.363 7  26737216.579 8 140504992.689 7 106291128.842 8
E34  24727098.185 8  24727100.887 9 129941781.938 8  98300127.577 9
E36  23581359.942 8  23581362.649 9 123920880.756 8  93745351.938 9
G01  21598072.398 8                  21598076.150 7  21598079.214 8 113498641.514 8                  88440522.986 7  84755510.552 8
G02  20772387.973 8  20772388.212 6                                 109159635.564 8  85059460.142 6                
G03  23236641.515 5                  23236650.295 6  23236647.960 7 122109319.783 5                  95150184.635 6  91185631.226 7
G08  21230374.815 8                  21230381.838 7  21230378.216 8 111566363.673 8                  86934856.729 7  83312557.372 8
G10  22768099.432 6                  22768106.528 7  22768102.019 7 119647164.113 6                  93231579.144 7  89346913.208 7
G27  23558089.306 6                  23558097.550 7  23558095.274 8 123798574.512 6                  96466447.776 7  92447003.613 8
G32  21897093.728 8                  21897099.876 7  21897096.907 8 115070006.416 8                  89664969.720 7  85928916.251 8
R01  21179224.538 7                 113215066.559 7
R02  19495603.595 8  19495606.155 8 104032279.769 8  80914157.165 8
R03  22076062.099 7  22076067.543 7 118174921.196 7  91913864.541 7
R17  19235552.074 8  19235554.231 8 102933328.607 8  80059309.594 8
R18  20602182.378 7  20602185.837 6 109975889.141 7  85536875.349 6
R24  22299226.133 5  22299232.518 6 119243967.473 5  92745307.166 6
> 2025 06 15 11 32  0.0000000  0 27
C19  22193386.721 8                 115566782.353 8
C20  24686088.827 5                 128547122.269 5
C22  23333451.628 8                 121503433.223 8
C29  25471967.123 5                 132639079.875 5
C35  21789688.717 8                 113464629.290 8
C39  40493577.058 6                 210860683.564 6
C44  22361697.105 8                 116443233.213 8
E02  27296046.343 5  27296055.814 7 143441693.12015 108512692.862 7
E04  26168380.227 6  26168380.405 7 137515729.505 6 104029737.894 7
E06  25089484.676 7  25089487.861 8 131846133.956 7  99740760.052 8
E09  25088294.403 7  25088296.469 8 131839881.367 7  99736030.346 8
E11  26645715.600 7  26645716.357 7 140024174.856 7 105927341.417 7
E30  26740455.600 7  26740459.129 8 140522031.660 7 106304018.687 8
E34  24721746.234 8  24721749.361 9 129913659.422 8  98278853.090 9
E36  23582723.244 8  23582725.952 9 123928045.204 8  93750771.802 9
G01  21591084.706 8                  21591088.880 8  21591091.285 8 113461920.945 8                  88411909.558 8  84728089.367 8
G02  20770510.634 8  20770511.101 6                                 109149768.934 8  85051771.863 6                
G03  23226509.514 5                  23226517.820 6  23226516.982 7 122056077.649 5                  95108697.327 6  91145872.550 7
G08  21236616.430 7                  21236622.978 7  21236619.649 8 111599162.638 7                  86960414.341 7  83337050.095 8
G10  22775628.828 6                  22775636.227 7  22775631.519 7 119686730.784 6                  93262410.308 7  89376459.754 7
G27  23568530.451 6                  23568539.446 7  23568536.419 8 123853444.618 6                  96509203.611 7  92487977.952 8
G32  21896250.400 8                  21896256.758 7  21896253.974 8 115065576.383 8                  89661517.739 7  85925608.127 8
R01  21187917.677 7                 113261533.901 7
R02  19493201.800 8  19493203.984 8 104019462.208 8  80904188.009 8
R03  22064056.877 7  22064061.972 7 118110653.916 7  91863878.959 7
R17  19236395.412 8  19236397.815 8 102937841.896 8  80062819.945 8
R18  20594005.693 7  20594007.484 6 109932234.812 7  85502921.996 6
> 2025 06 15 11 32 15.0000000  0 28
C19  22193698.035 8                 115568403.977 8
C20  24693783.054 6                 128587176.532 6
C22  23325005.918 8                 121459453.426 8
C29  25480960.936 5                 132685838.651 5
C35  21792301.839 8                 113478238.535 8
C39  40488435.423 6                 210833910.212 6
C44  22356192.344 8                 116414569.172 8
E02  27304195.546 6  27304201.719 7 143484499.450 6 108545075.503 7
E04  26171822.630 6  26171824.488 6 137533830.048 6 104043430.775 6
E06  25088998.086 8  25089000.538 8 131843572.758 8  99738822.533 8
E09  25083959.452 7  25083962.286 8 131817105.026 7  99718800.171 8
E11  26652106.762 7  26652107.786 7 140057761.627 7 105952749.564 7
E30  26743716.720 7  26743720.222 8 140539168.510 7 106316982.590 8
E34  24716400.855 8  24716404.031 9 129885569.925 8  98257603.575 9
E36  23584096.871 8  23584099.422 9 123935262.963 8  93756231.987 9
G01  21584108.947 7                  21584112.784 8  21584114.794 8 113425259.921 7                  88383342.555 8  84700712.639 8
G02  20768648.457 8  20768648.917 6                                 109139983.209 8  85044146.626 6                
G03  23216386.794 5                  23216395.537 6  23216394.152 6 122002884.037 5                  95067247.823 6  91106150.108 6
G08  21242879.553 7                  21242885.697 7  21242882.395 8 111632073.681 7                  86986059.287 7  83361626.517 8
G10  22783167.421 6                  22783174.215 7  22783170.180 7 119726346.354 6                  93293279.603 7  89406042.805 7
G27  23578979.720 6                  23578987.876 7  23578985.380 8 123908352.283 6                  96551988.762 7  92528980.326 8
G32  21895435.383 8                  21895441.006 7  21895438.694 8 115061290.071 8                  89658177.785 7  85922407.320 8
R01  21196632.623 6                 113308123.336 6
R02  19490836.748 8  19490838.542 7 104006841.753 8  80894372.071 7
R03  22052065.119 7  22052070.016 7 118046461.974 7  91813951.979 7
R17  19237265.434 8  19237266.984 8 102942495.927 8  80066439.746 8
R18  20585841.447 7  20585844.626 7 109888655.556 7  85469026.975 7
R24  22318216.308 6  22318221.061 6 119345518.85416  92824288.326 6
> 2025 06 15 11 32 30.0000000  0 28
C19  22194032.473 8                 115570144.306 8
C20  24701482.074 5                 128627288.261 5
C22  23316573.206 8                 121415543.789 8
C29  25489914.040 5                 132732622.949 5
C35  21794934.718 8                 113491945.413 8
C39  40483298.824 6                 210807163.240 6
C44  22350702.127 8                 116385980.415 8
E02  27312344.437 6  27312350.492 7 143527321.955 6 108577470.354 7
E04  26175285.048 6  26175286.918 6 137552026.039 6 104057195.940 6
E06  25088531.103 7  25088533.641 8 131841119.649 7  99736966.804 8
E09  25079643.822 8  25079646.538 8 131794425.667 8  99701643.407 8
E11  26658501.328 7  26658503.090 7 140091369.114 7 105978173.364 7
E30  26746994.924 7  26746999.034 8 140556400.437 7 106330018.420 8
E34  24711061.623 8  24711064.594 9 129857510.796 8  98236377.051 9
E36  23585480.101 8  23585482.550 9 123942531.397 8  93761730.506 9
G01  21577143.264 7                  21577147.218 7  21577149.443 8 113388655.913 7                  88354819.979 7  84673378.492 8
G02  20766801.026 8  20766802.005 6                                 109130275.633 8  85036582.296 6                
G03  23206273.782 5                  23206282.180 6  23206279.588 6 121949736.43515                  95025834.229 6  91066462.094 6
G08  21249162.633 7                  21249169.338 8  21249166.635 8 111665093.951 7                  87011789.329 8  83386284.464 8
G10  22790715.437 7                  22790721.927 7  22790716.706 7 119766007.997 7                  93324184.748 7  89435660.211 7
G27  23589434.378 6                  23589443.683 7  23589440.928 8 123963294.553 6                  96594800.826 7  92570008.577 8
G32  21894646.550 7                  21894652.647 8  21894649.926 8 115057144.847 7                  89654947.733 8  85919311.874 8
R01  21205370.761 6                 113354831.519 6
R02  19488508.053 8  19488510.354 7 103994415.763 8  80884707.442 7
R03  22040086.199 7  22040091.912 7 117982343.484 7  91764082.151 7
R17  19238160.675 8  19238162.968 7 102947287.967 8  80070166.890 7
R18  20577690.039 7  20577693.402 6 109845149.002 7  85435188.562 6
R24  22327731.173 5  22327735.723 6 119396391.301 5  92863855.753 6
> 2025 06 15 11 32 45.0000000  0 28
C19  22194388.986 8                 115572001.531 8
C20  24709194.759 5                 128667455.526 5
C22  23308154.943 8                 121371702.840 8
C29  25498900.429 5                 132779430.65315
C35  21797584.895 8                 113505748.226 8
C39  40478167.848 6                 210780440.918 6
C44  22345226.192 8                 116357465.416 8
E02  27320496.422 6  27320501.940 7 143570158.669 6 108609875.995 7
E04  26178765.505 6  26178767.652 6 137570315.594 6 104071031.884 6
E06  25088083.577 7  25088087.073 8 131838772.978 7  99735191.548 8
E09  25075345.812 8  25075348.949 9 131771841.770 8  99684558.867 9
E11  26664901.154 7  26664901.781 7 140124995.541 7 106003611.497 7
E30  26750292.443 7  26750295.762 8 140573725.649 7 106343124.762 8
E34  24705727.515 8  24705730.575 9 129829480.446 8  98215172.282 9
E36  23586872.782 8  23586875.010 9 123949848.836 8  93767266.092 9
G01  21570188.413 7                  21570191.898 8  21570194.609 8 113352107.389 7                  88326340.612 8  84646085.801 8
G02  20764968.484 8  20764969.225 6                                 109120644.656 8  85029077.623 6                
G03  23196168.400 6                  23196176.099 6  23196173.418 6 121896633.444 6                  94984455.420 6  91026807.358 6
G08  21255467.081 7                  21255473.659 8  21255470.699 8 111698221.465 7                  87037602.966 8  83411022.505 8
G10  22798271.135 7                  22798277.240 7  22798272.693 7 119805713.750 7                  93355124.254 7  89465310.578 7
G27  23599896.054 6                  23599905.113 7  23599903.168 7 124018269.469 6                  96637638.346 7  92611061.161 7
G32  21893883.841 8                  21893890.095 7  21893886.676 8 115053139.001 8                  89651826.264 7  85916320.485 8
R01  21214130.139 6                 113401656.334 6
R02  19486215.560 8  19486217.911 7 103982182.705 8  80875192.823 7
R03  22028122.166 7  22028127.924 7 117918297.280 7  91714268.528 7
R17  19239082.020 8  19239084.049 8 102952216.515 8  80074000.178 8
R18  20569554.272 7  20569556.149 6 109801713.758 7  85401405.687 6
R24  22337257.975 5  22337260.900 6 119447326.450 5  92903472.049 6
> 2025 06 15 11 33  0.0000000  0 28
C19  22194768.093 8                 115573976.374 8
C20  24716914.954 5                 128707678.897 5
C22  23299748.605 8                 121327931.603 8
C29  25507894.475 5                 132826263.019 5
C35  21800253.955 8                 113519647.779 8
C39  40473040.772 6                 210753744.146 6
C44  22339764.856 8                 116329025.220 8
E02  27328650.635 6  27328656.596 7 143613010.001 6 108642292.744 7
E04  26182263.406 6  26182266.251 6 137588699.607 6 104084939.224 6
E06  25087657.040 7  25087660.879 8 131836533.479 7  99733497.380 8
E09  25071066.218 7  25071069.783 9 131749354.281 7  99667547.251 9
E11  26671303.570 7  26671304.241 7 140158641.653 7 106029064.520 7
E30  26753607.581 7  26753610.769 8 140591144.682 7 106356302.123 8
E34  24700399.476 8  24700402.323 9 129801479.726 8  98193989.913 9
E36  23588274.468 8  23588276.925 9 123957216.056 8  93772839.355 9
G01  21563244.002 8                  21563247.453 7  21563249.804 8 113315615.292 8                  88297905.230 7  84618835.225 8
G02  20763150.344 8  20763151.115 6                                 109111091.166 8  85021633.374 6                
G03  23186071.095 5                  23186082.745 6  23186077.078 6 121843576.142 5                  94943112.027 6  90987186.660 6
G08  21261791.864 7                  21261797.647 7  21261794.738 8 111731456.780 7                  87063500.591 7  83435841.049 8
G10  22805835.086 7                  22805841.636 7  22805835.342 7 119845464.180 7                  93386098.582 7  89494994.291 7
G27  23610363.927 6                  23610372.233 7  23610370.484 7 124073277.448 6                  96680501.627 7  92652138.504 7
G32  21893147.841 8                  21893154.436 7  21893150.763 8 115049273.389 8                  89648814.089 7  85913433.831 8
R01  21222911.437 6                 113448598.114 6
R02  19483959.538 8  19483961.593 7 103970143.142 8  80865828.721 7
R03  22016171.507 7  22016176.764 7 117854324.004 7  91664511.563 7
R17  19240029.057 8  19240030.781 7 102957282.249 8  80077940.193 7
R18  20561428.622 6  20561433.144 7 109758350.874 6  85367679.018 7
R24  22346794.872 5  22346798.106 6                  92943138.016 6
> 2025 06 15 11 33 15.0000000  0 28
C19  22195169.799 8                 115576066.740 8
C20  24724652.284 5                 128747956.108 5
C22  23291355.970 8                 121284228.217 8
C29  25516888.788 5                 132873117.562 5
C35  21802941.872 8                 113533642.026 8
C39  40467918.280 6                 210727070.966 6
C44  22334316.763 8                 116300657.973 8
E02  27336806.826 6  27336813.319 7 143655873.910 6 108674718.888 7
E04  26185780.690 6  26185782.487 6 137607175.752 6 104098916.301 6
E06  25087251.451 7  25087254.753 8 131834399.142 7  99731882.772 8
E09  25066806.120 7  25066808.667 9 131726961.281 7  99650607.113 9
E11  26677709.632 7  26677710.304 7 140192305.408 7 106054530.905 7
E30  26756939.649 7  26756942.972 8 140608655.430 7 106369548.872 8
E34  24695076.069 8  24695079.211 9 129773506.716 8  98172828.508 9
E36  23589685.609 8  23589688.031 9 123964631.077 8  93778448.756 9
G01  21556309.806 8                  21556313.522 7  21556315.940 8 113279177.735 8                  88269512.327 7  84591625.377 8
G02  20761347.204 8  20761347.335 6                                 109101613.344 8  85014248.060 6                
G03  23175983.876 5                  23175992.313 6  23175991.202 6 121790562.518 5                  94901802.673 6  90947598.627 6
G08  21268136.216 7                  21268142.719 7  21268139.173 8 111764797.604 7                  87089480.458 7  83460738.406 8
G10  22813407.655 6                  22813414.223 7  22813408.726 7 119885257.026 6                  93417105.971 7  89524709.738 7
G27  23620837.343 6                  23620846.261 7  23620844.235 8 124128316.235 6                  96723388.938 7  92693238.834 8
G32  21892438.804 8                  21892444.919 7  21892442.143 8 115045545.941 8                  89645909.632 7  85910650.356 8
R01  21231714.379 6                 113495654.090 6
R02  19481738.996 8  19481741.275 7 103958295.196 8  80856613.644 7
R03  22004234.558 8  22004239.785 7 117790422.535 8  91614810.490 7
R17  19241000.357 8  19241002.464 8 102962483.511 8  80081985.617 8
R18  20553319.589 7  20553322.623 7 109715058.719 7  85334007.387 7
R24  22356344.391 4  22356347.196 5                  92982851.621 5
> 2025 06 15 11 33 30.0000000  0 27
C19  22195593.952 8                 115578274.197 8
C20  24732394.461 5                 128788288.739 5
C22  23282976.044 8                 121240594.547 8
C29  25525892.603 5                 132919995.669 5
C35  21805648.180 8                 113547732.572 8
C39  40462800.919 6                 210700423.117 6
C44  22328883.694 7                 116272365.501 7
E02  27344966.278 5  27344972.557 7 143698751.706 5 108707155.560 7
E04  26189313.258 6  26189316.394 6 137625745.560 6 104112964.188 6
E06  25086866.620 8  25086868.918 8 131832371.585 8  99730348.955 8
E09  25062563.336 8  25062565.761 8 131704664.602 8  99633739.832 8
E11  26684119.224 7  26684120.036 7 140225988.535 7 106080011.875 7
E30  26760289.683 7  26760292.854 8 140626259.324 7 106382866.116 8
E34  24689758.725 8  24689761.743 9 129745563.064 8  98151689.319 9
E36  23591105.954 8  23591108.491 9 123972095.533 8  93784095.563 9
G01  21549387.383 8                  21549390.928 7  21549392.741 8 113242796.542 8                  88241163.381 7  84564457.624 8
G02  20759558.484 8  20759558.687 6                                 109092212.821 8  85006922.983 6                
G03  23165905.026 6                  23165912.105 5  23165913.057 7 121737594.398 6                  94860528.912 5  90908044.548 7
G08  21274500.332 7                  21274507.466 7  21274504.046 8 111798245.447 7                  87115543.673 7  83485715.654 8
G10  22820988.610 7                  22820995.136 7  22820988.998 7 119925093.777 7                  93448147.615 7  89554457.949 7
G27  23631317.617 6                  23631326.189 7  23631324.292 7 124183387.246 6                  96766301.373 7  92734363.204 7
G32  21891756.425 8                  21891762.196 7  21891759.819 8 115041958.371 8                  89643114.153 7  85907971.331 8
R01  21240538.991 6                 113542825.609 6
R02  19479555.135 8  19479557.295 7 103946640.653 8  80847549.021 7
R03  21992310.655 7  21992316.495 7 117726594.954 7  91565166.899 7
R17  19241998.124 8  19241999.754 7 102967821.926 8  80086137.718 7
R18  20545223.647 7  20545226.054 7 109671839.273 7  85300392.261 7
> 2025 06 15 11 33 45.0000000  0 29
C19  22196038.995 8                 115580591.896 8
C20  24740144.648 4                 128828669.34914
C22  23274608.886 7                 121197024.031 7
C29  25534892.585 4                 132966890.878 4
C35  21808370.146 8                 113561912.706 8
C39  40457687.263 6                 210673793.867 6
C44  22323463.343 8                 116244141.283 8
E02  27353129.600 6  27353133.254 7 143741636.170 6 108739597.380 7
E04  26192863.116 6  26192866.640 6 137644401.956 6 104127077.650 6
E05  25455126.113 6  25455132.090 7 133767590.74516 101194338.16117
E06  25086499.239 7  25086502.076 8 131830444.063 7  99728890.799 8
E09  25058336.982 8  25058339.822 8 131682457.548 8  99616940.344 8
E11  26690531.870 7  26690532.033 7 140259684.058 7 106105502.318 7
E30  26763655.527 7  26763659.015 8 140643949.498 7 106396248.607 8
E34  24684445.133 8  24684448.521 9 129717642.084 8  98130567.289 9
E36  23592534.456 8  23592537.039 9 123979602.693 8  93789774.672 9
G01  21542473.636 8                  21542477.319 8  21542479.008 8 113206465.091 8                  88212853.179 8  84537327.020 8
G02  20757782.431 8  20757783.940 6                                 109082882.923 8  84999652.938 6                
G03  23155832.067 5                  23155839.644 5  23155840.193 6 121684665.114 5                  94819285.469 5  90868519.562 6
G08  21280884.583 7                  21280891.292 7  21280887.679 8 111831793.226 7                  87141684.755 7  83510767.537 8
G10  22828576.103 7                  22828582.677 7  22828577.603 7 119964967.472 7                  93479217.970 7  89584233.737 7
G27  23641801.590 6                  23641810.582 7  23641808.590 8 124238483.357 6                  96809233.370 7  92775506.332 8
G32  21891099.318 7                  21891104.979 7  21891102.034 8 115038503.938 7                  89640422.387 7  85905391.729 8
R01  21249383.208 6                 113590105.439 6
R02  19477406.035 8  19477408.426 7 103935172.475 8  80838629.316 7
R03  21980399.680 7  21980405.126 7 117662834.364 7  91515575.410 7
R17  19243020.415 8  19243021.986 7 102973290.701 8  80090391.188 7
R18  20537139.192 7  20537142.220 7 109628685.952 7  85266828.545 7
R24  22375471.151 6  22375476.150 5 119651678.37716  93062419.952 5
> 2025 06 15 11 34  0.0000000  0 29
C19  22196506.115 8                 115583022.074 8
C20  24747912.425 5                 128869102.49815
C22  23266253.603 7                 121153519.175 7
C29  25543913.654 5                 133013805.134 5
C35  21811111.244 8                 113576184.695 8
C39  40452577.366 6                 210647185.742 6
C44  22318057.007 8                 116215987.893 8
E02  27361290.511 6  27361295.682 7 143784529.724 6 108772045.957 7
E04  26196430.923 6  26196433.618 6 137663147.336 6 104141258.373 6
E05  25445790.861 6  25445795.687 7 133718530.873 6 101157224.798 7
E06  25086151.937 7  25086154.705 8 131828618.854 7  99727510.046 8
E09  25054128.613 8  25054131.438 9 131660342.583 8  99600210.521 9
E11  26696946.308 7  26696947.165 7 140293394.334 7 106131003.916 7
E30  26767038.930 7  26767042.046 8 140661728.168 7 106409698.034 8
E34  24679137.062 8  24679140.081 9 129689746.136 8  98109464.211 9
E36  23593971.429 8  23593974.189 9 123987154.856 8  93795487.826 9
G01  21535569.642 8                  21535573.495 8  21535575.411 8 113170185.875 8                  88184583.655 8  84510235.391 8
G02  20756020.971 8  20756022.491 7                                 109073626.063 8  84992439.813 7                
G03  23145767.728 5                  23145777.804 6  23145773.586 6 121631777.230 5                  94778074.156 6  90829025.385 6
G08  21287287.751 7                  21287294.421 7  21287291.243 8 111865443.046 7                  87167905.363 7  83535895.608 8
G10  22836170.720 7                  22836177.261 7  22836172.966 7 120004880.119 7                  93510318.727 7  89614038.591 7
G27  23652291.301 6                  23652300.312 7  23652298.298 8 124293606.586 6                  96852186.485 7  92816669.709 8
G32  21890467.363 8                  21890473.446 7  21890470.190 8 115035184.961 8                  89637836.105 7  85902913.279 8
R01  21258248.429 6                 113637495.379 6
R02  19475292.579 8  19475294.848 8 103923893.126 8  80829856.500 8
R03  21968501.359 7  21968507.094 7 117599144.022 7  91466038.540 7
R17  19244066.795 8  19244069.233 8 102978892.180 8  80094747.896 8
R18  20529068.322 7  20529071.694 7 109585601.431 7  85233318.397 7
R24  22385053.901 6  22385058.723 5 119702915.464 6  93102270.936 5
> 2025 06 15 11 34 15.0000000  0 29
C19  22196994.816 8                 115585570.080 8
C20  24755684.025 5                 128909589.04015
C22  23257913.285 7                 121110085.655 7
C29  25552928.043 5                 133060743.796 5
C35  21813871.486 8                 113590553.973 8
C39  40447472.517 6                 210620604.023 6
C44  22312665.072 8                 116187910.879 8
E02  27369454.858 6  27369460.911 7 143827437.396 6 108804505.233 7
E04  26200017.285 6  26200018.076 5 137681986.979 6 104155510.391 5
E05  25436457.967 6  25436463.260 7 133669488.029 6 101120124.326 7
E06  25085824.635 7  25085827.731 8 131826901.500 7  99726210.877 8
E09  25049938.659 8  25049941.615 9 131638325.336 8  99583554.639 9
E11  26703365.717 7  26703366.498 7 140327124.943 7 106156520.879 7
E30  26770439.309 7  26770443.121 8 140679600.649 7 106423218.421 8
E34  24673834.419 8  24673837.484 9 129661880.849 8  98088384.328 9
E36  23595418.523 8  23595420.942 9 123994757.582 8  93801239.247 9
G01  21528676.725 7                  21528681.177 8  21528682.871 8 113133964.504 7                  88156359.230 8  84483187.003 8
G02  20754274.472 8  20754275.455 6                                 109064447.775 8  84985287.880 6                
G03  23135711.366 5                  23135722.519 6  23135719.166 6 121578936.565 5                  94736899.573 6  90789566.434 6
G08  21293712.081 7                  21293718.445 7  21293714.900 8 111899200.132 7                  87194209.611 7  83561103.847 8
G10  22843774.269 7                  22843780.977 7  22843776.288 7 120044837.162 7                  93541454.065 7  89643876.610 7
G27  23662786.875 6                  23662795.778 6  23662794.142 8 124348762.228 6                  96895164.786 6  92857857.257 8
G32  21889862.618 8                  21889869.197 8  21889865.655 8 115032006.924 8                  89635359.730 8  85900540.063 8
R01  21267135.464 6                 113685000.422 6
R02  19473214.732 8  19473217.216 8 103912808.296 8  80821234.983 8
R03  21956618.056 7  21956622.625 7 117535529.469 7  91416560.646 7
R17  19245139.522 8  19245141.335 7 102984632.182 8  80099212.344 7
R18  20521011.457 7  20521013.611 7 109542591.668 7  85199866.396 7
R24  22394647.382 6  22394652.245 6 119754216.031 6  93142171.354 6
> 2025 06 15 11 34 30.0000000  0 28
C19  22197506.658 8                 115588237.453 8
C20  24763472.925 5                 128950132.344 5
C22  23249586.531 7                 121066725.210 7
C35  21816649.447 8                 113605022.186 8
C39  40442372.622 6                 210594050.582 6
C44  22307287.692 8                 116159912.094 8
E02  27377620.730 5  27377628.719 7 143870360.590 5 108836976.253 7
E04  26203619.534 6  26203621.718 5 137700922.386 6 104169834.849 5
E05  25427127.229 6  25427135.256 7 133620464.075 6 101083038.14217
E06  25085518.665 8  25085521.930 8 131825293.532 8  99724994.482 8
E09  25045767.844 7  25045770.909 9 131616407.554 7  99566974.009 9
E11  26709787.740 7  26709789.525 7 140360877.375 7 106182054.330 7
E30  26773858.240 7  26773862.416 8 140697568.401 7 106436810.898 8
E34  24668538.315 8  24668540.928 9 129634047.868 8  98067328.865 9
E36  23596875.222 8  23596877.612 9 124002412.464 8  93807030.124 9
G01  21521795.432 8                  21521800.067 8  21521800.544 8 113097802.775 8                  88128181.274 8  84456183.133 8
G02  20752543.281 8  20752544.210 6                                 109055349.731 8  84978198.495 6                
G03  23125666.562 6                  23125674.094 5  23125672.330 6 121526144.647 6                  94695762.998 5  90750143.952 6
G08  21300156.050 7                  21300163.149 8  21300159.079 8 111933065.841 7                  87220598.477 8  83586393.170 8
G10  22851386.731 7                  22851393.140 7  22851390.030 7 120084839.977 7                  93572624.951 7  89673748.746 7
G27  23673288.356 6                  23673298.231 7  23673296.693 8 124403951.534 6                  96938169.359 7  92899069.957 8
G32  21889284.925 8                  21889290.747 7  21889287.869 8 115028971.455 8                  89632994.465 7  85898273.319 8
R01  21276043.743 7                 113732621.739 7
R02  19471174.250 8  19471176.427 8 103901919.437 8  80812765.858 8
R03  21944749.056 7  21944752.431 7 117471993.115 7  91367143.521 7
R17  19246238.515 8  19246240.867 8 102990512.612 8  80103786.014 8
R18  20512968.253 7  20512970.608 7 109499658.542 7  85166473.954 7
R24  22404252.472 6  22404258.544 6 119805581.231 6  93182121.961 6
> 2025 06 15 11 34 45.0000000  0 29
C13  39731197.129 4                 206890752.54114
C19  22198042.547 8                 115591027.032 8
C20  24771269.650 5                 128990735.15115
C22  23241273.781 8                 121023441.021 8
C35  21819447.299 8                 113619592.192 8
C39  40437279.679 6                 210567528.300 6
C44  22301926.857 8                 116131994.622 8
E02  27385794.016 5  27385800.138 7 143913301.977 5 108869461.069 7
E04  26207242.285 6  26207243.703 6 137719956.335 6 104184233.905 6
E05  25417803.549 6  25417809.867 7 133571462.223 6 101045968.568 7
E06  25085234.421 8  25085237.437 8 131823798.016 8  99723863.104 8
E09  25041616.476 7  25041619.619 9 131594592.297 7  99550470.940 9
E11  26716215.611 7  26716217.103 7 140394654.544 7 106207606.525 7
E30  26777295.893 7  26777300.244 8 140715634.211 7 106450477.546 8
E34  24663248.856 8  24663251.267 8 129606250.217 8  98046300.128 8
E36  23598342.699 8  23598344.838 9 124010122.507 8  93812862.720 9
G01  21514925.937 8                  21514929.944 8  21514931.908 8 113061703.786 8                  88100052.182 8  84429226.127 8
G02  20750828.026 8  20750828.039 6                                 109046335.061 8  84971174.102 6                
G03  23115630.261 5                  23115637.923 6  23115636.649 7 121473405.050 5                  94654667.067 6  90710760.408 7
G08  21306621.956 7                  21306628.466 7  21306625.088 8 111967042.966 7                  87247074.148 7  83611765.679 8
G10  22859008.350 7                  22859014.919 7  22859011.291 7 120124891.199 7                  93603833.679 7  89703657.067 7
G27  23683798.393 6                  23683806.666 6  23683805.724 8 124459177.145 6                  96981202.232 6  92940309.774 8
G32  21888734.824 7                  21888741.256 7  21888738.353 8 115026081.518 7                  89630742.599 7  85896115.247 8
R01  21284974.363 7                 113780361.773 7
R02  19469170.906 8  19469173.548 8 103891229.875 8  80804451.805 8
R03  21932894.417 7  21932899.439 7 117408538.106 7  91317789.719 7
R17  19247364.464 8  19247366.111 8 102996536.333 8  80108471.117 8
R18  20504941.016 7  20504943.168 7 109456805.562 7  85133143.762 7
R24  22413871.647 6  22413875.932 5 119857014.017 6  93222125.053 5
> 2025 06 15 11 35  0.0000000  0 28
C19  22198601.055 8                 115593933.175 8
C20  24779079.843 5                 129031391.937 5
C22  23232975.227 8                 120980227.823 8
C35  21822264.036 8                 113634258.540 8
C39  40432191.033 6                 210541031.769 6
C44  22296580.031 8                 116104153.274 8
E02  27393970.105 6  27393974.321 7 143956255.954 6 108901955.350 7
E04  26210883.375 6  26210883.509 6 137739083.168 6 104198703.159 6
E05  25408481.676 6  25408487.877 7 133522477.129 6 101008911.727 7
E06  25084970.133 8  25084973.166 8 131822409.335 8  99722812.583 8
E09  25037483.625 7  25037486.770 9 131572874.265 7  99534041.396 9
E11  26722646.915 7  26722648.284 7 140428451.032 7 106233173.294 7
E30  26780751.615 7  26780755.883 8 140733792.510 7 106464214.163 8
E34  24657964.739 8  24657967.281 8 129578482.488 8  98025294.044 8
E36  23599819.045 8  23599821.378 9 124017882.233 8  93818732.898 9
G01  21508067.560 7                  21508071.559 8  21508073.523 8 113025662.199 7                  88071967.888 8  84402311.984 8
G02  20749127.204 8  20749127.427 6                                 109037398.374 8  84964210.445 6                
G03  23105606.634 6                  23105608.164 5  23105610.923 7 121420711.892 6                  94613607.47015  90671411.634 7
G08  21313107.372 8                  21313114.494 7  21313111.568 8 112001125.784 8                  87273632.134 7  83637217.075 8
G10  22866638.148 7                  22866644.347 7  22866640.777 7 120164985.194 7                  93635075.777 7  89733597.394 7
G27  23694312.984 6                  23694322.768 7  23694320.916 8 124514433.373 6                  97024258.955 7  92981572.453 8
G32  21888212.158 7                  21888218.081 8  21888215.043 8 115023331.684 7                  89628599.836 8  85894061.817 8
R01  21293926.344 7                 113828214.699 7
R02  19467203.888 8  19467206.467 7 103880733.949 8  80796288.273 7
R03  21921054.756 7  21921059.698 7 117345159.813 7  91268495.544 7
R17  19248515.571 8  19248517.096 8 103002697.687 8  80113263.294 8
R18  20496927.072 7  20496929.675 7 109414027.334 7  85099871.863 7
R24  22423502.953 6  22423506.530 5 119908508.920 6  93262176.558 5
> 2025 06 15 11 35 15.0000000  0 28
C19  22199181.952 8                 115596959.357 8
C20  24786897.485 5                 129072105.741 5
C22  23224691.277 8                 120937089.253 8
C35  21825099.610 8                 113649024.647 8
C39  40427109.630 6                 210514564.570 6
C44  22291248.930 8                 116076391.651 8
E02  27402144.479 5  27402151.769 7 143999225.676 5 108934461.527 7
E04  26214539.958 5  26214542.024 5 137758306.231 5 104213245.324 5
E05  25399164.075 6  25399169.766 7 133473512.437 6 100971870.339 7
E06  25084727.532 8  25084729.899 8 131821131.013 8  99721845.529 8
E09  25033369.887 7  25033373.127 9 131551256.960 7  99517688.080 9
E11  26729082.630 7  26729083.822 7 140462270.200 7 106258757.224 7
E30  26784225.644 7  26784229.712 8 140752046.522 7 106478023.186 8
E34  24652686.711 8  24652689.543 8 129550748.234 8  98004313.266 8
E36  23601305.413 8  23601308.182 9 124025695.122 8  93824643.290 9
G01  21501220.772 7                  21501224.858 7  21501226.678 8 112989681.676 7                  88043931.121 7  84375443.432 8
G02  20747441.991 8  20747442.596 6                                 109028543.093 8  84957310.224 6                
G03  23095585.145 5                  23095591.899 5  23095592.383 7 121368068.852 5                  94572587.167 5  90632100.469 7
G08  21319614.022 8                  21319621.049 7  21319618.208 8 112035317.394 8                  87300274.943 7  83662749.764 8
G10  22874276.498 7                  22874282.583 7  22874279.050 7 120205125.284 7                  93666353.684 7  89763572.048 7
G27  23704834.400 6                  23704843.751 7  23704842.309 8 124569723.296 6                  97067341.934 7  93022860.292 8
G32  21887715.446 7                  21887721.805 8  21887719.422 8 115020725.349 7                  89626568.948 8  85892115.546 8
R01  21302900.425 7                 113876183.466 7
R02  19465274.046 8  19465276.221 8 103870435.194 8  80788278.139 8
R03  21909229.756 7  21909235.550 7 117281861.793 7  91219263.853 7
R17  19249693.116 8  19249695.530 8 103009000.514 8  80118165.487 8
R18  20488928.147 7  20488930.724 7 109371327.740 7  85066661.089 7
R24  22433140.968 6  22433146.474 5 119960068.940 6  93302278.728 5
> 2025 06 15 11 35 30.0000000  0 28
C19  22199787.554 8                 115600111.586 8
C20  24794727.097 5                 129112882.31915
C22  23216422.467 8                 120894031.590 8
C35  21827955.864 8                 113663896.608 8
C39  40422032.094 6                 210488132.891 6
C44  22285933.942 8                 116048716.090 8
E02  27410326.473 5  27410333.082 7 144042216.965 5 108966984.029 7
E04  26218216.437 5  26218219.408 6 137777631.60015 104227864.831 6
E05  25389851.318 6  25389857.565 7 133424574.681 6 100934849.340 7
E06  25084506.318 8  25084508.751 8 131819969.179 8  99720966.626 8
E09  25029276.873 8  25029279.836 9 131529746.753 8  99501415.769 9
E11  26735523.212 7  26735524.879 7 140496118.231 7 106284363.005 7
E30  26787718.512 7  26787722.949 8 140770402.322 7 106491909.208 8
E34  24647416.438 8  24647419.349 9 129523053.664 8  97983362.509 9
E36  23602803.810 8  23602806.223 9 124033567.361 8  93830598.571 9
G01  21494386.646 7                  21494390.704 8  21494392.457 8 112953768.513 7                  88015946.850 8  84348625.186 8
G02  20745773.772 8  20745774.369 6                                 109019775.519 8  84950478.346 6                
G03  23085575.771 5                  23085585.778 6  23085585.703 7 121315482.784 5                  94531611.052 6  90592831.649 7
G08  21326142.778 7                  21326149.604 7  21326146.042 8 112069623.855 7                  87327007.226 7  83688368.193 8
G10  22881924.760 7                  22881931.023 7  22881927.214 7 120245317.374 7                  93697672.157 7  89793585.607 7
G27  23715363.406 6                  23715372.563 7  23715370.624 8 124625052.942 6                  97110455.851 7  93064177.747 8
G32  21887248.128 7                  21887254.208 7  21887251.388 8 115018268.755 7                  89624654.730 7  85890281.058 8
R01  21311896.052 7                 113924273.587 7
R02  19463382.036 8  19463384.181 8 103860339.688 8  80780426.086 8
R03  21897421.834 7  21897426.859 7 117218650.804 7  91170099.767 7
R17  19250898.683 8  19250901.265 8 103015451.324 8  80123182.771 8
R18  20480944.948 7  20480947.385 7 109328713.425 7  85033516.654 7
R24  22442799.713 6  22442802.249 6 120011700.501 6  93342436.473 6
> 2025 06 15 11 35 45.0000000  0 28
C19  22200416.486 8                 115603387.044 8
C20  24802569.361 5                 129153719.00515
C22  23208169.307 8                 120851052.412 8
C35  21830831.601 8                 113678871.774 8
C39  40416963.105 6                 210461734.076 6
C44  22280635.577 8                 116021124.080 8
E02  27418511.218 5  27418517.641 7 144085226.860 5 108999520.710 7
E04  26221912.503 5  26221915.324 5 137797056.363 5 104242559.563 5
E05  25380542.492 6  25380549.601 7 133375661.354 6 100897846.801 7
E06  25084306.223 7  25084309.331 8 131818921.121 7  99720173.789 8
E09  25025203.105 7  25025206.433 9 131508341.011 7  99485222.515 9
E11  26741969.124 7  26741971.174 7 140529992.430 7 106309988.581 7
E30  26791230.513 7  26791234.843 8 140788857.066 7 106505870.050 8
E34  24642152.989 8  24642156.303 9 129495396.151 8  97962439.823 9
E36  23604313.015 8  23604315.022 9 124041496.277 8  93836596.746 9
G01  21487565.029 7                  21487568.942 8  21487570.619 8 112917920.222 7                  87988013.131 8  84321855.351 8
G02  20744121.488 8  20744121.873 6                                 109011093.076 8  84943712.801 6                
G03  23075583.988 5                  23075589.896 6  23075588.409 7 121262950.936 5                  94490677.062 6  90553603.278 7
G08  21332692.900 7                  21332699.124 7  21332695.731 8 112104042.187 7                  87353826.675 7  83714070.150 8
G10  22889582.343 7                  22889588.544 7  22889585.241 7 120285558.531 7                  93729028.905 7  89823635.849 7
G27  23725900.214 6                  23725908.453 6  23725905.910 7 124680419.192 6                  97153598.303 6  93105522.587 7
G32  21886809.191 8                  21886814.553 7  21886811.400 8 115015959.208 8                  89622855.055 7  85888556.381 8
R01  21320915.407 7                 113972482.281 7
R02  19461527.738 8  19461530.144 7 103850444.717 8  80772730.009 7
R03  21885629.573 7  21885634.286 7 117155524.779 7  91121001.815 7
R17  19252131.652 8  19252133.704 7 103022047.186 8  80128312.856 7
R18  20472977.494 7  20472979.942 7 109286181.946 7  85000436.632 7
R24  22452466.816 6  22452470.755 5 120063400.401 6  93382647.328 5
> 2025 06 15 11 36  0.0000000  0 29
C19  22201068.606 8                 115606783.699 8
C20  24810422.370 5                 129194352.17815
C22  23199929.466 8                 120808149.914 8
C29  25616194.008 4                 133390341.76614
C35  21833726.637 8                 113693948.124 8
C39  40411898.679 6                 210435366.231 6
C44  22275352.040 8                 115993613.879 8
E02  27426699.046 6  27426705.180 7 144128253.280 6 109032069.855 7
E04  26225625.580 4  26225629.922 5 137816578.444 4 104257327.882 5
E05  25371239.087 6  25371246.321 8 133326770.684 6 100860861.419 8
E06  25084128.011 8  25084131.168 8 131817984.902 8  99719465.554 8
E09  25021149.899 7  25021152.592 9 131487038.023 7  99469106.937 9
E11  26748419.991 7  26748421.799 7 140563890.812 7 106335632.397 7
E30  26794760.405 7  26794765.059 8 140807408.580 7 106519904.102 8
E34  24636896.963 8  24636899.827 8 129467773.823 8  97941543.724 8
E36  23605832.144 8  23605834.302 9 124049479.926 8  93842636.304 9
G01  21480755.431 7                  21480759.126 8  21480761.262 8 112882134.926 7                  87960128.520 8  84295132.591 8
G02  20742485.188 8  20742485.575 6                                 109002493.768 8  84937012.053 6                
G03  23065594.510 5                  23065603.374 6  23065602.487 7 121210471.271 5                  94449783.893 6  90514414.042 7
G08  21339262.714 8                  21339269.575 7  21339266.284 8 112138570.161 8                  87380731.571 7  83739854.013 8
G10  22897249.073 7                  22897254.888 7  22897251.766 7 120325846.649 7                  93760422.230 7  89853721.093 7
G27  23736442.587 6                  23736450.522 7  23736448.297 7 124735819.854 6                  97196767.559 7  93146893.146 7
G32  21886396.957 8                  21886402.007 7  21886400.003 8 115013794.712 8                  89621168.438 7  85886940.040 8
R01  21329955.169 7                 114020806.702 7
R02  19459710.580 8  19459713.103 8 103840748.557 8  80765188.581 8
R03  21873851.818 7  21873857.080 7 117092481.589 7  91071968.298 7
R17  19253390.988 8  19253392.927 8 103028786.356 8  80133554.448 8
R18  20465024.756 7  20465027.736 7 109243731.566 7  84967419.737 7
R24  22462148.914 7                 120115166.448 7
> 2025 06 15 11 36 15.0000000  0 28
C19  22201744.302 8                 115610300.478 8
C20  24818287.891 5                 129235303.013 5
C22  23191704.928 7                 120765323.282 7
C35  21836641.413 8                 113709124.663 8
C39  40406841.152 6                 210409028.488 6
C44  22270084.704 8                 115966184.706 8
E02  27434889.325 6  27434895.709 7 144171294.885 6 109064630.520 7
E04  26229362.451 5  26229362.954 5 137836196.745 5 104272169.050 5
E05  25361939.910 6  25361946.779 8 133277901.906 6 100823892.609 8
E06  25083970.991 7  25083974.095 8 131817159.507 7  99718841.124 8
E09  25017115.016 8  25017118.038 9 131465836.747 8  99453068.342 9
E11  26754874.969 6  26754877.047 7 140597812.237 6 106361293.722 7
E30  26798309.114 7  26798313.490 8 140826055.697 7 106534010.534 8
E34  24631647.094 8  24631650.082 9 129440185.736 8  97920673.517 9
E36  23607361.365 8  23607363.773 9 124057517.271 8  93848716.503 9
G01  21473957.930 7                  21473961.308 8  21473963.351 8 112846411.844 7                  87932292.368 8  84268456.250 8
G02  20740864.232 8  20740864.854 6                                 108993976.816 8  84930375.471 6                
G03  23055616.566 5                  23055626.690 6  23055625.689 7 121158043.310 5                  94408930.939 6  90475263.283 7
G08  21345853.866 7                  21345860.492 7  21345857.508 8 112173206.527 7                  87407720.916 7  83765718.811 8
G10  22904924.201 7                  22904930.163 7  22904926.685 7 120366180.503 7                  93791851.169 7  89883840.503 7
G27  23746992.720 6                  23746999.899 7  23746997.168 7 124791253.584 6                  97239962.616 7  93188288.386 7
G32  21886012.334 7                  21886018.461 8  21886015.496 8 115011774.244 7                  89619594.042 8  85885431.274 8
R01  21339016.651 6                 114069245.766 6
R02  19457930.794 8  19457933.194 8 103831250.065 8  80757800.813 8
R03  21862090.552 7  21862095.769 7 117029521.105 7  91022999.072 7
R17  19254676.870 8  19254678.958 8 103035667.957 8  80138906.807 8
R18  20457087.767 7  20457090.245 7 109201361.713 7  84934465.396 7
R24  22471839.404 6  22471844.527 6 120166997.677 6  93463225.89916
> 2025 06 15 11 36 30.0000000  0 28
C19  22202442.192 8                 115613934.654 8
C20  24826162.467 4                 129276307.469 4
C22  23183495.421 7                 120722570.116 7
C35  21839574.466 8                 113724398.816 8
C39  40401787.635 6                 210382718.259 6
C44  22264832.142 8                 115938834.132 8
E02  27443082.493 6  27443088.628 7 144214348.961 6 109097200.526 7
E04  26233117.635 5  26233113.538 5 137855908.404 5 104287080.859 5
E05  25352642.788 5  25352651.116 8 133229052.674 5 100786938.566 8
E06  25083835.033 8  25083837.655 8 131816442.250 8  99718298.532 8
E09  25013099.432 8  25013102.364 9 131444734.794 8  99437104.864 9
E11  26761334.932 7  26761336.125 7 140631754.196 7 106386970.521 7
E30  26801875.503 7  26801879.596 8 140844795.761 7 106548187.234 8
E34  24626403.932 8  24626406.236 9 129412629.327 8  97899827.284 9
E36  23608900.259 8  23608902.997 9 124065605.729 8  93854835.380 9
G01  21467171.047 8                  21467174.860 8  21467176.752 8 112810748.462 8                  87904502.743 8  84241824.513 8
G02  20739258.747 8  20739259.688 6                                 108985539.610 8  84923801.047 6                
G03  23045652.056 5                  23045659.167 7  23045657.857 7 121105664.347 5                  94368116.240 7  90436149.209 7
G08  21352465.211 7                  21352471.399 7  21352468.729 8 112207948.438 7                  87434792.498 7  83791662.414 8
G10  22912607.806 7                  22912613.982 7  22912610.383 7 120406557.214 7                  93823313.492 7  89913991.973 7
G27  23757545.585 6                  23757554.885 7  23757552.139 7 124846717.516 6                  97283181.185 7  93229706.182 7
G32  21885654.944 7                  21885661.221 8  21885658.333 8 115009895.239 7                  89618129.892 8  85884028.124 8
R01  21348099.324 7                 114117795.898 7
R02  19456187.391 8  19456189.565 7 103821946.602 8  80750564.820 7
R03  21850343.625 8  21850349.096 7 116966640.978 8  90974092.423 7
R17  19255988.959 8  19255991.173 8 103042689.295 8  80144367.851 8
R18  20449164.906 7  20449167.101 6 109159069.941 7  84901571.825 6
R24  22481545.277 7  22481550.274 6 120218890.817 7  93503587.227 6
> 2025 06 15 11 36 45.0000000  0 28
C12  24336735.999 5  24336732.600 5 126727772.51715  97993953.35015
C19  22203162.976 8                 115617688.454 8
C22  23175299.495 8                 120679892.958 8
C35  21842526.553 8                 113739772.736 8
C39  40396740.192 5                 210356437.866 5
C44  22259595.543 8                 115911564.606 8
E02  27451277.457 6  27451284.523 7 144257417.357 6 109129781.464 7
E04  26236888.883 5  26236883.204 6 137875715.609 5 104302064.89616
E05  25343351.623 6  25343359.636 8 133180225.505 6 100750001.214 8
E06  25083719.372 7  25083722.233 8 131815835.438 7  99717839.500 8
E09  25009103.445 7  25009106.016 8 131423734.548 7  99421218.313 8
E11  26767797.592 7  26767799.192 7 140665718.866 7 106412664.546 7
E30  26805459.257 7  26805463.625 8 140863630.773 7 106562435.803 8
E34  24621166.380 8  24621168.882 9 129385106.999 8  97879006.828 9
E36  23610449.316 8  23610452.322 9 124073747.638 8  93860994.690 9
G01  21460396.184 8                  21460400.005 8  21460401.848 8 112775147.262 8                  87876761.549 8  84215239.224 8
G02  20737668.892 8  20737669.697 6                                 108977184.538 8  84917290.587 6                
G03  23035693.277 6                  23035701.357 6  23035700.010 7 121053337.013 6                  94327341.760 6  90397073.643 7
G08  21359097.009 7                  21359103.095 7  21359100.148 8 112242797.949 7                  87461947.930 7  83817686.356 8
G10  22920299.801 7                  22920306.095 7  22920302.181 7 120446978.962 7                  93854810.926 7  89944176.975 7
G27  23768106.763 6                  23768115.411 7  23768113.295 7 124902213.722 6                  97326424.868 7  93271148.035 7
G32  21885324.525 8                  21885330.830 7  21885328.340 8 115008159.943 8                  89616777.729 7  85882732.306 8
R01  21357202.676 7                 114166459.156 7
R02  19454481.171 8  19454483.140 7 103812840.385 8  80743482.228 7
R03  21838613.248 7  21838617.963 7 116903844.090 7  90925250.438 7
R17  19257328.050 8  19257329.104 8 103049852.659 8  80149939.339 8
R18  20441257.031 7  20441260.021 6 109116859.002 7  84868741.149 6
R24  22491262.987 6  22491266.521 6 120270848.432 6  93543998.530 6
> 2025 06 15 11 37  0.0000000  0 28
C12  24328444.136 5  24328439.393 5 126684586.757 5  97960559.351 5
C19  22203908.552 8                 115621569.811 8
C22  23167119.552 8                 120637299.960 8
C35  21845500.333 8                 113755254.574 8
C39  40391702.291 6                 210330195.450 6
C44  22254375.831 8                 115884384.438 8
E02  27459477.988 6  27459484.374 7 144300508.112 6 109162379.246 7
E04  26240682.528 5  26240672.308 6 137895626.551 5 104317127.293 6
E05  25334068.562 6  25334073.855 8 133131428.732 6 100713086.830 8
E06  25083625.823 7  25083629.285 8 131815347.200 7  99717470.148 8
E09  25005127.784 7  25005130.839 9 131402844.242 7  99405414.957 9
E11  26774266.487 7  26774268.001 7 140699714.449 7 106438381.952 7
E30  26809063.920 7  26809067.037 8 140882568.846 7 106576762.268 8
E34  24615936.917 8  24615939.534 9 129357626.930 8  97858218.326 9
E36  23612010.620 8  23612013.468 9 124081951.158 8  93867200.588 9
G01  21453635.160 8                  21453638.466 7  21453640.439 8 112739616.527 8                  87849075.264 7  84188706.557 8
G02  20736095.953 8  20736097.082 7                                 108968919.917 8  84910850.610 7                
G03  23025746.224 5                  23025755.505 7  23025754.030 7 121001069.619 5                  94286613.944 7  90358042.807 7
G08  21365750.322 7                  21365756.562 7  21365753.235 8 112277762.904 7                  87489193.370 7  83843796.552 8
G10  22928001.895 7                  22928008.053 7  22928004.131 8 120487453.658 7                  93886349.636 7  89974401.510 8
G27  23778674.221 6                  23778684.004 7  23778682.064 7 124957749.905 6                  97369699.765 7  93312619.795 7
G32  21885023.073 7                  21885029.008 7  21885026.377 8 115006576.504 7                  89615543.900 7  85881549.881 8
R01  21366328.512 7                 114215243.191 7
R02  19452812.744 8  19452815.171 8 103803939.922 8  80736559.635 8
R03  21826898.938 8  21826903.741 7 116841138.770 8  90876479.641 7
R17  19258694.033 8  19258696.105 7 103057166.571 8  80155627.921 7
R18  20433366.245 6  20433368.951 6 109074737.493 6  84835979.997 6
R24  22500987.785 6  22500998.441 7 120322878.363 6  93584466.215 7
> 2025 06 15 11 37 15.0000000  0 26
C19  22204679.446 8                 115625583.605 8
C22  23158957.859 8                 120594796.348 8
C35  21848494.883 8                 113770849.284 8
C39  40386671.274 6                 210303996.117 6
C44  22249174.099 8                 115857298.837 8
E02  27467684.898 6  27467689.492 7 144343626.069 6 109194997.533 7
E05  25324790.082 6  25324794.610 8 133082667.568 6 100676199.453 8
E06  25083556.725 7  25083559.755 8 131814982.566 7  99717194.298 8
E09  25001173.887 7  25001177.525 8 131382069.041 7  99389698.703 8
E11  26780743.034 7  26780743.877 7 140733745.898 7 106464126.492 7
E30  26812687.048 7  26812691.254 8 140901614.755 7 106591170.354 8
E34  24610716.845 8  24610719.271 9 129330194.197 8  97837465.663 9
E36  23613584.482 8  23613587.215 9 124090221.326 8  93873456.925 9
G01  21446887.962 8                  21446891.746 7  21446893.397 8 112704161.486 8                  87821447.963 7  84162230.387 8
G02  20734541.642 8  20734542.713 7                                 108960750.685 8  84904484.990 7                
G03  23015812.346 5                  23015821.761 7  23015820.099 7 120948867.313 5                  94245936.857 7  90319060.632 7
G08  21372426.928 7                  21372433.198 7  21372430.585 8 112312848.173 7                  87516532.503 7  83869996.565 8
G10  22935715.458 7                  22935721.904 7  22935717.009 7 120527986.074 7                  93917933.336 7  90004669.205 7
G27  23789251.147 6                  23789260.037 6  23789258.904 7 125013330.918 6                  97413009.538 6  93354125.035 7
G32  21884751.629 7                  21884757.892 7  21884755.153 8 115005150.016 7                  89614432.349 7  85880484.619 8
R01  21375478.265 6                 114264152.823 6
R02  19451184.394 8  19451186.676 8 103795250.237 8  80729801.003 8
R03  21815203.338 7  21815207.607 7 116778530.767 7  90827784.578 7
R17  19260090.040 8  19260092.261 7 103064636.262 8  80161437.680 7
R18  20425494.154 7  20425495.435 6 109032710.859 7  84803292.569 6
R24  22510737.292 6  22510739.696 6 120374985.831 6  93624994.235 6
> 2025 06 15 11 37 30.0000000  0 27
C19  22205473.834 8                 115629721.128 8
C22  23150810.899 8                 120552373.679 8
C29  25670592.427 5                 133673686.22715
C35  21851509.881 8                 113786548.151 8
C39  40381646.295 6                 210277831.281 6
C44  22243989.428 8                 115830299.350 8
E02  27475890.054 6  27475898.027 7 144386761.984 6 109227629.528 7
E05  25315513.190 5  25315520.606 7 133033933.596 5 100639332.662 7
E06  25083509.955 8  25083512.197 8 131814732.805 8  99717005.331 8
E09  24997241.628 7  24997244.546 9 131361400.444 7  99374063.039 9
E11  26787224.586 7  26787224.959 7 140767804.507 7 106489891.574 7
E30  26816330.674 7  26816334.595 8 140920759.633 7 106605653.317 8
E34  24605503.569 8  24605506.280 9 129302800.219 8  97816742.309 9
E36  23615169.534 8  23615172.036 9 124098549.475 8  93879757.101 9
G01  21440153.888 8                  21440157.813 8  21440159.355 8 112668773.527 8                  87793872.932 8  84135804.348 8
G02  20733003.461 8  20733004.721 7                                 108952668.394 8  84898187.109 7                
G03  23005888.916 6                  23005898.815 7  23005896.675 8 120896721.515 6                  94205303.767 7  90280120.703 8
G08  21379124.861 8                  21379130.430 7  21379128.215 8 112348044.775 8                  87543958.402 7  83896279.720 8
G10  22943437.772 7                  22943443.409 7  22943439.820 8 120568567.357 7                  93949555.127 7  90034973.364 8
G27  23799834.956 6                  23799844.226 6  23799842.877 7 125068947.771 6                  97456347.240 6  93395657.007 7
G32  21884508.655 7                  21884514.751 7  21884511.857 8 115003871.700 7                  89613436.249 7  85879529.997 8
R01  21384649.044 6                 114313178.438 6
R02  19449593.566 8  19449595.939 8 103786762.273 8  80723199.245 8
R03  21803523.545 7  21803529.348 7 116716011.810 7  90779158.802 7
R17  19261513.685 8  19261515.834 8 103072252.801 8  80167361.648 8
R18  20417636.794 7  20417639.246 6 108990770.487 7  84770672.345 6
R24  22520496.398 6  22520497.512 6 120427161.667 6  93665575.275 6
> 2025 06 15 11 37 45.0000000  0 28
C19  22206292.372 8                 115633983.394 8
C20  24865714.468 5                 129482219.55015
C22  23142679.343 8                 120510033.217 8
C29  25679685.998 6                 133721025.862 6
C35  21854544.595 8                 113802352.290 8
C39  40376628.125 6                 210251702.061 6
C44  22238821.534 8                 115803387.220 8
E02  27484102.694 5  27484109.957 7 144429916.991 5 109260275.919 7
E05  25306247.208 5  25306252.177 7 132985228.217 5 100602487.443 7
E06  25083484.244 7  25083486.708 8 131814598.968 7  99716904.092 8
E09  24993328.858 8  24993331.955 9 131340839.563 8  99358508.896 9
E11  26793710.645 7  26793711.491 7 140801891.356 7 106515678.010 7
E30  26819993.321 7  26819997.035 8 140940004.510 7 106620211.895 8
E34  24600298.231 8  24600300.981 8 129275446.146 8  97796049.131 8
E36  23616765.749 8  23616768.129 9 124106936.696 8  93886101.961 9
G01  21433432.696 8                  21433436.442 8  21433438.315 8 112633453.955 8                  87766351.193 8  84109429.357 8
G02  20731482.245 8  20731483.756 7                                 108944674.184 8  84891957.857 7                
G03  22995977.357 6                  22995986.927 7  22995985.467 8 120844633.577 6                  94164715.859 7  90241223.959 8
G08  21385843.421 7                  21385849.674 7  21385846.725 8 112383353.511 7                  87571471.656 7  83922646.589 8
G10  22951169.154 7                  22951175.474 7  22951171.746 8 120609198.384 7                  93981215.618 7  90065314.705 8
G27  23810425.055 6                  23810434.321 6  23810432.976 7 125124601.254 6                  97499713.538 6  93437216.333 7
G32  21884293.533 8                  21884299.845 7  21884297.363 8 115002742.623 8                  89612556.499 7  85878686.897 8
R01  21393842.792 6                 114362320.697 6
R02  19448041.020 8  19448043.481 7 103778477.296 8  80716755.383 7
R03  21791862.353 7  21791866.908 7 116653582.928 7  90730603.017 7
R17  19262964.644 8  19262966.872 8 103080017.679 8  80173401.001 8
R18  20409796.354 7  20409798.737 6 108948917.937 7  84738120.463 6
R24  22530270.999 5  22530267.167 6 120479406.707 5  93706210.170 6
> 2025 06 15 11 38  0.0000000  0 29
C19  22207134.066 8                 115638366.515 8
C20  24873658.774 5                 129523587.066 5
C22  23134563.577 8                 120467771.481 8
C29  25688775.509 5                 133768392.237 5
C35  21857599.170 8                 113818257.980 8
C39  40371615.519 6                 210225604.784 6
C44  22233668.855 8                 115776558.961 8
E02  27492320.614 5  27492324.927 7 144473087.015 5 109292933.618 7
E04  26256023.611 5  26256024.652 5 137976239.55615 104378156.11815
E05  25296984.055 5  25296988.510 7 132936547.963 5 100565661.129 7
E06  25083479.563 7  25083482.688 8 131814577.324 7  99716887.707 8
E09  24989436.218 8  24989439.134 8 131320382.818 8  99343033.528 8
E11  26800202.393 7  26800202.808 7 140836002.646 7 106541482.943 7
E30  26823674.033 7  26823677.655 8 140959345.388 7 106634843.118 8
E34  24595100.135 8  24595102.635 9 129248128.325 8  97775383.378 9
E36  23618372.402 8  23618374.727 9 124115379.263 8  93892488.705 9
G01  21426724.102 8                  21426727.740 8  21426729.802 8 112598199.155 8                  87738879.955 8  84083102.761 8
G02  20729976.976 8  20729977.740 6                                 108936764.231 8  84885794.237 6                
G03  22986075.395 5                  22986085.306 6  22986084.036 7 120792600.059 5                  94124170.279 6  90202367.758 7
G08  21392583.529 7                  21392589.452 7  21392586.316 8 112418770.390 7                  87599069.219 7  83949094.252 8
G10  22958909.704 7                  22958916.396 7  22958912.285 8 120649875.251 7                  94012911.833 7  90095690.243 8
G27  23821020.924 6                  23821030.660 6  23821029.088 7 125180287.356 6                  97543105.216 6  93478799.993 7
G32  21884106.844 8                  21884112.808 7  21884110.555 8 115001759.102 8                  89611790.133 7  85877952.475 8
R01  21403056.576 6                 114411575.908 6
R02  19446525.749 8  19446528.410 7 103770391.438 8  80710466.399 7
R03  21780215.891 7  21780220.679 7 116591241.142 7  90682115.016 7
R17  19264442.798 8  19264444.670 8 103087926.948 8  80179552.670 8
R18  20401971.996 7  20401973.617 6 108907149.733 7  84705634.028 6
R24  22540043.227 6  22540049.840 6 120531718.68416  93746895.830 6
> 2025 06 15 11 38 15.0000000  0 29
C19  22207998.818 8                 115642870.322 8
C20  24881617.908 5                 129565010.356 5
C22  23126463.139 8                 120425588.463 8
C29  25697874.113 5                 133815784.924 5
C35  21860673.169 8                 113834264.977 8
C39  40366610.275 6                 210199539.498 6
C44  22228533.141 8                 115749814.646 8
E02  27500536.601 5  27500542.960 7 144516271.595 5 109325602.376 7
E04  26259910.718 5  26259909.342 5 137996652.035 5 104393597.979 5
E05  25287728.488 5  25287729.494 7 132887892.716 5 100528853.828 7
E06  25083497.033 7  25083500.004 8 131814667.732 7  99716956.081 8
E09  24985563.620 8  24985565.997 9 131300030.211 8  99327636.909 9
E11  26806697.348 7  26806698.747 7 140870138.255 7 106567306.280 7
E30  26827372.076 7  26827376.521 8 140978782.058 7 106649546.812 8
E34  24589908.035 8  24589911.076 9 129220846.653 8  97754744.977 9
E36  23619988.945 8  23619991.808 9 124123877.045 8  93898917.220 9
G01  21420027.494 7                  21420031.102 8  21420033.431 8 112563009.185 7                  87711459.204 8  84056824.547 8
G02  20728487.906 8  20728488.281 6                                 108928938.621 8  84879696.369 6                
G03  22976184.735 6                  22976193.497 6  22976192.339 7 120740620.760 6                  94083666.958 6  90163552.086 7
G08  21399343.306 8                  21399349.344 7  21399347.027 8 112454295.103 8                  87626750.772 7  83975622.405 8
G10  22966658.902 6                  22966665.542 7  22966661.521 8 120690597.557 6                  94044643.480 7  90126099.756 8
G27  23831625.009 6                  23831633.309 6  23831631.664 7 125236005.586 6                  97586521.961 6  93520407.667 7
G32  21883947.032 8                  21883953.125 7  21883950.611 8 115000921.005 8                  89611137.028 7  85877326.596 8
R01  21412291.649 6                 114460942.628 6
R02  19445048.091 8  19445049.794 8 103762504.664 8  80704332.223 8
R03  21768586.633 7  21768591.269 7 116528986.680 7  90633694.929 7
R17  19265947.927 8  19265949.895 7 103095980.572 8  80185816.609 7
R18  20394163.444 7  20394164.746 6 108865466.065 7  84673213.375 6
R24  22549840.179 6  22549846.100 6 120584093.895 6  93787632.090 6
> 2025 06 15 11 38 30.0000000  0 30
C12  24278864.486 5  24278856.562 5                
C19  22208886.080 7                 115647491.625 7
C20  24889582.438 4                 129606486.23714
C22  23118376.226 8                 120383481.364 8
C29  25706984.818 5                 133863201.006 5
C35  21863765.972 8                 113850370.299 8
C39  40361610.128 6                 210173503.067 6
C44  22223412.851 8                 115723151.425 8
E02  27508759.453 6  27508763.134 7 144559467.538 6 109358279.708 7
E04  26263813.545 5  26263811.349 5 138017157.50215 104409110.270 5
E05  25278479.499 5  25278474.964 7 132839259.75915 100492063.396 7
E06  25083534.765 7  25083537.943 8 131814867.083 7  99717106.874 8
E09  24981709.940 8  24981712.087 8 131279778.779 8  99312316.821 8
E11  26813197.018 6  26813198.638 7 140904295.116 6 106593145.635 7
E30  26831088.388 7  26831092.828 8 140998311.286 7 106664320.496 8
E34  24584722.642 8  24584725.826 8 129193598.133 8  97734131.655 8
E36  23621615.683 8  23621618.818 9 124132427.009 8  93905385.205 9
G01  21413343.031 7                  21413346.508 8  21413348.298 8 112527881.112 7                  87684086.687 8  84030592.551 8
G02  20727014.298 7  20727014.897 6                                 108921194.349 7  84873661.890 6                
G03  22966303.162 6                  22966311.984 6  22966311.003 7 120688692.866 6                  94043203.782 6  90124774.804 7
G08  21406123.192 8                  21406129.671 7  21406127.156 8 112489924.221 8                  87654513.703 7  84002228.535 8
G10  22974416.162 6                  22974422.722 7  22974419.130 8 120731362.110 6                  94076408.029 7  90156540.747 8
G27  23842233.077 6                  23842241.789 6  23842240.238 7 125291752.678 6                  97629961.114 6  93562036.947 7
G32  21883814.892 8                  21883820.637 8  21883817.841 8 115000225.168 8                  89610594.797 8  85876806.988 8
R01  21421547.349 6                 114510417.812 6
R02  19443606.703 8  19443608.546 7 103754813.931 8  80698350.542 7
R03  21756972.780 7  21756977.706 7 116466816.940 7  90585340.758 7
R17  19267479.218 8  19267481.204 7 103104175.404 8  80192190.311 7
R18  20386370.060 7  20386372.565 6 108823864.123 7  84640856.401 6
R24  22559642.856 4  22559650.897 6                  93828416.101 6
> 2025 06 15 11 38 45.0000000  0 28
C12  24270626.300 4  24270618.448 5 126383534.78014  97727722.82215
C19  22209796.814 8                 115652230.354 8
C22  23110304.787 7                 120341450.284 7
C35  21866877.736 8                 113866573.865 8
C39  40356616.722 6                 210147495.602 6
C44  22218307.753 8                 115696569.427 8
E02  27516982.611 6  27516985.352 7 144602674.449 6 109390965.355 7
E04  26267730.315 5  26267731.204 5 138037755.872 5 104424692.856 5
E05  25269219.313 5  25269224.476 7 132790649.09015 100455289.905 7
E06  25083593.407 8  25083596.483 8 131815175.289 8  99717340.060 8
E09  24977874.894 8  24977877.534 9 131259628.556 8  99297073.342 9
E11  26819700.596 6  26819702.546 7 140938473.126 6 106619000.995 7
E30  26834822.661 7  26834826.691 8 141017932.850 7 106679164.036 8
E34  24579543.831 8  24579547.039 8 129166382.844 8  97713543.470 8
E36  23623252.555 8  23623255.705 9 124141029.158 8  93911892.671 9
G01  21406670.189 7                  21406673.787 8  21406675.552 8 112492815.090 7                  87656762.531 8  84004406.896 8
G02  20725555.917 8  20725556.610 6                                 108913531.533 8  84867690.867 6                
G03  22956431.668 6                  22956439.677 6  22956439.399 7 120636816.540 6                  94002780.734 6  90086036.049 7
G08  21412922.759 7                  21412929.865 7  21412927.354 8 112525657.541 7                  87682357.855 7  84028912.470 8
G10  22982181.322 7                  22982187.997 7  22982184.506 8 120772168.633 7                  94108205.309 7  90187013.106 8
G27  23852846.990 6                  23852856.230 6  23852853.784 7 125347528.263 6                  97673422.596 6  93603687.364 7
G32  21883709.032 7                  21883715.303 8  21883712.515 8 114999671.583 7                  89610163.440 8  85876393.607 8
R01  21430822.634 6                 114560000.691 6
R02  19442201.948 8  19442204.305 8 103747318.851 8  80692521.056 8
R03  21745374.387 7  21745379.843 7 116404731.843 7  90537052.439 7
R17  19269036.895 8  19269039.035 7 103112511.687 8  80198674.077 7
R18  20378591.561 6  20378594.770 7 108782344.173 6  84608563.213 7
R24  22569464.847 6  22569467.853 6 120689028.66616  93869247.858 6
> 2025 06 15 11 39  0.0000000  0 28
C12  24262397.396 4                 126340674.14114
C19  22210728.082 8                 115657082.272 8
C22  23102247.381 8                 120299491.429 8
C35  21870007.563 8                 113882871.613 8
C39  40351626.507 6                 210121513.133 6
C44  22213217.882 8                 115670064.850 8
E02  27525208.499 6  27525208.871 7 144645888.109 6 109423656.077 7
E04  26271665.287 5  26271667.761 6 138058442.952 5 104440342.49516
E05  25259969.261 5  25259977.603 7 132742057.10615 100418530.539 7
E06  25083672.049 7  25083675.099 8 131815588.272 7  99717652.496 8
E09  24974058.924 8  24974061.655 9 131239575.623 8  99281903.446 9
E11  26826208.367 6  26826209.615 7 140972668.078 6 106644869.229 7
E30  26838573.707 7  26838577.294 8 141037642.470 7 106694074.215 8
E34  24574370.442 8  24574373.809 9 129139196.749 8  97692977.377 9
E36  23624898.789 8  23624901.744 9 124149679.394 8  93918436.520 9
G01  21400008.454 8                  21400012.304 8  21400013.564 8 112457807.189 8                  87629483.653 8  83978264.621 8
G02  20724112.662 8  20724112.755 6                                 108905945.942 8  84861780.023 6                
G03  22946568.900 6                  22946576.657 6  22946576.471 7 120584987.800 6                  93962394.757 6  90047332.905 7
G08  21419741.778 8                  21419748.678 7  21419745.813 8 112561490.701 8                  87710279.789 7  84055670.980 8
G10  22989953.576 7                  22989960.731 7  22989956.699 8 120813012.800 7                  94140031.914 7  90217513.599 8
G27  23863465.434 5                  23863474.160 6  23863472.411 6 125403327.863 5                  97716902.783 6  93645355.880 6
G32  21883630.201 7                  21883636.137 7  21883633.493 8 114999256.212 7                  89609839.749 7  85876083.415 8
R01  21440117.867 6                 114609686.577 6
R02  19440833.428 8  19440835.874 8 103740015.538 8  80686840.715 8
R03  21733791.803 7  21733796.783 7 116342728.151 7  90488827.380 7
R17  19270620.906 8  19270622.339 8 103120985.166 8  80205264.574 8
R18  20370828.274 6  20370831.171 7 108740902.678 6  84576330.843 7
R24  22579297.666 6  22579296.328 5 120741583.979 6  93910124.047 5
> 2025 06 15 11 39 15.0000000  0 26
C19  22211680.892 8                 115662044.905 8
C22  23094202.782 8                 120257602.595 8
C35  21873155.197 8                 113899261.074 8
C39  40346641.353 6                 210095553.273 6
C44  22208142.187 7                 115643635.432 7
E02  27533422.112 4  27533432.952 7                 109456349.810 7
E04  26275620.279 5  26275620.842 6 138079216.229 5 104456057.354 6
E05  25250727.402 5  25250733.759 7 132693481.572 5 100381783.551 7
E06  25083770.630 8  25083773.248 8 131816103.605 8  99718042.334 8
E09  24970261.257 8  24970263.854 9 131219617.682 8  99266805.391 9
E11  26832718.415 6  26832719.514 7 141006877.668 6 106670748.556 7
E30  26842340.073 7  26842344.272 8 141057437.608 7 106709049.087 8
E34  24569202.676 8  24569205.508 9 129112037.492 8  97672431.590 9
E36  23626553.610 8  23626556.521 9 124158375.331 8  93925014.921 9
G01  21393357.240 7                  21393360.958 8  21393362.501 8 112422855.072 7                  87602248.273 8  83952164.023 8
G02  20722683.546 8  20722684.103 7                                 108898435.357 8  84855927.629 7                
G03  22936715.320 6                  22936722.696 6  22936722.550 7 120533204.585 6                  93922044.210 6  90008663.694 7
G08  21426579.102 8                  21426586.078 7  21426582.623 8 112597421.039 8                  87738277.413 7  84082502.053 8
G10  22997733.178 7                  22997739.699 7  22997735.961 8 120853892.012 7                  94171885.840 7  90248040.297 8
G27  23874088.005 6                  23874096.445 6  23874093.992 6 125459148.986 6                  97760399.614 6  93687040.372 6
G32  21883577.101 7                  21883583.111 7  21883580.119 8 114998976.475 7                  89609621.817 7  85875874.547 8
R01  21449431.318 6                 114659472.770 6
R02  19439500.539 8  19439502.450 8 103732901.194 8  80681307.356 8
R03  21722224.102 7  21722227.772 7 116280803.543 7  90440663.841 7
R17  19272229.290 8  19272230.956 7 103129593.540 8  80211959.974 7
R18  20363078.856 7  20363081.557 6 108699537.097 7  84544157.639 6
> 2025 06 15 11 39 30.0000000  0 29
C12  24245955.010 5  24245945.935 4 126255044.31015  97628379.63714
C19  22212655.096 8                 115667116.620 8
C20  24921529.994 5                 129772863.97715
C22  23086171.316 8                 120215782.352 8
C35  21876319.809 8                 113915740.729 8
C39  40341660.257 5                 210069614.664 5
C44  22203081.490 8                 115617279.881 8
E02  27541649.028 5  27541657.004 7 144732325.38515 109489045.232 7
E04  26279588.036 5  26279589.830 6 138100074.035 5 104471836.075 6
E05  25241486.192 6  25241492.979 7 132644921.187 6 100345048.002 7
E06  25083887.691 7  25083890.546 8 131816719.752 7  99718508.424 8
E09  24966481.079 8  24966483.818 9 131199753.286 8  99251778.109 9
E11  26839230.982 7  26839231.863 7 141041100.373 7 106696637.719 7
E30  26846123.324 7  26846127.090 8 141077316.551 7 106724087.363 8
E34  24564039.577 8  24564042.084 9 129084903.621 8  97651905.009 9
E36  23628217.061 8  23628219.772 9 124167115.433 8  93931626.760 9
G01  21386716.624 7                  21386720.084 8  21386721.881 8 112387957.455 7                  87575055.323 8  83926104.129 8
G02  20721268.158 8  20721268.953 7                                 108890998.429 8  84850132.634 7                
G03  22926869.216 6                  22926877.532 6  22926876.435 7 120481465.301 6                  93881727.989 6  89970027.326 7
G08  21433434.614 8                  21433441.431 7  21433438.056 8 112633446.750 8                  87766349.355 7  84109404.336 8
G10  23005518.441 7                  23005524.849 7  23005521.479 8 120894804.624 7                  94203765.689 7  90278591.851 8
G27  23884714.692 6                  23884723.064 6  23884720.309 7 125514989.651 6                  97803911.762 6  93728739.527 7
G32  21883549.687 7                  21883555.693 7  21883552.700 8 114998830.932 7                  89609508.427 7  85875765.875 8
R01  21458763.250 6                 114709356.920 6
R02  19438201.805 8  19438204.273 7 103725974.568 8  80675919.988 7
R03  21710668.624 7  21710673.808 7 116218956.953 7  90392561.031 7
R17  19273862.987 8  19273864.222 8 103138335.236 8  80218759.065 8
R18  20355343.756 7  20355346.143 7 108658246.438 7  84512042.712 7
R24  22598978.664 4  22598982.643 5 120846856.07014  93992001.971 5
> 2025 06 15 11 39 45.0000000  0 28
C12  24237734.500 5  24237731.182 3 126212280.96115  97595298.39213
C19  22213650.877 8                 115672302.971 8
C20  24929541.716 5                 129814577.78115
C22  23078154.633 8                 120174036.606 8
C35  21879503.065 8                 113932316.211 8
C39  40336681.938 5                 210043702.885 5
C44  22198035.410 8                 115591004.025 8
E02  27549876.916 5  27549882.658 7 144775552.882 5 109521746.459 7
E05  25232249.151 5  25232256.243 7 132596381.810 5 100308328.404 7
E06  25084024.904 7  25084028.139 8 131817442.332 7  99719055.039 8
E09  24962720.179 8  24962722.603 9 131179988.225 8  99236825.994 9
E11  26845746.851 7  26845747.803 7 141075341.785 7 106722541.066 7
E30  26849922.333 7  26849926.701 8 141097284.789 7 106739193.208 8
E34  24558881.456 8  24558884.751 9 129057800.919 8  97631401.984 9
E36  23629889.969 8  23629892.458 9 124175905.429 8  93938276.326 9
G01  21380087.046 7                  21380090.660 8  21380092.951 8 112353120.182 7                  87547909.387 8  83900089.279 8
G02  20719867.979 8  20719868.343 6                                 108883640.849 8  84844399.419 6                
G03  22917032.666 6                  22917041.593 6  22917039.748 7 120429776.058 6                  93841450.632 6  89931428.231 7
G08  21440309.083 7                  21440315.961 7  21440312.919 8 112669573.275 7                  87794499.886 7  84136381.915 8
G10  23013311.101 7                  23013317.426 7  23013314.243 8 120935755.983 7                  94235675.854 7  90309172.423 8
G27  23895345.357 5                  23895353.635 6  23895351.401 7 125570855.362 5                  97847443.423 6  93770457.324 7
G32  21883548.166 8                  21883554.392 7  21883551.703 8 114998825.279 8                  89609503.995 7  85875761.624 8
R01  21468114.618 6                 114759344.588 6
R02  19436940.633 8  19436942.710 8 103719241.382 8  80670683.062 8
R03  21699131.274 7  21699136.055 7 116157194.863 7  90344523.860 7
R17  19275522.734 8  19275524.160 8 103147216.252 8  80225666.538 8
R18  20347623.337 7  20347625.906 7 108617036.777 7  84479990.729 7
R24  22608837.796 6  22608839.975 5 120899576.403 6  94033006.759 5
>                              2  1
              *** Start of Kinematic Data ***               COMMENT             
