     3.04           OBSERVATION DATA    Mixed(MIXED)        RINEX VERSION / TYPE
cnvtToRINEX 3.14.0  convertToRINEX OPR  20250615 162116 UTC PGM / RUN BY / DATE 
----------------------------------------------------------- COMMENT             
1008                                                        MARKER NAME         
1008                                                        MARKER NUMBER       
GEODETIC                                                    MARKER TYPE         
GNSS Observer       Trimble                                 OBSERVER / AGENCY   
6337S22116          Geo Explorer 3      6.26                REC # / TYPE / VERS 
                    UNKNOWN EXT     NONE                    ANT # / TYPE        
  3916452.9402  1193364.2420  4874939.0877                  APPROX POSITION XYZ 
        1.3250        0.0000        0.0000                  ANTENNA: DELTA H/E/N
R    4 C1C C2C L1C L2C                                      SYS / # / OBS TYPES 
G    8 C1C C2W C2X C5X L1C L2W L2X L5X                      SYS / # / OBS TYPES 
C    4 C2I C7I L2I L7I                                      SYS / # / OBS TYPES 
E    4 C1X C8X L1X L8X                                      SYS / # / OBS TYPES 
    15.000                                                  INTERVAL            
  2025     6    15    15     1   45.0000000     GPS         TIME OF FIRST OBS   
  2025     6    15    15    27   30.0000000     GPS         TIME OF LAST OBS    
     0                                                      RCV CLOCK OFFS APPL 
  9 R03  5 R04  6 R05  1 R12 -1 R13 -2 R14 -7 R18 -3 R19  3 GLONASS SLOT / FRQ #
    R20  2                                                  GLONASS SLOT / FRQ #
R L2C -0.25000                                              SYS / PHASE SHIFT   
G L2X -0.25000                                              SYS / PHASE SHIFT   
    18                                                      LEAP SECONDS        
    41                                                      # OF SATELLITES     
   C05   104   104   104   104                              PRN / # OF OBS      
   C06   104   104   104   104                              PRN / # OF OBS      
   C09   104   104   104   104                              PRN / # OF OBS      
   C11   104   104   104   104                              PRN / # OF OBS      
   C12   104   104   104   104                              PRN / # OF OBS      
   C16   104   104   104   104                              PRN / # OF OBS      
   C21   104     0   104     0                              PRN / # OF OBS      
   C22   104     0   104     0                              PRN / # OF OBS      
   C34   104     0   104     0                              PRN / # OF OBS      
   C36   104     0   104     0                              PRN / # OF OBS      
   C39   104     0   104     0                              PRN / # OF OBS      
   C42   104     0   104     0                              PRN / # OF OBS      
   C43   104     0   104     0                              PRN / # OF OBS      
   C44    77     0    76     0                              PRN / # OF OBS      
   C45    59     0    59     0                              PRN / # OF OBS      
   E03   104   104   104   104                              PRN / # OF OBS      
   E05   104   104   104   104                              PRN / # OF OBS      
   E08    70    70    70    70                              PRN / # OF OBS      
   E09    20    20    20    20                              PRN / # OF OBS      
   E13   104   104   104   104                              PRN / # OF OBS      
   E15   104   104   104   104                              PRN / # OF OBS      
   E34   104   104   104   104                              PRN / # OF OBS      
   G01   104     0   104   104   104     0   104   104      PRN / # OF OBS      
   G03   104     0   104   104   104     0   104   104      PRN / # OF OBS      
   G04   104     0   104   104   104     0   104   104      PRN / # OF OBS      
   G06   104     0   104   104   104     0   104   104      PRN / # OF OBS      
   G09   104     0   104   104   104     0   104   104      PRN / # OF OBS      
   G11     2     0     2     2     2     0     2     2      PRN / # OF OBS      
   G17   104     0   104     0   104     0   104     0      PRN / # OF OBS      
   G19   104   104     0     0   104   104     0     0      PRN / # OF OBS      
   G28    34     0    24    33    32     0    24    33      PRN / # OF OBS      
   G31   104     0   104     0   104     0   104     0      PRN / # OF OBS      
   R03   104   104   104   104                              PRN / # OF OBS      
   R04   104   104   104   104                              PRN / # OF OBS      
   R05   104   104   104   104                              PRN / # OF OBS      
   R12   100   100   100   100                              PRN / # OF OBS      
   R13   104     0   104     0                              PRN / # OF OBS      
   R14    37    37    37    37                              PRN / # OF OBS      
   R18    25     6    23     5                              PRN / # OF OBS      
   R19   104   104   104   104                              PRN / # OF OBS      
   R20   104   104   104   104                              PRN / # OF OBS      
DBHZ                                                        SIGNAL STRENGTH UNIT
                                                            END OF HEADER       
>                              2  1
              *** Start of Kinematic Data ***               COMMENT             
> 2025 06 15 15 01 45.0000000  0 37
C05  39179334.239 6  39179331.011 6 204017046.17716 157758937.28416
C06  38233198.521 7  38233193.670 7 199090304.81017 153949230.34017
C09  38450720.799 7  38450717.779 7 200222985.38217 154825115.60717
C11  23160826.347 7  23160823.505 8 120604472.06517  93259137.27618
C12  23423147.165 7  23423145.334 8 121970441.21517  94315123.16718
C16  38855879.593 7  38855881.101 7 202332748.25417 156456517.57517
C21  22001958.222 8                 114569953.83918
C22  22708238.541 8                 118247737.01618
C34  22734392.986 7                 118383934.01817
C36  24902516.656 7                 129673951.44317
C39  39020957.368 7                 203192365.21717
C42  25024104.648 7                 130307106.06017
C43  24362245.314 7                 126860585.82917
C44  24827982.807 7                 129285796.70817
E03  24027583.620 8  24027586.070 9 126265808.25318  95519279.02219
E05  22337305.407 8  22337307.607 9 117383340.19418  88799699.45519
E09  27945288.496 7  27945293.269 8 146853478.94317 111093669.64918
E13  27430440.203 6  27430445.683 7 144147942.87516 109047005.38517
E15  23791248.156 8  23791250.359 9 125023849.20418  94579744.80219
E34  24241153.198 8  24241155.614 8 127388112.25718  96368288.46218
G01  22323594.455 7                  22323598.971 7  22323601.069 8 117311262.00617                  91411392.69917  87602585.82418
G03  20352620.819 8                  20352626.511 7  20352624.774 8 106953735.90818                  83340598.50217  79868067.23618
G04  20241711.059 8                  20241715.671 8  20241716.287 9 106370908.90318                  82886443.86918  79432844.55119
G06  22733862.677 7                  22733869.425 7  22733867.422 8 119467265.62817                  93091405.33217  89212592.25818
G09  21980400.821 7                  21980406.953 7  21980405.798 8 115507796.35417                  90006384.71817  86255852.43018
G17  23454098.638 7                  23454103.583 7                 123252103.67917                  96040482.73317
G19  22366533.982 7  22366535.974 5                                 117536922.69417  91587224.35415                
G28  24194079.745 5                  24194084.628 6  24194088.138 6 127140727.11415                  99070722.42916  94942787.01516
G31  22341951.872 7                  22341955.682 7                 117407748.86917                  91486576.71217
R03  21070797.770 7  21070801.703 7 112793622.47217  87728227.19317
R04  19222105.890 8  19222107.601 7 102933499.37318  80059489.30817
R05  21516188.753 7  21516192.173 7 115016375.24817  89457204.51717
R12  23135490.244 7  23135495.424 7 123585722.31817  96122196.72917
R13  22535868.346 6                 120340298.44216
R18  22924897.574 5  22924901.527 5 122374731.75015  95180298.16215
R19  19761269.726 8  19761270.192 7 105709464.44218  82218448.01917
R20  20778495.316 6  20778499.948 7 111111967.12116  86420436.61117
> 2025 06 15 15 02  0.0000000  0 37
C05  39179203.481 6  39179200.512 6 204016364.801 6 157758410.400 6
C06  38232826.108 6  38232821.452 7 199088364.781 6 153947730.189 7
C09  38448787.714 7  38448785.231 7 200212923.123 7 154817334.854 7
C11  23159314.386 7  23159311.592 8 120596598.852 7  93253049.209 8
C12  23430470.597 7  23430468.863 8 122008576.735 7  94344611.953 8
C16  38855928.186 7  38855930.046 7 202333002.878 7 156456714.469 7
C21  21999611.365 8                 114557733.749 8
C22  22713818.866 8                 118276795.232 8
C34  22737829.484 8                 118401827.505 8
C36  24898189.702 7                 129651415.549 7
C39  39022308.168 7                 203199399.348 7
C42  25016103.234 7                 130265440.599 7
C43  24357283.706 7                 126834749.723 7
C44  24837464.350 7                 129335168.979 7
E03  24022647.889 8  24022650.537 9 126239871.918 8  95499658.368 9
E05  22340319.853 8  22340322.114 9 117399181.501 8  88811683.295 9
E09  27953183.062 7  27953187.224 8 146894962.045 7 111125051.311 8
E13  27421997.177 7  27422002.467 7 144103573.203 7 109013440.067 7
E15  23788405.420 8  23788408.022 9 125008912.664 8  94568445.406 9
E34  24246495.931 8  24246498.621 9 127416189.371 8  96389528.588 9
G01  22332620.069 7                  22332625.160 7  22332627.027 8 117358692.628 7                  91448351.550 7  87638004.732 8
G03  20356569.156 8                  20356574.502 7  20356572.914 8 106974484.064 8                  83356765.888 7  79883560.984 8
G04  20238630.057 7                  20238634.850 8  20238635.456 9 106354718.456 7                  82873827.945 8  79420754.310 9
G06  22725682.261 7                  22725689.245 7  22725687.113 8 119424277.991 7                  93057908.478 7  89180491.123 8
G09  21971679.607 7                  21971685.738 7  21971684.739 8 115461967.176 7                  89970673.695 7  86221629.396 8
G17  23460767.787 7                  23460772.379 7                 123287148.696 7                  96067790.533 7
G19  22369717.851 7  22369719.312 5                                 117553651.615 7  91600259.882 5                
G28  24201019.593 5                  24201023.484 6  24201028.037 7 127177194.617 5                  99099138.699 6  94970019.229 7
G31  22344569.799 7                  22344573.935 7                 117421507.027 7                  91497297.347 7
R03  21078891.593 8  21078894.941 7 112836947.162 8  87761924.147 7
R04  19221831.119 8  19221832.767 7 102932026.944 8  80058344.111 7
R05  21507506.878 7  21507510.421 7 114969968.450 7  89421110.362 7
R12  23138681.681 7  23138686.987 7 123602770.278 7  96135456.191 7
R13  22530557.132 6                 120311936.106 6
R18  22937447.545 5  22937455.895 5 122441738.732 5  95232414.636 5
R19  19766616.331 8  19766616.803 7 105738064.381 8  82240692.376 7
R20  20771074.833 6  20771078.673 7 111072283.792 6  86389571.819 7
>                              3  5
              *** Start of Occupation ***                   COMMENT             
1008                                                        MARKER NAME         
1008                                                        MARKER NUMBER       
  3916452.9402  1193364.2420  4874939.0877                  APPROX POSITION XYZ 
        1.3250        0.0000        0.0000                  ANTENNA: DELTA H/E/N
> 2025 06 15 15 02 15.0000000  0 37
C05  39179071.666 6  39179068.576 6 204015678.730 6 157757879.903 6
C06  38232459.846 6  38232454.880 7 199086457.763 6 153946255.570 7
C09  38446861.179 7  38446859.298 7 200202891.962 7 154809578.159 7
C11  23157826.651 7  23157823.865 8 120588850.234 7  93247057.491 8
C12  23437809.177 7  23437807.759 8 122046790.566 7  94374161.291 8
C16  38855983.551 7  38855985.072 7 202333288.570 7 156456935.376 7
C21  21997278.484 8                 114545584.075 8
C22  22719407.104 8                 118305896.605 8
C34  22741287.332 7                 118419834.648 7
C36  24893880.560 7                 129628977.367 7
C39  39023664.401 7                 203206460.999 7
C42  25008107.235 7                 130223802.314 7
C43  24352342.356 7                 126809017.593 7
C44  24846949.240 7                 129384561.322 7
E03  24017726.010 8  24017728.234 9 126214005.220 8  95480090.396 9
E05  22343347.725 8  22343349.726 8 117415091.763 8  88823719.296 8
E09  27961077.628 7  27961082.292 7 146936450.283 7 111156436.869 7
E13  27413556.870 7  27413562.023 7 144059218.887 7 108979886.358 7
E15  23785578.945 8  23785581.425 9 124994058.860 8  94557208.613 9
E34  24251852.651 8  24251855.435 8 127444339.416 8  96410823.915 8
G01  22341658.502 7                  22341663.600 7  22341665.661 8 117406190.038 7                  91485362.419 7  87673473.536 8
G03  20360533.225 8                  20360538.835 7  20360537.104 8 106995316.292 8                  83372998.786 7  79899117.503 8
G04  20235571.229 7                  20235575.303 8  20235576.087 9 106338643.552 7                  82861302.104 8  79408750.374 9
G06  22717516.901 7                  22717523.880 7  22717521.593 8 119381368.445 7                  93024472.483 7  89148448.295 8
G09  21962971.655 7                  21962977.570 7  21962976.814 8 115416205.632 7                  89935015.365 7  86187456.831 8
G17  23467450.216 7                  23467455.305 7                 123322265.751 7                  96095154.398 7
G19  22372927.903 7  22372930.168 5                                 117570521.824 7  91613405.462 5                
G28  24207978.027 6                  24207982.210 5  24207987.132 6 127213762.093 6                  99127632.783 5  94997326.004 6
G31  22347217.078 7                  22347221.107 7                 117435418.370 7                  91508137.363 7
R03  21086994.087 8  21086997.753 7 112880320.697 8  87795659.112 7
R04  19221578.478 8  19221579.643 7 102930673.185 8  80057291.194 7
R05  21498839.210 7  21498842.525 7 114923632.373 7  89385071.253 7
R12  23141907.308 7  23141911.235 7 123619997.494 7  96148855.151 7
R13  22525276.083 6                 120283738.020 6
R18  22950007.384 4  22950016.240 5                  95284558.457 5
R19  19771996.662 8  19771996.634 7 105766844.855 8  82263077.188 7
R20  20763682.296 6  20763686.749 7 111032754.703 6  86358826.989 7
> 2025 06 15 15 02 30.0000000  0 36
C05  39178938.366 6  39178934.846 6 204014984.971 6 157757343.444 6
C06  38232099.978 7  38232094.503 7 199084580.869 7 153944804.259 7
C09  38444940.935 7  38444938.485 7 200192888.927 7 154801843.212 7
C11  23156361.900 7  23156359.204 8 120581223.425 7  93241159.971 8
C12  23445162.311 7  23445160.695 8 122085079.653 7  94403768.802 8
C16  38856043.882 7  38856044.963 7 202333602.404 7 156457178.039 7
C21  21994957.797 8                 114533501.883 8
C22  22725003.318 8                 118335038.092 8
C34  22744767.031 7                 118437952.359 7
C36  24889589.700 7                 129606634.260 7
C39  39025024.894 7                 203213547.357 7
C42  25000115.759 7                 130182188.320 7
C43  24347420.222 7                 126783386.791 7
C44  24856437.666 7                 129433970.579 7
E03  24012816.201 8  24012818.562 9 126188205.312 8  95460572.951 9
E05  22346387.935 8  22346389.898 9 117431067.928 8  88835805.165 9
E09  27968973.051 7  27968977.659 8 146977940.684 7 111187824.052 8
E13  27405119.203 7  27405124.133 8 144014877.250 7 108946342.216 8
E15  23782767.657 8  23782770.021 9 124979285.033 8  94546032.313 9
E34  24257222.932 8  24257225.585 8 127472559.446 8  96432172.160 8
G01  22350709.445 7                  22350713.593 7  22350716.374 8 117453751.091 7                  91522422.960 7  87708989.835 8
G03  20364512.793 8                  20364518.478 7  20364516.945 8 107016229.640 8                  83389294.886 7  79914734.610 8
G04  20232534.394 7                  20232537.156 8  20232538.184 8 106322681.428 7                  82848864.055 8  79396830.586 8
G06  22709365.791 7                  22709372.910 7  22709370.941 8 119338534.319 7                  92991095.269 7  89116461.793 8
G09  21954276.076 7                  21954281.578 7  21954280.763 8 115370508.949 7                  89899407.597 7  86153332.734 8
G17  23474145.188 7                  23474151.102 7                 123357451.515 7                  96122571.831 7
G19  22376164.479 7  22376167.458 5                                 117587530.228 7  91626658.714 5                
G28  24214954.686 5                  24214959.155 5  24214963.547 6 127250426.202 5                  99156202.206 5  95024705.038 6
G31  22349892.872 7                  22349896.632 7                 117449479.886 7                  91519094.372 7
R03  21095105.312 8  21095109.546 7 112923739.801 8  87829429.515 7
R04  19221347.382 8  19221348.392 7 102929434.838 8  80056328.040 7
R05  21490183.791 7  21490187.275 8 114877364.489 7  89349085.142 8
R12  23145164.812 7  23145169.649 7 123637400.835 7  96162391.066 7
R13  22520025.893 6                 120255702.002 6
R19  19777410.211 8  19777410.559 7 105795802.855 8  82285600.047 7
R20  20756318.788 6  20756322.634 7 110993377.340 6  86328200.190 7
> 2025 06 15 15 02 45.0000000  0 36
C05  39178804.090 6  39178800.430 6 204014284.253 6 157756801.607 6
C06  38231744.879 7  38231740.060 7 199082734.785 7 153943376.751 7
C09  38443025.046 7  38443022.974 7 200182914.911 7 154794130.683 7
C11  23154920.534 7  23154918.079 8 120573719.316 7  93235357.313 8
C12  23452529.871 7  23452528.169 8 122123444.311 7  94433434.758 8
C16  38856109.609 7  38856110.971 7 202333945.070 7 156457443.009 7
C21  21992650.681 8                 114521487.923 8
C22  22730607.861 8                 118364220.258 8
C34  22748267.854 7                 118456181.211 7
C36  24885317.342 7                 129584387.133 7
C39  39026390.910 7                 203220658.974 7
C42  24992128.666 7                 130140599.465 7
C43  24342517.563 7                 126757858.216 7
C44  24865929.823 7                 129483397.182 7
E03  24007919.554 8  24007921.809 9 126162472.928 8  95441106.587 9
E05  22349440.736 8  22349442.710 9 117447110.585 8  88847941.316 9
E09  27976868.910 7  27976873.677 8 147019433.743 7 111219213.261 8
E13  27396683.881 7  27396688.561 7 143970549.129 7 108912808.310 7
E15  23779971.566 8  23779974.045 9 124964592.050 8  94534917.160 9
E34  24262606.750 8  24262609.096 9 127500850.042 8  96453573.804 9
G01  22359771.905 7                  22359776.380 7  22359778.845 8 117501376.245 7                  91559533.464 7  87744554.023 8
G03  20368508.092 8                  20368513.662 8  20368512.179 8 107037224.745 8                  83405654.720 8  79930412.767 8
G04  20229517.630 8                  20229521.612 8  20229522.367 9 106306832.783 8                  82836514.437 8  79384995.534 9
G06  22701229.252 7                  22701236.329 7  22701234.481 8 119295776.725 7                  92957777.650 7  89084532.422 8
G09  21945592.709 7                  21945598.525 7  21945597.425 8 115324878.080 7                  89863851.114 7  86119257.757 8
G17  23480854.750 6                  23480860.352 7                 123392706.398 6                  96150043.137 7
G19  22379427.699 7  22379430.949 5                                 117604677.292 7  91640020.051 5                
G28  24221950.503 6                  24221955.668 5  24221959.146 6 127287187.333 6                  99184847.248 5  95052156.536 6
G31  22352597.387 7                  22352600.920 7                 117463692.000 7                  91530168.750 7
R03  21103224.553 8  21103228.452 7 112967204.659 8  87863235.485 7
R04  19221137.568 8  19221139.414 7 102928312.634 8  80055455.213 7
R05  21481541.179 7  21481545.119 7 114831165.652 7  89313152.760 7
R12  23148455.635 8  23148459.483 7 123654980.821 8  96176064.402 7
R13  22514806.238 6                 120227829.046 6
R19  19782856.641 8  19782857.429 8 105824938.671 8  82308261.247 8
R20  20748983.203 6  20748987.793 7 110954153.138 6  86297692.452 7
> 2025 06 15 15 03  0.0000000  0 37
C05  39178668.323 6  39178665.401 6 204013580.005 6 157756257.052 6
C06  38231397.256 7  38231391.948 7 199080922.912 7 153941975.707 7
C09  38441116.235 7  38441114.036 7 200172973.239 7 154786443.144 7
C11  23153503.867 7  23153500.916 8 120566341.220 7  93229652.119 8
C12  23459912.515 7  23459910.534 8 122161887.755 7  94463161.645 8
C16  38856181.640 7  38856183.099 7 202334319.909 7 156457732.871 7
C21  21990357.253 8                 114509545.521 8
C22  22736220.236 8                 118393446.388 8
C34  22751790.000 7                 118474524.472 7
C36  24881064.179 7                 129562239.594 7
C39  39027762.292 7                 203227799.266 7
C42  24984147.423 7                 130099039.158 7
C43  24337635.134 7                 126732435.428 7
C44  24875425.454 7                 129532844.281 7
E03  24003036.538 8  24003038.530 9 126136811.522 8  95421693.938 9
E05  22352506.933 8  22352508.768 8 117463222.987 8  88860130.247 8
E09  27984766.239 7  27984770.666 8 147060932.763 7 111250606.955 8
E13  27388251.263 7  27388256.534 8 143926238.093 7 108879287.346 8
E15  23777191.772 8  23777194.152 9 124949983.437 8  94523865.848 9
E34  24268004.457 8  24268006.619 8 127529214.566 8  96475031.364 8
G01  22368847.467 7                  22368852.182 7  22368854.676 8 117549068.726 7                  91596696.395 7  87780168.488 8
G03  20372519.521 8                  20372525.203 7  20372523.335 8 107058304.949 8                  83422080.862 7  79946154.478 8
G04  20226523.673 7                  20226528.380 8  20226528.940 9 106291101.031 7                  82824255.923 8  79373247.796 9
G06  22693107.991 7                  22693115.058 7  22693113.182 8 119253099.330 7                  92924522.564 7  89052662.979 8
G09  21936922.788 7                  21936928.419 7  21936927.587 8 115279316.559 7                  89828348.668 7  86085234.590 8
G17  23487577.006 7                  23487582.433 7                 123428033.488 7                  96177570.726 7
G19  22382718.123 7  22382720.360 5                                 117621966.247 7  91653491.911 5                
G28  24228964.583 6                  24228969.429 6  24228972.252 6 127324048.706 6                  99213570.402 6  95079682.866 6
G31  22355330.975 7                  22355334.859 6                 117478058.089 7                  91541363.100 6
R03  21111353.689 8  21111357.261 7 113010718.846 8  87897079.855 7
R04  19220950.169 8  19220951.861 7 102927309.832 8  80054675.266 7
R05  21472912.227 8  21472915.679 7 114785039.586 8  89277276.945 7
R12  23151780.379 8  23151784.609 7 123672740.715 8  96189877.650 7
R13  22509617.728 6                 120200123.069 6
R18  22987724.593 4                 122710009.76714
R19  19788336.728 8  19788337.801 7 105854255.527 8  82331063.232 7
R20  20741677.714 6  20741681.923 7 110915085.688 6  86267306.667 7
> 2025 06 15 15 03 15.0000000  0 36
C05  39178532.992 6  39178530.067 6 204012872.616 6 157755710.072 6
C06  38231055.798 7  38231051.007 7 199079145.462 7 153940601.277 7
C09  38439213.189 7  38439210.981 7 200163064.187 7 154778780.834 7
C11  23152110.741 7  23152107.812 8 120559089.614 7  93224044.709 8
C12  23467310.289 7  23467308.274 8 122200410.149 7  94492949.529 8
C16  38856259.856 7  38856261.325 7 202334727.284 7 156458047.887 7
C21  21988077.630 8                 114497675.052 8
C22  22741841.349 8                 118422716.755 8
C34  22755334.894 7                 118492982.363 7
C36  24876830.046 8                 129540192.248 8
C39  39029138.833 7                 203234968.497 7
C42  24976171.908 7                 130057507.786 7
C43  24332773.368 7                 126707118.978 7
C44  24884925.077 7                 129582311.920 7
E03  23998166.908 8  23998168.872 9 126111221.564 8  95402335.316 9
E05  22355586.228 8  22355588.177 9 117479405.404 8  88872372.131 9
E09  27992664.256 7  27992668.636 8 147102437.900 7 111282005.291 8
E13  27379822.661 7  27379827.766 8 143881944.751 7 108845779.777 8
E15  23774428.010 8  23774430.351 9 124935459.726 8  94512878.758 9
E34  24273415.930 8  24273418.384 8 127557653.323 8  96496545.078 8
G01  22377935.932 7                  22377940.758 7  22377943.154 8 117596828.604 7                  91633911.859 7  87815833.294 8
G03  20376547.440 8                  20376552.842 7  20376551.052 8 107079470.575 8                  83438573.532 7  79961959.979 8
G04  20223552.675 7                  20223557.461 8  20223558.068 9 106275486.567 7                  82812088.844 8  79361587.646 9
G06  22685002.108 7                  22685009.110 7  22685007.389 8 119210502.878 7                  92891330.541 7  89020853.949 8
G09  21928265.886 7                  21928271.704 7  21928270.635 8 115233824.930 7                  89792900.711 7  86051263.616 8
G17  23494313.222 7                  23494318.387 7                 123463432.786 7                  96205154.547 7
G19  22386035.447 7  22386036.934 5                                 117639397.053 7  91667074.361 5                
G28  24235998.274 6                  24236003.473 5  24236006.048 6 127361010.468 6                  99242371.685 5  95107284.105 6
G31  22358093.765 7                  22358097.198 7                 117492578.414 7                  91552677.617 7
R03  21119491.536 8  21119495.141 7 113054282.378 8  87930962.581 7
R04  19220785.372 8  19220786.907 7 102926426.725 8  80053988.403 7
R05  21464296.760 7  21464299.934 7 114738986.647 7  89241458.038 7
R12  23155138.769 8  23155143.284 7 123690680.673 8  96203830.966 7
R13  22504461.017 6                 120172584.643 6
R19  19793851.544 8  19793852.042 8 105883753.565 8  82354006.132 8
R20  20734401.226 6  20734405.766 7 110876175.916 6  86237043.554 7
> 2025 06 15 15 03 30.0000000  0 36
C05  39178396.104 6  39178392.822 6 204012160.574 6 157755159.460 6
C06  38230721.126 7  38230715.498 7 199077401.024 7 153939252.366 7
C09  38437316.499 7  38437313.730 7 200153186.284 7 154771142.646 7
C11  23150742.544 7  23150739.139 8 120551963.223 7  93218534.136 8
C12  23474722.537 7  23474721.151 8 122239009.622 7  94522797.075 8
C16  38856344.490 7  38856345.437 7 202335165.677 7 156458386.887 7
C21  21985812.057 8                 114485875.056 8
C22  22747470.384 8                 118452029.798 8
C34  22758901.008 7                 118511553.191 7
C36  24872615.254 8                 129518243.824 8
C39  39030521.278 7                 203242165.175 7
C42  24968201.446 7                 130016004.029 7
C43  24327932.170 7                 126681907.592 7
C44  24894428.951 6                 129631798.360 6
E03  23993310.406 8  23993312.639 9 126085701.624 8  95383029.662 9
E05  22358678.786 8  22358680.612 9 117495656.166 8  88884665.737 9
E09  28000562.973 7  28000567.940 7 147143947.622 7 111313407.068 7
E13  27371396.697 7  27371401.934 8 143837667.816 7 108812284.623 8
E15  23771679.716 8  23771682.570 9 124921019.563 8  94501954.884 9
E34  24278841.515 8  24278843.944 8 127586164.717 8  96518113.760 8
G01  22387036.844 7                  22387042.276 7  22387044.031 8 117644654.177 7                  91671178.494 7  87851547.148 8
G03  20380591.146 8                  20380596.499 7  20380594.792 8 107100720.064 8                  83455131.564 7  79977828.088 8
G04  20220603.831 7                  20220607.766 8  20220608.715 9 106259987.907 7                  82800011.999 8  79350014.027 9
G06  22676911.581 7                  22676918.777 7  22676916.760 8 119167986.171 7                  92858200.668 7  88989104.492 8
G09  21919622.458 7                  21919628.069 7  21919626.673 8 115188401.971 7                  89757506.215 7  86017343.896 8
G17  23501063.029 7                  23501068.161 6                 123498902.525 7                  96232793.233 6
G19  22389378.220 7  22389380.246 5                                 117656968.251 7  91680766.200 5                
G28  24243050.758 6                  24243055.808 5  24243058.726 6 127398070.664 6                  99271249.721 5  95134958.824 6
G31  22360886.198 7                  22360889.626 6                 117507251.354 7                  91564111.085 6
R03  21127638.581 8  21127641.927 7 113097893.521 8  87964882.323 7
R04  19220642.209 8  19220644.143 7 102925661.765 8  80053393.438 7
R05  21455695.277 8  21455698.656 7 114693005.416 8  89205694.930 7
R12  23158530.854 8  23158535.195 7 123708799.077 8  96217923.117 7
R13  22499334.975 7                 120145212.654 7
R19  19799399.082 8  19799399.871 7 105913431.119 8  82377088.649 7
R20  20727154.006 6  20727158.354 7 110837422.523 6  86206902.043 7
> 2025 06 15 15 03 45.0000000  0 36
C05  39178259.190 6  39178255.623 6 204011446.855 6 157754607.579 6
C06  38230392.642 7  38230387.937 7 199075692.597 7 153937931.305 7
C09  38435426.077 7  38435423.172 7 200143342.646 7 154763530.910 7
C11  23149398.851 7  23149395.536 8 120544964.920 7  93213122.619 8
C12  23482150.719 7  23482148.874 8 122277689.016 7  94552706.414 8
C16  38856434.827 7  38856436.167 7 202335638.036 7 156458752.155 7
C21  21983560.045 8                 114474148.522 8
C22  22753108.953 8                 118481388.334 8
C34  22762489.582 8                 118530239.838 8
C36  24868419.910 7                 129496397.488 7
C39  39031909.106 7                 203249392.245 7
C42  24960237.004 7                 129974530.885 7
C43  24323111.041 7                 126656804.461 7
C44  24903936.763 7                 129681306.364 7
E03  23988468.032 8  23988470.217 9 126060254.694 8  95363779.253 9
E05  22361784.761 8  22361786.609 8 117511978.179 8  88897013.253 8
E09  28008463.771 7  28008468.259 7 147185464.747 7 111344814.494 7
E13  27362974.795 7  27362980.001 8 143793410.461 7 108778804.257 8
E15  23768948.742 8  23768951.231 9 124906666.105 8  94491096.596 9
E34  24284280.982 8  24284283.894 9 127614751.691 8  96539739.612 9
G01  22396151.219 7                  22396155.794 7  22396158.020 8 117692548.200 7                  91708498.461 7  87887312.124 8
G03  20384650.766 8                  20384656.611 7  20384654.910 8 107122056.383 8                  83471757.271 7  79993761.048 8
G04  20217677.014 8                  20217680.382 8  20217681.678 9 106244608.119 8                  82788027.764 8  79338529.146 9
G06  22668836.596 7                  22668844.181 7  22668841.700 8 119125552.579 7                  92825135.555 7  88957417.083 8
G09  21910992.041 7                  21910998.319 7  21910996.586 8 115143050.757 7                  89722167.644 7  85983477.767 8
G17  23507826.792 7                  23507831.537 7                 123534445.393 7                  96260488.925 7
G19  22392749.361 7  22392750.770 5                                 117674682.522 7  91694569.499 5                
G28  24250122.122 6                  24250127.650 5  24250129.219 6 127435231.995 6                  99300206.612 5  95162709.249 6
G31  22363708.274 7                  22363711.410 7                 117522079.698 7                  91575665.661 7
R03  21135794.623 8  21135798.379 7 113141555.044 8  87998841.298 7
R04  19220522.446 8  19220523.942 7 102925017.848 8  80052892.609 7
R05  21447107.740 8  21447111.293 7 114647099.271 8  89169990.196 7
R12  23161956.312 7  23161960.988 7 123727098.763 7  96232156.167 7
R13  22494240.509 7                 120118010.662 7
R19  19804981.194 8  19804981.494 8 105943290.859 8  82400312.872 8
R20  20719937.627 6  20719941.177 7 110798829.461 6  86176885.210 7
> 2025 06 15 15 04  0.0000000  0 36
C05  39178121.543 6  39178118.225 6 204010730.580 6 157754053.709 6
C06  38230072.303 7  38230066.444 6 199074019.179 7 153936637.289 6
C09  38433541.864 7  38433539.285 7 200133532.232 7 154755944.870 7
C11  23148079.187 7  23148075.942 8 120538093.893 7  93207809.505 8
C12  23489594.028 7  23489592.027 8 122316447.104 7  94582676.593 8
C16  38856532.334 7  38856533.091 7 202336143.424 7 156459142.965 7
C21  21981321.416 8                 114462494.482 8
C22  22758755.390 8                 118510791.344 8
C34  22766100.080 7                 118549041.221 7
C36  24864243.954 8                 129474652.513 8
C39  39033302.802 7                 203256648.729 7
C42  24952277.995 7                 129933087.537 7
C43  24318310.750 7                 126631808.815 7
C44  24913448.202 7                 129730834.678 7
E03  23983639.268 8  23983641.573 9 126034879.943 8  95344583.428 9
E05  22364904.207 8  22364905.949 9 117528370.399 8  88909413.848 9
E09  28016365.450 7  28016369.992 7 147226988.228 7 111376226.702 7
E13  27354556.561 7  27354561.645 8 143749171.896 7 108745338.137 8
E15  23766233.720 8  23766236.248 9 124892398.566 8  94480303.297 9
E34  24289734.927 8  24289738.018 8 127643413.267 8  96561421.874 8
G01  22405277.634 7                  22405282.153 7  22405284.799 8 117740509.479 7                  91745870.875 7  87923127.319 8
G03  20388727.585 8                  20388733.097 7  20388731.400 8 107143478.487 8                  83488449.832 7  80009758.067 8
G04  20214772.488 7                  20214775.672 8  20214777.041 9 106229346.292 7                  82776135.410 8  79327132.321 9
G06  22660777.509 7                  22660785.015 7  22660782.661 8 119083201.379 7                  92792134.682 7  88925791.251 8
G09  21902375.302 7                  21902381.827 7  21902379.801 8 115097770.595 7                  89686884.454 7  85949664.691 8
G17  23514604.161 7                  23514609.070 7                 123570060.093 7                  96288240.574 7
G19  22396147.281 7  22396148.858 5                                 117692538.835 7  91708483.493 5                
G28  24257213.280 6                  24257218.155 6  24257220.030 6 127472493.371 6                  99329241.397 6  95190534.287 6
G31  22366559.484 7                  22366562.922 7                 117537062.415 7                  91587340.525 7
R03  21143960.344 7  21143963.689 7 113185265.702 7  88032838.456 7
R04  19220424.423 8  19220426.226 8 102924493.897 8  80052485.104 8
R05  21438533.431 8  21438536.918 7 114601267.308 8  89134343.195 7
R12  23165415.435 7  23165420.313 7 123745578.444 7  96246529.215 7
R13  22489178.500 7                 120090978.311 7
R19  19810597.151 8  19810597.716 8 105973331.773 8  82423678.026 8
R20  20712749.931 6  20712754.506 7 110760395.960 6  86146992.525 7
> 2025 06 15 15 04 15.0000000  0 36
C05  39177984.050 6  39177981.032 6 204010014.780 6 157753500.219 6
C06  38229757.810 7  38229752.114 7 199072383.729 7 153935372.651 7
C09  38431665.158 7  38431661.940 7 200123758.064 7 154748386.867 7
C11  23146784.869 7  23146781.947 8 120531353.229 7  93202597.207 8
C12  23497052.770 7  23497050.952 8 122355286.646 7  94612709.772 8
C16  38856636.205 7  38856637.034 7 202336684.834 7 156459561.626 7
C21  21979098.143 8                 114450915.978 8
C22  22764411.023 8                 118540241.747 8
C34  22769733.416 7                 118567960.264 7
C36  24860088.177 7                 129453012.167 7
C39  39034702.396 7                 203263937.639 7
C42  24944325.415 7                 129891677.021 7
C43  24313531.526 7                 126606923.935 7
C44  24922963.461 7                 129780386.098 7
E03  23978824.728 8  23978827.191 9 126009580.474 8  95325444.551 9
E05  22368037.323 8  22368039.193 9 117544835.737 8  88921869.747 9
E09  28024268.742 7  28024273.467 7 147268521.006 7 111407645.931 7
E13  27346142.527 7  27346147.538 8 143704955.438 7 108711888.728 8
E15  23763535.565 8  23763538.164 9 124878220.161 8  94469577.426 9
E34  24295204.007 8  24295206.896 8 127672152.368 8  96583162.791 8
G01  22414417.612 7                  22414422.692 7  22414425.027 8 117788540.920 7                  91783297.904 7  87958994.864 8
G03  20392820.949 8                  20392826.508 7  20392824.691 8 107164989.425 8                  83505211.602 7  80025821.419 8
G04  20211891.268 7                  20211894.722 8  20211895.624 8 106214205.498 7                  82764337.381 8  79315825.881 8
G06  22652734.553 7                  22652741.803 7  22652739.994 8 119040936.059 7                  92759200.704 7  88894229.517 8
G09  21893773.109 7                  21893779.188 7  21893777.268 8 115052564.697 7                  89651659.108 7  85915907.089 8
G17  23521395.630 7                  23521400.432 7                 123605749.379 7                  96316050.386 7
G19  22399572.827 7  22399574.785 5                                 117710539.833 7  91722510.206 5                
G28  24264323.332 6                  24264327.157 5  24264330.825 6 127509857.396 6                  99358356.180 5  95218435.971 6
G31  22369440.089 7                  22369444.209 7                 117552202.474 7                  91599137.984 7
R03  21152135.697 8  21152139.164 7 113229028.879 8  88066876.438 7
R04  19220349.793 8  19220351.472 8 102924092.880 8  80052173.204 8
R05  21429974.318 8  21429977.445 7 114555512.646 8  89098756.203 7
R12  23168909.332 7  23168914.808 7 123764241.008 7  96261044.593 7
R13  22484148.074 6                 120064118.915 6
R19  19816247.343 8  19816247.956 7 106003556.369 8  82447186.014 7
R20  20705593.042 6  20705597.410 7 110722125.858 6  86117226.911 7
> 2025 06 15 15 04 30.0000000  0 36
C05  39177846.699 6  39177843.176 6 204009297.970 6 157752945.915 6
C06  38229450.348 7  38229444.765 7 199070784.809 7 153934136.281 7
C09  38429794.605 7  38429791.541 7 200114018.743 7 154740855.798 7
C11  23145514.825 7  23145512.135 8 120524741.525 7  93197484.606 8
C12  23504526.940 7  23504524.942 8 122394205.879 7  94642804.561 8
C16  38856746.984 7  38856747.547 7 202337260.712 7 156460006.930 7
C21  21976888.621 8                 114439411.471 8
C22  22770075.306 8                 118569737.929 8
C34  22773389.199 7                 118586995.256 7
C36  24855951.896 7                 129431475.175 7
C39  39036108.006 7                 203271257.385 7
C42  24936378.854 7                 129850297.961 7
C43  24308774.527 7                 126582148.433 7
C44  24932483.432 7                 129829958.844 7
E03  23974024.361 8  23974026.938 9 125984354.785 8  95306361.497 9
E05  22371184.096 8  22371186.010 9 117561372.510 8  88934379.695 9
E09  28032173.761 7  28032178.404 7 147310061.422 7 111439070.939 7
E13  27337732.112 7  27337737.346 8 143660759.721 7 108678455.003 8
E15  23760854.161 8  23760856.783 9 124864129.491 8  94458917.925 9
E34  24300687.636 8  24300690.124 8 127700967.390 8  96604961.158 8
G01  22423570.915 7                  22423576.002 7  22423578.212 8 117836640.622 7                  91820778.157 7  87994913.438 8
G03  20396930.828 8                  20396936.655 7  20396934.718 8 107186587.563 8                  83522041.292 7  80041949.896 8
G04  20209032.958 7                  20209036.597 8  20209037.226 9 106199184.197 7                  82752632.492 8  79304608.698 9
G06  22644708.020 7                  22644714.945 7  22644713.164 8 118998755.400 7                  92726332.674 7  88862731.004 8
G09  21885184.638 7                  21885190.266 7  21885189.065 8 115007431.729 7                  89616490.573 7  85882203.940 8
G17  23528200.986 6                  23528206.115 7                 123641511.358 6                  96343916.826 7
G19  22403025.449 7  22403028.282 5                                 117728683.815 7  91736648.371 5                
G28  24271453.333 6                  24271456.689 5  24271458.961 6 127547322.355 6                  99387549.684 5  95246413.057 6
G31  22372351.062 7                  22372355.029 7                 117567498.098 7                  91611056.638 7
R03  21160320.800 8  21160323.678 7 113272842.162 8  88100953.423 7
R04  19220297.405 8  19220298.635 7 102923813.054 8  80051955.546 7
R05  21421428.984 7  21421432.658 7 114509834.070 7  89063228.450 7
R12  23172437.293 7  23172442.582 7 123783084.907 7  96275700.926 7
R13  22479150.964 6                 120037430.993 6
R19  19821931.169 8  19821932.059 7 106033962.761 8  82470835.412 7
R20  20698467.180 6  20698471.407 7 110684018.291 6  86087587.720 7
> 2025 06 15 15 04 45.0000000  0 36
C05  39177708.899 6  39177705.328 6 204008581.426 6 157752391.867 6
C06  38229150.668 7  38229145.025 7 199069223.687 7 153932929.131 7
C09  38427931.156 7  38427927.904 7 200104315.476 7 154733352.616 7
C11  23144270.348 7  23144267.845 8 120518260.189 7  93192472.825 8
C12  23512016.191 7  23512014.846 8 122433205.881 7  94672961.792 8
C16  38856864.232 7  38856865.283 7 202337872.396 7 156460479.935 7
C21  21974693.931 8                 114427982.290 8
C22  22775748.861 8                 118599281.090 8
C34  22777067.303 7                 118606147.457 7
C36  24851836.125 7                 129410043.033 7
C39  39037519.817 7                 203278609.258 7
C42  24928439.822 7                 129808951.686 7
C43  24304037.975 7                 126557483.886 7
C44  24942008.043 7                 129879553.916 7
E03  23969238.580 8  23969240.898 9 125959204.271 8  95287335.321 9
E05  22374344.890 8  22374346.694 9 117577981.934 8  88946944.619 9
E09  28040080.302 7  28040085.000 7 147351610.660 7 111470502.638 7
E13  27329326.126 7  27329331.383 8 143616586.252 7 108645038.153 8
E15  23758189.527 8  23758192.349 9 124850128.019 8  94448325.922 9
E34  24306185.689 8  24306188.164 8 127729859.608 8  96626817.912 8
G01  22432736.842 7                  22432742.272 7  22432744.202 8 117884809.740 7                  91858312.498 7  88030883.824 8
G03  20401057.571 8                  20401063.263 7  20401061.672 8 107208274.193 8                  83538939.958 7  80058144.460 8
G04  20206197.569 7                  20206201.254 8  20206202.097 9 106184283.804 7                  82741021.821 8  79293481.788 9
G06  22636697.785 7                  22636704.389 7  22636702.906 8 118956661.044 7                  92693531.871 7  88831296.908 8
G09  21876610.407 7                  21876616.150 7  21876614.872 8 114962373.228 7                  89581380.075 7  85848556.380 8
G17  23535020.405 6                  23535025.415 7                 123677347.069 6                  96371840.718 7
G19  22406505.658 7  22406508.800 5                                 117746971.944 7  91750898.845 5                
G28  24278601.542 6                  24278606.010 5  24278606.649 5 127584889.241 6                  99416822.560 5  95274466.229 5
G31  22375291.806 7                  22375295.616 7                 117582950.706 7                  91623097.594 7
R03  21168515.465 8  21168518.315 7 113316706.795 8  88135070.342 7
R04  19220267.786 8  19220270.056 7 102923655.703 8  80051833.166 7
R05  21412898.569 8  21412902.045 7 114464232.816 8  89027760.896 7
R12  23175999.161 7  23176003.955 7 123802111.096 7  96290499.064 7
R13  22474185.437 6                 120010916.399 6
R19  19827649.883 8  19827650.734 7 106064552.057 8  82494627.060 7
R20  20691371.037 6  20691375.564 7 110646074.577 6  86058075.954 7
> 2025 06 15 15 05  0.0000000  0 37
C05  39177572.522 6  39177568.973 6 204007870.910 6 157751842.444 6
C06  38228859.960 7  38228853.816 6 199067706.068 7 153931755.608 6
C09  38426074.989 7  38426072.492 7 200094654.080 7 154725881.800 7
C11  23143051.815 7  23143048.979 8 120511915.052 7  93187566.342 8
C12  23519522.388 7  23519521.088 8 122472292.171 7  94703185.751 8
C16  38856990.131 7  38856990.719 7 202338525.545 7 156460985.015 7
C21  21972514.968 8                 114416634.193 8
C22  22781432.090 8                 118628876.863 8
C34  22780768.627 7                 118625422.365 7
C36  24847740.626 7                 129388721.620 7
C39  39038939.166 7                 203285998.960 7
C42  24920506.787 7                 129767644.042 7
C43  24299323.489 7                 126532936.189 7
C44  24951537.345 7                 129929176.874 7
E03  23964468.066 8  23964470.300 9 125934134.802 8  95268370.442 9
E05  22377520.268 8  22377522.254 9 117594669.645 8  88959568.773 9
E09  28047989.645 7  28047994.167 7 147393174.328 7 111501945.268 7
E13  27320925.665 7  27320930.823 8 143572441.081 7 108611642.657 8
E15  23755542.918 8  23755546.066 9 124836221.719 8  94437805.885 9
E34  24311699.654 8  24311701.926 9 127758834.706 8  96648737.386 9
G01  22441918.249 7                  22441922.926 7  22441924.502 8 117933053.841 7                  91895905.230 7  88066910.213 8
G03  20405202.610 8                  20405208.081 7  20405206.477 8 107230055.044 8                  83555912.042 7  80074409.380 8
G04  20203385.991 7                  20203390.073 8  20203390.776 9 106169510.131 7                  82729509.865 8  79282449.499 9
G06  22628705.014 7                  22628711.517 7  22628710.001 8 118914659.036 7                  92660803.070 7  88799931.827 8
G09  21868051.246 7                  21868056.438 7  21868055.621 8 114917395.107 7                  89546332.235 7  85814968.870 8
G17  23541854.569 6                  23541860.062 7                 123713262.036 6                  96399826.366 7
G19  22410014.427 7  22410016.799 5                                 117765409.828 7  91765265.979 5                
G28  24285770.711 6                  24285772.999 5  24285776.321 5 127622563.600 6                  99446179.20515  95302599.630 5
G31  22378262.341 7                  22378266.780 7                 117598565.815 7                  91635265.196 7
R03  21176720.381 7  21176722.939 7 113360628.602 7  88169231.703 7
R04  19220262.544 8  19220263.887 8 102923626.708 8  80051810.629 8
R05  21404384.009 8  21404386.363 7 114418715.105 8  88992358.216 7
R12  23179595.938 8  23179601.172 7 123821325.352 8  96305443.463 7
R13  22469253.740 6                 119984581.498 6
R18  23088585.620 4                 123248373.03414
R19  19833403.230 8  19833404.201 7 106095330.009 8  82518565.475 7
R20  20684307.589 6  20684311.550 7 110608300.887 6  86028696.407 7
> 2025 06 15 15 05 15.0000000  0 36
C05  39177436.041 6  39177432.515 6 204007160.542 6 157751293.141 6
C06  38228574.921 7  38228569.286 7 199066226.067 7 153930611.185 7
C09  38424225.055 7  38424223.885 7 200085028.597 7 154718438.789 7
C11  23141857.773 7  23141855.521 8 120505700.207 7  93182760.654 8
C12  23527043.717 7  23527042.609 8 122511458.559 7  94733471.643 8
C16  38857122.348 7  38857123.243 7 202339214.275 7 156461517.595 7
C21  21970350.017 8                 114405361.255 8
C22  22787124.519 8                 118658519.244 8
C34  22784492.537 7                 118644813.945 7
C36  24843667.405 7                 129367505.349 7
C39  39040364.110 7                 203293420.525 7
C42  24912580.212 7                 129726369.217 7
C43  24294630.569 7                 126508499.617 7
C44  24961071.342 7                 129978821.520 7
E03  23959711.823 8  23959713.998 9 125909140.455 8  95249462.395 9
E05  22380709.568 8  22380711.526 9 117611429.568 8  88972247.559 9
E09  28055900.450 7  28055905.068 7 147434746.424 7 111533394.266 7
E13  27312529.493 7  27312534.635 8 143528318.364 7 108578264.171 8
E15  23752913.686 8  23752916.760 9 124822404.725 8  94427353.436 9
E34  24317228.215 8  24317230.300 8 127787886.709 8  96670715.011 8
G01  22451111.569 7                  22451116.612 7  22451118.362 8 117981366.666 7                  91933551.582 7  88102987.976 8
G03  20409364.300 8                  20409369.568 7  20409367.917 8 107251924.094 8                  83572952.857 7  80090740.133 8
G04  20200597.944 7                  20200601.752 8  20200602.292 9 106154857.202 7                  82718091.996 8  79271507.379 9
G06  22620729.304 7                  22620735.298 7  22620733.702 8 118872743.807 7                  92628141.883 7  88768631.517 8
G09  21859506.349 7                  21859511.687 7  21859510.616 8 114872491.575 7                  89511342.491 7  85781437.078 8
G17  23548703.149 7                  23548708.583 7                 123749250.171 7                  96427869.021 7
G19  22413550.218 7  22413552.089 5                                 117783991.230 7  91779744.959 5                
G28  24292958.856 5                  24292964.344 5  24292973.632 5 127660339.160 5                  99475614.68815  95330808.841 5
G31  22381263.601 7                  22381268.141 7                 117614337.258 7                  91647554.628 7
R03  21184934.006 7  21184937.575 7 113404601.089 7  88203432.538 7
R04  19220280.054 8  19220281.235 7 102923719.681 8  80051882.947 7
R05  21395882.809 8  21395885.728 7 114373274.828 8  88957015.817 7
R12  23183227.126 7  23183232.768 7 123840721.379 7  96320529.303 7
R13  22464354.942 7                 119958420.520 7
R19  19839190.778 8  19839191.582 7 106126290.281 8  82542645.674 7
R20  20677274.334 6  20677278.859 7 110570691.876 6  85999444.988 7
> 2025 06 15 15 05 30.0000000  0 36
C05  39177300.638 6  39177297.275 6 204006455.382 6 157750747.860 6
C06  38228297.784 6  38228293.147 7 199064788.641 6 153929499.664 7
C09  38422385.028 6  38422383.376 7 200075444.040 6 154711027.415 7
C11  23140690.688 7  23140687.810 8 120499620.775 7  93178059.678 8
C12  23534582.159 7  23534580.247 8 122550709.786 7  94763823.183 8
C16  38857261.732 7  38857263.361 7 202339943.582 7 156462081.541 7
C21  21968200.412 8                 114394168.508 8
C22  22792827.480 8                 118688213.170 8
C34  22788240.010 7                 118664327.083 7
C36  24839613.799 7                 129346399.437 7
C39  39041796.347 7                 203300878.964 7
C42  24904660.481 6                 129685132.314 6
C43  24289959.927 7                 126484179.416 7
C44  24970610.189 7                 130028492.555 7
E03  23954970.813 8  23954972.995 9 125884226.322 8  95230615.042 9
E05  22383913.641 8  22383915.541 8 117628266.680 8  88984984.708 8
E09  28063813.780 7  28063818.398 7 147476331.831 7 111564853.292 7
E13  27304138.459 7  27304143.689 8 143484223.388 7 108544906.649 8
E15  23750302.671 8  23750305.460 9 124808682.309 8  94416972.505 9
E34  24322772.052 8  24322774.310 9 127817020.549 8  96692754.574 9
G01  22460319.206 7                  22460323.908 7  22460326.294 8 118029753.086 7                  91971255.230 7  88139120.652 8
G03  20413543.415 8                  20413548.969 7  20413547.110 8 107273886.350 8                  83590066.325 7  80107140.520 8
G04  20197833.295 7                  20197837.221 8  20197837.749 9 106140330.106 7                  82706772.183 8  79260659.239 9
G06  22612770.215 7                  22612776.869 7  22612775.047 8 118830920.770 7                  92595552.517 7  88737400.042 8
G09  21850976.518 7                  21850981.779 7  21850980.584 8 114827667.914 7                  89476415.000 7  85747964.902 8
G17  23555565.914 7                  23555571.774 7                 123785315.804 7                  96455972.095 7
G19  22417114.328 7  22417116.238 5                                 117802720.922 7  91794339.521 5                
G28  24300167.258 5                  24300170.721 5  24300184.601 5 127698220.635 5                  99505132.58815  95359096.851 5
G31  22384295.732 7                  22384299.441 7                 117630269.983 7                  91659969.758 7
R03  21193159.014 7  21193162.614 7 113448629.281 7  88237676.653 7
R04  19220320.896 8  19220322.155 7 102923939.895 8  80052054.224 7
R05  21387397.775 8  21387401.535 7 114327917.378 8  88921737.853 7
R12  23186893.228 7  23186897.403 7 123860304.078 7  96335760.296 7
R13  22459489.149 6                 119932438.876 6
R19  19845013.904 8  19845014.625 7 106157437.820 8  82566871.518 7
R20  20670273.214 6  20670277.246 7 110533253.111 6  85970325.981 7
> 2025 06 15 15 05 45.0000000  0 36
C05  39177167.204 6  39177163.481 6 204005759.377 6 157750209.665 6
C06  38228030.322 6  38228026.079 6 199063397.809 6 153928424.198 6
C09  38420553.159 7  38420551.387 7 200065904.528 7 154703650.878 7
C11  23139549.679 7  23139547.148 8 120493680.784 7  93173466.518 8
C12  23542136.990 7  23542134.953 8 122590049.649 7  94794243.229 8
C16  38857410.915 7  38857412.044 7 202340717.406 7 156462679.908 7
C21  21966066.997 8                 114383059.908 8
C22  22798540.366 8                 118717962.437 8
C34  22792011.461 7                 118683965.610 7
C36  24835582.712 7                 129325408.100 7
C39  39043236.462 7                 203308378.224 7
C42  24896749.610 6                 129643937.318 6
C43  24285313.000 7                 126459979.776 7
C44  24980154.813 7                 130078193.750 7
E03  23950245.622 8  23950248.010 9 125859396.506 8  95211831.458 9
E05  22387132.840 8  22387134.901 8 117645184.831 8  88997783.171 8
E09  28071730.867 7  28071735.240 7 147517934.435 7 111596325.380 7
E13  27295754.088 7  27295758.613 8 143440160.433 7 108511573.329 8
E15  23747710.634 8  23747712.927 9 124795058.601 8  94406666.271 9
E34  24328331.972 8  24328334.696 8 127846240.220 8  96714859.022 8
G01  22469541.695 7                  22469546.301 7  22469548.808 8 118078216.854 7                  92009019.165 7  88175311.073 8
G03  20417741.157 8                  20417746.664 7  20417744.877 8 107295945.800 8                  83607255.474 7  80123613.489 8
G04  20195093.988 7                  20195097.439 8  20195098.323 9 106125932.860 7                  82695553.586 8  79249908.069 9
G06  22604830.074 7                  22604836.388 7  22604834.735 8 118789194.228 7                  92563038.344 7  88706240.645 8
G09  21842462.927 7                  21842468.471 7  21842466.866 8 114782928.366 7                  89441553.055 7  85714555.522 8
G17  23562444.695 7                  23562449.921 7                 123821462.808 7                  96484138.528 7
G19  22420707.627 7  22420709.539 5                                 117821602.601 7  91809052.497 5                
G28  24307397.631 6                  24307406.052 5  24307411.717 5 127736211.78016                  99534739.01015  95387466.80715
G31  22387359.370 7                  22387362.549 7                 117646367.908 7                  91672513.633 7
R03  21201394.980 7  21201398.102 7 113492716.924 7  88271967.037 7
R04  19220386.647 8  19220387.547 7 102924291.231 8  80052327.488 7
R05  21378929.326 8  21378932.468 7 114282647.033 8  88886527.649 7
R12  23190594.396 7  23190599.370 7 123880077.434 7  96351139.550 7
R13  22454657.487 6                 119906641.364 6
R19  19850872.171 8  19850872.840 7 106188776.228 8  82591245.813 7
R20  20663304.525 6  20663309.023 7 110495989.196 6  85941342.955 7
> 2025 06 15 15 06  0.0000000  0 36
C05  39177034.614 6  39177031.673 6 204005071.958 6 157749678.109 6
C06  38227772.552 6  38227767.801 7 199062052.926 6 153927384.282 7
C09  38418730.593 7  38418728.258 7 200056409.311 7 154696308.606 7
C11  23138435.792 7  23138433.224 8 120487879.673 7  93168980.735 8
C12  23549708.592 7  23549706.864 8 122629477.214 7  94824731.077 8
C16  38857567.582 7  38857568.930 7 202341535.167 7 156463312.252 7
C21  21963949.935 8                 114372034.875 8
C22  22804263.841 8                 118747766.440 8
C34  22795806.481 7                 118703728.822 7
C36  24831573.510 7                 129304530.930 7
C39  39044684.309 7                 203315917.667 7
C42  24888846.812 7                 129602783.746 7
C43  24280688.944 7                 126435900.209 7
C44  24989705.253 7                 130127924.261 7
E03  23945536.651 8  23945538.983 9 125834650.450 8  95193111.252 9
E05  22390367.721 8  22390369.566 8 117662183.305 8  89010642.412 8
E09  28079650.817 7  28079655.200 7 147559553.557 7 111627809.955 7
E13  27287374.798 7  27287379.582 8 143396129.018 7 108478263.888 8
E15  23745136.594 8  23745139.072 9 124781533.160 8  94396434.355 9
E34  24333908.580 8  24333911.283 9 127875544.998 8  96737027.878 9
G01  22478778.274 7                  22478782.900 7  22478785.686 8 118126757.169 7                  92046842.772 7  88211558.659 8
G03  20421957.547 8                  20421962.792 8  20421961.222 8 107318101.764 8                  83624519.844 8  80140158.506 8
G04  20192378.187 7                  20192382.194 8  20192383.392 9 106111664.964 7                  82684435.752 8  79239253.482 9
G06  22596907.756 7                  22596914.581 7  22596912.971 8 118747563.888 7                  92530599.165 7  88675153.086 8
G09  21833965.234 7                  21833970.737 7  21833969.069 8 114738272.480 7                  89406756.285 7  85681208.617 8
G17  23569338.356 6                  23569343.598 7                 123857690.188 6                  96512367.621 7
G19  22424329.812 7  22424331.476 5                                 117840635.589 7  91823883.371 5                
G28  24314647.184 5                  24314655.129 5  24314660.101 5 127774311.638 5                  99564427.24715  95415917.918 5
G31  22390453.873 7                  22390457.280 7                 117662630.246 7                  91685185.589 7
R03  21209641.877 8  21209645.006 7 113536863.208 8  88306303.003 7
R04  19220476.774 8  19220478.277 7 102924772.938 8  80052702.155 7
R05  21370476.553 7  21370479.284 7 114237463.287 7  88851384.748 7
R12  23194331.594 7  23194335.959 7 123900040.498 7  96366666.380 7
R13  22449861.360 7                 119881027.394 7
R19  19856766.071 8  19856766.842 7 106220304.697 8  82615767.930 7
R20  20656368.646 6  20656372.143 7 110458899.806 6  85912495.680 7
> 2025 06 15 15 06 15.0000000  0 36
C05  39176904.640 6  39176901.589 6 204004394.373 6 157749154.159 6
C06  38227524.077 6  38227518.667 6 199060755.145 6 153926380.775 6
C09  38416916.535 7  38416913.385 7 200046959.660 7 154689001.554 7
C11  23137348.974 7  23137345.994 8 120482218.694 7  93164603.317 8
C12  23557296.225 7  23557295.484 8 122668993.382 7  94855287.462 8
C16  38857733.605 7  38857734.462 7 202342397.943 7 156463979.411 7
C21  21961848.861 8                 114361094.562 8
C22  22809997.884 8                 118777626.206 8
C34  22799625.852 7                 118723617.696 7
C36  24827586.123 7                 129283769.269 7
C39  39046140.157 7                 203323498.406 7
C42  24880951.737 7                 129561672.832 7
C43  24276087.696 7                 126411942.130 7
C44  24999261.407 7                 130177684.929 7
E03  23940843.837 8  23940846.150 9 125809989.384 8  95174455.333 9
E05  22393617.799 8  22393619.731 8 117679263.150 8  89023563.184 8
E09  28087573.558 7  28087578.307 7 147601190.226 7 111659307.786 7
E13  27279002.033 7  27279007.039 8 143352130.458 7 108444979.367 8
E15  23742581.463 8  23742584.230 9 124768107.292 8  94386277.772 9
E34  24339501.794 8  24339504.220 9 127904935.979 8  96759261.947 9
G01  22488030.130 7                  22488034.725 7  22488037.536 8 118175374.929 7                  92084726.713 7  88247864.076 8
G03  20426192.050 8                  20426197.506 7  20426196.012 8 107340355.337 8                  83641860.293 7  80156776.426 8
G04  20189687.869 7                  20189691.983 8  20189693.200 9 106097527.616 7                  82673419.595 8  79228696.347 9
G06  22589004.231 7                  22589010.976 7  22589009.538 8 118706031.283 7                  92498236.119 7  88644138.528 8
G09  21825483.516 7                  21825489.347 7  21825487.676 8 114693701.572 7                  89372025.738 7  85647925.165 8
G17  23576248.008 6                  23576253.097 7                 123893998.932 6                  96540660.066 7
G19  22427980.247 7  22427982.736 5                                 117859820.764 7  91838832.847 5                
G28  24321918.793 6                  24321929.098 5  24321931.187 5 127812521.164 6                  99594200.80815  95444450.947 5
G31  22393579.992 7                  22393583.010 7                 117679057.988 7                  91697986.402 7
R03  21217899.697 8  21217902.956 7 113581069.434 8  88340685.608 7
R04  19220590.974 8  19220592.326 7 102925386.105 8  80053179.085 7
R05  21362040.466 8  21362043.084 7 114192367.234 8  88816310.087 7
R12  23198104.634 7  23198108.711 7 123920194.272 7  96382341.512 7
R13  22445099.113 6                 119855598.641 6
R19  19862695.795 8  19862696.418 7 106252024.059 8  82640438.541 7
R20  20649465.757 6  20649469.542 7 110421986.583 6  85883785.390 7
> 2025 06 15 15 06 30.0000000  0 36
C05  39176775.670 6  39176772.527 6 204003721.980 6 157748634.226 6
C06  38227281.795 6  38227277.786 6 199059499.906 6 153925410.153 6
C09  38415109.273 7  38415106.382 7 200037551.049 7 154681726.227 7
C11  23136287.884 7  23136284.901 8 120476693.485 7  93160330.862 8
C12  23564901.253 7  23564900.071 8 122708593.497 7  94885908.741 8
C16  38857907.281 7  38857907.705 7 202343301.222 7 156464677.870 7
C21  21959763.331 8                 114350234.453 8
C22  22815742.036 8                 118807537.104 8
C34  22803468.766 7                 118743627.534 7
C36  24823620.459 7                 129263118.853 7
C39  39047603.016 7                 203331115.855 7
C42  24873064.077 7                 129520600.167 7
C43  24271509.231 7                 126388101.147 7
C44  25008821.883 7                 130227470.992 7
E03  23936166.488 8  23936168.621 9 125785408.761 8  95155860.283 9
E05  22396882.788 8  22396884.503 9 117696419.638 8  89036541.957 9
E09  28095499.729 7  28095503.848 7 147642839.740 7 111690815.357 7
E13  27270635.030 7  27270639.820 8 143308160.532 7 108411716.417 8
E15  23740044.704 8  23740047.497 9 124754776.574 8  94376193.182 9
E34  24345110.151 8  24345112.656 8 127934408.545 8  96781557.727 8
G01  22497295.204 7                  22497300.660 7  22497302.964 8 118224065.356 7                  92122667.249 7  88284223.728 8
G03  20430444.222 8                  20430450.036 7  20430448.413 8 107362701.924 8                  83659273.242 7  80173463.823 8
G04  20187021.824 7                  20187025.704 8  20187026.777 9 106083516.183 7                  82662501.599 8  79218233.253 9
G06  22581118.684 7                  22581125.698 7  22581123.690 8 118664592.167 7                  92465945.913 7  88613193.750 8
G09  21817017.400 7                  21817023.125 7  21817021.456 8 114649211.260 7                  89337358.008 7  85614701.931 8
G17  23583171.896 7                  23583177.099 7                 123930383.958 7                  96569012.023 7
G19  22431659.230 7  22431661.765 5                                 117879153.460 7  91853897.248 5                
G28  24329209.948 6                                  24329224.931 5 127850835.498 6                                  95473062.219 5
G31  22396736.863 7                  22396740.369 7                 117695646.555 7                  91710912.544 7
R03  21226168.546 8  21226172.251 7 113625330.384 8  88375110.764 7
R04  19220729.690 8  19220730.624 8 102926125.997 8  80053754.540 8
R05  21353619.864 8  21353623.132 7 114147354.666 8  88781300.290 7
R12  23201912.396 7  23201916.762 7 123940533.776 7  96398161.158 7
R13  22440371.385 6                 119830350.831 6
R19  19868660.410 8  19868660.880 7 106283929.515 8  82665253.876 7
R20  20642595.226 6  20642599.186 7 110385245.552 6  85855209.046 7
> 2025 06 15 15 06 45.0000000  0 35
C05  39176647.180 6  39176643.877 6 204003053.390 6 157748117.215 6
C06  38227049.880 6  38227044.217 6 199058285.755 6 153924471.306 6
C09  38413310.086 7  38413307.418 7 200028182.006 7 154674481.506 7
C11  23135252.394 7  23135249.575 8 120471302.515 7  93156162.193 8
C12  23572522.258 7  23572520.478 8 122748275.629 7  94916593.465 8
C16  38858087.698 7  38858088.989 7 202344243.466 7 156465406.475 7
C21  21957692.960 8                 114339453.041 8
C22  22821495.781 8                 118837497.512 8
C34  22807334.237 7                 118763756.712 7
C36  24819676.006 7                 129242578.320 7
C39  39049072.708 7                 203338768.480 7
C42  24865183.598 7                 129479564.199 7
C43  24266953.026 7                 126364375.997 7
C44  25018387.481 6                 130277280.679 6
E03  23931504.014 8  23931506.095 9 125760907.171 8  95137325.001 9
E05  22400161.453 8  22400163.589 8 117713651.148 8  89049577.482 8
E13  27262272.723 7  27262277.910 8 143264217.831 7 108378474.105 8
E15  23737525.992 8  23737528.602 9 124741539.629 8  94366179.534 9
E34  24350734.231 8  24350736.387 9 127963961.065 8  96803913.997 9
G01  22506574.412 7                  22506579.420 7  22506581.462 8 118272826.652 7                  92160663.020 7  88320636.355 8
G03  20434714.234 8                  20434719.939 7  20434718.087 8 107385139.922 8                  83676757.367 7  80190219.461 8
G04  20184379.390 7                  20184383.026 8  20184383.782 9 106069629.151 7                  82651680.559 8  79207863.105 9
G06  22573250.875 7                  22573257.319 7  22573255.577 8 118623245.322 7                  92433727.652 7  88582317.891 8
G09  21808565.906 7                  21808571.897 7  21808570.558 8 114604800.247 7                  89302752.057 7  85581537.900 8
G17  23590109.682 7                  23590115.069 7                 123966843.543 7                  96597422.045 7
G19  22435365.725 7  22435368.251 5                                 117898631.675 7  91869075.042 5                
G28  24336520.612 5                                  24336535.957 5 127889252.764 5                                  95501750.324 5
G31  22399923.995 7                  22399927.656 7                 117712394.268 7                  91723962.669 7
R03  21234446.627 8  21234450.440 7 113669644.226 8  88409577.080 7
R04  19220890.802 8  19220892.328 7 102926990.877 8  80054427.247 7
R05  21345214.602 8  21345218.243 7 114102423.893 8  88746354.219 7
R12  23205754.119 7  23205758.951 7 123961057.407 7  96414123.968 7
R13  22435676.521 6                 119805282.815 6
R19  19874659.031 8  19874659.437 7 106316019.010 8  82690212.368 7
R20  20635755.643 6  20635760.619 7 110348675.950 6  85826766.024 7
> 2025 06 15 15 07  0.0000000  0 35
C05  39176519.062 6  39176515.928 6 204002385.59616 157747600.85116
C06  38226824.216 6  38226818.511 6 199057109.687 6 153923561.883 6
C09  38411518.156 7  38411515.587 7 200018849.532 7 154667265.067 7
C11  23134242.697 7  23134239.321 8 120466042.969 7  93152095.167 8
C12  23580158.030 7  23580156.348 8 122788036.690 7  94947339.225 8
C16  38858276.069 7  38858276.868 7 202345221.721 7 156466162.922 7
C21  21955637.139 8                 114328747.396 8
C22  22827258.294 8                 118867504.385 8
C34  22811222.197 7                 118784002.135 7
C36  24815751.782 7                 129222144.99617
C39  39050548.540 7                 203346453.358 7
C42  24857309.729 7                 129438562.206 7
C43  24262418.757 7                 126340763.933 7
C44  25027957.007 6                 130327110.814 6
E03  23926855.851 8  23926858.074 9 125736481.688 8  95118847.288 9
E05  22403454.456 8  22403456.336 8 117730954.601 8  89062667.436 8
E13  27253915.223 7  27253920.474 7 143220299.611 7 108345250.293 7
E15  23735024.301 8  23735027.026 9 124728393.689 8  94356234.707 9
E34  24356372.735 8  24356374.743 8 127993590.536 8  96826328.471 8
G01  22515866.421 7                  22515871.135 7  22515873.348 8 118321655.630 7                  92198711.521 7  88357099.529 8
G03  20439001.289 8                  20439006.554 7  20439004.631 8 107407666.328 8                  83694310.402 7  80207041.117 8
G04  20181760.267 7                  20181763.625 8  20181764.244 9 106055863.640 7                  82640954.229 8  79197583.691 9
G06  22565399.573 7                  22565406.516 7  22565404.656 8 118581988.133 7                  92401579.226 7  88551508.975 8
G09  21800129.471 7                  21800135.336 7  21800134.102 8 114560465.702 7                  89268205.720 7  85548430.977 8
G17  23597061.347 7                  23597066.698 7                 124003374.419 7                  96625887.608 7
G19  22439099.672 7  22439102.007 5                                 117918252.426 7  91884363.924 5                
G28  24343850.447 5                                  24343865.848 5 127927768.76315                                  95530508.96415
G31  22403140.486 7                  22403144.935 7                 117729297.863 7                  91737134.332 7
R03  21242733.942 8  21242737.352 7 113714008.001 8  88444082.219 7
R04  19221074.823 8  19221076.439 7 102927977.643 8  80055194.716 7
R05  21336824.292 7  21336827.172 7 114057572.249 7  88711469.660 7
R12  23209629.972 7  23209634.333 7 123981761.936 7  96430227.48117
R13  22431015.399 7                 119780391.848 7
R19  19880691.731 8  19880692.272 7 106348289.550 8  82715311.656 7
R20  20628949.320 6  20628953.343 7 110312274.718 6  85798453.991 7
> 2025 06 15 15 07 15.0000000  0 36
C05  39176391.016 6  39176387.277 6 204001718.173 6 157747084.747 6
C06  38226605.829 6  38226599.587 7 199055971.065 6 153922681.435 7
C09  38409732.772 7  38409729.955 7 200009553.059 7 154660076.450 7
C11  23133257.618 7  23133254.527 8 120460914.216 7  93148129.305 8
C12  23587808.610 7  23587806.746 8 122827875.879 7  94978145.371 8
C16  38858470.610 7  38858471.559 7 202346235.394 7 156466946.765 7
C21  21953595.494 8                 114318116.908 8
C22  22833029.471 8                 118897557.070 8
C34  22815132.427 7                 118804363.038 7
C36  24811848.815 7                 129201818.496 7
C39  39052030.314 7                 203354169.832 7
C42  24849441.728 7                 129397593.614 7
C43  24257905.736 7                 126317264.545 7
C44  25037530.267 6                 130376960.519 6
E03  23922222.172 8  23922224.368 9 125712131.751 8  95100426.730 9
E05  22406760.662 8  22406762.657 8 117748329.240 8  89075811.230 8
E13  27245562.305 7  27245567.727 8 143176405.473 7 108312044.720 8
E15  23732539.896 8  23732542.645 9 124715338.256 8  94346358.359 9
E34  24362025.134 8  24362027.595 9 128023296.230 8  96848800.634 9
G01  22525170.922 7                  22525176.031 7  22525178.105 8 118370551.440 7                  92236812.137 7  88393612.599 8
G03  20443304.012 8                  20443309.648 7  20443308.002 8 107430280.450 8                  83711931.812 7  80223928.285 8
G04  20179163.284 8                  20179166.697 8  20179168.025 9 106042219.110 8                  82630322.134 8  79187394.586 9
G06  22557565.403 7                  22557571.909 7  22557570.795 8 118540820.357 7                  92369500.442 7  88520766.822 8
G09  21791707.276 7                  21791713.118 7  21791711.767 8 114516207.261 7                  89233718.622 7  85515380.875 8
G17  23604026.361 7                  23604031.878 7                 124039975.653 7                  96654407.995 7
G19  22442860.502 7  22442862.761 5                                 117938014.776 7  91899763.136 5                
G28  24351199.479 5                                                 127966384.571 5                                
G31  22406386.563 7                  22406390.821 7                 117746356.770 7                  91750426.970 7
R03  21251030.591 8  21251033.958 7 113758420.444 8  88478625.214 7
R04  19221282.046 8  19221283.522 8 102929085.427 8  80056056.331 8
R05  21328448.686 8  21328451.462 7 114012799.127 8  88676646.107 7
R12  23213539.776 8  23213544.393 7 124002646.326 8  96446470.920 7
R13  22426387.279 6                 119755678.032 6
R18  23202597.085 5                 123857077.06615
R19  19886758.033 8  19886758.791 7 106380739.884 8  82740550.762 7
R20  20622172.557 6  20622177.370 7 110276041.503 6  85770272.604 7
> 2025 06 15 15 07 30.0000000  0 35
C05  39176262.637 6  39176259.314 6 204001050.566 6 157746568.518 6
C06  38226394.186 6  38226388.168 7 199054869.553 6 153921829.670 7
C09  38407954.585 7  38407951.953 7 200000292.271 7 154652915.413 7
C11  23132297.484 7  23132294.829 8 120455916.052 7  93144264.432 8
C12  23595474.225 7  23595472.395 8 122867792.542 7  95009011.450 8
C16  38858671.451 7  38858672.895 7 202347284.115 7 156467757.714 7
C21  21951568.337 8                 114307561.213 8
C22  22838809.579 8                 118927655.081 8
C34  22819064.465 7                 118824838.962 7
C36  24807965.201 7                 129181598.629 7
C39  39053518.016 7                 203361917.505 7
C42  24841580.847 6                 129356658.157 6
C43  24253414.942 7                 126293877.686 7
C44  25047107.171 7                 130426829.241 7
E03  23917602.571 8  23917604.981 9 125687857.060 8  95082063.099 9
E05  22410080.633 8  22410082.422 9 117765774.576 8  89089008.532 9
E13  27237214.386 7  27237219.447 8 143132535.258 7 108278857.214 8
E15  23730072.893 8  23730075.440 9 124702373.123 8  94336550.326 9
E34  24367692.079 8  24367694.830 8 128053077.789 8  96871330.160 8
G01  22534488.195 7                  22534493.219 7  22534495.336 8 118419513.548 7                  92274964.339 7  88430175.137 8
G03  20447624.303 8                  20447629.787 7  20447628.205 8 107452981.929 8                  83729621.259 7  80240880.678 8
G04  20176589.752 8                  20176593.316 8  20176594.780 9 106028695.190 8                  82619783.990 8  79177295.550 9
G06  22549748.631 7                  22549755.231 7  22549754.048 8 118499741.880 7                  92337491.270 7  88490091.373 8
G09  21783299.581 7                  21783305.238 7  21783303.965 8 114472024.729 7                  89199290.688 7  85482387.468 8
G17  23611004.594 6                  23611010.237 7                 124076646.555 6                  96682982.694 7
G19  22446647.983 7  22446649.952 5                                 117957918.161 7  91915272.265 5                
G31  22409662.045 7                  22409666.149 7                 117763570.238 7                  91763840.076 7
R03  21259336.437 8  21259339.895 7 113802881.413 8  88513205.954 7
R04  19221511.282 8  19221512.778 7 102930314.103 8  80057011.987 7
R05  21320087.123 7  21320090.950 7 113968104.620 7  88641883.732 7
R12  23217483.309 8  23217487.705 7 124023710.216 8  96462853.938 7
R13  22421792.201 6                 119731140.779 6
R18  23215296.329 5                 123924876.334 5
R19  19892857.743 8  19892858.071 7 106413369.428 8  82765929.297 7
R20  20615428.596 6  20615432.367 7 110239976.255 6  85742221.877 7
> 2025 06 15 15 07 45.0000000  0 35
C05  39176133.708 6  39176130.126 6 204000378.265 6 157746048.645 6
C06  38226188.469 6  38226182.875 7 199053800.450 6 153921003.007 7
C09  38406181.918 7  38406179.296 7 199991062.422 7 154645778.316 7
C11  23131362.199 7  23131359.296 8 120451043.827 7  93140496.926 8
C12  23603153.951 7  23603152.288 8 122907781.673 7  95039933.561 8
C16  38858877.855 7  38858880.134 7 202348363.146 7 156468592.087 7
C21  21949554.741 8                 114297075.646 8
C22  22844597.215 8                 118957793.674 8
C34  22823017.657 7                 118845425.085 7
C36  24804101.473 7                 129161480.973 7
C39  39055011.235 7                 203369691.662 7
C42  24833725.237 7                 129315751.157 7
C43  24248944.097 7                 126270598.817 7
C44  25056686.336 6                 130476711.928 6
E03  23912996.732 8  23912999.077 9 125663652.926 8  95063752.850 9
E05  22413412.581 8  22413414.680 9 117783285.804 8  89102255.654 9
E13  27228869.681 7  27228874.880 8 143088684.481 7 108245684.408 8
E15  23727621.900 8  23727624.563 9 124689493.728 8  94326807.143 9
E34  24373372.923 8  24373375.628 8 128082930.371 8  96893913.419 8
G01  22543817.062 7                  22543821.798 7  22543824.023 8 118468536.909 7                  92313164.332 7  88466783.459 8
G03  20451959.706 8                  20451965.734 7  20451963.700 8 107475765.938 8                  83747375.021 7  80257894.707 8
G04  20174037.924 7                  20174042.184 8  20174043.246 9 106015287.134 7                  82609336.155 8  79167283.059 9
G06  22541948.133 7                  22541954.729 7  22541953.073 8 118458748.344 7                  92305548.302 7  88459479.373 8
G09  21774905.496 7                  21774911.017 7  21774909.931 8 114427913.517 7                  89164918.331 7  85449447.322 8
G17  23617995.446 6                  23618000.871 7                 124113382.004 6                  96711607.629 7
G19  22450461.189 7  22450463.310 5                                 117977957.559 7  91930887.358 5                
G31  22412966.402 7                  22412969.957 7                 117780933.479 7                  91777369.863 7
R03  21267650.064 8  21267654.018 7 113847385.492 8  88547820.222 7
R04  19221762.548 8  19221764.004 7 102931658.449 8  80058057.588 7
R05  21311739.599 7  21311743.667 7 113923483.657 7  88607178.629 7
R12  23221459.249 7  23221464.003 7 124044948.475 7  96479372.577 7
R13  22417229.549 6                 119706775.847 6
R18  23228003.994 5                 123992701.083 5
R19  19898989.876 8  19898990.758 7 106446172.956 8  82791443.147 7
R20  20608715.176 6  20608719.426 7 110204075.456 6  85714299.040 7
> 2025 06 15 15 08  0.0000000  0 35
C05  39176004.362 6  39176000.886 6 203999705.538 6 157745528.437 6
C06  38225989.987 6  38225984.712 7 199052768.037 6 153920204.679 7
C09  38404416.224 7  38404413.424 7 199981867.827 7 154638668.480 7
C11  23130451.195 7  23130448.961 8 120446301.982 7  93136830.220 8
C12  23610848.111 7  23610846.352 8 122947847.386 7  95070914.870 8
C16  38859091.213 7  38859094.313 7 202349476.761 7 156469453.208 7
C21  21947555.461 8                 114286664.506 8
C22  22850393.751 8                 118987976.985 8
C34  22826993.160 7                 118866125.473 7
C36  24800258.978 7                 129141469.938 7
C39  39056509.862 7                 203377496.546 7
C42  24825875.531 7                 129274877.065 7
C43  24244494.987 7                 126247432.395 7
C44  25066269.075 6                 130526612.700 6
E03  23908405.256 8  23908407.449 9 125639523.734 8  95045499.292 9
E05  22416758.157 8  22416760.260 9 117800867.088 8  89115555.765 9
E13  27220529.487 7  27220534.888 8 143044857.577 7 108212529.693 8
E15  23725188.233 8  23725190.835 9 124676704.513 8  94317132.191 9
E34  24379068.077 8  24379070.684 8 128112858.200 8  96916553.608 8
G01  22553158.397 7                  22553162.901 7  22553165.580 8 118517625.627 7                  92351415.262 7  88503440.571 8
G03  20456311.815 8                  20456317.645 7  20456315.679 8 107498636.755 8                  83765196.425 7  80274973.542 8
G04  20171509.541 7                  20171513.644 8  20171514.455 9 106001999.241 7                  82598981.984 8  79157360.305 9
G06  22534164.023 7                  22534170.735 7  22534169.180 8 118417844.414 7                  92273675.137 7  88428934.260 8
G09  21766525.723 7                  21766531.289 7  21766530.205 8 114383878.169 7                  89130605.099 7  85416563.812 8
G17  23624998.982 7                  23625004.628 7                 124150186.121 7                  96740286.109 7
G19  22454301.058 7  22454303.329 5                                 117998137.066 7  91946611.628 5                
G31  22416299.384 7                  22416302.903 7                 117798450.759 7                  91791019.674 7
R03  21275973.063 8  21275976.454 7 113891937.319 8  88582471.607 7
R04  19222035.846 8  19222036.743 7 102933122.785 8  80059196.494 7
R05  21303407.369 8  21303410.124 7 113878941.108 8  88572534.455 7
R12  23225468.154 7  23225472.723 7 124066365.371 7  96496030.108 7
R13  22412699.966 6                 119682587.999 6
R18  23240712.949 5                 124060554.858 5
R19  19905155.492 8  19905156.462 7 106479154.891 8  82817095.738 7
R20  20602032.455 6  20602037.532 7 110168343.577 6  85686507.609 7
> 2025 06 15 15 08 15.0000000  0 35
C05  39175874.645 6  39175871.046 6 203999029.251 6 157745005.502 6
C06  38225798.788 6  38225792.874 7 199051769.200 6 153919432.321 7
C09  38402656.218 7  38402653.938 7 199972705.419 7 154631583.537 7
C11  23129565.300 7  23129562.785 8 120441687.350 7  93133261.895 8
C12  23618556.026 7  23618554.505 8 122987986.313 7  95101952.785 8
C16  38859311.529 7  38859313.899 7 202350621.848 7 156470338.677 7
C21  21945569.929 8                 114276324.708 8
C22  22856198.251 8                 119018201.811 8
C34  22830990.053 7                 118886936.882 7
C36  24796435.900 7                 129121562.778 7
C39  39058014.125 7                 203385329.027 7
C42  24818032.009 7                 129234032.812 7
C43  24240067.298 7                 126224375.565 7
C44  25075854.843 6                 130576528.150 6
E03  23903827.776 8  23903829.519 9 125615466.408 8  95027300.094 9
E05  22420116.510 8  22420118.604 8 117818515.188 8  89128906.436 8
E13  27212193.495 7  27212198.788 8 143001051.683 7 108179390.855 8
E15  23722771.039 8  23722773.722 9 124664002.526 8  94307523.229 9
E34  24384776.757 8  24384779.596 8 128142858.088 8  96939248.321 8
G01  22562511.712 7                  22562516.336 7  22562518.776 8 118566776.358 7                  92389714.511 7  88540144.000 8
G03  20460680.044 8                  20460685.923 7  20460683.896 8 107521591.175 8                  83783082.993 7  80292114.842 8
G04  20169003.783 7                  20169007.518 8  20169008.096 9 105988828.478 7                  82588719.080 8  79147525.026 9
G06  22526396.622 7                  22526403.279 7  22526401.836 8 118377027.268 7                  92241869.600 7  88398453.962 8
G09  21758160.019 7                  21758165.660 7  21758164.149 8 114339915.729 7                  89096348.702 7  85383734.746 8
G17  23632014.668 7                  23632020.766 7                 124187055.442 7                  96769015.411 7
G19  22458167.066 7  22458169.594 5                                 118018453.406 7  91962442.506 5                
G31  22419662.133 7                  22419665.444 7                 117816118.839 7                  91804787.021 7
R03  21284304.058 8  21284307.269 7 113936533.078 8  88617157.164 7
R04  19222330.883 8  19222332.319 7 102934703.742 8  80060426.126 7
R05  21295088.453 7  21295091.925 7 113834473.320 7  88537948.362 7
R12  23229510.266 7  23229514.575 7 124087957.271 7  96512823.832 7
R13  22408202.887 6                 119658574.599 6
R18  23253433.193 5                 124128434.448 5
R19  19911353.902 8  19911354.555 7 106512311.449 8  82842884.157 7
R20  20595381.925 6  20595385.936 7 110132778.115 6  85658845.565 7
> 2025 06 15 15 08 30.0000000  0 36
C05  39175744.636 6  39175740.885 6 203998350.595 6 157744480.733 6
C06  38225613.357 7  38225607.824 7 199050804.997 7 153918686.729 7
C09  38400903.190 7  38400900.704 7 199963576.286 7 154624524.336 7
C11  23128703.632 7  23128701.166 8 120437201.150 7  93129792.888 8
C12  23626278.715 7  23626277.442 8 123028199.241 7  95133047.936 8
C16  38859538.835 7  38859539.957 7 202351799.471 7 156471249.299 7
C21  21943598.079 8                 114266057.296 8
C22  22862010.748 8                 119048469.208 8
C34  22835007.813 7                 118907860.280 7
C36  24792633.429 7                 129101760.686 7
C39  39059523.571 7                 203393190.164 7
C42  24810194.611 7                 129193219.594 7
C43  24235661.014 7                 126201429.588 7
C44  25085443.774 6                 130626459.091 6
E03  23899263.494 8  23899265.488 9 125591482.135 8  95009156.149 9
E05  22423487.757 8  22423489.843 9 117836231.049 8  89142308.367 9
E13  27203862.045 7  27203867.024 8 142957268.097 7 108146268.886 8
E15  23720370.896 7  23720373.446 9 124651388.990 7  94297981.173 9
E34  24390499.878 8  24390502.414 9 128172931.076 8  96961998.316 9
G01  22571876.670 7                  22571881.567 7  22571883.774 8 118615989.954 7                  92428062.731 7  88576894.355 8
G03  20465064.088 8                  20465069.779 7  20465068.252 8 107544630.299 8                  83801035.558 7  80309319.384 8
G04  20166519.438 7                  20166523.759 8  20166524.311 9 105975775.994 7                  82578548.311 8  79137778.030 9
G06  22518646.102 7                  22518652.562 7  22518651.390 8 118336298.340 7                  92210132.796 7  88368039.547 8
G09  21749808.289 7                  21749814.145 7  21749812.537 8 114296027.458 7                  89062150.099 7  85350961.074 8
G17  23639043.354 7                  23639049.276 7                 124223990.701 7                  96797796.080 7
G19  22462059.574 7  22462062.298 5                                 118038907.361 7  91978380.621 5                
G28  24388214.470 4                                  24388220.221 5 128160894.48814                                  95704589.24215
G31  22423053.206 7                  22423056.475 7                 117833938.556 7                  91818672.533 7
R03  21292643.474 8  21292646.606 7 113981173.910 8  88651877.811 7
R04  19222647.985 8  19222649.344 7 102936402.395 8  80061747.339 7
R05  21286784.311 8  21286788.091 7 113790082.089 8  88503421.894 7
R12  23233585.163 7  23233589.678 7 124109725.353 7  96529754.537 7
R13  22403739.025 6                 119634736.906 6
R18  23266154.092 5  23266170.118 5 124196340.511 5
R19  19917584.821 8  19917585.977 7 106545643.708 8  82868809.229 7
R20  20588762.036 6  20588766.750 7 110097379.680 6  85631313.483 7
> 2025 06 15 15 08 45.0000000  0 35
C05  39175612.872 6  39175609.549 6 203997666.661 6 157743951.867 6
C06  38225434.409 7  38225428.977 7 199049872.599 7 153917965.737 7
C09  38399155.506 7  38399152.921 7 199954477.552 7 154617488.626 7
C11  23127866.377 7  23127863.513 8 120432840.529 7  93126420.981 8
C12  23634014.864 7  23634013.698 8 123068483.073 7  95164197.906 8
C16  38859770.516 7  38859771.850 7 202353006.748 7 156472182.847 7
C21  21941639.620 8                 114255859.415 8
C22  22867830.757 8                 119078776.172 8
C34  22839046.862 7                 118928892.629 7
C36  24788849.860 7                 129082061.049 7
C39  39061038.358 7                 203401077.041 7
C42  24802361.929 7                 129152434.593 7
C43  24231274.874 7                 126178591.795 7
C44  25095035.028 6                 130676402.451 6
E03  23894712.585 8  23894714.802 9 125567568.019 8  94991065.291 9
E05  22426871.502 8  22426873.399 9 117854011.678 8  89155759.292 9
E13  27195533.375 7  27195538.998 8 142913504.134 7 108113161.771 8
E15  23717987.009 8  23717989.458 9 124638861.170 8  94288503.961 9
E34  24396235.840 8  24396238.492 9 128203074.171 8  96984801.334 9
G01  22581253.328 7                  22581257.823 7  22581259.924 8 118665263.271 7                  92466457.479 7  88613689.302 8
G03  20469463.971 8                  20469469.879 7  20469467.943 8 107567751.142 8                  83819051.795 7  80326584.930 8
G04  20164057.448 7                  20164061.763 8  20164062.383 9 105962838.846 7                  82568467.424 8  79128117.172 9
G06  22510911.839 7                  22510918.567 7  22510917.382 8 118295655.047 7                  92178462.739 7  88337689.088 8
G09  21741470.261 7                  21741475.804 7  21741474.400 8 114252210.660 7                  89028007.173 7  85318240.771 8
G17  23646084.024 7                  23646089.656 7                 124260988.683 7                  96826625.611 7
G19  22465977.554 7  22465979.969 5                                 118059495.829 7  91994423.564 5                
G31  22426472.210 7                  22426476.148 7                 117851906.773 7                  91832673.730 7
R03  21300990.371 8  21300994.046 7 114025856.466 8  88686630.891 7
R04  19222987.146 8  19222988.339 7 102938215.702 8  80063157.713 7
R05  21278494.090 8  21278497.992 7 113745764.602 8  88468952.789 7
R12  23237694.375 8  23237697.364 7 124131666.131 8  96546819.581 7
R13  22399306.793 6                 119611072.334 6
R18  23278877.796 5  23278890.265 5 124264269.435 5  96649987.50015
R19  19923848.377 8  19923849.427 7 106579148.090 8  82894868.172 7
R20  20582173.097 6  20582177.925 7 110062146.289 6  85603909.722 7
> 2025 06 15 15 09  0.0000000  0 35
C05  39175481.418 6  39175477.939 6 203996981.009 6 157743421.676 6
C06  38225261.812 7  38225256.433 7 199048975.389 7 153917271.947 7
C09  38397414.106 6  38397412.248 7 199945412.798 6 154610479.187 7
C11  23127053.640 7  23127050.636 8 120428609.088 7  93123148.966 8
C12  23641765.060 7  23641763.751 8 123108841.148 7  95195405.292 8
C16  38860008.564 7  38860009.589 7 202354247.181 7 156473142.010 7
C21  21939695.215 8                 114245734.628 8
C22  22873659.310 8                 119109126.126 8
C34  22843107.469 7                 118950037.315 7
C36  24785087.393 7                 129062467.516 7
C39  39062558.458 7                 203408993.171 7
C42  24794535.727 7                 129111681.420 7
C43  24226910.482 7                 126155865.830 7
C44  25104629.751 6                 130726361.440 6
E03  23890176.002 8  23890178.175 9 125543727.659 8  94973030.259 9
E05  22430268.155 8  22430269.914 9 117871860.473 8  89169261.799 9
E13  27187210.623 7  27187215.333 8 142869763.545 7 108080072.339 8
E15  23715619.991 8  23715622.507 9 124626422.774 8  94279094.384 9
E34  24401985.538 8  24401988.592 9 128233290.844 8  97007660.034 9
G01  22590641.589 7                  22590646.372 7  22590647.690 8 118714599.614 7                  92504901.345 7  88650531.336 8
G03  20473879.998 8                  20473885.573 7  20473883.809 8 107590957.195 8                  83837134.408 7  80343914.104 8
G04  20161618.578 7                  20161622.344 8  20161623.266 9 105950020.607 7                  82558479.180 8  79118545.123 9
G06  22503194.939 7                  22503201.348 7  22503200.116 8 118255101.354 7                  92146862.468 7  88307405.490 8
G09  21733146.439 7                  21733152.238 7  21733150.696 8 114208469.050 7                  88993922.854 7  85285576.615 8
G17  23653137.002 7                  23653142.745 7                 124298052.661 7                  96855506.609 7
G19  22469921.677 7  22469923.477 5                                 118080222.047 7  92010573.876 5                
G31  22429920.247 7                  22429924.214 7                 117870027.029 7                  91846793.399 7
R03  21309345.451 8  21309349.313 7 114070584.165 8  88721419.100 7
R04  19223347.419 8  19223348.885 7 102940147.161 8  80064659.957 7
R05  21270217.808 7  21270221.150 7 113701524.385 7  88434543.742 7
R12  23241833.675 8  23241836.926 7 124153783.162 8  96564021.700 7
R13  22394908.533 6                 119587584.994 6
R18  23291606.353 5  23291619.894 5 124332224.720 5  96702841.58615
R19  19930144.323 8  19930145.352 7 106612828.282 8  82921063.855 7
R20  20575615.987 6  20575620.388 7 110027082.394 6  85576637.813 7
> 2025 06 15 15 09 15.0000000  0 35
C05  39175349.394 6  39175346.033 6 203996293.566 6 157742890.104 6
C06  38225096.522 7  38225090.916 7 199048113.459 7 153916605.450 7
C09  38395680.263 7  38395677.983 7 199936381.945 7 154603495.958 7
C11  23126265.931 7  23126262.700 8 120424506.750 7  93119976.774 8
C12  23649529.630 7  23649528.267 8 123149273.098 7  95226669.812 8
C16  38860253.480 7  38860254.439 7 202355520.730 7 156474126.816 7
C21  21937765.035 8                 114235682.823 8
C22  22879495.766 8                 119139518.896 8
C34  22847189.313 7                 118971294.095 7
C36  24781344.835 7                 129042980.295 7
C39  39064084.267 7                 203416938.461 7
C42  24786715.571 7                 129070960.103 7
C43  24222568.276 7                 126133251.856 7
C44  25114226.693 6                 130776335.802 6
E03  23885652.971 8  23885655.507 9 125519961.107 8  94955051.029 9
E05  22433677.468 8  22433679.360 9 117889777.270 8  89182815.743 9
E13  27178891.305 7  27178896.237 8 142826046.469 7 108047000.697 8
E15  23713269.771 8  23713272.567 9 124614073.846 8  94269752.522 9
E34  24407749.482 8  24407752.720 9 128263580.945 8  97030574.285 9
G01  22600042.014 7                  22600046.710 7  22600048.313 8 118763998.688 7                  92543394.092 7  88687420.234 8
G03  20478312.203 8                  20478317.891 7  20478315.927 8 107614248.344 8                  83855283.341 7  80361306.840 8
G04  20159201.896 7                  20159205.943 8  20159206.720 9 105937321.229 7                  82548583.560 8  79109061.833 9
G06  22495494.723 7                  22495501.480 7  22495500.097 8 118214637.432 7                  92115332.157 7  88277188.963 8
G09  21724836.986 7                  21724843.038 7  21724841.614 8 114164802.827 7                  88959897.238 7  85252968.735 8
G17  23660202.940 7                  23660208.077 6                 124335182.201 7                  96884438.667 6
G19  22473891.882 7  22473893.765 5                                 118101085.738 7  92026831.285 5                
G31  22433397.377 7                  22433401.488 7                 117888299.103 7                  91861031.361 7
R03  21317710.002 8  21317713.197 7 114115356.748 8  88756242.206 7
R04  19223730.669 8  19223731.391 7 102942196.646 8  80066253.993 7
R05  21261956.080 7  21261958.997 7 113657361.422 7  88400194.821 7
R12  23246006.660 8  23246010.128 7 124176076.126 8  96581360.697 7
R13  22390543.203 6                 119564274.917 6
R18  23304342.476 5                 124400205.714 5
R19  19936473.444 8  19936474.064 7 106646683.810 8  82947395.920 7
R20  20569091.068 6  20569095.272 7 109992188.044 6  85549497.788 7
> 2025 06 15 15 09 30.0000000  0 35
C05  39175216.324 6  39175212.940 6 203995601.165 6 157742354.697 6
C06  38224937.465 7  38224931.424 7 199047283.499 7 153915963.681 7
C09  38393952.532 7  38393949.641 7 199927381.818 7 154596536.482 7
C11  23125502.261 7  23125499.019 8 120420530.527 7  93116902.096 8
C12  23657307.866 7  23657306.342 8 123189775.441 7  95257988.770 8
C16  38860503.622 7  38860504.740 7 202356824.142 7 156475134.707 7
C21  21935847.885 8                 114225700.860 8
C22  22885339.969 8                 119169951.234 8
C34  22851292.505 7                 118992659.639 7
C36  24777622.222 7                 129023596.403 7
C39  39065614.908 7                 203424909.643 7
C42  24778901.088 7                 129030267.553 7
C43  24218246.320 7                 126110746.908 7
C44  25123825.572 6                 130826322.043 6
E03  23881144.051 8  23881146.297 9 125496265.174 8  94937125.238 9
E05  22437099.319 8  22437101.079 9 117907758.725 8  89196418.600 9
E13  27170575.971 7  27170581.052 8 142782349.912 7 108013944.568 8
E15  23710936.330 8  23710939.103 9 124601811.367 8  94260476.040 9
E34  24413527.084 8  24413530.112 9 128293941.213 8  97053541.606 9
G01  22609453.566 7                  22609458.394 7  22609460.035 8 118813457.093 7                  92581933.048 7  88724353.392 8
G03  20482759.818 8                  20482765.441 7  20482763.656 8 107637621.291 8                  83873496.050 7  80378760.685 8
G04  20156807.394 7                  20156811.155 8  20156811.900 9 105924737.542 7                  82538778.100 8  79099664.932 9
G06  22487811.266 7                  22487817.994 7  22487816.103 8 118174260.431 7                  92083869.596 7  88247037.340 8
G09  21716541.341 7                  21716547.305 7  21716546.023 8 114121208.878 7                  88925927.951 7  85220414.840 8
G17  23667280.066 7                  23667285.390 7                 124372373.733 7                  96913419.046 7
G19  22477887.440 7  22477889.850 5                                 118122083.523 7  92043193.178 5                
G31  22436902.795 7                  22436906.699 7                 117906719.664 7                  91875385.028 7
R03  21326081.593 8  21326084.901 7 114160170.740 8  88791097.485 7
R04  19224134.369 8  19224136.292 7 102944360.824 8  80067937.237 7
R05  21253708.607 8  21253711.597 7 113613272.909 8  88365903.799 7
R12  23250212.271 8  23250216.439 7 124198541.497 8  96598833.782 7
R13  22386210.943 6                 119541139.389 6
R18  23317083.457 5                 124468208.717 5
R19  19942834.539 8  19942835.232 7 106680711.006 8  82973861.523 7
R20  20562596.692 6  20562601.326 7 109957460.408 6  85522487.439 7
> 2025 06 15 15 09 45.0000000  0 35
C05  39175081.919 6  39175078.323 6 203994901.034 6 157741813.314 6
C06  38224783.242 7  38224777.680 7 199046482.654 7 153915344.427 7
C09  38392229.118 7  38392226.456 7 199918409.586 7 154589598.592 7
C11  23124762.550 7  23124759.287 8 120416677.558 7  93113922.713 8
C12  23665099.074 7  23665097.638 8 123230345.167 7  95289359.833 8
C16  38860759.049 7  38860760.001 7 202358154.585 7 156476163.481 7
C21  21933944.013 8                 114215785.878 8
C22  22891191.177 8                 119200420.176 8
C34  22855416.049 7                 119014130.954 7
C36  24773919.337 7                 129004313.205 7
C39  39067150.271 7                 203432903.906 7
C42  24771091.390 7                 128989600.935 7
C43  24213944.539 7                 126088348.317 7
C44  25133427.735 6                 130876317.089 6
E03  23876647.638 8  23876649.979 9 125472637.063 8  94919250.732 9
E05  22440532.879 8  22440534.583 9 117925801.879 8  89210068.122 9
E13  27162264.016 7  27162269.129 8 142738671.200 7 107980901.939 8
E15  23708619.037 8  23708621.539 9 124589632.596 8  94251262.887 9
E34  24419317.364 8  24419320.278 8 128324368.685 8  97076559.771 8
G01  22618875.802 7                  22618880.719 7  22618882.505 8 118862971.650 7                  92620515.763 7  88761328.514 8
G03  20487222.910 8                  20487228.183 7  20487226.577 8 107661073.192 8                  83891770.232 7  80396273.440 8
G04  20154433.720 7                  20154437.783 8  20154438.736 9 105912266.673 7                  82529060.563 8  79090352.283 9
G06  22480143.843 7                  22480150.348 7  22480148.488 8 118133967.809 7                  92052472.763 7  88216948.708 8
G09  21708258.742 7                  21708264.836 7  21708263.238 8 114077684.554 7                  88892012.881 7  85187912.914 8
G17  23674368.474 7                  23674373.943 6                 124409624.225 7                  96942445.326 6
G19  22481908.229 7  22481911.181 5                                 118143212.293 7  92059657.135 5                
G31  22440435.502 7                  22440440.020 7                 117925285.561 7                  91889851.948 7
R03  21334460.583 7  21334464.016 7 114205022.998 7  88825982.544 7
R04  19224559.727 8  19224560.599 7 102946636.296 8  80069707.061 7
R05  21245474.096 8  21245477.071 7 113569255.897 8  88331668.383 7
R12  23254450.001 8  23254453.562 7 124221176.102 8  96616438.422 7
R13  22381910.354 6                 119518175.652 6
R18  23329830.139 4                 124536230.35414
R19  19949226.466 8  19949227.463 7 106714906.598 8  83000458.061 7
R20  20556133.567 6  20556137.367 7 109922896.960 6  85495604.766 7
> 2025 06 15 15 10  0.0000000  0 35
C05  39174946.609 6  39174943.147 6 203994196.197 6 157741268.290 6
C06  38224635.577 7  38224630.157 7 199045714.049 7 153914750.102 7
C09  38390512.034 7  38390509.419 7 199909468.318 7 154582684.639 7
C11  23124047.059 7  23124043.303 8 120412950.995 7  93111041.095 8
C12  23672903.310 7  23672902.155 8 123270984.967 7  95320785.076 8
C16  38861020.322 7  38861021.385 7 202359515.061 7 156477215.493 7
C21  21932053.196 8                 114205940.955 8
C22  22897050.255 8                 119230928.708 8
C34  22859560.014 7                 119035710.931 7
C36  24770235.880 7                 128985133.904 7
C39  39068690.258 7                 203440924.201 7
C42  24763287.412 7                 128948963.451 7
C43  24209664.093 7                 126066059.275 7
C44  25143030.943 6                 130926323.758 6
E03  23872165.039 8  23872167.182 9 125449079.860 8  94901429.880 9
E05  22443978.551 8  22443980.428 9 117943909.625 8  89223766.519 9
E13  27153956.437 7  27153961.361 8 142695013.633 7 107947875.300 8
E15  23706317.815 8  23706320.516 9 124577540.741 8  94242115.496 9
E34  24425121.060 8  24425123.871 9 128354866.370 8  97099631.035 9
G01  22628309.702 7                  22628314.089 7  22628316.048 7 118912545.199 7                  92659144.476 7  88798347.704 7
G03  20491701.091 8                  20491706.634 8  20491704.886 8 107684607.013 8                  83910108.260 8  80413847.381 8
G04  20152083.072 7                  20152086.614 8  20152087.768 9 105899911.719 7                  82519433.336 8  79081126.180 9
G06  22472492.951 7                  22472499.577 7  22472497.478 8 118093762.960 7                  92021144.326 7  88186925.639 8
G09  21699990.531 7                  21699996.026 7  21699994.668 8 114034233.046 7                  88858154.576 7  85155465.422 8
G17  23681468.883 7                  23681474.563 7                 124446936.307 7                  96971519.612 7
G19  22485954.178 7  22485957.291 5                                 118164474.846 7  92076225.313 5                
G31  22443996.738 7                  22444000.871 7                 117943999.614 7                  91904434.352 7
R03  21342846.833 8  21342849.591 7 114249916.338 8  88860899.604 7
R04  19225005.704 8  19225007.373 7 102949026.450 8  80071566.069 7
R05  21237253.814 8  21237256.947 7 113525313.526 8  88297490.990 7
R12  23258718.778 7  23258723.309 7 124243982.818 7  96634176.980 7
R13  22377642.326 6                 119495387.207 6
R18  23342575.356 5                 124604273.44315
R19  19955651.137 8  19955651.986 7 106749273.501 8  83027187.845 7
R20  20549701.016 6  20549705.445 7 109888501.517 6  85468852.736 7
> 2025 06 15 15 10 15.0000000  0 37
C05  39174810.293 6  39174806.652 6 203993486.322 6 157740719.374 6
C06  38224494.460 7  38224488.443 7 199044977.184 7 153914180.327 7
C09  38388801.116 7  38388798.399 7 199900557.575 7 154575794.282 7
C11  23123355.263 7  23123352.343 8 120409350.381 7  93108256.872 8
C12  23680721.332 7  23680719.925 8 123311694.240 7  95352264.028 8
C16  38861287.302 7  38861288.351 7 202360905.131 7 156478290.394 7
C21  21930175.997 8                 114196165.646 8
C22  22902916.467 8                 119261476.306 8
C34  22863725.036 7                 119057399.007 7
C36  24766572.187 6                 128966058.291 6
C39  39070235.763 7                 203448970.142 7
C42  24755488.655 7                 128908354.698 7
C43  24205404.846 7                 126043879.567 7
C44  25152636.576 6                 130976341.346 6
E03  23867695.565 8  23867697.786 9 125425593.234 8  94883662.399 9
E05  22447436.360 8  22447438.448 9 117962081.437 8  89237513.375 9
E08  27781279.593 6  27781285.065 7 145991607.08016 110441726.71717
E13  27145652.398 7  27145657.500 8 142651376.964 7 107914864.470 8
E15  23704033.057 8  23704035.997 9 124565535.530 8  94233033.649 9
E34  24430937.874 8  24430940.668 9 128385433.727 8  97122755.038 9
G01  22637754.370 7                  22637758.726 7  22637760.664 7 118962177.140 7                  92697818.685 7  88835410.466 7
G03  20496194.794 8                  20496200.478 7  20496198.755 8 107708222.237 8                  83928509.736 7  80431482.133 8
G04  20149754.203 7                  20149757.447 8  20149758.640 9 105887672.280 7                  82509896.105 8  79071986.333 9
G06  22464858.741 7                  22464865.522 7  22464863.546 8 118053645.780 7                  91989884.211 7  88156968.021 8
G09  21691735.808 7                  21691741.127 7  21691740.172 8 113990854.144 7                  88824352.881 7  85123072.119 8
G17  23688580.536 7                  23688586.256 7                 124484309.238 7                  97000641.350 7
G19  22490025.650 7  22490028.810 5                                 118185870.535 7  92092897.278 5                
G28  24440784.420 5                  24440783.211 5  24440786.534 5 128437112.15315                 100080924.55415  95910858.32715
G31  22447586.000 7                  22447590.290 7                 117962861.433 7                  91919131.876 7
R03  21351240.403 8  21351243.811 7 114294850.077 8  88895848.075 7
R04  19225473.128 8  19225474.616 8 102951530.575 8  80073513.717 8
R05  21229047.418 7  21229050.445 7 113481445.594 7  88263371.503 7
R12  23263020.591 7  23263024.435 7 124266960.954 7  96652048.865 7
R13  22373407.812 6                 119472774.094 6
R18  23355322.962 5                 124672337.130 5
R19  19962107.426 8  19962109.046 8 106783810.753 8  83054050.146 8
R20  20543300.202 6  20543304.669 7 109854273.860 6  85442231.258 7
> 2025 06 15 15 10 30.0000000  0 37
C05  39174672.921 6  39174669.329 6 203992771.358 6 157740166.525 6
C06  38224358.325 7  38224353.143 7 199044272.034 7 153913635.087 7
C09  38387095.548 7  38387092.965 7 199891677.374 7 154568927.551 7
C11  23122687.858 7  23122685.243 8 120405875.804 7  93105570.107 8
C12  23688552.137 7  23688550.645 8 123352472.723 7  95383796.508 8
C16  38861560.035 7  38861560.877 7 202362324.795 7 156479388.182 7
C21  21928312.185 8                 114186459.960 8
C22  22908790.317 8                 119292062.865 8
C34  22867910.782 7                 119079194.963 7
C36  24762929.079 7                 128947086.654 7
C39  39071785.793 7                 203457041.637 7
C42  24747696.082 7                 128867774.815 7
C43  24201166.410 7                 126021809.407 7
C44  25162243.361 6                 131026369.607 6
E03  23863239.371 8  23863241.862 9 125402177.216 8  94865948.349 9
E05  22450906.443 8  22450908.597 9 117980317.216 8  89251308.606 9
E08  27772654.812 6  27772660.382 7 145946284.657 6 110407440.740 7
E13  27137352.349 7  27137357.700 8 142607761.433 7 107881869.659 8
E15  23701765.452 8  23701767.987 9 124553617.135 8  94224017.463 9
E34  24436767.900 8  24436770.673 8 128416070.719 8  97145931.701 8
G01  22647210.159 7                  22647214.539 7  22647216.581 8 119011867.193 7                  92736538.180 7  88872516.626 8
G03  20500704.191 8                  20500709.917 7  20500708.167 8 107731918.867 8                  83946974.654 7  80449177.667 8
G04  20147446.981 7                  20147450.331 8  20147451.442 9 105875548.323 7                  82500448.884 8  79062932.762 9
G06  22457241.855 7                  22457248.127 7  22457246.569 8 118013616.636 7                  91958692.699 7  88127076.168 8
G09  21683494.712 7                  21683500.123 7  21683498.950 8 113947548.083 7                  88790607.923 7  85090733.204 8
G17  23695703.953 7                  23695709.887 7                 124521742.679 7                  97029810.242 7
G19  22494122.777 7  22494125.301 5                                 118207398.984 7  92109672.683 5                
G28  24448355.852 4                  24448359.546 5  24448362.066 5 128476932.358 4                 100111953.309 5  95940594.131 5
G31  22451203.275 7                  22451207.487 7                 117981870.835 7                  91933944.398 7
R03  21359642.222 8  21359645.447 7 114339824.376 8  88930828.071 7
R04  19225962.450 8  19225963.569 8 102954148.485 8  80075549.861 8
R05  21220854.659 7  21220858.598 7 113437652.063 7  88229309.923 7
R12  23267354.089 7  23267358.034 7 124290110.388 7  96670053.950 7
R13  22369206.553 6                 119450336.688 6
R18  23368080.284 6                 124740420.982 6
R19  19968595.863 8  19968596.646 8 106818518.223 8  83081044.805 8
R20  20536931.150 6  20536935.280 7 109820214.549 6  85415740.677 7
> 2025 06 15 15 10 45.0000000  0 37
C05  39174535.226 6  39174531.532 6 203992053.407 6 157739611.358 6
C06  38224230.238 6  38224224.181 7 199043600.660 6 153913115.969 7
C09  38385396.370 7  38385394.086 7 199882829.836 7 154562086.086 7
C11  23122045.187 7  23122042.877 8 120402529.409 7  93102982.465 8
C12  23696396.799 7  23696395.453 8 123393322.219 7  95415383.888 8
C16  38861838.146 7  38861839.600 7 202363776.122 7 156480510.452 7
C21  21926462.122 8                 114176825.954 8
C22  22914671.988 8                 119322690.349 8
C34  22872117.560 7                 119101100.757 7
C36  24759306.541 7                 128928221.194 7
C39  39073341.059 7                 203465140.760 7
C42  24739908.748 7                 128827225.911 7
C43  24196949.610 7                 125999850.979 7
C44  25171853.235 6                 131076410.335 6
E03  23858797.323 8  23858799.754 9 125378833.927 8  94848289.314 9
E05  22454389.099 8  22454391.286 9 117998618.859 8  89265153.690 9
E08  27764034.056 6  27764039.212 7 145900980.679 6 110373168.668 7
E13  27129057.538 7  27129062.319 8 142564169.319 7 107848892.544 8
E15  23699514.142 8  23699516.910 9 124541787.772 8  94215068.624 9
E34  24442611.108 8  24442614.379 9 128446779.326 8  97169162.554 9
G01  22656677.273 7                  22656681.553 7  22656684.036 8 119061617.177 7                  92775304.371 7  88909667.542 8
G03  20505229.631 8                  20505235.134 7  20505233.291 8 107755698.943 8                  83965504.564 7  80466935.503 8
G04  20145162.041 7                  20145165.785 8  20145166.670 9 105863541.992 7                  82491093.313 8  79053967.011 9
G06  22449642.332 7                  22449648.031 7  22449646.730 8 117973677.917 7                  91927571.610 7  88097251.817 8
G09  21675268.137 7                  21675273.763 7  21675272.018 8 113904317.054 7                  88756921.457 7  85058450.335 8
G17  23702839.005 7                  23702845.059 7                 124559238.410 7                  97059027.646 7
G19  22498245.164 7  22498246.737 5                                 118229061.988 7  92126552.953 5                
G28  24455946.368 4                  24455955.005 5  24455955.747 5 128516843.82314                 100143053.076 5  95970398.086 5
G31  22454849.193 7                  22454853.165 7                 118001029.606 7                  91948873.286 7
R03  21368051.743 8  21368055.232 7 114384840.613 8  88965840.660 7
R04  19226472.776 8  19226473.996 8 102956882.178 8  80077676.064 8
R05  21212676.338 7  21212680.121 7 113393935.422 7  88195308.126 7
R12  23271719.796 7  23271724.783 7 124313432.795 7  96688193.578 7
R13  22365037.535 6                 119428077.241 6
R18  23380839.304 5                 124808526.746 5
R19  19975116.075 8  19975116.895 7 106853397.793 8  83108173.351 7
R20  20530593.430 6  20530597.555 7 109786325.961 6  85389382.897 7
> 2025 06 15 15 11  0.0000000  0 37
C05  39174396.088 6  39174392.675 6 203991329.288 6 157739051.425 6
C06  38224106.704 7  38224101.155 7 199042959.907 7 153912620.498 7
C09  38383702.887 7  38383700.775 7 199874011.748 7 154555267.382 7
C11  23121427.012 7  23121424.369 8 120399308.092 7  93100491.518 8
C12  23704254.842 7  23704253.185 8 123434239.280 7  95447023.532 8
C16  38862122.605 7  38862123.514 7 202365255.874 7 156481654.695 7
C21  21924624.898 8                 114167260.469 8
C22  22920560.870 8                 119353355.466 8
C34  22876344.741 7                 119123113.042 7
C36  24755702.802 7                 128909458.959 7
C39  39074900.824 7                 203473264.291 7
C42  24732127.272 7                 128786704.914 7
C43  24192753.759 7                 125978001.350 7
C44  25181464.718 6                 131126460.097 6
E03  23854368.463 8  23854370.884 9 125355560.234 8  94830682.938 9
E05  22457883.932 8  22457885.867 9 118016983.097 8  89279046.109 9
E08  27755415.398 6  27755420.980 7 145855692.035 6 110338908.180 7
E13  27120766.100 7  27120770.915 8 142520597.643 7 107815930.896 8
E15  23697279.389 8  23697282.188 9 124530044.354 8  94206184.804 9
E34  24448467.916 8  24448471.032 8 128477556.282 8  97192445.097 8
G01  22666154.773 7                  22666159.616 7  22666161.995 8 119111423.705 7                  92814114.590 7  88946860.662 8
G03  20509770.056 8                  20509775.439 7  20509773.745 8 107779559.159 8                  83984096.932 7  80484753.188 8
G04  20142899.415 7                  20142902.866 8  20142903.765 9 105851650.086 7                  82481826.909 8  79045086.698 9
G06  22442058.536 7                  22442064.888 7  22442063.338 8 117933826.771 7                  91896518.789 7  88067492.866 8
G09  21667054.935 7                  21667060.866 7  21667059.227 8 113861158.069 7                  88723291.110 7  85026221.240 8
G17  23709986.104 6                  23709991.736 7                 124596792.849 6                  97088290.780 7
G19  22502392.673 7  22502393.863 5                                 118250856.188 7  92143535.414 5                
G28  24463558.330 4                  24463566.759 5  24463567.864 6                                 100174221.006 5  96000267.401 6
G31  22458523.012 7                  22458526.872 7                 118020334.466 7                  91963916.057 7
R03  21376468.516 8  21376471.351 7 114429896.011 8  89000883.724 7
R04  19227004.344 8  19227005.597 7 102959728.410 8  80079889.808 7
R05  21204512.422 7  21204515.585 7 113350292.483 7  88161363.639 7
R12  23276117.574 7  23276121.694 7 124336924.811 7  96706465.149 7
R13  22360902.026 6                 119405992.809 6
R18  23393603.069 5                 124876650.621 5
R19  19981668.229 8  19981668.863 7 106888445.561 8  83135432.698 7
R20  20524287.733 6  20524291.863 7 109752605.103 6  85363155.554 7
> 2025 06 15 15 11 15.0000000  0 35
C05  39174256.751 6  39174253.145 6 203990603.521 6 157738490.223 6
C06  38223990.297 7  38223984.785 7 199042354.276 7 153912152.179 7
C09  38382016.325 7  38382013.894 7 199865227.629 7 154548474.948 7
C11  23120832.536 7  23120830.152 8 120396216.279 7  93098100.742 8
C12  23712126.201 7  23712124.589 8 123475228.122 7  95478718.665 8
C16  38862413.317 7  38862414.142 7 202366768.506 7 156482824.367 7
C21  21922801.786 8                 114157767.985 8
C22  22926458.115 8                 119384062.667 8
C34  22880593.306 7                 119145236.111 7
C36  24752120.608 7                 128890804.557 7
C39  39076466.488 7                 203481416.664 7
C42  24724351.914 7                 128746216.336 7
C43  24188579.639 7                 125956265.123 7
C44  25191079.091 6                 131176523.112 6
E03  23849954.049 8  23849956.138 8 125332360.689 8  94813132.649 8
E05  22461391.549 8  22461393.203 8 118035414.271 8  89292989.175 8
E08  27746801.081 6  27746806.533 7 145810423.284 6 110304662.771 7
E13  27112479.306 7  27112484.334 8 142477051.111 7 107782988.262 8
E15  23695061.794 8  23695064.712 9 124518391.556 8  94197369.542 9
E34  24454338.289 8  24454341.548 8 128508405.997 8  97215782.682 8
G01  22675644.349 7                  22675649.208 7  22675651.409 8 119161290.979 7                  92852972.182 7  88984099.158 8
G03  20514326.573 8                  20514332.012 7  20514330.130 8 107803503.945 8                  84002755.208 7  80502634.032 8
G04  20140658.870 7                  20140662.428 8  20140663.372 9 105839877.090 7                  82472653.141 8  79036295.194 9
G06  22434492.850 7                  22434498.819 7  22434497.306 8 117894067.963 7                  91865537.927 7  88037802.867 8
G09  21658856.665 7                  21658862.846 7  21658861.259 8 113818075.788 7                  88689720.533 7  84994049.428 8
G17  23717144.104 6                  23717150.391 7                 124634410.243 6                  97117602.995 7
G19  22506565.082 7  22506567.199 5                                 118272785.834 7  92160623.406 5                
G31  22462224.944 7                  22462229.212 7                 118039789.769 7                  91979076.040 7
R03  21384892.927 8  21384896.490 7 114474994.213 8  89035960.076 7
R04  19227557.688 8  19227558.691 7 102962691.581 8  80082194.499 7
R05  21196362.552 8  21196365.466 7 113306727.968 8  88127480.129 7
R12  23280547.898 7  23280551.969 7 124360590.642 7  96724871.928 7
R13  22356800.175 6                 119384088.363 6
R19  19988252.467 8  19988253.180 7 106923666.166 8  83162826.478 7
R20  20518014.597 6  20518017.776 7 109719057.446 6  85337062.970 7
> 2025 06 15 15 11 30.0000000  0 36
C05  39174116.513 6  39174113.458 6 203989873.914 6 157737926.062 6
C06  38223880.205 7  38223875.053 7 199041781.487 7 153911709.265 7
C09  38380335.210 7  38380333.104 7 199856475.248 7 154541707.071 7
C11  23120263.834 7  23120260.810 8 120393251.933 7  93095808.519 8
C12  23720011.076 7  23720009.457 8 123516286.372 7  95510467.476 8
C16  38862710.132 7  38862710.610 7 202368311.863 7 156484017.806 7
C21  21920992.649 8                 114148346.313 8
C22  22932362.451 8                 119414809.638 8
C34  22884862.483 7                 119167467.648 7
C36  24748558.403 7                 128872256.114 7
C39  39078037.176 7                 203489595.649 7
C42  24716582.131 7                 128705758.098 7
C43  24184426.945 8                 125934640.342 8
C44  25200696.090 6                 131226596.914 6
E03  23845553.079 8  23845555.080 9 125309233.150 8  94795636.839 9
E05  22464910.794 8  22464912.863 8 118053910.084 8  89306981.139 8
E08  27738190.300 6  27738195.486 7 145765172.422 6 110270430.880 7
E13  27104197.082 7  27104201.959 8 142433527.729 7 107750063.129 8
E15  23692861.427 8  23692864.074 9 124506827.313 8  94188621.280 9
E34  24460222.468 8  24460225.462 8 128539326.212 8  97239173.595 8
G01  22685145.111 7                  22685149.879 7  22685151.725 8 119211216.593 7                  92891875.233 7  89021381.236 8
G03  20518898.844 8                  20518904.257 7  20518902.357 8 107827531.142 8                  84021477.691 7  80520576.404 8
G04  20138440.933 7                  20138444.338 8  20138445.286 9 105828220.808 7                  82463570.335 8  79027590.855 9
G06  22426944.157 7                  22426950.496 7  22426948.676 8 117854399.726 7                  91834627.623 7  88008180.485 8
G09  21650672.505 7                  21650678.594 7  21650677.363 8 113775068.231 7                  88656208.189 7  84961933.419 8
G17  23724314.123 6                  23724319.954 7                 124672088.086 6                  97146962.310 7
G19  22510763.593 7  22510766.027 5                                 118294848.544 7  92177815.112 5                
G31  22465955.681 7                  22465959.605 7                 118059393.119 7                  91994351.377 7
R03  21393325.263 8  21393328.499 7 114520133.295 8  89071068.221 7
R04  19228132.560 8  19228133.289 7 102965769.283 8  80084588.266 7
R05  21188227.240 7  21188230.471 7 113263239.771 7  88093656.027 7
R12  23285010.232 7  23285014.323 7 124384427.881 7  96743411.988 7
R13  22352731.491 6                 119362362.066 6
R18  23419133.359 5                 125013008.11315
R19  19994868.325 8  19994869.169 7 106959056.755 8  83190352.482 7
R20  20511772.512 6  20511776.515 7 109685681.012 6  85311103.535 7
> 2025 06 15 15 11 45.0000000  0 36
C05  39173974.723 6  39173971.330 6 203989136.474 6 157737355.817 6
C06  38223775.533 7  38223770.423 7 199041237.488 7 153911288.621 7
C09  38378659.640 7  38378657.569 7 199847750.606 7 154534960.638 7
C11  23119718.201 7  23119715.118 8 120390411.003 7  93093611.748 8
C12  23727908.346 7  23727906.930 8 123557409.607 7  95542266.544 8
C16  38863011.333 7  38863011.849 7 202369881.843 7 156485231.809 7
C21  21919196.394 8                 114138991.400 8
C22  22938274.297 8                 119445592.218 8
C34  22889152.114 7                 119189803.457 7
C36  24745016.733 7                 128853809.685 7
C39  39079612.151 7                 203497797.202 7
C42  24708817.594 7                 128665326.236 7
C43  24180294.404 8                 125913123.113 8
C44  25210316.716 6                 131276677.281 6
E03  23841165.107 8  23841166.945 8 125286173.588 8  94778192.434 8
E05  22468441.959 8  22468444.028 8 118072466.316 8  89321018.807 8
E08  27729582.085 6  27729587.033 7 145719935.495 6 110236209.546 7
E13  27095918.514 7  27095923.471 8 142390023.644 7 107717152.606 8
E15  23690676.958 8  23690679.567 9 124495347.688 8  94179937.021 9
E34  24466118.975 8  24466121.980 8 128570312.729 8  97262614.676 8
G01  22694655.874 7                  22694660.745 7  22694662.634 8 119261196.231 7                  92930820.382 7  89058703.658 8
G03  20523485.749 8                  20523491.353 7  20523489.602 8 107851636.519 8                  84040261.084 7  80538577.157 8
G04  20136244.082 7                  20136247.887 8  20136248.787 9 105816677.223 7                  82454575.341 8  79018970.648 9
G06  22419411.828 7                  22419418.020 7  22419416.525 8 117814818.217 7                  91803784.896 7  87978622.891 8
G09  21642502.038 7                  21642508.058 7  21642507.036 8 113732131.482 7                  88622750.987 7  84929870.288 8
G17  23731494.572 7                  23731500.432 7                 124709821.930 7                  97176365.232 7
G19  22514986.708 7  22514988.992 5                                 118317040.054 7  92195107.194 5                
G31  22469713.408 7                  22469717.164 7                 118079140.190 7                  92009738.687 7
R03  21401764.591 8  21401766.970 7 114565308.425 8  89106204.379 7
R04  19228727.567 8  19228728.533 7 102968957.487 8  80087067.956 7
R05  21180105.486 8  21180108.267 7 113219823.926 8  88059888.193 7
R12  23289504.507 7  23289508.244 7 124408432.150 7  96762081.936 7
R13  22348695.406 7                 119340809.932 7
R18  23431908.058 5                 125081189.101 5
R19  20001515.466 8  20001516.372 8 106994613.097 8  83218007.381 8
R20  20505562.063 6  20505566.546 7 109652471.993 6  85285274.314 7
> 2025 06 15 15 12  0.0000000  0 36
C05  39173831.194 6  39173828.139 6 203988389.771 6 157736778.426 6
C06  38223676.290 6  38223671.061 6 199040720.868 6 153910889.128 6
C09  38376989.198 7  38376987.110 7 199839052.259 7 154528234.552 7
C11  23119196.240 7  23119192.932 8 120387692.116 7  93091509.343 8
C12  23735818.229 7  23735816.491 8 123598596.205 7  95574114.593 8
C16  38863317.346 7  38863318.081 7 202371476.997 7 156486465.287 7
C21  21917412.189 8                 114129701.799 8
C22  22944192.016 8                 119476408.881 8
C34  22893461.119 7                 119212241.865 7
C36  24741493.056 7                 128835464.022 7
C39  39081191.288 7                 203506019.818 7
C42  24701058.213 7                 128624919.353 7
C43  24176182.715 8                 125891712.145 8
C44  25219935.420 6                 131326762.441 6
E03  23836789.509 8  23836791.516 9 125263180.569 8  94760798.384 9
E05  22471984.039 8  22471986.379 9 118091081.385 8  89335100.978 9
E08  27720975.576 6  27720981.072 7 145674711.105 6 110201997.688 7
E13  27087643.108 7  27087648.406 8 142346537.565 7 107684255.696 8
E15  23688508.368 8  23688510.935 9 124483951.345 8  94171315.777 9
E34  24472027.792 8  24472030.899 8 128601364.016 8  97286104.747 8
G01  22704176.525 7                  22704181.589 7  22704183.636 8 119311228.210 7                  92969806.263 7  89096065.133 8
G03  20528087.410 8                  20528093.226 7  20528091.317 8 107875818.576 8                  84059104.246 7  80556635.185 8
G04  20134068.303 7                  20134072.451 8  20134073.474 9 105805244.867 7                  82445667.006 8  79010433.485 9
G06  22411896.061 7                  22411902.625 7  22411900.754 8 117775322.347 7                  91773008.915 7  87949129.235 8
G09  21634344.695 7                  21634350.508 7  21634349.732 8 113689264.229 7                  88589347.951 7  84897859.061 8
G17  23738685.517 7                  23738691.284 7                 124747610.066 7                  97205810.504 7
G19  22519233.692 7  22519236.262 5                                 118339358.432 7  92212498.127 5                
G31  22473498.072 7                  22473501.884 7                 118099029.391 7                  92025236.738 7
R03  21410210.587 8  21410213.392 7 114610518.407 8  89141367.718 7
R04  19229343.300 8  19229344.650 7 102972254.250 8  80089632.143 7
R05  21171997.028 8  21171999.883 7 113176478.943 8  88026175.443 7
R12  23294028.527 7  23294032.909 7 124432601.572 7  96780880.392 7
R13  22344692.344 6                 119319431.008 6
R18  23444682.626 5                 125149383.158 5
R19  20008192.195 8  20008193.749 7 107030333.194 8  83245789.676 7
R20  20499383.096 6  20499387.007 7 109619429.695 6  85259574.741 7
> 2025 06 15 15 12 15.0000000  0 36
C05  39173686.658 6  39173683.064 6 203987635.301 6 157736195.025 6
C06  38223583.323 7  38223577.266 7 199040233.061 7 153910511.929 7
C09  38375323.958 7  38375321.811 7 199830381.730 7 154521529.960 7
C11  23118697.631 7  23118694.503 8 120385096.790 7  93089502.469 8
C12  23743739.687 7  23743738.398 8 123639847.392 7  95606012.579 8
C16  38863629.088 7  38863629.454 7 202373098.817 7 156487719.374 7
C21  21915640.939 8                 114120479.044 8
C22  22950117.081 8                 119507261.069 8
C34  22897790.833 8                 119234784.241 8
C36  24737989.405 7                 128817220.854 7
C39  39082774.936 7                 203514264.987 7
C42  24693303.454 7                 128584539.064 7
C43  24172091.604 7                 125870409.142 7
C44  25229550.735 6                 131376853.675 6
E03  23832426.818 8  23832429.050 9 125240255.660 8  94743455.865 9
E05  22475537.776 8  22475540.188 9 118109756.686 8  89349228.729 9
E08  27712372.367 6  27712377.822 7 145629501.021 6 110167796.636 7
E13  27079371.641 7  27079376.996 8 142303071.210 7 107651373.718 8
E15  23686355.777 8  23686358.483 9 124472639.974 8  94162758.795 9
E34  24477949.488 8  24477952.409 9 128632481.507 8  97309644.902 9
G01  22713707.610 7                  22713712.787 7  22713714.744 8 119361313.782 7                  93008833.936 7  89133466.635 8
G03  20532704.054 8                  20532709.306 7  20532708.031 8 107900078.789 8                  84078008.308 7  80574751.578 8
G04  20131914.618 7                  20131918.402 8  20131919.406 9 105793925.247 7                  82436846.535 8  79001980.521 9
G06  22404396.933 7                  22404403.015 7  22404401.434 8 117735913.961 7                  91742301.091 7  87919700.908 8
G09  21626201.016 7                  21626206.510 7  21626205.923 8 113646468.171 7                  88556000.378 7  84865901.005 8
G17  23745887.013 7                  23745892.696 7                 124785453.608 7                  97235298.889 7
G19  22523505.224 7  22523507.706 5                                 118361805.114 7  92229989.010 5                
G31  22477309.916 7                  22477314.206 7                 118119061.957 7                  92040846.534 7
R03  21418662.837 8  21418665.793 7 114655764.177 8  89176558.848 7
R04  19229979.924 8  19229980.959 7 102975661.250 8  80092282.021 7
R05  21163901.678 7  21163905.344 7 113133206.536 7  87992519.153 7
R12  23298584.387 7  23298588.534 7 124456937.536 7  96799808.326 7
R13  22340720.914 6                 119298226.797 6
R18  23457459.139 4                                
R19  20014901.147 8  20014902.278 7 107066218.300 8  83273700.276 7
R20  20493235.621 6  20493239.537 7 109586555.297 6  85234005.785 7
> 2025 06 15 15 12 30.0000000  0 36
C05  39173541.246 6  39173537.463 6 203986877.331 6 157735608.908 6
C06  38223495.910 7  38223490.244 7 199039778.325 7 153910160.299 7
C09  38373665.147 7  38373662.632 7 199821743.254 7 154514850.143 7
C11  23118223.803 7  23118220.876 8 120382629.279 7  93087594.426 8
C12  23751674.945 7  23751673.639 8 123681167.101 7  95637963.562 8
C16  38863946.438 7  38863946.832 7 202374751.460 7 156488997.324 7
C21  21913883.541 8                 114111327.322 8
C22  22956049.279 8                 119538152.884 8
C34  22902140.281 7                 119257434.626 7
C36  24734506.803 7                 128799084.605 7
C39  39084363.278 7                 203522536.837 7
C42  24685554.550 7                 128544189.624 7
C43  24168022.373 7                 125849218.491 7
C44  25239172.211 6                 131426954.940 6
E03  23828077.905 8  23828080.370 9 125217403.159 8  94726168.124 9
E05  22479103.893 8  22479106.226 9 118128496.306 8  89363405.125 9
E08  27703772.381 6  27703778.110 7 145584309.473 6 110133609.618 7
E13  27071105.319 7  27071110.175 8 142259629.092 7 107618510.075 8
E15  23684220.383 8  23684223.020 9 124461417.953 8  94154269.415 9
E34  24483884.263 8  24483887.264 9 128663669.373 8  97333238.296 9
G01  22723249.442 7                  22723254.686 7  22723256.674 8 119411456.939 7                  93047906.478 7  89170911.127 8
G03  20537336.102 8                  20537341.770 7  20537340.268 8 107924421.354 8                  84096976.513 7  80592929.440 8
G04  20129782.755 7                  20129786.242 8  20129787.529 9 105782722.600 7                  82428117.199 8  78993614.916 9
G06  22396915.113 7                  22396921.326 7  22396919.557 8 117696597.595 7                  91711664.983 7  87890341.304 8
G09  21618071.924 7                  21618076.988 7  21618076.427 8 113603747.736 7                  88522711.761 7  84833999.425 8
G17  23753099.603 7                  23753105.194 7                 124823356.432 7                  97264833.537 7
G19  22527801.668 7  22527804.306 5                                 118384383.741 7  92247582.737 5                
G28  24509582.213 4                  24509584.352 5  24509587.710 5 128798706.07414                 100362665.564 5  96180859.896 5
G31  22481149.983 7                  22481154.733 7                 118139242.176 7                  92056571.380 7
R03  21427121.720 7  21427125.448 7 114701050.007 7  89211781.120 7
R04  19230637.546 8  19230638.668 7 102979182.489 8  80095020.768 7
R05  21155821.468 8  21155824.615 7 113090011.222 8  87958922.849 7
R12  23303172.295 7  23303176.659 7 124481444.020 7  96818868.890 7
R13  22336783.816 6                 119277202.291 6
R19  20021640.321 8  20021642.084 8 107102272.436 8  83301742.345 8
R20  20487120.063 6  20487124.793 7 109553853.953 6  85208571.416 7
> 2025 06 15 15 12 45.0000000  0 37
C05  39173394.224 6  39173390.787 6 203986114.109 6 157735018.744 6
C06  38223414.351 7  38223408.992 7 199039354.809 7 153909832.817 7
C09  38372012.211 7  38372009.625 7 199813135.006 7 154508193.727 7
C11  23117774.103 7  23117771.252 8 120380287.898 7  93085783.912 8
C12  23759623.111 7  23759621.256 8 123722553.337 7  95669965.982 8
C16  38864269.043 7  38864269.737 7 202376433.139 7 156490297.718 7
C21  21912139.436 8                 114102244.866 8
C22  22961989.149 8                 119569082.448 8
C34  22906510.389 8                 119280191.088 8
C36  24731044.038 7                 128781053.649 7
C39  39085956.517 7                 203530833.616 7
C42  24677811.375 7                 128503869.368 7
C43  24163974.450 7                 125828138.549 7
C44  25248795.254 6                 131477064.162 6
C45  25720247.360 6                 133932066.86416
E03  23823742.919 8  23823745.145 9 125194621.344 8  94708933.837 9
E05  22482681.651 8  22482684.117 9 118147298.375 8  89377628.766 9
E08  27695176.245 6  27695181.623 7 145539134.831 6 110099435.424 7
E13  27062842.527 7  27062847.620 8 142216209.593 7 107585663.546 8
E15  23682101.511 8  23682104.269 9 124450283.614 8  94145846.378 9
E34  24489832.107 8  24489835.211 9 128694925.747 8  97356883.516 9
G01  22732801.929 7                  22732807.136 7  22732809.285 8 119461655.639 7                  93087022.295 7  89208397.104 8
G03  20541983.910 8                  20541989.320 7  20541987.600 8 107948844.393 8                  84116007.451 7  80611167.428 8
G04  20127673.009 7                  20127675.808 8  20127677.597 9 105771635.110 7                  82419477.630 8  78985335.335 9
G06  22389450.452 7                  22389457.053 7  22389455.161 8 117657371.807 7                  91681099.456 7  87861049.351 8
G09  21609956.315 7                  21609961.678 7  21609961.012 8 113561101.280 7                  88489480.826 7  84802153.099 8
G17  23760323.532 7                  23760329.089 7                 124861316.509 7                  97294412.770 7
G19  22532123.061 7  22532125.341 5                                 118407092.524 7  92265277.870 5                
G28  24517308.482 4                                  24517314.427 6 128839313.06314                                  96211183.339 6
G31  22485017.814 7                  22485022.240 7                 118159568.055 7                  92072409.710 7
R03  21435589.597 8  21435592.230 7 114746373.946 8  89247033.037 7
R04  19231315.723 8  19231316.708 7 102982816.063 8  80097846.865 7
R05  21147754.622 8  21147758.348 7 113046891.352 8  87925385.178 7
R12  23307791.301 7  23307795.811 7 124506119.094 7  96838060.632 7
R13  22332880.177 7                 119256355.696 7
R19  20028412.092 8  20028413.017 7 107138493.502 8  83329914.276 7
R20  20481036.388 6  20481041.081 7 109521324.235 6  85183270.532 7
> 2025 06 15 15 13  0.0000000  0 36
C05  39173247.037 6  39173243.908 6 203985346.692 6 157734425.342 6
C06  38223338.936 7  38223333.841 7 199038963.646 7 153909530.342 7
C09  38370365.068 7  38370362.649 7 199804558.104 7 154501561.534 7
C11  23117348.564 7  23117346.059 8 120378073.795 7  93084071.807 8
C12  23767583.553 7  23767582.152 8 123764006.950 7  95702020.523 8
C16  38864598.471 7  38864598.556 7 202378145.021 7 156491621.451 7
C21  21910408.522 8                 114093232.803 8
C22  22967936.217 8                 119600050.802 8
C34  22910900.824 7                 119303054.579 7
C36  24727601.613 7                 128763129.343 7
C39  39087554.726 7                 203539156.398 7
C42  24670074.348 7                 128463579.459 7
C43  24159947.398 7                 125807170.707 7
C44  25258420.519 5                 131527182.272 5
C45  25711586.341 5                 133886966.789 5
E03  23819421.580 8  23819423.596 9 125171911.401 8  94691753.917 9
E05  22486271.753 8  22486274.117 9 118166163.869 8  89391900.391 9
E08  27686583.120 6  27686588.598 7 145493978.475 6 110065274.989 7
E13  27054584.335 7  27054589.605 8 142172814.063 7 107552835.159 8
E15  23679999.468 8  23680002.406 9 124439238.250 8  94137490.631 9
E34  24495792.988 8  24495796.380 9 128726251.664 8  97380581.361 9
G01  22742364.915 7                  22742370.436 7  22742372.571 8 119511910.785 7                  93126182.121 7  89245925.247 8
G03  20546646.855 8                  20546652.560 7  20546650.912 8 107973348.993 8                  84135101.936 7  80629466.316 8
G04  20125585.019 7                  20125588.335 8  20125589.665 9 105760663.963 7                  82410928.688 8  78977142.635 9
G06  22382003.407 7                  22382010.273 8  22382008.370 8 117618238.061 7                  91650605.660 8  87831826.112 8
G09  21601855.124 7                  21601860.477 7  21601859.884 8 113518530.175 7                  88456308.562 7  84770363.023 8
G17  23767558.112 6                  23767563.506 7                 124899334.606 6                  97324037.204 7
G19  22536469.075 7  22536471.779 5                                 118429932.339 7  92283075.105 5                
G31  22488913.647 7                  22488918.141 7                 118180040.385 7                  92088362.198 7
R03  21444063.523 8  21444066.604 7 114791736.620 8  89282315.099 7
R04  19232015.264 8  19232016.475 7 102986562.997 8  80100761.175 7
R05  21139702.623 7  21139705.451 7 113003847.969 7  87891907.023 7
R12  23312442.346 7  23312446.356 7 124530963.349 7  96857383.939 7
R13  22329009.852 6                 119235688.840 6
R19  20035214.754 8  20035215.356 8 107174882.193 8  83358216.548 8
R20  20474986.062 6  20474990.380 7 109488968.331 6  85158104.862 7
> 2025 06 15 15 13 15.0000000  0 36
C05  39173100.166 6  39173096.779 6 203984581.854 6 157733833.920 6
C06  38223271.725 6  38223266.123 7 199038611.544 6 153909258.076 7
C09  38368724.979 7  38368722.658 7 199796019.398 7 154494958.882 7
C11  23116949.249 7  23116946.478 8 120375993.726 7  93082463.361 8
C12  23775558.563 7  23775557.024 8 123805534.393 7  95734132.153 8
C16  38864933.699 7  38864934.363 7 202379893.731 7 156492973.670 7
C21  21908692.660 8                 114084297.860 8
C22  22973892.049 8                 119631064.542 8
C34  22915313.430 7                 119326031.644 7
C36  24724181.202 7                 128745318.526 7
C39  39089159.353 7                 203547511.827 7
C42  24662344.085 7                 128423326.722 7
C43  24155943.728 7                 125786321.773 7
C44  25268047.878 6                 131577315.678 6
C45  25702931.776 5                 133841900.601 5
E03  23815115.247 8  23815116.984 9 125149280.113 8  94674633.506 9
E05  22489875.149 8  22489877.430 9 118185099.475 8  89406225.032 9
E08  27677994.897 6  27678000.351 7 145448847.102 6 110031133.518 7
E13  27046332.119 7  27046337.523 8 142129449.483 7 107520030.175 8
E15  23677916.052 8  23677918.782 9 124428288.759 8  94129207.420 9
E34  24501768.482 8  24501772.044 9 128757653.834 8  97404336.863 9
G01  22751940.314 7                  22751946.060 7  22751947.839 8 119562228.900 7                  93165391.003 7  89283500.410 8
G03  20551326.930 8                  20551332.417 7  20551330.795 8 107997941.883 8                  84154265.203 7  80647831.120 8
G04  20123520.633 7                  20123524.355 8  20123525.050 9 105749815.951 7                  82402475.689 8  78969041.840 9
G06  22374575.330 7                  22374582.397 8  22374580.384 8 117579203.460 7                  91620189.106 8  87802676.916 8
G09  21593769.435 7                  21593775.244 7  21593774.237 8 113476041.317 7                  88423200.404 7  84738634.371 8
G17  23774805.046 6                  23774810.289 7                 124937417.212 6                  97353711.920 7
G19  22540841.666 6  22540844.334 5                                 118452909.555 6  92300979.410 5                
G31  22492838.623 7                  22492843.094 7                 118200665.901 7                  92104434.032 7
R03  21452546.099 8  21452549.162 7 114837144.599 8  89317632.402 7
R04  19232737.855 8  19232738.775 7 102990429.971 8  80103768.812 7
R05  21131665.887 7  21131668.924 7 112960888.261 7  87858493.941 7
R12  23317126.066 7  23317130.411 7 124555983.646 7  96876844.137 7
R13  22325173.959 6                 119215208.471 6
R19  20042049.776 8  20042050.746 7 107211444.825 8  83386654.122 7
R20  20468968.737 6  20468973.379 7 109456792.955 6  85133079.583 7
> 2025 06 15 15 13 30.0000000  0 36
C05  39172954.399 6  39172950.241 6 203983821.098 6 157733245.666 6
C06  38223211.560 7  38223206.435 7 199038299.957 7 153909017.142 7
C09  38367093.030 7  38367090.515 7 199787520.189 7 154488386.763 7
C11  23116576.058 7  23116572.908 8 120374049.117 7  93080959.686 8
C12  23783548.024 7  23783546.498 8 123847136.800 7  95766301.731 8
C16  38865277.183 7  38865277.975 7 202381680.678 7 156494355.459 7
C21  21906991.905 8                 114075441.417 8
C22  22979856.761 8                 119662125.015 8
C34  22919748.014 7                 119349123.524 7
C36  24720783.178 6                 128727622.946 6
C39  39090770.626 7                 203555901.336 7
C42  24654621.620 7                 128383112.684 7
C43  24151962.792 7                 125765593.341 7
C44  25277679.090 5                 131627465.566 5
C45  25694283.157 5                 133796869.976 5
E03  23810823.364 8  23810825.608 9 125126728.989 8  94657573.723 9
E05  22493492.047 8  22493494.335 9 118204106.442 8  89420603.679 9
E08  27669410.995 6  27669417.155 7 145403742.370 6 109997012.191 7
E13  27038086.501 7  27038091.712 8 142086117.522 7 107487249.867 8
E15  23675850.764 8  23675853.726 9 124417436.744 8  94120997.937 9
E34  24507759.141 8  24507762.450 9 128789133.565 8  97428151.061 9
G01  22761527.966 7                  22761533.899 7  22761535.282 8 119612611.163 7                  93204649.876 7  89321123.502 8
G03  20556023.622 8                  20556029.185 7  20556027.516 8 108022624.439 8                  84173498.387 7  80666262.891 8
G04  20121479.814 7                  20121483.883 8  20121484.307 9 105739092.483 7                  82394119.756 8  78961034.048 9
G06  22367166.836 7                  22367173.540 7  22367171.459 8 117540269.752 7                  91589851.175 7  87773603.069 8
G09  21585700.421 7                  21585705.928 7  21585704.570 8 113433636.392 7                  88390157.617 7  84706968.370 8
G17  23782064.407 6                  23782069.918 7                 124975565.453 6                  97383437.769 7
G19  22545240.976 7  22545243.323 5                                 118476025.415 7  92318991.766 5                
G31  22496792.876 7                  22496797.508 7                 118221445.806 7                  92120626.152 7
R03  21461037.274 7  21461041.373 7 114882599.733 7  89352986.385 7
R04  19233482.976 8  19233483.460 7 102994418.552 8  80106871.049 7
R05  21123645.224 8  21123648.355 7 112918013.806 8  87825147.208 7
R12  23321843.209 7  23321848.007 7 124581181.151 7  96896442.229 7
R13  22321374.256 6                 119194916.644 6
R19  20048917.383 8  20048918.804 8 107248182.896 8  83415228.170 8
R20  20462986.331 6  20462990.260 7 109424799.665 6  85108195.939 7
> 2025 06 15 15 13 45.0000000  0 36
C05  39172807.829 6  39172804.187 6 203983056.932 6 157732654.767 6
C06  38223157.759 6  38223153.152 7 199038021.390 6 153908801.744 7
C09  38365466.784 7  38365464.393 7 199779053.084 7 154481839.452 7
C11  23116227.251 7  23116224.227 8 120372232.463 7  93079554.938 8
C12  23791550.183 7  23791548.865 8 123888806.507 7  95798523.349 8
C16  38865626.372 7  38865627.206 7 202383498.382 7 156495761.038 7
C21  21905304.853 8                 114066656.050 8
C22  22985829.588 8                 119693224.653 8
C34  22924203.399 7                 119372322.582 7
C36  24717405.690 6                 128710035.110 6
C39  39092386.773 7                 203564317.399 7
C42  24646905.041 7                 128342929.864 7
C43  24148003.960 7                 125744978.133 7
C44  25287312.278 5                 131677624.279 5
C45  25685641.409 5                 133751867.525 5
E03  23806545.985 8  23806548.093 9 125104250.513 8  94640568.921 9
E05  22497121.107 8  22497123.391 9 118223177.158 8  89435030.536 9
E08  27660831.688 6  27660837.630 7 145358656.948 6 109962905.425 7
E13  27029845.468 7  27029850.684 8 142042810.811 7 107454488.670 8
E15  23673803.229 8  23673805.808 9 124406674.781 8  94112856.578 9
E34  24513763.035 8  24513766.162 9 128820683.294 8  97452018.188 9
G01  22771126.729 7                  22771132.019 7  22771133.373 8 119663049.840 7                  93243952.699 7  89358788.687 8
G03  20560736.346 8                  20560741.679 7  20560740.121 8 108047389.027 8                  84192795.452 7  80684755.919 8
G04  20119461.850 7                  20119465.444 8  20119466.301 9 105728486.039 7                  82385855.001 8  78953113.638 9
G06  22359776.193 7                  22359782.648 7  22359780.524 8 117501429.732 7                  91559586.259 7  87744599.178 8
G09  21577645.136 7                  21577650.771 7  21577649.803 8 113391307.928 7                  88357174.438 7  84675359.488 8
G17  23789335.041 6                  23789340.666 7                 125013771.458 6                  97413208.600 7
G19  22549664.431 6  22549666.839 5                                 118499272.225 6  92337106.124 5                
G31  22500775.399 7                  22500779.333 7                 118242372.297 7                  92136932.532 7
R03  21469535.859 7  21469540.018 7 114928093.786 7  89388370.639 7
R04  19234248.556 8  19234249.704 7 102998520.749 8  80110061.646 7
R05  21115639.225 8  21115642.428 7 112875216.985 8  87791860.831 7
R12  23326592.042 7  23326596.291 7 124606547.854 7  96916171.848 7
R13  22317607.953 6                 119174806.046 6
R19  20055816.444 8  20055817.619 8 107285088.348 8  83443932.390 8
R20  20457036.228 6  20457040.489 7 109392981.627 6  85083448.589 7
> 2025 06 15 15 14  0.0000000  0 36
C05  39172660.870 6  39172657.643 6 203982293.428 6 157732064.382 6
C06  38223111.476 6  38223106.764 6 199037779.692 6 153908614.863 6
C09  38363847.701 7  38363845.414 7 199770622.093 7 154475320.083 7
C11  23115903.829 7  23115900.879 8 120370547.956 7  93078252.381 8
C12  23799566.439 7  23799564.706 8 123930547.263 7  95830799.912 8
C16  38865982.061 7  38865982.774 7 202385350.916 7 156497193.552 7
C21  21903632.248 8                 114057945.787 8
C22  22991809.997 8                 119724367.433 8
C34  22928679.767 7                 119395632.694 7
C36  24714049.734 7                 128692559.481 7
C39  39094008.986 7                 203572764.039 7
C42  24639194.703 7                 128302782.469 7
C43  24144067.736 7                 125724480.407 7
C44  25296949.115 6                 131727795.482 6
C45  25677005.780 4                 133706897.99014
E03  23802283.229 8  23802285.146 9 125081848.840 8  94623622.220 9
E05  22500763.039 8  22500765.295 9 118242315.517 8  89449508.592 9
E08  27652256.416 6  27652262.556 7 145313594.943 6 109928816.383 7
E13  27021610.091 7  27021615.316 8 141999533.694 7 107421749.848 8
E15  23671773.226 8  23671775.838 9 124396007.085 8  94104786.543 9
E34  24519781.099 8  24519783.886 9 128852306.958 8  97475941.269 9
G01  22780736.031 7                  22780741.355 7  22780742.965 8 119713548.788 7                  93283302.476 7  89396498.885 8
G03  20565465.269 8                  20565470.727 7  20565469.005 8 108072239.729 8                  84212159.632 7  80703313.260 8
G04  20117466.912 7                  20117469.952 8  20117471.142 9 105718000.685 7                  82377684.595 8  78945283.685 9
G06  22352403.504 7                  22352409.656 7  22352408.477 8 117462687.837 7                  91529397.775 7  87715668.547 8
G09  21569606.283 7                  21569611.440 7  21569610.512 8 113349060.268 7                  88324254.178 7  84643810.938 8
G17  23796617.143 6                  23796622.305 7                 125052038.792 6                  97443027.294 7
G19  22554113.678 7  22554115.792 5                                 118522653.753 7  92355325.475 5                
G31  22504786.248 7                  22504790.011 7                 118263449.331 7                  92153356.163 7
R03  21478042.934 7  21478046.110 7 114973630.900 7  89423788.333 7
R04  19235036.363 8  19235037.716 7 103002740.637 8  80113343.789 7
R05  21107648.447 8  21107652.030 7 112832502.158 8  87758638.240 7
R12  23331372.852 6  23331377.214 7 124632087.712 6  96936036.163 7
R13  22313876.668 7                 119154880.896 7
R19  20062747.618 8  20062748.537 7 107322165.158 8  83472769.888 7
R20  20451119.710 6  20451123.544 7 109361343.594 6  85058841.243 7
> 2025 06 15 15 14 15.0000000  0 36
C05  39172513.075 6  39172509.661 6 203981523.779 6 157731469.244 6
C06  38223070.753 6  38223066.343 7 199037568.285 6 153908451.383 7
C09  38362234.574 7  38362231.793 7 199762220.449 7 154468823.394 7
C11  23115604.269 7  23115601.585 8 120368988.839 7  93077046.777 8
C12  23807594.405 7  23807592.771 8 123972351.963 7  95863125.919 8
C16  38866342.785 7  38866344.043 7 202387231.375 7 156498647.634 7
C21  21901972.617 8                 114049303.813 8
C22  22997797.377 8                 119755546.428 8
C34  22933176.272 7                 119419046.892 7
C36  24710713.402 6                 128675189.300 6
C39  39095635.660 7                 203581234.438 7
C42  24631490.450 7                 128262663.752 7
C43  24140152.418 7                 125704093.462 7
C44  25306583.439 5                 131777972.193 5
C45  25668371.852 4                 133661954.73114
E03  23798033.782 8  23798035.536 9 125059517.106 8  94606728.442 9
E05  22504416.599 8  22504418.766 9 118261514.612 8  89464032.570 9
E08  27643684.903 6  27643690.725 7 145268549.614 6 109894739.955 7
E13  27013378.978 7  27013384.318 8 141956279.516 7 107389028.369 8
E15  23669759.892 8  23669762.527 9 124385426.941 8  94096782.732 9
E34  24525811.443 8  24525814.382 9 128883997.614 8  97499915.027 9
G01  22790355.941 7                  22790361.084 7  22790362.471 8 119764100.854 7                  93322693.656 7  89434248.748 8
G03  20570209.098 8                  20570214.801 7  20570213.000 8 108097169.578 8                  84231585.473 7  80721929.685 8
G04  20115493.049 7                  20115496.553 8  20115497.624 9 105707629.522 7                  82369603.186 8  78937539.025 9
G06  22345048.701 7                  22345055.193 7  22345053.423 8 117424037.472 7                  91499280.625 7  87686806.289 8
G09  21561580.720 7                  21561585.827 7  21561585.332 8 113306886.676 7                  88291391.660 7  84612317.704 8
G17  23803909.478 6                  23803914.584 7                 125090360.434 6                  97472888.277 7
G19  22558587.189 7  22558589.576 5                                 118546162.825 7  92373644.200 5                
G31  22508824.319 7                  22508828.125 7                 118284669.701 7                  92169891.534 7
R03  21486556.480 8  21486559.234 7 115019203.785 8  89459233.875 7
R04  19235845.420 8  19235846.273 7 103007071.176 8  80116711.985 7
R05  21099672.012 7  21099675.259 7 112789862.620 7  87725474.159 7
R12  23336184.771 6  23336189.101 7 124657793.374 6  96956029.452 7
R13  22310178.552 6                 119135134.792 6
R19  20069709.152 8  20069710.592 7 107359405.761 8  83501734.790 7
R20  20445235.460 6  20445239.486 7 109329878.534 6  85034368.439 7
> 2025 06 15 15 14 30.0000000  0 35
C05  39172364.902 6  39172361.280 6 203980750.580 6 157730871.363 6
C06  38223035.993 6  38223031.732 6 199037389.641 6 153908313.243 6
C09  38360627.224 7  38360624.662 7 199753850.716 7 154462351.387 7
C11  23115329.453 7  23115327.127 8 120367557.678 7  93075940.104 8
C12  23815635.238 7  23815633.321 8 124014222.974 7  95895503.233 8
C16  38866709.598 7  38866711.078 7 202389142.404 7 156500125.372 7
C21  21900326.339 8                 114040732.757 8
C22  23003792.735 8                 119786764.163 8
C34  22937693.034 8                 119442567.590 8
C36  24707398.622 7                 128657927.393 7
C39  39097267.088 7                 203589731.095 7
C42  24623791.833 7                 128222576.373 7
C43  24136259.307 7                 125683820.115 7
C44  25316219.758 5                 131828156.691 5
E03  23793798.102 8  23793799.766 9 125037258.009 8  94589889.592 9
E05  22508082.069 8  22508084.253 9 118280776.869 8  89478604.348 9
E08  27635116.714 6  27635122.574 7 145223523.722 6 109860678.249 7
E13  27005153.380 7  27005158.137 8 141913051.081 7 107356326.381 8
E15  23667763.608 8  23667766.399 9 124374937.098 8  94088847.232 9
E34  24531855.225 8  24531858.254 9 128915757.823 8  97523941.399 9
G01  22799986.431 7                  22799991.267 7  22799992.891 8 119814708.392 7                  93362128.062 7  89472040.032 8
G03  20574968.800 8                  20574974.322 7  20574972.808 8 108122181.159 8                  84251075.009 7  80740607.151 8
G04  20113541.368 7                  20113545.452 8  20113546.121 9 105697375.218 7                  82361612.822 8  78929881.613 9
G06  22337711.542 7                  22337718.236 7  22337716.559 8 117385481.592 7                  91469237.107 7  87658014.583 8
G09  21553570.233 7                  21553574.955 7  21553574.714 8 113264789.886 7                  88258589.021 7  84580881.859 8
G17  23811212.140 7                  23811217.827 6                 125128738.563 7                  97502793.230 6
G19  22563085.943 6  22563087.977 5                                 118569801.597 6  92392064.018 5                
G31  22512889.844 7                  22512894.470 7                 118306036.107 7                  92186540.618 7
R03  21495076.758 8  21495079.757 7 115064814.840 8  89494709.118 7
R04  19236675.252 8  19236676.371 7 103011514.843 8  80120168.175 7
R05  21091710.031 7  21091713.452 7 112747300.725 7  87692370.537 7
R12  23341028.589 7  23341033.551 7 124683667.386 7  96976153.548 7
R13  22306515.175 6                 119115570.479 6
R19  20076701.990 8  20076703.198 7 107396812.392 8  83530828.781 7
R20  20439384.273 6  20439388.490 7 109298589.778 6  85010032.750 7
> 2025 06 15 15 14 45.0000000  0 36
C05  39172216.350 6  39172212.205 6 203979976.376 6 157730272.706 6
C06  38223009.345 7  38223003.898 7 199037246.242 7 153908202.364 7
C09  38359026.824 7  38359024.011 7 199745515.428 7 154455906.009 7
C11  23115079.917 7  23115076.995 8 120366256.978 7  93074934.311 8
C12  23823689.173 7  23823687.102 8 124056162.537 7  95927933.544 8
C16  38867083.332 7  38867084.635 7 202391086.380 7 156501628.591 7
C21  21898694.463 8                 114032235.031 8
C22  23009795.426 8                 119818023.015 8
C34  22942231.263 8                 119466197.059 8
C36  24704104.805 7                 128640776.397 7
C39  39098904.366 7                 203598256.502 7
C42  24616100.724 7                 128182522.886 7
C43  24132388.162 7                 125663662.942 7
C44  25325859.294 5                 131878351.312 5
C45  25651128.447 5                 133572149.72015
E03  23789576.692 8  23789578.293 9 125015074.100 8  94573107.611 9
E05  22511759.910 8  22511762.217 8 118300104.672 8  89493225.698 8
E08  27626552.548 6  27626558.601 7 145178519.878 6 109826633.247 7
E13  26996932.547 7  26996937.368 8 141869851.091 7 107323645.904 8
E15  23665785.325 8  23665787.949 9 124364540.164 8  94080982.039 9
E34  24537912.366 8  24537915.752 8 128947589.953 8  97548022.193 8
G01  22809627.681 7                  22809632.738 7  22809634.155 8 119865373.670 7                  93401607.442 7  89509874.454 8
G03  20579744.316 8                  20579749.703 7  20579748.067 8 108147276.873 8                  84270630.102 7  80759347.457 8
G04  20111612.557 7                  20111616.936 8  20111617.283 9 105687240.271 7                  82353715.457 8  78922313.295 9
G06  22330393.334 7                  22330399.832 7  22330398.200 8 117347023.038 7                  91439269.403 7  87629295.556 8
G09  21545574.461 7                  21545579.660 7  21545578.828 8 113222772.682 7                  88225848.377 7  84549505.418 8
G17  23818526.770 7                  23818532.469 7                 125167175.398 7                  97532743.963 7
G19  22567609.010 7  22567611.644 5                                 118593572.611 7  92410586.876 5                
G31  22516984.014 7                  22516988.301 7                 118327550.787 7                  92203305.291 7
R03  21503604.579 8  21503607.860 7 115110466.268 8  89530215.792 7
R04  19237526.685 8  19237527.527 7 103016074.188 8  80123714.314 7
R05  21083762.977 8  21083765.576 7 112704819.421 8  87659329.546 7
R12  23345904.539 7  23345909.057 7 124709711.622 7  96996410.219 7
R13  22302886.267 6                 119096190.977 6
R19  20083726.330 8  20083727.561 7 107434387.205 8  83560053.635 7
R20  20433566.078 6  20433570.425 7 109267480.113 6  84985836.335 7
> 2025 06 15 15 15  0.0000000  0 36
C05  39172067.582 6  39172064.057 6 203979202.478 6 157729674.290 6
C06  38222988.163 7  38222983.338 7 199037139.355 7 153908119.703 7
C09  38357432.453 7  38357430.055 7 199737215.888 7 154449488.281 7
C11  23114855.430 7  23114852.305 8 120365088.140 7  93074030.492 8
C12  23831756.853 7  23831754.887 7 124098171.600 7  95960417.596 7
C16  38867462.993 7  38867464.623 7 202393064.673 7 156503158.327 7
C21  21897077.267 8                 114023811.996 8
C22  23015806.186 8                 119849324.163 8
C34  22946789.816 7                 119489936.471 7
C36  24700832.328 6                 128623737.824 6
C39  39100547.558 7                 203606811.897 7
C42  24608415.292 7                 128142504.654 7
C43  24128539.995 7                 125643623.471 7
C44  25335500.819 5                 131928557.014 5
C45  25642515.366 5                 133527301.342 5
E03  23785369.782 8  23785371.399 9 124992966.722 8  94556383.521 9
E05  22515450.359 8  22515452.875 9 118319499.218 8  89507897.540 9
E08  27617993.344 6  27617998.975 7 145133539.561 6 109792606.022 7
E13  26988717.801 7  26988722.309 8 141826681.077 7 107290988.129 8
E15  23663824.662 8  23663827.452 9 124354237.636 8  94073188.249 9
E34  24543983.790 8  24543987.189 8 128979495.298 8  97572158.338 8
G01  22819280.228 7                  22819285.169 7  22819286.720 7 119916097.777 7                  93441132.664 7  89547752.794 7
G03  20584535.926 8                  20584542.075 7  20584539.785 8 108172457.979 8                  84290251.759 7  80778151.524 8
G04  20109707.377 7                  20109711.453 8  20109711.607 9 105677225.979 7                  82345912.118 8  78914835.077 9
G06  22323093.574 7                  22323100.077 7  22323098.298 8 117308663.483 7                  91409378.831 7  87600650.429 8
G09  21537594.005 7                  21537599.326 7  21537598.785 8 113180836.495 7                  88193170.850 7  84518189.463 8
G17  23825852.330 7                  23825857.692 6                 125205672.091 7                  97562741.352 6
G19  22572157.634 7  22572160.506 5                                 118617476.898 7  92429213.579 5                
G31  22521106.589 7                  22521111.057 7                 118349214.861 7                  92220186.391 7
R03  21512140.109 7  21512144.001 7 115156159.679 7  89565755.086 7
R04  19238399.887 8  19238400.481 7 103020750.272 8  80127351.278 7
R05  21075831.096 8  21075833.933 7 112662420.141 8  87626352.311 7
R12  23350812.028 7  23350816.381 7 124735927.427 7  97016800.314 7
R13  22299291.616 7                 119076997.495 7
R19  20090782.308 8  20090783.618 8 107472131.221 8  83589410.064 8
R20  20427782.717 6  20427787.079 7 109236551.668 6  84961780.877 7
> 2025 06 15 15 15 15.0000000  0 36
C05  39171918.461 6  39171915.475 6 203978428.894 6 157729076.104 6
C06  38222974.906 7  38222969.895 7 199037069.064 7 153908065.354 7
C09  38355845.699 7  38355843.164 7 199728952.146 7 154443098.246 7
C11  23114656.531 7  23114652.805 8 120364051.196 7  93073228.668 8
C12  23839837.270 7  23839835.967 8 124140250.081 7  95992955.309 8
C16  38867850.104 7  38867850.802 7 202395077.246 7 156504714.571 7
C21  21895473.578 8                 114015463.686 8
C22  23021825.855 8                 119880667.639 8
C34  22951370.019 7                 119513785.689 7
C36  24697582.208 7                 128606811.927 7
C39  39102196.039 7                 203615397.312 7
C42  24600736.909 7                 128102521.868 7
C43  24124714.326 7                 125623701.879 7
C44  25345145.441 5                 131978773.643 5
C45  25633909.238 6                 133482487.055 6
E03  23781177.129 8  23781179.084 9 124970935.947 8  94539717.392 9
E05  22519153.780 8  22519156.240 9 118338960.417 8  89522619.804 9
E08  27609438.420 6  27609443.905 7 145088582.885 6 109758596.693 7
E13  26980508.082 7  26980513.085 8 141783541.342 7 107258353.212 8
E15  23661882.234 8  23661884.951 9 124344029.693 8  94065466.000 9
E34  24550069.241 8  24550072.614 8 129011473.736 8  97596349.811 8
G01  22828943.573 7                  22828948.795 7  22828950.304 7 119966880.518 7                  93480703.563 7  89585674.927 7
G03  20589344.150 8                  20589349.734 7  20589348.155 8 108197724.504 8                  84309939.920 7  80797019.377 8
G04  20107824.838 7                  20107828.558 8  20107829.249 9 105667332.349 7                  82338202.813 8  78907446.980 9
G06  22315813.027 7                  22315819.341 7  22315817.665 8 117270403.214 7                  91379565.656 7  87572079.475 8
G09  21529629.028 7                  21529634.607 7  21529633.977 8 113138981.534 7                  88160556.593 7  84486934.153 8
G17  23833189.618 7                  23833194.705 6                 125244228.198 7                  97592785.000 6
G19  22576732.081 7  22576735.187 5                                 118641514.181 7  92447943.894 5                
G31  22525257.290 7                  22525261.725 7                 118371028.176 7                  92237183.804 7
R03  21520684.596 8  21520687.734 7 115201894.428 8  89601326.507 7
R04  19239294.949 8  19239295.763 7 103025543.034 8  80131078.989 7
R05  21067915.225 8  21067918.055 7 112620102.976 8  87593438.962 7
R12  23355750.799 6  23355756.058 7 124762314.587 6  97037323.630 7
R13  22295732.205 6                 119057990.771 6
R19  20097869.599 8  20097870.809 7 107510044.244 8  83618897.944 7
R20  20422032.603 6  20422037.230 7 109205803.975 6  84937866.033 7
> 2025 06 15 15 15 30.0000000  0 36
C05  39171770.164 6  39171766.868 6 203977655.451 6 157728478.038 6
C06  38222967.971 7  38222963.111 7 199037035.027 7 153908039.045 7
C09  38354265.276 7  38354263.312 7 199720723.930 7 154436735.674 7
C11  23114482.220 7  23114478.822 8 120363145.914 7  93072528.645 8
C12  23847931.494 7  23847930.097 8 124182397.367 7  96025546.231 8
C16  38868242.692 7  38868243.812 7 202397123.875 7 156506297.154 7
C21  21893885.068 8                 114007189.825 8
C22  23027853.052 8                 119912053.036 8
C34  22955970.704 7                 119537744.250 7
C36  24694353.461 7                 128589998.550 7
C39  39103850.486 7                 203624012.453 7
C42  24593065.097 7                 128062574.278 7
C43  24120911.037 7                 125603898.050 7
C44  25354789.968 5                 132029000.596 5
C45  25625310.008 6                 133437706.779 6
E03  23776999.088 8  23777001.331 9 124948981.550 8  94523109.059 9
E05  22522869.818 8  22522872.187 9 118358487.876 8  89537392.180 9
E08  27600888.048 6  27600893.247 7 145043649.761 6 109724605.150 7
E13  26972304.899 7  26972309.530 8 141740431.766 7 107225741.139 8
E15  23659957.702 8  23659960.397 9 124333916.172 8  94057815.189 9
E34  24556168.217 8  24556171.832 9 129043524.937 8  97620596.302 9
G01  22838618.229 7                  22838623.796 7  22838624.910 7 120017721.341 7                  93520319.731 7  89623640.405 7
G03  20594168.043 8                  20594174.204 7  20594172.319 8 108223076.078 8                  84329694.391 7  80815950.736 8
G04  20105964.898 7                  20105968.551 8  20105969.661 9 105657559.121 7                  82330587.319 8  78900148.820 9
G06  22308551.080 7                  22308557.555 7  22308555.750 8 117232242.286 7                  91349829.921 7  87543582.714 8
G09  21521679.791 7                  21521685.417 7  21521684.439 8 113097207.682 7                  88128005.574 7  84455739.441 8
G17  23840537.529 7                  23840543.154 6                 125282843.247 7                  97622874.615 6
G19  22581331.458 7  22581334.309 5                                 118665683.860 7  92466777.395 5                
G31  22529436.866 7                  22529440.765 7                 118392990.147 7                  92254297.042 7
R03  21529235.943 8  21529238.422 7 115247670.334 8  89636929.978 7
R04  19240211.162 8  19240212.696 7 103030451.948 8  80134897.070 7
R05  21060013.951 8  21060016.702 7 112577867.847 8  87560589.481 7
R12  23360723.223 7  23360728.160 7 124788872.421 7  97057979.711 7
R13  22292207.780 6                 119039170.706 6
R19  20104988.754 8  20104989.954 7 107548125.711 8  83648516.821 7
R20  20416316.736 6  20416320.868 7 109175237.875 6  84914092.453 7
> 2025 06 15 15 15 45.0000000  0 36
C05  39171622.456 6  39171618.660 6 203976885.402 6 157727882.591 6
C06  38222969.385 7  38222964.113 7 199037040.517 7 153908043.300 7
C09  38352692.760 7  38352690.785 7 199712534.493 7 154430403.099 7
C11  23114334.397 7  23114330.974 8 120362375.632 7  93071933.006 8
C12  23856038.730 7  23856037.725 8 124224616.472 7  96058192.667 8
C16  38868643.059 7  38868644.103 7 202399207.757 7 156507908.549 7
C21  21892311.068 8                 113998993.674 8
C22  23033889.288 8                 119943483.552 8
C34  22960593.490 7                 119561815.257 7
C36  24691145.942 6                 128573301.198 6
C39  39105510.974 7                 203632660.556 7
C42  24585401.307 7                 128022665.203 7
C43  24117131.402 7                 125584215.483 7
C44  25364434.994 5                 132079240.928 5
C45  25616718.808 6                 133392964.288 6
E03  23772836.550 8  23772838.765 9 124927106.893 8  94506561.039 9
E05  22526598.800 8  22526601.349 9 118378084.756 8  89552217.093 9
E08  27592342.440 6  27592347.754 7 144998743.563 6 109690633.984 7
E13  26964107.425 7  26964112.396 8 141697355.881 7 107193154.562 8
E15  23658051.434 8  23658054.427 9 124323900.511 8  94050238.410 9
E34  24562282.006 8  24562285.420 9 129075652.129 8  97644900.288 9
G01  22848304.484 7                  22848310.055 7  22848311.469 7 120068623.322 7                  93559983.566 7  89661651.562 7
G03  20599009.624 8                  20599015.139 7  20599013.265 8 108248515.926 8                  84349517.659 7  80834948.020 8
G04  20104128.519 8                  20104132.496 8  20104133.135 9 105647909.625 8                  82323068.213 8  78892943.034 9
G06  22301309.002 7                  22301315.425 7  22301313.713 8 117194184.415 7                  91320174.419 7  87515162.884 8
G09  21513746.878 7                  21513752.062 7  21513751.002 8 113055518.467 7                  88095520.516 7  84424607.909 8
G17  23847897.958 6                  23847903.277 6                 125321520.102 6                  97653012.354 6
G19  22585956.842 7  22585958.871 5                                 118689988.980 7  92485716.442 5                
G31  22533644.890 7                  22533648.937 7                 118415103.993 7                  92271528.609 7
R03  21537795.036 8  21537797.936 7 115293490.337 8  89672567.754 7
R04  19241150.528 8  19241151.343 7 103035480.457 8  80138808.097 7
R05  21052128.471 8  21052131.894 7 112535718.281 8  87527806.548 7
R12  23365727.213 6  23365732.533 7 124815604.085 6  97078771.043 7
R13  22288719.254 7                 119020540.670 7
R19  20112139.678 8  20112140.561 8 107586378.333 8  83678268.840 8
R20  20410635.587 6  20410639.688 7 109144857.382 6  84890463.147 7
> 2025 06 15 15 16  0.0000000  0 36
C05  39171474.928 6  39171471.533 6 203976117.876 6 157727289.100 6
C06  38222977.666 6  38222972.264 7 199037084.656 6 153908077.440 7
C09  38351126.514 7  38351125.196 7 199704382.952 7 154424099.841 7
C11  23114212.126 7  23114208.922 8 120361739.425 7  93071441.051 8
C12  23864160.197 7  23864158.771 7 124266906.271 7  96090893.791 7
C16  38869050.194 7  38869051.347 7 202401327.976 7 156509548.039 7
C21  21890751.571 8                 113990874.349 8
C22  23039933.239 8                 119974958.147 8
C34  22965237.742 7                 119585997.627 7
C36  24687962.931 7                 128556719.104 7
C39  39107178.132 7                 203641340.622 7
C42  24577744.075 7                 127982793.901 7
C43  24113374.261 7                 125564653.381 7
C44  25374083.910 5                 132129493.460 5
C45  25608134.205 6                 133348258.876 6
E03  23768689.047 8  23768691.175 9 124905311.086 8  94490072.678 9
E05  22530341.411 8  22530343.531 9 118397750.010 8  89567093.730 9
E08  27583802.344 6  27583807.240 7 144953863.451 6 109656682.584 7
E13  26955916.831 7  26955921.523 8 141654312.995 7 107160592.937 8
E15  23656164.169 8  23656166.957 9 124313981.964 8  94042735.089 9
E34  24568410.119 8  24568413.306 9 129107854.268 8  97669260.997 9
G01  22858002.117 7                  22858007.947 7  22858009.277 8 120119585.305 7                  93599694.144 7  89699707.536 8
G03  20603867.120 8                  20603873.031 7  20603870.887 8 108274043.146 8                  84369408.952 7  80854010.524 8
G04  20102315.365 8                  20102319.345 8  20102320.023 9 105638382.913 8                  82315644.816 8  78885828.941 9
G06  22294086.319 7                  22294092.942 7  22294091.280 8 117156228.921 7                  91290598.756 7  87486819.525 8
G09  21505829.731 7                  21505834.544 7  21505833.803 8 113013913.124 7                  88063100.786 7  84393538.998 8
G17  23855269.169 7                  23855275.025 6                 125360257.512 7                  97683197.307 6
G19  22590607.511 7  22590609.404 5                                 118714428.249 7  92504759.979 5                
G31  22537881.600 7                  22537885.862 7                 118437368.592 7                  92288877.631 7
R03  21546362.669 8  21546365.854 7 115339353.548 8  89708239.124 7
R04  19242112.048 8  19242112.832 7 103040627.304 8  80142811.201 7
R05  21044259.616 8  21044262.234 7 112493653.317 8  87495089.390 7
R12  23370763.620 6  23370768.319 7 124842508.381 6  97099696.586 7
R13  22285266.202 7                 119002100.477 7
R19  20119322.316 8  20119323.369 7 107624801.185 8  83708153.276 7
R20  20404988.957 6  20404992.846 7 109114661.563 6  84866977.540 7
> 2025 06 15 15 16 15.0000000  0 36
C05  39171328.228 6  39171324.560 6 203975352.790 6 157726697.491 6
C06  38222993.723 7  38222988.348 7 199037167.252 7 153908141.324 7
C09  38349568.956 7  38349567.249 7 199696269.244 7 154417825.818 7
C11  23114115.474 7  23114113.121 8 120361237.189 7  93071052.688 8
C12  23872295.296 7  23872293.721 7 124309266.318 7  96123649.236 7
C16  38869464.549 7  38869465.485 7 202403484.413 7 156511215.536 7
C21  21889206.968 8                 113982831.762 8
C22  23045986.198 8                 120006476.720 8
C34  22969902.732 7                 119610291.081 7
C36  24684799.975 7                 128540252.383 7
C39  39108851.254 7                 203650052.599 7
C42  24570094.678 7                 127942960.302 7
C43  24109640.779 7                 125545211.837 7
C44  25383740.200 5                 132179757.94915
C45  25599555.468 6                 133303590.882 6
E03  23764556.436 8  23764558.573 9 124883594.108 8  94473643.930 9
E05  22534096.512 8  22534098.699 9 118417483.445 8  89582021.934 9
E08  27575266.661 6  27575271.681 7 144909009.570 6 109622750.973 7
E13  26947732.476 7  26947736.985 8 141611303.221 7 107128056.367 8
E15  23654295.052 8  23654297.953 9 124304160.510 8  94035305.235 9
E34  24574552.230 8  24574555.387 9 129140131.194 8  97693678.259 9
G01  22867711.479 7                  22867716.745 7  22867718.568 8 120170606.951 7                  93639451.197 7  89737808.053 8
G03  20608741.691 7                  20608747.021 7  20608744.881 8 108299657.503 7                  84389368.217 7  80873138.133 8
G04  20100526.070 7                  20100529.791 8  20100530.595 9 105628978.870 7                  82308317.019 8  78878806.444 9
G06  22286882.757 7                  22286889.655 7  22286888.205 8 117118376.082 7                  91261103.045 7  87458552.805 8
G09  21497928.620 7                  21497933.066 7  21497932.625 8 112972391.688 7                  88030746.449 7  84362532.770 8
G17  23862652.084 6                  23862657.903 6                 125399054.995 6                  97713429.056 6
G19  22595283.694 6  22595285.528 5                                 118739001.347 6  92523907.829 5                
G31  22542147.472 7                  22542151.398 7                 118459783.644 7                  92306343.934 7
R03  21554938.574 8  21554942.501 7 115385259.368 8  89743943.616 7
R04  19243094.762 8  19243095.741 7 103045892.242 8  80146906.153 7
R05  21036406.646 8  21036409.516 7 112451673.275 8  87462438.251 7
R12  23375832.748 6  23375836.837 7 124869584.958 6  97120756.082 7
R13  22281847.836 6                 118983850.101 6
R19  20126536.770 8  20126538.087 7 107663393.567 8  83738169.565 7
R20  20399376.635 6  20399380.461 7 109084650.202 6  84843635.372 7
> 2025 06 15 15 16 30.0000000  0 36
C05  39171180.698 6  39171177.223 6 203974585.501 6 157726104.192 6
C06  38223016.209 6  38223010.851 7 199037283.651 6 153908231.336 7
C09  38348017.076 7  38348015.203 7 199688188.727 7 154411577.441 7
C11  23114044.141 7  23114041.772 8 120360864.354 7  93070764.387 8
C12  23880443.141 7  23880441.307 8 124351691.762 7  96156455.243 8
C16  38869884.827 7  38869885.551 7 202405672.424 7 156512907.441 7
C21  21887676.743 8                 113974861.202 8
C22  23052046.476 7                 120038034.461 7
C34  22974588.681 7                 119634690.748 7
C36  24681658.835 7                 128523896.578 7
C39  39110529.446 7                 203658791.712 7
C42  24562451.406 7                 127903159.776 7
C43  24105929.625 7                 125525886.314 7
C44  25393397.336 5                 132230029.36715
C45  25590982.841 6                 133258956.010 6
E03  23760437.710 8  23760440.063 9 124861951.290 8  94457271.297 9
E05  22537863.607 8  22537865.912 8 118437280.194 8  89596998.053 8
E08  27566735.067 6  27566740.286 7 144864177.180 6 109588835.700 7
E13  26939553.443 7  26939558.037 8 141568322.071 7 107095541.435 8
E15  23652444.091 8  23652446.599 9 124294431.632 8  94027945.392 9
E34  24580707.196 8  24580710.766 8 129172478.138 8  97718148.477 8
G01  22877430.854 7                  22877436.208 7  22877438.111 8 120221683.267 7                  93679250.871 7  89775949.414 8
G03  20613631.221 7                  20613636.852 7  20613634.981 8 108325354.254 7                  84409391.639 7  80892327.262 8
G04  20098758.809 7                  20098762.791 8  20098763.709 9 105619692.796 7                  82301081.131 8  78871872.037 9
G06  22279698.512 7                  22279704.981 7  22279703.788 8 117080621.472 7                  91231683.903 7  87430359.485 8
G09  21490041.985 7                  21490046.857 7  21490046.463 8 112930949.642 7                  87998453.968 7  84331585.841 8
G17  23870045.571 6                  23870051.303 6                 125437907.539 6                  97743703.729 6
G19  22599984.233 6  22599986.269 5                                 118763703.295 6  92543156.066 5                
G31  22546440.467 7                  22546444.634 7                 118482344.222 7                  92323923.540 7
R03  21563521.755 8  21563524.885 7 115431202.920 8  89779677.460 7
R04  19244099.026 8  19244099.985 7 103051270.701 8  80151089.410 7
R05  21028568.601 8  21028570.803 7 112409773.051 8  87429849.205 7
R12  23380932.286 6  23380937.165 7 124896828.486 6  97141945.496 7
R13  22278464.832 6                 118965784.966 6
R19  20133781.964 8  20133782.947 7 107702150.345 8  83768313.699 7
R20  20393797.815 6  20393802.105 7 109054820.042 6  84820434.146 7
> 2025 06 15 15 16 45.0000000  0 36
C05  39171033.225 6  39171029.553 6 203973815.538 6 157725508.801 6
C06  38223044.823 6  38223039.794 7 199037433.427 6 153908347.155 7
C09  38346471.342 7  38346469.633 7 199680140.866 7 154405354.353 7
C11  23113997.371 7  23113994.855 8 120360620.446 7  93070575.786 8
C12  23888602.142 7  23888601.001 8 124394181.852 7  96189311.233 8
C16  38870310.429 7  38870311.509 7 202407891.490 7 156514623.351 7
C21  21886159.796 8                 113966962.266 8
C22  23058114.329 8                 120069630.796 8
C34  22979294.461 8                 119659196.037 8
C36  24678539.073 7                 128507651.360 7
C39  39112212.964 7                 203667557.579 7
C42  24554814.243 7                 127863392.084 7
C43  24102240.717 7                 125506676.551 7
C44  25403052.843 5                 132280307.064 5
C45  25582416.403 6                 133214353.971 6
E03  23756333.172 8  23756335.573 9 124840382.167 8  94440954.400 9
E05  22541643.031 8  22541645.059 9 118457139.722 8  89612021.641 9
E08  27558207.678 6  27558212.940 7 144819366.104 6 109554936.522 7
E13  26931379.632 7  26931384.392 8 141525369.307 7 107063047.989 8
E15  23650609.875 8  23650612.765 9 124284794.980 8  94020655.325 9
E34  24586875.812 8  24586879.408 9 129204894.521 8  97742671.234 9
G01  22887160.513 7                  22887165.781 7  22887167.781 8 120272813.583 7                  93719092.647 7  89814131.064 8
G03  20618536.824 7                  20618542.436 7  20618540.752 8 108351132.879 7                  84429478.867 7  80911577.521 8
G04  20097014.689 7                  20097018.103 8  20097018.809 9 105610524.221 7                  82293936.796 8  78865025.382 9
G06  22272532.658 7                  22272538.973 7  22272537.772 8 117042965.020 7                  91202341.225 7  87402239.419 8
G09  21482170.533 7                  21482175.836 7  21482175.289 8 112889586.732 7                  87966223.133 7  84300697.967 8
G17  23877449.333 6                  23877455.281 6                 125476814.486 6                  97774020.758 6
G19  22604708.901 6  22604711.166 5                                 118788533.361 6  92562504.147 5                
G31  22550760.965 7                  22550765.076 7                 118505049.576 7                  92341616.020 7
R03  21572110.299 8  21572113.902 7 115477183.716 8  89815440.317 7
R04  19245124.551 8  19245125.817 7 103056761.756 8  80155360.240 7
R05  21020745.185 8  21020748.129 7 112367952.579 8  87397322.171 7
R12  23386062.918 5  23386067.994 6 124924238.322 5  97163264.299 6
R13  22275116.572 6                 118947904.859 6
R19  20141057.872 8  20141059.005 7 107741070.752 8  83798585.104 7
R20  20388253.259 6  20388257.759 7 109025170.602 6  84797373.499 7
> 2025 06 15 15 17  0.0000000  0 36
C05  39170884.319 6  39170880.438 6 203973040.754 6 157724909.699 6
C06  38223080.080 7  38223074.186 6 199037614.250 7 153908486.990 6
C09  38344932.222 7  38344929.911 7 199672123.495 7 154399154.814 7
C11  23113974.483 7  23113972.079 8 120360503.255 7  93070485.179 8
C12  23896773.689 7  23896772.648 8 124436734.095 7  96222215.292 8
C16  38870741.793 7  38870743.255 7 202410139.345 7 156516361.532 7
C21  21884656.059 8                 113959132.685 8
C22  23064188.937 8                 120101263.441 8
C34  22984020.629 7                 119683804.522 7
C36  24675440.286 7                 128491514.716 7
C39  39113900.908 7                 203676347.840 7
C42  24547182.929 7                 127823654.929 7
C43  24098573.509 7                 125487580.479 7
C44  25412709.181 5                 132330588.564 5
C45  25573858.515 6                 133169782.951 6
E03  23752242.251 8  23752244.705 9 124818884.517 8  94424691.592 9
E05  22545433.354 8  22545435.673 9 118477059.565 8  89627090.883 9
E08  27549684.197 6  27549689.201 7 144774574.131 6 109521051.774 7
E13  26923211.110 7  26923215.809 8 141482442.859 7 107030574.445 8
E15  23648793.276 8  23648796.107 9 124275248.396 8  94013433.412 9
E34  24593057.262 8  24593060.797 8 129237377.970 8  97767244.731 8
G01  22896900.693 7                  22896905.282 7  22896907.462 8 120323995.414 7                  93758974.530 7  89852351.176 8
G03  20623457.334 8                  20623462.900 7  20623461.171 8 108376991.070 8                  84449628.113 7  80930887.191 8
G04  20095291.270 8                  20095295.279 8  20095295.991 9 105601470.882 8                  82286882.248 8  78858264.766 9
G06  22265385.184 7                  22265391.625 7  22265390.134 8 117005404.750 7                  91173073.485 7  87374191.168 8
G09  21474314.369 7                  21474319.731 7  21474318.575 8 112848300.790 7                  87934052.320 7  84269867.609 8
G17  23884862.876 6                  23884869.026 7                 125515773.167 6                  97804378.131 7
G19  22609457.725 7  22609460.307 5                                 118813489.007 7  92581950.091 5                
G31  22555108.713 7                  22555112.986 7                 118527897.353 7                  92359419.471 7
R03  21580706.599 8  21580709.671 7 115523198.749 8  89851229.755 7
R04  19246170.648 8  19246171.715 7 103062363.013 8  80159716.794 7
R05  21012936.360 8  21012939.396 7 112326209.474 8  87364855.367 7
R12  23391225.391 6  23391229.844 6 124951812.113 6  97184710.427 6
R13  22271802.484 6                 118930208.064 6
R19  20148363.617 8  20148364.880 7 107780152.315 8  83828981.826 7
R20  20382742.036 6  20382746.230 7 108995699.739 6  84774451.744 7
> 2025 06 15 15 17 15.0000000  0 36
C05  39170735.414 6  39170731.744 6 203972267.198 6 157724311.535 6
C06  38223121.269 7  38223115.842 7 199037832.393 7 153908655.665 7
C09  38343399.429 7  38343397.160 7 199664142.735 7 154392983.596 7
C11  23113977.717 7  23113974.771 8 120360518.916 7  93070497.276 8
C12  23904958.947 7  23904957.869 8 124479354.319 7  96255171.926 8
C16  38871180.491 7  38871181.715 7 202412422.135 7 156518126.743 7
C21  21883166.621 8                 113951378.579 8
C22  23070271.627 8                 120132938.464 8
C34  22988767.003 7                 119708522.132 7
C36  24672363.558 7                 128475492.899 7
C39  39115594.825 7                 203685168.632 7
C42  24539558.615 7                 127783954.549 7
C43  24094928.860 7                 125468604.358 7
C44  25422368.378 5                 132380879.62615
C45  25565305.993 6                 133125249.433 6
E03  23748166.091 8  23748168.637 9 124797464.606 8  94408487.592 9
E05  22549236.733 8  22549238.935 8 118497045.843 8  89642210.370 8
E08  27541165.099 6  27541170.299 7 144729807.572 6 109487186.258 7
E13  26915048.628 7  26915053.494 8 141439549.135 7 106998125.667 8
E15  23646994.950 8  23646997.781 9 124265798.254 8  94006284.440 9
E34  24599252.380 8  24599256.057 9 129269934.602 8  97791873.586 9
G01  22906651.141 7                  22906656.039 7  22906657.963 8 120375234.653 7                  93798901.164 7  89890614.204 8
G03  20628394.277 8                  20628399.955 7  20628398.437 8 108402934.964 8                  84469844.110 7  80950260.855 8
G04  20093591.722 8                  20093595.546 8  20093596.380 9 105592538.958 8                  82279922.285 8  78851594.818 9
G06  22258257.647 7                  22258263.711 7  22258262.336 8 116967947.118 7                  91143885.710 7  87346219.575 8
G09  21466474.298 7                  21466479.245 7  21466478.085 8 112807098.271 7                  87901946.488 7  84239099.502 8
G17  23892287.514 6                  23892293.720 7                 125554789.328 6                  97834780.340 7
G19  22614231.749 7  22614234.671 5                                 118838576.100 7  92601498.461 5                
G31  22559484.728 7                  22559488.860 7                 118550893.547 7                  92377338.553 7
R03  21589310.251 8  21589313.462 7 115569254.772 8  89887051.066 7
R04  19247238.397 8  19247239.634 7 103068080.715 8  80164163.891 7
R05  21005143.034 8  21005145.880 8 112284550.433 8  87332453.913 8
R12  23396418.426 6  23396423.765 7 124979555.546 6  97206288.598 7
R13  22268523.880 6                 118912700.794 6
R19  20155700.628 8  20155701.837 7 107819400.624 8  83859508.264 7
R20  20377265.430 6  20377269.703 7 108966413.954 6  84751673.914 7
> 2025 06 15 15 17 30.0000000  0 36
C05  39170588.317 6  39170584.431 6 203971499.475 6 157723717.893 6
C06  38223171.199 6  38223166.147 7 199038092.229 6 153908856.587 7
C09  38341874.747 7  38341872.201 7 199656203.072 7 154386844.162 7
C11  23114007.077 7  23114004.047 8 120360672.044 7  93070615.696 8
C12  23913157.691 7  23913156.327 8 124522046.844 7  96288184.445 8
C16  38871626.882 7  38871627.271 7 202414744.331 7 156519922.420 7
C21  21881693.046 8                 113943704.475 8
C22  23076363.567 8                 120164660.262 8
C34  22993535.915 7                 119733353.234 7
C36  24669309.710 7                 128459590.628 7
C39  39117295.332 7                 203694024.391 7
C42  24531942.719 7                 127744295.601 7
C43  24091308.724 7                 125449752.871 7
C44  25432032.774 5                 132431184.734 5
C45  25556762.350 6                 133080758.207 6
E03  23744106.082 8  23744108.236 9 124776127.021 8  94392345.875 9
E05  22553053.394 8  22553055.682 9 118517102.982 8  89657383.437 9
E08  27532651.913 6  27532657.112 7 144685071.091 6 109453343.524 7
E13  26906893.617 7  26906898.183 8 141396692.909 7 106965705.261 8
E15  23645215.857 8  23645218.721 9 124256449.220 8  93999211.963 9
E34  24605462.620 8  24605466.242 8 129302568.895 8  97816561.184 8
G01  22916412.992 7                  22916418.198 7  22916420.096 8 120426535.663 7                  93838875.924 7  89928923.309 8
G03  20633348.461 8                  20633354.183 7  20633352.344 8 108428968.966 8                  84490130.365 7  80969701.850 8
G04  20091916.417 7                  20091919.987 8  20091920.644 9 105583732.950 7                  82273060.479 8  78845018.934 9
G06  22251149.722 7                  22251156.127 7  22251154.667 8 116930597.057 7                  91114781.789 7  87318328.320 8
G09  21458649.853 7                  21458655.554 7  21458654.290 8 112765983.822 7                  87869909.271 7  84208397.190 8
G17  23899723.534 6                  23899729.737 7                 125593867.354 6                  97865230.673 7
G19  22619032.129 7  22619034.531 5                                 118863798.900 7  92621152.570 5                
G31  22563890.131 7                  22563894.014 7                 118574042.498 7                  92395376.694 7
R03  21597922.511 8  21597925.219 7 115615355.869 8  89922907.432 7
R04  19248328.542 8  19248330.030 7 103073919.358 8  80168705.058 7
R05  20997365.864 8  20997369.093 7 112242980.090 8  87300121.458 7
R12  23401645.937 7  23401649.547 6 125007472.920 7  97228002.099 6
R13  22265281.927 7                 118895388.152 7
R19  20163070.128 8  20163071.128 7 107858820.184 8  83890167.896 7
R20  20371824.758 6  20371828.486 7 108937318.646 6  84729044.239 7
> 2025 06 15 15 17 45.0000000  0 36
C05  39170442.372 6  39170438.788 6 203970739.175 6 157723129.973 6
C06  38223229.552 7  38223224.065 7 199038395.316 7 153909090.960 7
C09  38340358.623 7  38340355.247 7 199648306.185 7 154380737.779 7
C11  23114063.135 7  23114060.168 8 120360964.159 7  93070841.605 8
C12  23921370.598 7  23921369.088 8 124564812.954 7  96321253.862 8
C16  38872080.352 7  38872081.319 7 202417107.498 7 156521749.769 7
C21  21880235.211 8                 113936111.964 8
C22  23082464.682 8                 120196430.327 8
C34  22998326.395 7                 119758299.174 7
C36  24666279.082 7                 128443809.640 7
C39  39119003.240 7                 203702916.693 7
C42  24524335.241 7                 127704679.679 7
C43  24087712.476 7                 125431027.729 7
C44  25441697.001 5                 132481504.955 5
C45  25548225.684 5                 133036311.363 5
E03  23740061.444 8  23740063.795 9 124754873.411 8  94376267.662 9
E05  22556883.953 8  22556886.180 9 118537232.417 8  89672611.229 9
E08  27524145.221 6  27524149.918 7 144640366.401 6 109419524.797 7
E13  26898745.894 7  26898750.356 8 141353876.009 7 106933314.604 8
E15  23643456.594 7  23643459.224 9 124247203.000 7  93992217.261 9
E34  24611688.332 8  24611691.454 8 129335282.317 8  97841308.645 8
G01  22926187.411 7                  22926192.532 7  22926194.363 7 120477899.717 7                  93878899.804 7  89967279.542 7
G03  20638320.280 8                  20638325.792 7  20638323.911 8 108455094.735 8                  84510488.080 7  80989211.345 8
G04  20090264.646 7                  20090268.225 8  20090269.214 9 105575054.480 7                  82266298.039 8  78838538.273 9
G06  22244062.891 7                  22244069.489 7  22244068.253 8 116893356.452 7                  91085763.191 7  87290518.820 8
G09  21450843.141 7                  21450848.866 7  21450847.233 8 112724959.230 7                  87837942.090 7  84177761.971 8
G17  23907172.031 6                  23907178.263 6                 125633008.525 6                  97895730.215 6
G19  22623857.681 7  22623860.257 5                                 118889158.702 7  92640913.401 5                
G31  22568324.218 7                  22568328.385 7                 118597345.589 7                  92413534.960 7
R03  21606543.324 8  21606546.215 7 115661503.343 8  89958799.921 7
R04  19249441.703 8  19249442.916 7 103079880.365 8  80173341.391 7
R05  20989606.573 8  20989609.388 7 112201500.273 8  87267859.410 7
R12  23406904.710 6  23406909.089 6 125035565.594 6  97249852.004 6
R13  22262076.648 7                 118878271.805 7
R19  20170471.104 8  20170472.113 7 107898411.963 8  83920961.503 7
R20  20366419.508 6  20366423.919 7 108908415.556 6  84706564.073 7
> 2025 06 15 15 18  0.0000000  0 36
C05  39170297.138 6  39170294.083 6 203969984.899 6 157722546.739 6
C06  38223295.914 7  38223290.623 7 199038740.231 7 153909357.671 7
C09  38338849.670 7  38338846.740 7 199640450.542 7 154374663.300 7
C11  23114145.467 7  23114142.941 8 120361393.819 7  93071173.863 8
C12  23929597.165 7  23929595.797 8 124607650.928 7  96354378.874 8
C16  38872541.741 7  38872542.628 7 202419510.190 7 156523607.679 7
C21  21878792.630 8                 113928599.582 8
C22  23088574.588 8                 120228247.107 8
C34  23003138.729 7                 119783358.341 7
C36  24663271.835 7                 128428148.691 7
C39  39120717.563 7                 203711844.073 7
C42  24516735.192 7                 127665105.406 7
C43  24084141.162 7                 125412427.705 7
C44  25451359.492 5                 132531838.755 5
C45  25539698.589 5                 132991907.443 5
E03  23736033.050 8  23736035.046 9 124733702.335 8  94360251.897 9
E05  22560728.026 8  22560730.127 9 118557432.584 8  89687892.520 9
E08  27515644.056 6  27515648.543 7 144595692.186 6 109385729.144 7
E13  26890605.283 7  26890609.737 8 141311097.181 7 106900952.729 8
E15  23641716.374 8  23641719.068 9 124238058.290 8  93985299.349 9
E34  24617927.929 8  24617931.271 8 129368073.306 8  97866114.817 8
G01  22935973.256 7                  22935978.754 7  22935980.406 8 120529325.132 7                  93918971.531 7  90005681.614 8
G03  20643308.736 8                  20643314.372 7  20643312.715 8 108481310.688 8                  84530916.090 7  81008788.178 8
G04  20088637.131 7                  20088640.762 8  20088641.824 9 105566502.077 7                  82259633.851 8  78832151.738 9
G06  22236996.807 7                  22237003.604 7  22237002.043 8 116856224.217 7                  91056828.995 7  87262790.229 8
G09  21443053.196 7                  21443058.574 7  21443057.144 8 112684023.203 7                  87806043.905 7  84147192.876 8
G17  23914632.302 6                  23914637.641 6                 125672210.951 6                  97926277.488 6
G19  22628709.088 7  22628711.517 5                                 118914653.715 7  92660779.618 5                
G31  22572788.253 7                  22572792.154 7                 118620801.251 7                  92431812.102 7
R03  21615171.853 8  21615175.715 7 115707695.792 8  89994727.365 7
R04  19250577.629 8  19250578.959 7 103085962.197 8  80178071.701 7
R05  20981863.527 8  20981865.936 7 112160109.297 8  87235666.460 7
R12  23412196.119 7  23412200.173 6 125063831.849 7  97271836.947 6
R13  22258907.545 7                 118861350.767 7
R19  20177904.211 8  20177905.342 7 107938174.195 8  83951887.642 7
R20  20361050.021 6  20361054.289 7 108879703.499 6  84684232.526 7
> 2025 06 15 15 18 15.0000000  0 36
C05  39170153.799 6  39170150.165 6 203969236.743 6 157721968.215 6
C06  38223370.285 7  38223364.582 7 199039127.095 7 153909656.829 7
C09  38337349.154 7  38337345.991 7 199632636.348 7 154368620.879 7
C11  23114254.631 7  23114252.001 8 120361961.206 7  93071612.594 8
C12  23937837.645 7  23937836.090 8 124650560.659 7  96387559.371 8
C16  38873010.746 7  38873011.712 7 202421952.506 7 156525496.235 7
C21  21877365.055 8                 113921167.488 8
C22  23094694.005 8                 120260110.726 8
C34  23007972.763 7                 119808530.667 7
C36  24660287.173 7                 128412608.073 7
C39  39122438.873 7                 203720806.612 7
C42  24509143.578 7                 127625573.107 7
C43  24080593.479 7                 125393953.092 7
C44  25461026.096 5                 132582186.00015
C45  25531181.786 5                 132947547.190 5
E03  23732019.737 8  23732022.048 9 124712614.000 8  94344298.719 9
E05  22564585.263 8  22564587.537 9 118577703.488 8  89703227.329 9
E08  27507148.254 6  27507153.076 7 144551048.747 6 109351956.759 7
E13  26882471.729 7  26882476.383 8 141268356.789 7 106868619.949 8
E15  23639995.845 8  23639998.295 9 124229015.367 8  93978458.433 9
E34  24624182.852 8  24624185.945 8 129400941.997 8  97890979.743 8
G01  22945770.976 7                  22945776.473 7  22945778.311 8 120580811.879 7                  93959091.039 7  90044129.443 8
G03  20648314.775 8                  20648320.279 7  20648318.503 8 108507616.903 8                  84551414.441 7  81028432.425 8
G04  20087033.645 8                  20087037.534 8  20087038.289 9 105558075.907 8                  82253068.002 8  78825859.460 9
G06  22229951.679 7                  22229958.114 7  22229956.667 8 116819200.836 7                  91027979.597 7  87235142.907 8
G09  21435280.126 7                  21435285.478 7  21435284.332 8 112643176.061 7                  87774214.984 7  84116690.173 8
G17  23922103.208 6                  23922109.581 6                 125711474.441 6                  97956872.395 6
G19  22633586.047 7  22633588.867 5                                 118940283.908 7  92680751.169 5                
G31  22577280.368 7                  22577284.547 7                 118644409.197 7                  92450207.923 7
R03  21623809.701 8  21623813.486 7 115753932.990 8  90030689.599 7
R04  19251735.958 8  19251737.241 7 103092164.785 8  80182895.939 7
R05  20974137.628 8  20974140.171 7 112118807.847 8  87203543.121 7
R12  23417521.263 7  23417525.214 6 125092271.761 7  97293956.812 6
R13  22255775.437 6                 118844625.279 6
R19  20185369.304 8  20185370.875 7 107978107.032 8  83982946.526 7
R20  20355716.597 6  20355721.035 7 108851183.449 6  84662050.259 7
> 2025 06 15 15 18 30.0000000  0 37
C05  39170011.223 6  39170007.350 6 203968494.071 6 157721393.944 6
C06  38223452.233 7  38223447.129 7 199039555.157 7 153909987.859 7
C09  38335856.250 7  38335853.282 7 199624862.855 7 154362609.915 7
C11  23114390.183 7  23114387.362 8 120362665.599 7  93072157.258 8
C12  23946091.403 7  23946090.138 8 124693541.160 7  96420794.563 8
C16  38873487.291 7  38873488.154 7 202424433.676 7 156527414.824 7
C21  21875953.009 8                 113913814.924 8
C22  23100821.558 8                 120292020.254 8
C34  23012828.447 7                 119833815.241 7
C36  24657325.686 7                 128397187.197 7
C39  39124166.706 7                 203729803.529 7
C42  24501559.620 7                 127586081.980 7
C43  24077069.146 7                 125375603.203 7
C44  25470695.275 4                 132632545.713 4
C45  25522669.867 5                 132903230.148 5
E03  23728022.139 8  23728024.626 9 124691607.630 8  94328407.552 9
E05  22568456.362 8  22568458.244 9 118598044.234 8  89718614.972 9
E08  27498658.049 6  27498663.287 7 144506435.372 6 109318207.105 7
E13  26874345.834 7  26874350.309 8 141225654.263 7 106836315.802 8
E15  23638294.014 8  23638296.772 9 124220073.585 8  93971694.042 9
E34  24630451.903 8  24630455.294 8 129433887.438 8  97915902.727 8
G01  22955580.191 7                  22955585.456 7  22955587.772 8 120632358.874 7                  93999257.476 7  90082622.252 8
G03  20653337.976 8                  20653343.338 7  20653341.582 8 108534012.563 8                  84571982.484 7  81048143.450 8
G04  20085453.685 7                  20085458.002 8  20085458.634 9 105549775.130 7                  82246599.860 8  78819660.834 9
G06  22222927.220 7                  22222933.315 7  22222931.970 8 116782285.785 7                  90999214.637 7  87207576.487 8
G09  21427524.015 7                  21427529.318 7  21427528.394 8 112602417.180 7                  87742454.841 7  84086253.377 8
G17  23929586.566 6                  23929592.728 6                 125750797.991 6                  97987514.056 6
G19  22638489.362 7  22638491.957 5                                 118966048.212 7  92700827.222 5                
G31  22581801.805 7                  22581805.910 7                 118668168.525 7                  92468721.670 7
R03  21632455.794 8  21632459.757 7 115800214.194 8  90066686.050 7
R04  19252916.940 8  19252917.831 7 103098487.383 8  80187813.509 7
R05  20966427.457 8  20966430.688 8 112077594.903 8  87171488.641 8
R12  23422877.228 7  23422880.541 6 125120883.866 7  97316210.647 6
R13  22252680.114 7                 118828094.921 7
R14  23552109.320 7  23552114.613 6 125545990.30917  97646903.29616
R19  20192865.561 8  20192867.078 7 108018208.876 8  84014136.817 7
R20  20350418.672 6  20350422.907 7 108822854.821 6  84640016.847 7
> 2025 06 15 15 18 45.0000000  0 37
C05  39169867.965 6  39169864.492 6 203967749.798 6 157720818.432 6
C06  38223541.074 7  38223536.136 7 199040017.410 7 153910345.309 7
C09  38334369.974 7  38334366.876 7 199617123.099 7 154356625.059 7
C11  23114550.186 7  23114547.430 8 120363500.078 7  93072802.509 8
C12  23954357.216 7  23954356.047 8 124736585.084 7  96454078.835 8
C16  38873969.540 7  38873970.683 7 202426946.703 7 156529358.052 7
C21  21874555.140 8                 113906534.877 8
C22  23106957.175 8                 120323968.678 8
C34  23017704.719 7                 119859204.872 7
C36  24654385.930 7                 128381879.280 7
C39  39125899.438 7                 203738827.820 7
C42  24493982.166 7                 127546625.161 7
C43  24073567.543 7                 125357371.270 7
C44  25480371.516 4                 132682910.59414
C45  25514165.728 5                 132858949.711 5
E03  23724038.713 8  23724041.479 9 124670676.227 8  94312573.104 9
E05  22572338.988 8  22572340.919 9 118618447.656 8  89734050.031 9
E08  27490172.641 6  27490177.964 7 144461845.199 6 109284474.984 7
E13  26866224.936 7  26866230.143 8 141182982.804 7 106804035.169 8
E15  23636610.390 7  23636613.160 9 124211225.999 7  93965000.919 9
E34  24636734.457 8  24636737.812 8 129466902.520 8  97940878.405 8
G01  22965399.376 7                  22965404.903 7  22965407.112 8 120683958.833 7                  94039465.189 7  90121154.623 8
G03  20658376.274 8                  20658381.764 7  20658380.087 8 108560490.560 8                  84592614.670 7  81067915.965 8
G04  20083896.724 8                  20083900.735 8  20083901.616 9 105541592.668 8                  82240223.942 8  78813550.573 9
G06  22215921.761 7                  22215927.954 7  22215926.556 8 116745472.339 7                  90970528.852 7  87180085.954 8
G09  21419783.282 7                  21419788.667 7  21419787.865 8 112561739.719 7                  87710758.137 7  84055877.359 8
G17  23937079.546 6                  23937085.655 6                 125790174.191 6                  98018196.754 6
G19  22643416.007 7  22643419.054 5                                 118991939.343 7  92721002.124 5                
G31  22586350.308 7                  22586354.639 7                 118692071.972 7                  92487347.696 7
R03  21641108.132 8  21641111.926 7 115846531.756 8  90102710.801 7
R04  19254118.346 8  19254119.692 7 103104922.615 8  80192818.695 7
R05  20958732.916 8  20958736.211 8 112036463.506 8  87139497.595 8
R12  23428265.037 7  23428267.604 7 125149660.819 7  97338592.705 7
R13  22249619.848 7                 118811752.813 7
R14  23541016.980 7  23541024.041 6 125486868.434 7  97600919.692 6
R19  20200392.495 8  20200394.253 7 108058472.479 8  84045452.918 7
R20  20345156.378 6  20345160.408 7 108794710.915 6  84618127.171 7
> 2025 06 15 15 19  0.0000000  0 36
C05  39169724.601 6  39169721.058 6 203967002.161 6 157720240.315 6
C06  38223635.933 7  38223631.200 7 199040511.895 7 153910727.681 7
C09  38332889.646 7  38332886.676 7 199609415.089 7 154350664.751 7
C11  23114735.226 7  23114732.296 8 120364462.653 7  93073546.823 8
C12  23962635.164 7  23962633.914 8 124779690.330 7  96487410.497 8
C16  38874458.194 7  38874458.930 7 202429489.624 7 156531324.399 7
C21  21873170.666 8                 113899325.476 8
C22  23113099.816 8                 120355953.967 8
C34  23022599.996 7                 119884697.530 7
C36  24651467.657 7                 128366682.618 7
C39  39127637.282 7                 203747877.519 7
C42  24486411.094 7                 127507200.849 7
C43  24070088.925 7                 125339255.563 7
C45  25505666.860 5                 132814704.170 5
E03  23720069.812 8  23720072.268 9 124649817.951 8  94296793.965 9
E05  22576233.250 8  22576235.136 9 118638911.691 8  89749530.950 9
E08  27481691.519 6  27481696.792 7 144417276.313 6 109250759.023 7
E13  26858110.497 6  26858115.656 8 141140340.686 6 106771776.715 8
E15  23634944.069 8  23634947.189 9 124202470.860 8  93958377.705 9
E34  24643030.267 8  24643033.208 9 129499985.255 8  97965905.248 9
G01  22975228.225 7                  22975233.817 7  22975235.933 8 120735609.620 7                  94079712.468 7  90159724.933 8
G03  20663430.414 8                  20663435.819 7  20663434.177 8 108587048.888 8                  84613309.478 7  81087748.472 8
G04  20082362.335 8                  20082365.602 8  20082366.830 9 105533526.650 8                  82233938.725 8  78807527.253 9
G06  22208935.269 7                  22208941.852 7  22208940.159 8 116708758.938 7                  90941921.039 7  87152670.138 8
G09  21412058.033 7                  21412063.293 7  21412062.251 8 112521141.867 7                  87679123.477 7  84025560.817 8
G17  23944582.495 6                  23944588.292 6                 125829600.771 6                  98048918.703 6
G19  22648366.755 7  22648369.513 5                                 119017955.044 7  92741274.066 5                
G31  22590925.810 7                  22590930.183 7                 118716117.428 7                  92506084.393 7
R03  21649767.039 8  21649770.367 7 115892883.606 8  90138762.219 7
R04  19255340.893 8  19255341.582 7 103111468.294 8  80197909.777 7
R05  20951053.552 8  20951056.401 8 111995412.068 8  87107568.730 8
R12  23433681.771 7  23433684.697 6 125178600.504 7  97361101.381 6
R13  22246594.385 7                 118795597.179 7
R14  23529934.710 7  23529941.108 6 125427790.370 7  97554970.186 6
R19  20207949.208 8  20207950.894 7 108098895.383 8  84076892.912 7
R20  20339926.795 6  20339931.775 7 108766749.913 6  84596379.772 7
> 2025 06 15 15 19 15.0000000  0 36
C05  39169581.699 6  39169578.317 6 203966259.660 6 157719666.157 6
C06  38223739.038 7  38223733.860 7 199041047.284 7 153911141.683 7
C09  38331416.980 7  38331414.082 7 199601747.590 7 154344735.758 7
C11  23114946.600 7  23114943.096 8 120365562.028 7  93074396.917 8
C12  23970926.715 7  23970925.637 8 124822865.269 7  96520796.070 8
C16  38874953.823 7  38874954.643 7 202432071.146 7 156533320.586 7
C21  21871801.497 8                 113892195.363 8
C22  23119250.907 8                 120387984.715 8
C34  23027516.783 7                 119910301.628 7
C36  24648572.601 7                 128351605.964 7
C39  39129382.048 7                 203756961.263 7
C42  24478848.210 7                 127467817.749 7
C43  24066633.979 7                 125321264.836 7
C45  25497179.357 5                 132770502.551 5
E03  23716116.335 8  23716118.634 9 124629041.548 8  94281076.778 9
E05  22580140.354 8  22580142.488 9 118659444.974 8  89765064.235 9
E08  27473215.979 6  27473221.391 7 144372737.668 6 109217065.942 7
E13  26850002.742 6  26850008.434 8 141097736.855 6 106739547.230 8
E15  23633297.508 8  23633300.458 9 124193817.014 8  93951831.136 9
E34  24649339.711 8  24649343.160 8 129533144.235 8  97990989.771 8
G01  22985068.406 7                  22985073.790 7  22985075.965 7 120787319.671 7                  94120005.960 7  90198339.519 7
G03  20668500.850 8                  20668506.744 7  20668505.072 8 108613696.265 8                  84634073.649 7  81107647.476 8
G04  20080851.446 8                  20080854.502 8  20080855.815 9 105525585.768 8                  82227751.022 8  78801597.370 9
G06  22201969.405 7                  22201976.355 7  22201974.465 8 116672154.639 7                  90913398.234 7  87125335.776 8
G09  21404348.962 7                  21404354.960 7  21404353.625 8 112480632.558 7                  87647557.799 7  83995310.392 8
G17  23952096.287 6                  23952102.333 7                 125869086.058 6                  98079686.422 7
G19  22653342.584 7  22653345.601 5                                 119044103.612 7  92761649.547 5                
G31  22595530.212 7                  22595534.481 7                 118740313.478 7                  92524938.416 7
R03  21658433.440 7  21658437.271 7 115939278.124 7  90174846.824 7
R04  19256585.416 8  19256586.194 7 103118133.331 8  80203093.706 7
R05  20943390.203 8  20943393.423 7 111954449.084 8  87075708.644 7
R12  23439131.823 7  23439134.845 6 125207711.284 7  97383743.077 6
R13  22243605.609 7                 118779637.033 7
R14  23518862.005 7  23518868.198 6 125368765.826 7  97509062.266 6
R19  20215537.896 8  20215538.184 7 108139486.023 8  84108463.384 7
R20  20334734.293 6  20334738.445 7 108738981.392 6  84574782.003 7
> 2025 06 15 15 19 30.0000000  0 36
C05  39169440.478 6  39169436.810 6 203965522.947 6 157719096.492 6
C06  38223849.469 7  38223844.634 7 199041624.077 7 153911587.691 7
C09  38329952.549 7  38329949.797 7 199594121.061 7 154338838.461 7
C11  23115183.863 7  23115180.895 8 120366798.739 7  93075353.242 8
C12  23979231.627 7  23979230.217 8 124866110.188 7  96554235.738 8
C16  38875456.707 7  38875457.849 7 202434691.708 7 156535346.977 7
C21  21870447.520 8                 113885145.051 8
C22  23125410.749 7                 120420061.365 7
C34  23032455.434 7                 119936017.505 7
C36  24645700.104 7                 128336650.070 7
C39  39131133.062 7                 203766079.578 7
C42  24471292.889 7                 127428476.471 7
C43  24063203.292 7                 125303399.817 7
C45  25488699.845 6                 132726345.760 6
E03  23712178.726 8  23712180.695 9 124608347.592 8  94265421.928 9
E05  22584061.031 8  22584063.101 9 118680047.898 8  89780650.210 9
E08  27464746.385 6  27464751.748 7 144328229.935 6 109183396.189 7
E13  26841902.580 6  26841908.529 8 141055172.023 6 106707347.302 8
E15  23631670.130 8  23631673.103 9 124185265.124 8  93945361.688 9
E34  24655664.871 8  24655667.700 8 129566379.932 8  98016132.317 8
G01  22994919.855 7                  22994925.173 7  22994927.092 7 120839089.299 7                  94160345.856 7  90236998.589 7
G03  20673588.958 8                  20673594.459 7  20673592.661 8 108640433.094 8                  84654907.536 7  81127613.280 8
G04  20079363.967 8                  20079367.450 8  20079368.409 9 105517770.492 8                  82221661.187 8  78795761.299 9
G06  22195024.827 7                  22195031.505 7  22195029.828 8 116635660.261 7                  90884961.068 7  87098083.499 8
G09  21396657.492 7                  21396663.130 8  21396661.781 8 112440212.505 7                  87616061.679 8  83965126.619 8
G17  23959621.253 6                  23959627.124 7                 125908630.389 6                  98110500.109 7
G19  22658343.639 7  22658346.655 5                                 119070385.320 7  92782128.763 5                
G31  22600163.241 7                  22600167.087 7                 118764660.495 7                  92543910.145 7
R03  21667108.343 7  21667112.176 7 115985716.727 7  90210965.682 7
R04  19257852.273 8  19257853.311 7 103124917.834 8  80208370.520 7
R05  20935744.396 8  20935746.949 8 111913575.901 8  87043918.376 8
R12  23444612.503 7  23444617.056 7 125236993.354 7  97406518.016 7
R13  22240653.496 7                 118763873.327 7
R14  23507799.493 7  23507805.654 7 125309795.623 7  97463196.646 7
R19  20223157.282 8  20223158.486 7 108180244.688 8  84140164.537 7
R20  20329577.751 6  20329581.638 7 108711405.705 6  84553334.282 7
> 2025 06 15 15 19 45.0000000  0 36
C05  39169300.723 6  39169297.546 6 203964796.426 6 157718534.694 6
C06  38223969.257 7  38223963.860 7 199042246.587 7 153912069.053 7
C09  38328496.503 7  38328494.043 7 199586539.898 7 154332976.241 7
C11  23115448.173 7  23115445.481 8 120368177.188 7  93076419.152 8
C12  23987550.233 7  23987548.891 8 124909429.142 7  96587732.660 8
C16  38875968.710 7  38875969.209 7 202437355.685 7 156537406.926 7
C21  21869109.495 8                 113878178.909 8
C22  23131580.200 7                 120452188.206 7
C34  23037416.158 7                 119961849.338 7
C36  24642852.013 7                 128321819.392 7
C39  39132891.650 7                 203775236.720 7
C42  24463746.662 7                 127389181.449 7
C43  24059797.050 7                 125285664.940 7
C45  25480229.868 6                 132682238.534 6
E03  23708257.293 8  23708259.312 9 124587740.485 8  94249832.800 9
E05  22587995.212 8  22587997.749 9 118700724.708 8  89796292.075 9
E08  27456283.252 6  27456288.902 7 144283757.555 6 109149753.207 7
E13  26833811.271 6  26833816.906 8 141012650.802 6 106675180.357 8
E15  23630062.845 8  23630066.023 9 124176819.690 8  93938972.777 9
E34  24662004.756 8  24662007.671 8 129599696.581 8  98041336.149 8
G01  23004783.798 7                  23004788.925 7  23004790.384 7 120890922.575 7                  94200735.438 7  90275705.248 7
G03  20678694.663 8                  20678700.338 7  20678698.503 8 108667263.756 8                  84675814.521 7  81147649.151 8
G04  20077901.166 8                  20077905.086 8  20077905.802 9 105510085.226 8                  82215672.699 8  78790022.324 9
G06  22188102.268 7                  22188108.530 7  22188106.979 8 116599280.531 7                  90856613.249 7  87070916.844 8
G09  21388983.928 7                  21388989.046 7  21388987.849 8 112399886.218 7                  87584638.645 7  83935012.857 8
G17  23967158.919 6                  23967164.684 6                 125948237.807 6                  98141362.981 6
G19  22663371.027 7  22663373.731 5                                 119096804.257 7  92802714.918 5                
G31  22604825.712 7                  22604829.564 7                 118789162.478 7                  92563002.593 7
R03  21675793.060 8  21675797.161 7 116032202.727 8  90247121.435 7
R04  19259142.537 8  19259143.307 7 103131826.260 8  80213743.730 7
R05  20928115.908 8  20928118.112 7 111872796.507 8  87012201.116 7
R12  23450128.158 7  23450132.018 7 125266450.984 7  97429429.481 7
R13  22237739.071 7                 118748310.840 7
R14  23496747.848 7  23496753.457 6 125250884.846 7  97417377.228 6
R19  20230808.449 8  20230809.344 7 108221175.446 8  84171999.556 7
R20  20324457.584 6  20324462.124 7 108684028.383 6  84532040.824 7
> 2025 06 15 15 20  0.0000000  0 36
C05  39169162.342 6  39169158.759 6 203964076.207 6 157717977.775 6
C06  38224097.068 7  38224091.688 7 199042910.950 7 153912582.788 7
C09  38327048.373 7  38327046.042 7 199579000.206 7 154327146.088 7
C11  23115740.023 7  23115737.039 8 120369693.429 7  93077591.629 8
C12  23995882.710 7  23995881.442 7 124952817.967 7  96621283.604 7
C16  38876488.173 7  38876488.615 7 202440059.120 7 156539497.384 7
C21  21867787.147 8                 113871293.011 8
C22  23137759.319 8                 120484361.206 8
C34  23042398.097 7                 119987792.984 7
C36  24640027.381 7                 128307110.222 7
C39  39134656.868 7                 203784428.759 7
C42  24456208.547 7                 127349928.831 7
C43  24056415.723 7                 125268056.509 7
C45  25471768.222 6                 132638177.216 6
E03  23704351.431 8  23704353.681 9 124567216.355 8  94234306.444 9
E05  22591943.599 8  22591945.695 9 118721471.361 8  89811986.770 9
E08  27447826.770 6  27447832.029 7 144239316.720 6 109116134.096 7
E13  26825727.214 6  26825732.984 8 140970169.654 6 106643043.626 8
E15  23628475.362 8  23628478.422 9 124168476.918 8  93932661.522 9
E34  24668359.188 8  24668362.272 9 129633090.207 8  98066598.169 9
G01  23014658.868 7                  23014664.141 7  23014665.591 7 120942815.436 7                  94241171.359 7  90314456.362 7
G03  20683817.343 8                  20683822.932 7  20683820.959 8 108694184.196 8                  84696791.490 7  81167752.085 8
G04  20076462.743 8                  20076466.732 8  20076467.411 9 105502526.014 8                  82209782.433 8  78784377.463 9
G06  22181200.796 7                  22181206.855 7  22181205.425 8 116563011.820 7                  90828351.918 7  87043833.081 8
G09  21381326.653 7                  21381332.198 7  21381331.182 8 112359649.921 7                  87553285.709 7  83904966.302 8
G17  23974706.799 6                  23974712.607 6                 125987903.909 6                  98172271.585 6
G19  22668423.845 7  22668426.400 5                                 119123356.376 7  92823404.849 5                
G31  22609517.225 7                  22609520.827 7                 118813815.273 7                  92582212.565 7
R03  21684485.372 8  21684488.823 7 116078732.011 8  90283310.842 7
R04  19260454.564 8  19260455.949 7 103138854.617 8  80219210.252 7
R05  20920504.036 8  20920506.665 7 111832107.398 8  86980554.078 7
R12  23455673.598 7  23455677.882 7 125296079.821 7  97452474.111 7
R13  22234861.617 6                 118732945.477 6
R14  23485706.821 7  23485712.332 6 125192029.873 7  97371601.249 6
R19  20238491.528 8  20238492.632 7 108262274.027 8  84203965.078 7
R20  20319374.678 6  20319378.942 7 108656845.626 6  84510898.706 7
> 2025 06 15 15 20 15.0000000  0 36
C05  39169025.493 6  39169022.051 6 203963363.069 6 157717426.335 6
C06  38224232.622 7  38224227.559 7 199043617.876 7 153913129.415 7
C09  38325608.744 7  38325606.617 7 199571502.743 7 154321348.576 7
C11  23116057.612 7  23116054.829 8 120371348.255 7  93078871.234 8
C12  24004228.927 7  24004227.283 7 124996277.121 7  96654888.942 7
C16  38877014.675 7  38877015.522 7 202442802.788 7 156541618.956 7
C21  21866480.280 8                 113864488.138 8
C22  23143946.822 8                 120516581.036 8
C34  23047402.129 7                 120013849.071 7
C36  24637225.998 7                 128292523.499 7
C39  39136429.201 7                 203793656.458 7
C42  24448678.733 7                 127310719.518 7
C43  24053058.452 7                 125250575.418 7
C45  25463315.786 6                 132594162.918 6
E03  23700461.735 8  23700463.991 9 124546775.987 8  94218843.465 9
E05  22595904.943 8  22595907.085 9 118742288.489 8  89827734.788 9
E08  27439376.666 6  27439381.328 7 144194908.371 6 109082539.549 7
E13  26817651.227 6  26817656.728 8 140927729.320 6 106610937.865 8
E15  23626907.671 8  23626910.562 9 124160237.700 8  93926428.618 9
E34  24674728.920 8  24674731.685 8 129666561.486 8  98091918.945 8
G01  23024544.656 6                  23024550.679 7  23024552.282 7 120994768.352 6                  94281654.085 7  90353252.328 7
G03  20688957.471 8                  20688963.002 7  20688961.425 8 108721195.178 8                  84717838.993 7  81187922.602 8
G04  20075048.106 7                  20075052.249 8  20075053.202 9 105495093.646 7                  82203990.968 8  78778827.315 9
G06  22174319.882 7                  22174326.695 7  22174324.967 8 116526855.250 7                  90800177.980 7  87016833.054 8
G09  21373687.220 7                  21373692.784 7  21373691.756 8 112319504.594 7                  87522003.647 7  83874987.674 8
G17  23982266.614 6                  23982272.201 7                 126027629.201 6                  98203226.345 7
G19  22673502.369 7  22673505.027 5                                 119150042.149 7  92844198.933 5                
G31  22614237.469 7                  22614241.141 7                 118838619.585 7                  92601540.565 7
R03  21693185.210 8  21693189.023 7 116125305.647 8  90319534.790 7
R04  19261790.000 8  19261790.983 7 103146003.472 8  80224770.492 7
R05  20912909.243 8  20912911.995 7 111791509.046 8  86948977.636 7
R12  23461252.098 7  23461256.739 6 125325880.378 7  97475652.313 6
R13  22232021.540 6                 118717778.747 6
R14  23474676.678 7  23474681.454 7 125133232.173 7  97325869.736 7
R19  20246205.667 8  20246207.050 7 108303540.388 8  84236061.127 7
R20  20314327.531 6  20314332.130 7 108629858.270 6  84489908.532 7
> 2025 06 15 15 20 30.0000000  0 38
C05  39168890.263 6  39168886.610 6 203962658.236 6 157716881.313 6
C06  38224377.335 7  38224371.732 7 199044368.625 7 153913709.938 7
C09  38324177.473 7  38324175.241 7 199564048.762 7 154315584.704 7
C11  23116401.960 7  23116399.955 8 120373142.951 7  93080258.995 8
C12  24012588.546 7  24012586.899 7 125039807.646 7  96688549.465 7
C16  38877549.584 7  38877550.323 7 202445587.874 7 156543772.566 7
C21  21865189.253 8                 113857765.546 8
C22  23150143.415 8                 120548848.894 8
C34  23052427.779 7                 120040018.623 7
C36  24634448.665 7                 128278060.631 7
C39  39138208.369 7                 203802921.014 7
C42  24441157.863 7                 127271554.790 7
C43  24049726.120 7                 125233223.089 7
C44  25548132.790 5                 133035636.31515
C45  25454872.650 6                 132550197.212 6
E03  23696588.305 8  23696590.485 9 124526420.688 8  94203444.821 9
E05  22599879.941 8  22599882.097 9 118763177.203 8  89843536.959 9
E08  27430932.339 7  27430937.129 7 144150533.832 7 109048970.603 7
E13  26809583.221 6  26809588.659 8 140885331.377 6 106578864.157 8
E15  23625359.721 8  23625362.639 9 124152103.415 8  93920275.097 9
E34  24681113.371 8  24681116.168 8 129700111.551 8  98117299.324 8
G01  23034442.564 6                  23034448.039 7  23034450.022 7 121046782.333 6                  94322184.393 7  90392093.832 7
G03  20694115.008 8                  20694120.454 7  20694118.756 8 108748297.889 8                  84738957.991 7  81208161.627 8
G04  20073658.512 8                  20073662.447 8  20073663.242 9 105487789.313 8                  82198299.259 8  78773372.780 9
G06  22167460.964 7                  22167468.270 7  22167466.359 8 116490812.333 7                  90772092.630 7  86989917.914 8
G09  21366065.446 7                  21366071.146 7  21366069.809 8 112279451.656 7                  87490793.579 7  83845078.037 8
G17  23989837.619 6                  23989843.132 7                 126067414.607 6                  98234227.884 7
G19  22678605.984 7  22678609.225 5                                 119176862.404 7  92865097.784 5                
G28  24765207.073 4                                  24765242.959 5 130142062.33014                                  97183957.99215
G31  22618986.761 7                  22618990.475 7                 118863576.336 7                  92620987.396 7
R03  21701894.556 7  21701898.269 7 116171924.152 7  90355793.601 7
R04  19263147.637 8  19263148.338 7 103153274.062 8  80230425.388 7
R05  20905331.561 8  20905334.226 7 111751003.454 8  86917473.313 7
R12  23466863.743 7  23466867.547 6 125355853.521 7  97498964.754 6
R13  22229218.447 6                 118702811.808 6
R14  23463657.653 7  23463662.942 6 125074493.982 7  97280184.563 6
R19  20253951.400 8  20253953.206 7 108344975.669 8  84268288.544 7
R20  20309317.596 6  20309321.616 7 108603067.935 6  84469071.604 7
> 2025 06 15 15 20 45.0000000  0 38
C05  39168755.626 6  39168752.154 6 203961957.473 6 157716339.445 6
C06  38224528.416 7  38224523.312 7 199045158.882 7 153914321.012 7
C09  38322753.601 7  38322751.513 7 199556633.964 7 154309851.125 7
C11  23116772.763 7  23116770.312 8 120375073.129 7  93081751.499 8
C12  24020961.121 7  24020959.238 7 125083404.985 7  96722261.656 7
C16  38878091.691 7  38878092.278 7 202448410.117 7 156545954.920 7
C21  21863913.337 8                 113851120.906 8
C22  23156348.374 7                 120581160.393 7
C34  23057474.298 7                 120066297.131 7
C36  24631693.763 7                 128263717.449 7
C39  39139993.803 7                 203812218.113 7
C42  24433644.549 7                 127232430.424 7
C43  24046417.909 7                 125215995.307 7
C44  25557818.980 5                 133086088.763 5
C45  25446438.319 6                 132506276.175 6
E03  23692730.569 8  23692732.323 9 124506146.177 8  94188107.301 9
E05  22603867.621 8  22603869.889 9 118784133.056 8  89859389.933 9
E08  27422493.699 6  27422498.572 8 144106188.933 6 109015424.054 8
E13  26801522.925 6  26801527.794 8 140842971.771 6 106546819.426 8
E15  23623830.906 8  23623833.921 9 124144069.849 8  93914197.770 9
E34  24687511.641 8  24687514.725 8 129733735.961 8  98142735.965 8
G01  23044351.445 6                  23044356.568 7  23044358.565 7 121098852.827 6                  94362758.676 7  90430977.542 7
G03  20699289.094 8                  20699294.452 7  20699292.791 8 108775487.892 8                  84760144.999 7  81228465.837 8
G04  20072291.835 8                  20072295.626 8  20072296.765 9 105480608.647 8                  82192703.953 8  78768010.618 9
G06  22160623.280 7                  22160630.242 7  22160628.426 8 116454879.077 7                  90744092.688 7  86963084.673 8
G09  21358460.970 7                  21358465.924 7  21358464.704 8 112239486.909 7                  87459652.235 7  83815234.250 8
G17  23997419.296 6                  23997424.991 7                 126107255.518 6                  98265272.666 7
G19  22683734.845 7  22683737.616 5                                 119203812.408 7  92886097.786 5                
G28  24773465.144 4                                  24773507.217 5 130185490.97014                                  97216388.349 5
G31  22623764.009 7                  22623767.914 7                 118888681.027 7                  92640549.475 7
R03  21710610.598 8  21710614.850 7 116218583.188 8  90392083.932 7
R04  19264527.310 8  19264528.028 7 103160661.642 8  80236171.294 7
R05  20897770.281 8  20897774.204 7 111710585.957 8  86886037.485 7
R12  23472505.691 7  23472510.303 6 125385994.510 7  97522407.725 6
R13  22226452.286 7                 118688040.663 7
R14  23452649.306 7  23452654.533 6 125015811.133 7  97234542.416 6
R19  20261728.252 8  20261729.523 7 108386575.166 8  84300643.655 7
R20  20304343.926 6  20304347.587 7 108576470.734 6  84448384.929 7
> 2025 06 15 15 21  0.0000000  0 38
C05  39168622.454 6  39168619.354 6 203961264.502 6 157715803.582 6
C06  38224688.870 7  38224683.392 7 199045992.377 7 153914965.525 7
C09  38321337.774 7  38321335.538 7 199549262.154 7 154304150.776 7
C11  23117170.195 7  23117167.671 8 120377142.622 7  93083351.748 8
C12  24029346.830 7  24029345.303 7 125127072.552 7  96756028.173 7
C16  38878641.446 7  38878642.077 7 202451273.202 7 156548168.827 7
C21  21862653.010 8                 113844557.969 8
C22  23162562.303 7                 120613519.211 7
C34  23062542.574 7                 120092688.204 7
C36  24628963.607 7                 128249497.924 7
C39  39141786.037 7                 203821551.439 7
C42  24426139.076 7                 127193350.262 7
C43  24043133.958 7                 125198896.011 7
C44  25567508.854 5                 133136553.312 5
C45  25438012.947 6                 132462403.827 6
E03  23688888.081 8  23688890.286 9 124485956.232 8  94172833.757 9
E05  22607868.999 8  22607871.119 9 118805159.701 8  89875296.456 9
E08  27414061.301 7  27414066.384 8 144061877.530 7 108981902.857 8
E13  26793470.810 6  26793474.992 8 140800654.460 6 106514806.657 8
E15  23622321.817 8  23622325.100 9 124136140.929 8  93908199.603 9
E34  24693925.285 8  24693928.064 8 129767438.449 8  98168231.645 8
G01  23054271.434 6                  23054277.074 7  23054278.450 7 121150983.294 6                  94403379.793 7  90469906.067 7
G03  20704480.448 8                  20704485.958 7  20704484.152 8 108802768.933 8                  84781402.965 7  81248838.033 8
G04  20070949.608 8                  20070953.512 8  20070954.755 9 105473555.443 8                  82187207.964 8  78762743.637 9
G06  22153807.113 7                  22153813.766 7  22153812.160 8 116419059.634 7                  90716181.444 7  86936336.396 8
G09  21350873.251 7                  21350878.601 7  21350877.296 8 112199614.282 7                  87428582.678 7  83785459.262 8
G17  24005011.422 6                  24005017.334 7                 126147155.365 6                  98296363.384 7
G19  22688888.222 7  22688890.959 5                                 119230895.844 7  92907201.720 5                
G28  24781746.547 4                                  24781787.866 5 130229008.18814                                  97248884.926 5
G31  22628569.955 7                  22628573.992 7                 118913937.102 7                  92660229.531 7
R03  21719335.366 8  21719339.621 7 116265286.174 8  90428408.424 7
R04  19265929.494 8  19265930.470 7 103168169.984 8  80242011.113 7
R05  20890226.887 8  20890230.066 7 111670260.482 8  86854673.250 7
R12  23478179.768 7  23478185.163 6 125416306.910 7  97545984.080 6
R13  22223723.375 7                 118673469.181 7
R14  23441651.436 7  23441656.211 6 124957188.046 7  97188946.783 6
R19  20269535.915 8  20269537.617 7 108428342.273 8  84333129.160 7
R20  20299406.946 6  20299411.117 7 108550070.653 6  84427851.537 7
> 2025 06 15 15 21 15.0000000  0 38
C05  39168490.684 6  39168487.594 6 203960579.639 6 157715274.016 6
C06  38224857.615 7  38224852.105 7 199046869.323 7 153915643.637 7
C09  38319930.116 7  38319928.544 7 199541933.575 7 154298483.852 7
C11  23117594.488 7  23117591.027 8 120379351.619 7  93085059.891 8
C12  24037746.394 7  24037744.911 8 125170810.390 7  96789849.032 8
C16  38879198.639 7  38879200.021 7 202454177.378 7 156550414.525 7
C21  21861408.303 8                 113838077.023 8
C22  23168785.830 8                 120645925.492 8
C34  23067632.305 7                 120119191.933 7
C36  24626256.607 7                 128235402.474 7
C39  39143585.277 7                 203830921.242 7
C42  24418643.163 7                 127154314.675 7
C43  24039875.245 7                 125181925.612 7
C44  25577206.707 5                 133187030.079 5
C45  25429597.453 6                 132418580.840 6
E03  23685062.153 8  23685064.386 9 124465851.171 8  94157624.432 9
E05  22611883.670 8  22611885.849 9 118826257.306 8  89891256.646 9
E08  27405635.487 7  27405640.617 8 144017600.028 7 108948407.307 8
E13  26785425.418 6  26785430.239 8 140758379.866 6 106482826.260 8
E15  23620833.082 8  23620836.264 9 124128317.037 8  93902280.886 9
E34  24700353.344 8  24700356.335 8 129801219.153 8  98193786.501 8
G01  23064203.391 7                  23064208.667 7  23064210.164 7 121203173.743 7                  94444047.653 7  90508879.420 7
G03  20709689.072 8                  20709694.516 7  20709693.108 8 108830141.176 8                  84802731.973 7  81269278.359 8
G04  20069631.742 7                  20069635.755 8  20069636.732 9 105466629.970 7                  82181811.492 8  78757572.015 9
G06  22147012.630 7                  22147019.097 8  22147017.492 8 116383354.505 7                  90688359.306 8  86909673.515 8
G09  21343303.008 7                  21343308.760 8  21343307.284 8 112159834.236 7                  87397585.286 8  83755753.429 8
G17  24012615.115 6                  24012621.469 6                 126187113.989 6                  98327499.927 6
G19  22694067.196 7  22694069.617 5                                 119258112.688 7  92928409.664 5                
G28  24790048.778 4                                  24790086.041 5                                                  97281447.674 5
G31  22633404.722 7                  22633408.472 7                 118939344.754 7                  92680027.707 7
R03  21728068.368 8  21728072.124 7 116312033.699 8  90464767.580 7
R04  19267354.217 8  19267355.353 7 103175799.226 8  80247944.955 7
R05  20882700.796 8  20882703.551 8 111630027.417 8  86823380.890 8
R12  23483886.940 7  23483891.662 7 125446790.761 7  97569693.704 7
R13  22221031.733 6                 118659098.131 6
R14  23430665.172 6  23430668.730 6 124898625.663 6  97143398.363 6
R19  20277375.539 8  20277376.708 7 108470276.845 8  84365744.931 7
R20  20294507.191 6  20294511.583 7 108523868.999 6  84407472.483 7
> 2025 06 15 15 21 30.0000000  0 37
C05  39168359.372 6  39168356.244 6 203959894.887 6 157714744.523 6
C06  38225032.142 7  38225026.828 7 199047781.711 7 153916349.155 7
C09  38318529.851 7  38318527.664 7 199534640.152 7 154292844.127 7
C11  23118043.905 7  23118040.357 8 120381692.097 7  93086869.720 8
C12  24046157.852 7  24046156.163 8 125214610.204 7  96823717.782 8
C16  38879763.033 7  38879764.245 7 202457114.575 7 156552685.759 7
C21  21860177.997 8                 113831670.011 8
C22  23175016.802 8                 120678371.104 8
C34  23072742.250 7                 120145799.982 7
C36  24623571.886 7                 128221423.160 7
C39  39145390.393 7                 203840319.410 7
C42  24411153.581 7                 127115315.639 7
C43  24036639.418 7                 125165076.222 7
C44  25586900.433 5                 133237510.542 5
C45  25421189.807 6                 132374799.491 6
E03  23681250.741 8  23681253.136 9 124445822.887 8  94142473.188 9
E05  22615910.101 8  22615912.523 9 118847417.578 8  89907264.253 9
E08  27397214.357 7  27397219.764 8 143973348.418 7 108914931.328 8
E13  26777386.585 6  26777392.236 8 140716140.155 6 106450872.230 8
E15  23619362.777 7  23619365.905 9 124120590.165 7  93896435.558 9
E34  24706795.107 8  24706797.892 8 129835069.820 8  98219394.302 8
G01  23074144.687 7                  23074149.519 6  23074151.875 7 121255415.811 7                  94484755.700 6  90547891.324 7
G03  20714913.978 8                  20714919.236 7  20714917.600 8 108857596.516 8                  84824125.719 7  81289780.695 8
G04  20068336.741 7                  20068340.858 8  20068341.298 9 105459823.995 7                  82176508.146 8  78752489.650 9
G06  22140238.351 7                  22140245.131 7  22140243.227 8 116347755.922 7                  90660620.186 7  86883090.183 8
G09  21335749.448 7                  21335754.980 8  21335753.296 8 112120138.777 7                  87366653.788 8  83726110.756 8
G17  24020228.577 6                  24020235.378 7                 126227123.081 6                  98358675.757 7
G19  22699270.211 7  22699272.094 5                                 119285454.427 7  92949714.892 5                
G31  22638266.903 7                  22638270.631 7                 118964895.646 7                  92699937.468 7
R03  21736807.201 8  21736811.097 7 116358816.824 8  90501154.455 7
R04  19268799.465 8  19268800.724 7 103183541.138 8  80253966.467 7
R05  20875189.717 8  20875192.435 7 111589878.649 8  86792154.081 7
R12  23489623.631 7  23489628.353 7 125477437.349 7  97593529.938 7
R13  22218376.992 7                 118644919.503 7
R14  23419688.729 7  23419692.455 6 124840116.546 7  97097891.352 6
R19  20285244.867 8  20285245.249 7 108512370.271 8  84398484.238 7
R20  20289643.138 6  20289647.483 7 108497857.592 6  84387241.393 7
> 2025 06 15 15 21 45.0000000  0 37
C05  39168227.198 6  39168224.055 6 203959206.582 6 157714212.284 6
C06  38225213.103 6  38225208.318 7 199048725.814 6 153917079.215 7
C09  38317135.334 7  38317133.094 7 199527378.173 7 154287228.708 7
C11  23118517.860 7  23118514.437 8 120384160.468 7  93088778.424 8
C12  24054580.388 7  24054578.680 8 125258468.032 7  96857631.394 8
C16  38880332.506 7  38880333.938 7 202460081.150 7 156554979.708 7
C21  21858961.224 8                 113825333.262 8
C22  23181254.320 8                 120710852.313 8
C34  23077871.419 7                 120172508.585 7
C36  24620909.127 7                 128207556.540 7
C39  39147199.762 7                 203849742.329 7
C42  24403670.462 7                 127076349.643 7
C43  24033426.055 7                 125148344.290 7
C44  25596594.107 5                 133287991.097 5
C45  25412788.736 6                 132331056.486 6
E03  23677453.355 8  23677455.815 9 124425867.778 8  94127377.286 9
E05  22619948.003 8  22619950.386 9 118868636.730 8  89923316.405 9
E08  27388798.124 7  27388803.116 8 143929119.129 7 108881472.249 8
E13  26769355.050 6  26769360.210 8 140673931.811 6 106418941.960 8
E15  23617910.483 8  23617913.336 9 124112956.787 8  93890660.953 9
E34  24713249.208 8  24713252.024 8 129868986.723 8  98245052.184 8
G01  23084094.973 7                  23084099.953 6  23084102.482 7 121307705.657 7                  94525500.968 6  90586938.880 7
G03  20720153.548 8                  20720158.830 7  20720157.369 8 108885131.137 8                  84845581.267 7  81310342.248 8
G04  20067063.874 8                  20067067.758 8  20067068.408 9 105453133.885 8                  82171295.075 8  78747493.788 9
G06  22133483.823 7                  22133490.423 7  22133488.789 8 116312260.557 7                  90632961.458 7  86856583.920 8
G09  21328210.746 7                  21328216.565 7  21328214.834 8 112080524.396 7                  87335785.495 7  83696528.642 8
G17  24027850.644 6                  24027857.514 7                 126267178.341 6                  98389887.574 7
G19  22704496.203 6  22704497.870 5                                 119312916.875 6  92971114.178 5                
G31  22643155.388 7                  22643158.913 6                 118990585.711 7                  92719955.701 6
R03  21745552.848 7  21745557.173 7 116405631.788 7  90537566.056 7
R04  19270265.752 8  19270266.625 7 103191391.577 8  80260072.349 7
R05  20867694.317 8  20867697.057 7 111549810.646 8  86760990.140 7
R12  23495390.834 7  23495395.735 6 125508242.627 7  97617489.562 6
R13  22215756.785 7                 118630929.534 7
R14  23408721.388 7  23408726.823 6 124781657.111 7  97052422.930 6
R19  20293142.640 8  20293143.741 7 108554618.369 8  84431343.835 7
R20  20284813.402 6  20284818.013 7 108472032.912 6  84367155.563 7
> 2025 06 15 15 22  0.0000000  0 37
C05  39168095.326 6  39168091.957 6 203958518.632 6 157713680.317 6
C06  38225401.107 7  38225396.512 7 199049705.535 7 153917836.807 7
C09  38315747.385 7  38315745.504 7 199520151.650 7 154281640.705 7
C11  23119017.183 7  23119014.169 8 120386760.659 7  93090789.033 8
C12  24063014.556 7  24063013.094 8 125302387.528 7  96891592.685 8
C16  38880908.600 7  38880910.013 7 202463080.940 7 156557299.354 7
C21  21857758.568 8                 113819070.678 8
C22  23187499.510 8                 120743372.979 8
C34  23083020.586 7                 120199321.366 7
C36  24618268.326 7                 128193806.618 7
C39  39149014.615 7                 203859193.761 7
C42  24396194.653 7                 127037420.611 7
C43  24030236.024 7                 125131733.857 7
C44  25606288.487 4                 133338475.123 4
C45  25404396.981 6                 132287355.936 6
E03  23673670.441 8  23673673.124 9 124405989.745 8  94112339.697 9
E05  22623997.774 8  22624000.181 9 118889918.544 8  89939415.965 9
E08  27380386.304 7  27380391.436 8 143884916.199 7 108848033.077 8
E13  26761329.984 6  26761334.941 8 140631759.028 6 106387038.552 8
E15  23616476.060 8  23616479.265 9 124105420.900 8  93884960.101 9
E34  24719716.618 8  24719719.517 8 129902973.645 8  98270763.055 8
G01  23094055.422 6                  23094060.355 6  23094062.709 7 121360046.895 6                  94566286.287 6  90626024.794 7
G03  20725408.826 8                  20725414.191 7  20725412.546 8 108912748.914 8                  84867101.605 7  81330965.916 8
G04  20065813.564 8                  20065817.217 8  20065818.242 9 105446563.506 8                  82166175.311 8  78742587.347 9
G06  22126749.511 7                  22126756.314 7  22126754.760 8 116276872.618 7                  90605386.437 7  86830157.868 8
G09  21320688.428 7                  21320693.986 7  21320692.769 8 112040995.211 7                  87304983.549 7  83667010.103 8
G17  24035482.862 6                  24035489.352 7                 126307283.700 6                  98421138.387 7
G19  22709746.183 7  22709747.840 5                                 119340503.896 7  92992610.521 5                
G31  22648071.248 7                  22648074.861 7                 119016418.728 7                  92740085.336 7
R03  21754305.574 8  21754309.639 7 116452482.846 8  90574005.758 7
R04  19271753.102 8  19271753.614 7 103199354.722 8  80266265.896 7
R05  20860214.296 8  20860216.838 7 111509827.444 8  86729892.114 7
R12  23501188.133 7  23501192.883 7 125539210.211 7  97641575.454 7
R13  22213173.430 7                 118617132.479 7
R14  23397764.690 7  23397770.261 6 124723252.200 7  97006996.967 6
R19  20301070.259 8  20301071.193 7 108597024.949 8  84464326.688 7
R20  20280020.004 6  20280024.081 7 108446398.956 6  84347218.061 7
> 2025 06 15 15 22 15.0000000  0 37
C05  39167963.218 6  39167960.313 6 203957832.212 6 157713149.552 6
C06  38225596.574 6  38225591.779 6 199050722.037 6 153918622.844 6
C09  38314366.970 7  38314364.349 7 199512961.763 7 154276081.030 7
C11  23119542.579 7  23119539.598 8 120389493.767 7  93092902.424 8
C12  24071460.576 7  24071459.129 7 125346369.595 7  96925602.373 7
C16  38881490.959 7  38881492.707 7 202466115.106 7 156559645.563 7
C21  21856570.324 8                 113812883.424 8
C22  23193752.603 8                 120775934.189 8
C34  23088189.693 7                 120226239.360 7
C36  24615650.368 7                 128180174.756 7
C39  39150835.822 7                 203868674.943 7
C42  24388726.066 7                 126998529.761 7
C43  24027070.032 7                 125115246.241 7
C44  25615982.330 4                                
C45  25396012.829 6                 132243699.448 6
E03  23669903.374 8  23669905.376 9 124386190.022 8  94097361.359 9
E05  22628059.426 8  22628062.137 9 118911264.108 8  89955563.739 9
E08  27371979.569 7  27371985.082 8 143840740.972 7 108814614.857 8
E13  26753311.958 6  26753316.791 8 140589623.191 6 106355163.104 8
E15  23615061.018 8  23615064.000 9 124097983.817 8  93879334.010 9
E34  24726197.704 8  24726200.682 8 129937031.690 8  98296527.723 8
G01  23104026.011 6                  23104030.231 6  23104033.150 7 121412440.478 6                  94607112.383 6  90665149.844 7
G03  20730680.611 8                  20730685.892 7  20730684.515 8 108940450.979 8                  84888687.635 7  81351652.506 8
G04  20064586.352 8                  20064589.738 8  20064590.638 9 105440114.049 8                  82161149.758 8  78737771.191 9
G06  22120036.260 7                  22120042.683 7  22120041.387 8 116241593.586 7                  90577896.296 7  86803813.148 8
G09  21313182.802 7                  21313188.341 7  21313187.066 8 112001552.554 7                  87274249.029 7  83637556.177 8
G17  24043124.689 6                  24043130.912 7                 126347440.006 6                  98452428.978 7
G19  22715019.131 7  22715022.092 5                                 119368216.548 7  93014204.788 5                
G31  22653014.316 7                  22653017.843 6                 119042395.874 7                  92760327.238 6
R03  21763064.341 8  21763068.179 7 116499370.299 8  90610473.744 7
R04  19273261.212 8  19273262.058 7 103207431.252 8  80272547.634 7
R05  20852750.526 8  20852753.669 7 111469930.401 8  86698861.077 7
R12  23507015.731 7  23507020.775 7 125570341.031 7  97665788.299 7
R13  22210625.626 6                 118603529.974 6
R14  23386817.763 7  23386823.456 6 124664903.458 7  96961614.730 6
R19  20309027.371 8  20309028.197 7 108639590.547 8  84497433.270 7
R20  20275261.900 6  20275266.353 7 108420957.453 6  84327430.197 7
> 2025 06 15 15 22 30.0000000  0 36
C05  39167831.300 6  39167827.542 6 203957143.898 6 157712617.296 6
C06  38225798.277 6  38225793.618 7 199051771.792 6 153919434.593 7
C09  38312992.550 7  38312990.126 7 199505804.999 7 154270546.978 7
C11  23120092.019 7  23120089.675 8 120392356.268 7  93095115.876 8
C12  24079918.382 7  24079917.143 8 125390410.386 7  96959657.498 8
C16  38882080.163 7  38882081.256 7 202469180.156 7 156562015.656 7
C21  21855396.076 8                 113806768.030 8
C22  23200012.839 8                 120808532.313 8
C34  23093378.524 7                 120253258.841 7
C36  24613055.139 7                 128166657.582 7
C39  39152661.464 7                 203878182.271 7
C42  24381263.948 7                 126959673.774 7
C43  24023926.500 7                 125098878.104 7
C45  25387637.136 6                 132200083.920 6
E03  23666149.608 8  23666151.812 9 124366465.159 8  94082439.630 9
E05  22632132.891 8  22632135.467 9 118932669.736 8  89971756.949 9
E08  27363578.071 7  27363583.255 8 143796590.019 7 108781215.009 8
E13  26745300.291 6  26745304.986 8 140547521.026 6 106323313.129 8
E15  23613663.863 8  23613666.860 9 124090642.167 8  93873780.099 9
E34  24732691.585 8  24732694.557 8 129971157.224 8  98322343.442 8
G01  23114005.081 6                  23114009.820 6  23114012.599 7 121464882.612 6                  94647976.328 6  90704311.099 7
G03  20735967.666 7                  20735972.670 7  20735971.419 8 108968233.735 7                  84910336.525 7  81372399.361 8
G04  20063381.388 7                  20063384.875 8  20063385.622 9 105433781.923 7                  82156215.630 8  78733042.663 9
G06  22113342.841 7                  22113349.544 7  22113348.149 8 116206420.253 7                  90550488.533 7  86777547.384 8
G09  21305693.320 7                  21305698.399 7  21305697.300 8 111962193.044 7                  87243579.287 7  83608164.356 8
G17  24050775.192 6                  24050781.473 7                 126387643.260 6                  98483756.107 7
G19  22720316.777 7  22720319.260 5                                 119396050.771 7  93035893.729 5                
G31  22657984.882 7                  22657988.344 7                 119068513.050 7                  92780678.271 7
R03  21771829.261 7  21771833.624 7 116546290.604 7  90646967.258 7
R04  19274790.005 8  19274790.700 7 103215617.618 8  80278914.800 7
R05  20845302.834 8  20845305.394 8 111430116.008 8  86667894.339 8
R12  23512873.620 7  23512878.557 7 125601631.113 7  97690125.037 7
R13  22208114.102 6                 118590118.621 6
R14  23375881.393 7  23375887.240 6 124606607.828 7  96916273.737 6
R19  20317013.287 8  20317014.261 7 108682311.279 8  84530660.471 7
R20  20270539.934 6  20270544.493 7 108395705.640 6  84307789.884 7
> 2025 06 15 15 22 45.0000000  0 36
C05  39167699.617 6  39167696.212 6 203956457.947 6 157712086.880 6
C06  38226006.974 6  38226002.007 7 199052859.097 6 153920275.356 7
C09  38311625.366 7  38311622.575 7 199498685.549 7 154265041.768 7
C11  23120667.255 7  23120665.064 8 120395352.443 7  93097432.696 8
C12  24088387.997 7  24088386.984 8 125434514.020 7  96993761.188 8
C16  38882675.280 7  38882676.848 7 202472280.306 7 156564412.914 7
C21  21854235.950 8                 113800728.742 8
C22  23206280.919 8                 120841171.527 8
C34  23098587.734 7                 120280383.875 7
C36  24610481.805 7                 128153259.552 7
C39  39154492.999 6                 203887720.002 6
C42  24373809.585 7                 126920856.867 7
C43  24020807.023 7                 125082633.805 7
C45  25379269.718 6                 132156513.839 6
E03  23662411.401 8  23662413.329 9 124346819.435 8  94067577.786 9
E05  22636218.714 8  22636221.029 9 118954139.604 8  89987998.756 9
E08  27355182.214 7  27355186.893 8 143752467.728 7 108747836.889 8
E13  26737295.044 6  26737300.267 8 140505456.986 6 106291492.004 8
E15  23612285.704 8  23612288.696 9 124083400.348 8  93868301.721 9
E34  24739198.623 8  24739202.082 8 130005354.445 8  98348213.395 8
G01  23123994.628 6                  23123998.857 5  23124001.863 7 121517377.338 6                  94688881.271 5  90743511.641 7
G03  20741270.192 8                  20741275.814 7  20741274.537 8 108996101.367 8                  84932051.563 7  81393209.600 8
G04  20062199.652 7                  20062203.208 8  20062203.913 9 105427571.407 7                  82151376.261 8  78728404.957 9
G06  22106670.962 7                  22106677.204 7  22106675.861 8 116171357.241 7                  90523166.732 7  86751363.983 8
G09  21298219.847 7                  21298225.281 8  21298224.125 8 111922921.120 7                  87212977.800 8  83578837.953 8
G17  24058435.421 6                  24058441.495 7                 126427897.378 6                  98515122.907 7
G19  22725637.227 7  22725639.746 5                                 119424010.667 7  93057680.613 5                
G31  22662982.125 7                  22662986.110 7                 119094774.396 7                  92801141.658 7
R03  21780601.886 8  21780604.468 7 116593248.060 8  90683489.688 7
R04  19276339.845 8  19276341.003 7 103223918.070 8  80285370.713 7
R05  20837870.651 8  20837874.190 8 111390388.526 8  86636995.229 8
R12  23518761.451 8  23518766.120 7 125633084.559 8  97714588.788 7
R13  22205639.273 7                 118576902.755 7
R14  23364956.661 7  23364962.167 6 124548370.403 7  96870978.040 6
R19  20325029.355 8  20325029.944 7 108725190.955 8  84564011.291 7
R20  20265854.413 6  20265858.387 7 108370647.837 6  84288300.520 7
> 2025 06 15 15 23  0.0000000  0 36
C05  39167567.159 6  39167563.934 6 203955769.343 6 157711554.407 6
C06  38226222.354 7  38226217.167 6 199053978.848 7 153921141.211 6
C09  38310264.319 7  38310261.822 7 199491598.545 7 154259561.665 7
C11  23121267.437 7  23121264.708 8 120398477.344 7  93099849.070 8
C12  24096869.035 7  24096867.576 8 125478675.137 7  97027909.304 8
C16  38883276.459 7  38883277.976 7 202475410.518 7 156566833.405 7
C21  21853090.031 8                 113794760.540 8
C22  23212555.800 8                 120873846.763 8
C34  23103816.125 7                 120307609.273 7
C36  24607930.956 7                 128139975.795 7
C39  39156329.201 7                 203897283.096 7
C42  24366361.864 7                 126882074.185 7
C43  24017710.374 7                 125066508.537 7
C45  25370912.322 6                 132112984.477 6
E03  23658687.094 8  23658688.958 9 124327247.826 8  94052772.015 9
E05  22640315.441 8  22640317.817 9 118975668.543 8  90004285.253 9
E08  27346790.191 7  27346795.175 8 143708369.278 7 108714476.760 8
E13  26729297.318 7  26729302.046 8 140463426.272 7 106259696.092 8
E15  23610925.966 8  23610928.656 9 124076253.437 8  93862895.142 9
E34  24745719.062 8  24745722.343 8 130039618.230 8  98374133.701 8
G01  23133993.139 6                  23133998.205 5  23134000.073 7 121569919.371 6                  94729823.121 5  90782747.499 7
G03  20746588.500 8                  20746594.095 7  20746592.436 8 109024048.854 8                  84953828.812 7  81414079.465 8
G04  20061039.661 8                  20061043.788 8  20061044.295 9 105421477.418 8                  82146627.735 8  78723854.275 9
G06  22100019.103 7                  22100025.045 7  22100023.517 8 116136399.803 7                  90495927.191 7  86725259.434 8
G09  21290762.253 7                  21290768.020 8  21290766.630 8 111883731.938 7                  87182440.795 8  83549573.323 8
G17  24066104.135 7                  24066110.284 6                 126468197.071 7                  98546525.217 6
G19  22730980.476 7  22730982.958 5                                 119452090.574 7  93079561.036 5                
G31  22668006.017 7                  22668009.657 7                 119121174.759 7                  92821713.394 7
R03  21789379.609 8  21789382.789 7 116640237.571 8  90720037.105 7
R04  19277910.202 8  19277911.053 7 103232327.301 8  80291911.252 7
R05  20830454.338 8  20830457.569 8 111350742.955 8  86606159.836 8
R12  23524679.270 8  23524683.292 6 125664695.984 8  97739175.460 6
R13  22203200.074 7                 118563877.610 7
R14  23354041.627 7  23354047.830 6 124490186.506 7  96825724.032 6
R19  20333073.833 8  20333074.993 7 108768224.120 8  84597481.529 7
R20  20261202.863 6  20261208.144 8 108345779.219 6  84268958.299 8
> 2025 06 15 15 23 15.0000000  0 36
C05  39167435.533 6  39167432.432 6 203955083.891 6 157711024.372 6
C06  38226444.837 7  38226439.669 7 199055136.846 7 153922036.632 7
C09  38308910.751 7  38308907.998 7 199484549.593 7 154254110.978 7
C11  23121893.533 7  23121890.042 8 120401736.573 7  93102369.297 8
C12  24105361.127 7  24105360.500 8 125522899.230 7  97062106.126 8
C16  38883884.777 7  38883885.858 7 202478576.522 7 156569281.566 7
C21  21851958.604 8                 113788869.109 8
C22  23218838.519 7                 120906563.669 7
C34  23109064.298 7                 120334940.491 7
C36  24605402.958 7                 128126812.217 7
C39  39158171.649 6                 203906877.207 6
C42  24358921.738 7                 126843331.537 7
C43  24014637.453 7                 125050508.087 7
C45  25362559.509 6                 132069502.001 6
E03  23654977.868 8  23654979.836 9 124307756.161 8  94038026.708 9
E05  22644424.860 8  22644426.947 9 118997262.170 8  90020620.688 9
E08  27338404.277 7  27338409.020 8 143664300.431 7 108681139.058 8
E13  26721307.283 7  26721311.246 8 140421434.904 7 106227929.930 8
E15  23609585.159 8  23609587.735 9 124069207.288 8  93857564.784 9
E34  24752252.948 8  24752256.496 8 130073954.194 8  98400108.613 8
G01  23144001.619 6                  23144007.319 5  23144008.525 7 121622514.211 6                  94770806.018 5  90822022.783 7
G03  20751922.989 8                  20751928.646 7  20751926.848 8 109052081.822 8                  84975672.684 7  81435013.151 8
G04  20059903.289 7                  20059907.278 8  20059908.041 9 105415505.701 7                  82141974.459 8  78719394.877 9
G06  22093387.910 7                  22093394.026 7  22093392.585 8 116101554.044 7                  90468774.662 7  86699238.263 8
G09  21283321.834 7                  21283327.521 8  21283325.888 8 111844631.325 7                  87151972.844 8  83520374.868 8
G17  24073782.704 6                  24073788.657 6                 126508547.730 6                  98577967.226 6
G19  22736347.651 7  22736350.097 5                                 119480296.171 7  93101539.403 5                
G31  22673057.097 7                  22673060.951 7                 119147719.594 7                  92842397.660 7
R03  21798164.571 8  21798168.645 7 116687264.202 8  90756613.353 7
R04  19279501.847 8  19279503.373 7 103240850.987 8  80298540.801 7
R05  20823054.743 8  20823057.216 8 111311185.913 8  86575393.249 8
R12  23530627.658 8  23530632.224 7 125696470.663 8  97763889.085 7
R13  22200797.552 6                 118551049.151 6
R14  23343137.403 7  23343142.638 6 124432062.643 7  96780516.654 6
R19  20341148.431 8  20341149.389 7 108811416.603 8  84631075.625 7
R20  20256589.838 6  20256594.085 7 108321106.369 6  84249768.298 7
> 2025 06 15 15 23 30.0000000  0 36
C05  39167304.988 6  39167301.713 6 203954405.083 6 157710499.499 6
C06  38226675.029 6  38226670.062 7 199056336.535 6 153922964.297 7
C09  38307565.165 7  38307562.227 7 199477542.326 7 154248692.521 7
C11  23122545.413 7  23122542.292 8 120405133.770 7  93104996.235 8
C12  24113867.140 7  24113865.840 7 125567189.544 7  97096354.144 7
C16  38884500.121 7  38884501.572 7 202481781.836 7 156571760.103 7
C21  21850842.309 8                 113783058.054 8
C22  23225130.375 7                 120939325.710 7
C34  23114334.106 7                 120362380.954 7
C36  24602898.799 7                 128113772.443 7
C39  39160020.585 6                 203916505.872 6
C42  24351490.024 7                 126804632.530 7
C43  24011589.429 7                 125034636.186 7
C45  25354219.544 5                 132026070.154 5
E03  23651284.306 8  23651286.590 9 124288348.046 8  94023344.606 9
E05  22648546.775 8  22648549.055 9 119018923.962 8  90037007.685 9
E08  27330024.223 7  27330029.199 8 143620264.916 7 108647826.538 8
E13  26713324.474 7  26713328.659 8 140379486.646 7 106196196.356 8
E15  23608264.053 8  23608266.771 9 124062265.688 8  93852313.485 9
E34  24758801.371 7  24758804.801 8 130108365.854 7  98426140.774 8
G01  23154020.992 6                  23154026.706 6  23154028.243 7 121675165.179 6                  94811832.743 6  90861339.979 7
G03  20757274.778 8                  20757280.278 7  20757278.491 8 109080203.816 8                  84997585.891 7  81456013.320 8
G04  20058790.995 7                  20058794.784 8  20058795.542 9 105409659.817 7                  82137419.240 8  78715029.438 9
G06  22086778.689 7                  22086785.311 7  22086783.385 8 116066823.831 7                  90441712.183 7  86673303.384 8
G09  21275898.609 7                  21275904.329 8  21275902.822 8 111805623.124 7                  87121576.880 8  83491245.407 8
G17  24081471.511 6                  24081477.679 6                 126548952.604 6                  98609451.461 6
G19  22741738.782 7  22741741.609 4                                 119508630.616 7  93123618.152 4                
G31  22678136.696 7                  22678140.150 7                 119174412.330 7                  92863197.188 7
R03  21806957.321 7  21806961.591 7 116734332.104 7  90793221.693 7
R04  19281115.989 8  19281117.242 7 103249492.930 8  80305262.311 7
R05  20815671.442 7  20815674.505 7 111271720.527 7  86544697.966 7
R12  23536607.438 7  23536611.847 7 125728411.989 7  97788732.335 7
R13  22198433.475 7                 118538421.317 7
R14  23332245.033 7  23332251.942 6 124374003.018 7  96735359.271 6
R19  20349253.084 8  20349254.042 7 108854771.408 8  84664795.994 7
R20  20252012.148 6  20252017.243 7 108296632.456 6  84230733.050 7
> 2025 06 15 15 23 45.0000000  0 36
C05  39167176.064 6  39167172.266 6 203953731.791 6 157709978.865 6
C06  38226913.396 7  38226908.179 6 199057576.756 7 153923923.315 6
C09  38306227.315 7  38306224.258 7 199470575.508 7 154243305.329 7
C11  23123223.395 7  23123221.074 8 120408667.657 7  93107728.873 8
C12  24122385.129 7  24122383.635 8 125611544.622 7  97130652.244 8
C16  38885123.255 7  38885124.073 7 202485025.192 7 156574268.069 7
C21  21849741.725 8                 113777326.133 8
C22  23231430.305 8                 120972131.587 8
C34  23119624.833 7                 120389929.204 7
C36  24600418.384 7                 128100855.496 7
C39  39161876.254 7                 203926167.852 7
C42  24344066.750 7                 126765976.010 7
C43  24008565.588 7                 125018891.756 7
C45  25345888.751 5                 131982688.272 5
E03  23647606.719 8  23647609.023 9 124269022.275 8  94008724.809 9
E05  22652681.693 8  22652683.932 9 119040652.570 8  90053445.227 9
E08  27321651.133 7  27321655.520 8 143576261.610 7 108614538.435 8
E13  26705349.706 7  26705354.195 8 140337580.515 7 106164494.672 8
E15  23606962.941 8  23606965.537 9 124055427.436 8  93847140.405 9
E34  24765363.824 8  24765367.133 8 130142851.862 8  98452229.198 8
G01  23164050.566 6                  23164055.612 6  23164057.726 7 121727870.823 6                  94852902.026 6  90900698.008 7
G03  20762642.968 8                  20762648.020 7  20762646.655 8 109108413.520 8                  85019567.494 7  81477079.023 8
G04  20057702.063 7                  20057705.831 8  20057706.714 9 105403938.552 7                  82132961.086 8  78710757.042 9
G06  22080191.725 7                  22080197.897 7  22080196.287 8 116032208.282 7                  90414739.040 7  86647454.133 8
G09  21268492.908 7                  21268498.657 7  21268497.198 8 111766706.272 7                  87091252.082 7  83462184.147 8
G17  24089170.454 7                  24089176.731 6                 126589410.085 7                  98640976.737 6
G19  22747156.075 7  22747157.763 5                                 119537092.359 7  93145796.140 5                
G31  22683243.982 7                  22683247.473 7                 119201251.423 7                  92884110.759 7
R03  21815756.632 7  21815760.985 7 116781439.271 7  90829860.557 7
R04  19282751.510 8  19282752.689 7 103258251.362 8  80312074.412 7
R05  20808305.474 8  20808308.610 8 111232345.920 8  86514073.313 8
R12  23542617.699 7  23542622.151 7 125760518.640 7  97813704.159 7
R13  22196105.597 7                 118525993.162 7
R14  23321365.832 7  23321371.760 6 124316006.880 7  96690251.209 6
R19  20357387.627 8  20357388.769 7 108898286.648 8  84698641.167 7
R20  20247472.938 6  20247477.861 8 108272357.342 6  84211852.369 8
> 2025 06 15 15 24  0.0000000  0 36
C05  39167047.407 6  39167044.315 6 203953063.547 6 157709462.149 6
C06  38227160.139 7  38227154.001 7 199058856.974 7 153924913.268 7
C09  38304896.708 7  38304894.243 7 199463648.678 7 154237949.092 7
C11  23123929.021 7  23123926.329 8 120412337.806 7  93110566.853 8
C12  24130915.503 7  24130913.877 8 125655963.745 7  97164999.898 8
C16  38885753.687 7  38885754.242 7 202488306.188 7 156576805.153 7
C21  21848656.058 8                 113771672.939 8
C22  23237738.844 8                 121004980.792 8
C34  23124935.724 7                 120417584.648 7
C36  24597961.293 7                 128088061.063 7
C39  39163737.923 6                 203935862.700 6
C42  24336650.325 7                 126727361.661 7
C43  24005566.605 7                 125003274.492 7
C45  25337567.656 6                 131939356.151 6
E03  23643944.626 8  23643947.033 9 124249778.465 8  93994166.993 9
E05  22656828.888 8  22656831.357 9 119062447.416 8  90069932.902 9
E08  27313283.828 7  27313287.959 8 143532290.224 7 108581274.464 8
E13  26697383.195 7  26697387.646 8 140295716.299 7 106132824.696 8
E15  23605680.953 8  23605683.926 9 124048692.268 8  93842045.303 9
E34  24771940.680 8  24771943.593 8 130177411.711 8  98478373.479 8
G01  23174090.415 6                  23174095.804 6  23174097.603 7 121780630.421 6                  94894013.365 6  90940096.337 7
G03  20768027.334 8                  20768032.741 7  20768031.771 8 109136710.483 8                  85041617.061 7  81498209.845 8
G04  20056636.953 8                  20056640.675 8  20056641.419 9 105398341.359 8                  82128599.642 8  78706577.332 9
G06  22073626.350 7                  22073632.533 7  22073631.109 8 115997707.291 7                  90387855.164 7  86621690.416 8
G09  21261104.748 7                  21261110.274 8  21261108.682 8 111727880.446 7                  87060998.210 8  83433190.853 8
G17  24096878.945 6                  24096885.529 6                 126629919.542 6                  98672542.493 6
G19  22752595.930 7  22752598.464 5                                 119565680.837 7  93168072.823 5                
G31  22688378.826 7                  22688382.408 7                 119228236.194 7                  92905137.811 7
R03  21824564.700 8  21824567.513 7 116828585.237 8  90866529.607 7
R04  19284408.492 8  19284409.761 7 103267125.891 8  80318976.838 7
R05  20800956.848 7  20800959.679 7 111193061.591 7  86483518.898 7
R12  23548659.074 7  23548663.164 6 125792789.416 7  97838803.608 6
R13  22193815.660 7                 118513764.570 7
R14  23310497.486 7  23310504.338 6 124258074.561 7  96645192.848 6
R19  20365552.284 8  20365553.677 7 108941961.762 8  84732610.675 7
R20  20242970.641 6  20242975.087 7 108248280.698 6  84193126.124 7
> 2025 06 15 15 24 15.0000000  0 36
C05  39166919.265 6  39166916.495 6 203952398.437 6 157708947.851 6
C06  38227413.800 7  38227407.276 7 199060175.253 7 153925932.657 7
C09  38303573.913 7  38303571.178 7 199456759.890 7 154232622.255 7
C11  23124659.623 7  23124657.279 8 120416142.159 7  93113508.604 8
C12  24139457.503 7  24139456.173 8 125700444.627 7  97199395.304 8
C16  38886390.414 7  38886391.030 7 202491622.770 7 156579369.737 7
C21  21847585.458 8                 113766096.417 8
C22  23244055.136 8                 121037871.218 8
C34  23130266.980 7                 120445345.044 7
C36  24595527.215 7                 128075387.238 7
C39  39165605.652 6                 203945588.336 6
C42  24329242.696 7                 126688787.501 7
C43  24002591.628 7                 124987782.520 7
C45  25329254.788 6                 131896072.121 6
E03  23640297.983 8  23640300.260 9 124230614.610 8  93979669.672 9
E05  22660988.687 8  22660991.005 9 119084306.364 8  90086469.044 9
E08  27304921.430 7  27304926.125 8 143488348.893 7 108548033.201 8
E13  26689424.481 7  26689428.699 8 140253892.152 7 106101185.039 8
E15  23604418.576 8  23604421.580 9 124042058.269 8  93837026.722 9
E34  24778530.721 8  24778533.804 8 130212043.224 8  98504571.985 8
G01  23184139.820 6                  23184145.672 6  23184147.367 7 121833441.757 6                  94935164.971 6  90979533.310 7
G03  20773428.637 8                  20773434.051 7  20773432.700 8 109165092.593 8                  85063732.954 7  81519404.250 8
G04  20055595.004 8                  20055598.891 8  20055599.590 9 105392866.209 8                  82124333.296 8  78702488.755 9
G06  22067082.134 7                  22067088.761 7  22067087.295 8 115963319.090 7                  90361059.157 7  86596010.930 8
G09  21253733.557 7                  21253738.768 7  21253737.363 8 111689143.797 7                  87030813.827 7  83404264.151 8
G17  24104597.245 6                  24104603.810 7                 126670478.539 6                  98704146.828 7
G19  22758059.562 7  22758062.770 5                                 119594393.564 7  93190446.356 5                
G31  22693541.231 7                  22693544.839 7                 119255364.447 7                  92926276.687 7
R03  21833378.856 8  21833382.151 7 116875767.939 8  90903227.253 7
R04  19286087.218 8  19286087.796 7 103276114.348 8  80325967.847 7
R05  20793624.263 8  20793626.820 7 111153865.888 8  86453033.317 7
R12  23554730.511 7  23554734.956 6 125825222.151 7  97864029.050 6
R13  22191562.459 6                 118501733.435 6
R14  23299641.036 7  23299647.164 6 124200204.408 7  96600182.802 6
R19  20373746.738 8  20373747.616 7 108985794.351 8  84766702.625 7
R20  20238504.559 6  20238509.306 7 108224400.810 6  84174552.893 7
> 2025 06 15 15 24 30.0000000  0 36
C05  39166791.753 6  39166788.298 6 203951732.780 6 157708433.133 6
C06  38227672.625 7  38227667.116 7 199061527.941 7 153926978.646 7
C09  38302258.294 7  38302254.942 7 199449905.495 7 154227322.002 7
C11  23125415.686 7  23125413.075 8 120420077.102 7  93116551.347 8
C12  24148010.422 7  24148009.379 8 125744983.348 7  97233835.428 8
C16  38887033.112 7  38887034.132 7 202494971.254 7 156581958.990 7
C21  21846528.177 8                 113760592.952 8
C22  23250378.476 8                 121070799.159 8
C34  23135617.105 7                 120473206.542 7
C36  24593116.145 7                 128062830.579 7
C39  39167478.453 7                 203955341.112 7
C42  24321842.157 7                 126650250.014 7
C43  23999639.908 7                 124972412.340 7
C45  25320951.323 6                 131852832.902 6
E03  23636665.696 8  23636668.022 9 124211527.063 8  93965230.075 9
E05  22665159.669 8  22665162.110 9 119106225.598 8  90103050.792 9
E08  27296564.794 7  27296569.326 8 143444433.981 7 108514811.952 8
E13  26681472.227 7  26681476.825 8 140212104.707 7 106069573.126 8
E15  23603175.045 8  23603177.825 9 124035521.870 8  93832081.987 9
E34  24785133.720 8  24785136.890 8 130246742.671 8  98530821.866 8
G01  23194198.840 6                  23194204.535 6  23194206.328 7 121886300.907 6                  94976353.853 6  91019005.973 7
G03  20778844.876 8                  20778850.635 7  20778848.948 8 109193556.062 8                  85085912.288 7  81540659.442 8
G04  20054576.145 7                  20054579.670 8  20054580.392 9 105387509.403 7                  82120159.181 8  78698488.560 9
G06  22060559.511 7                  22060565.644 7  22060564.306 8 115929040.338 7                  90334348.470 7  86570413.196 8
G09  21246378.634 7                  21246383.829 7  21246382.484 8 111650492.800 7                  87000696.165 7  83375401.413 8
G17  24112324.097 6                  24112330.308 7                 126711083.051 6                  98735786.668 7
G19  22763546.957 7  22763549.610 5                                 119623226.615 7  93212913.631 5                
G31  22698730.075 7                  22698733.982 6                 119282632.131 7                  92947524.273 6
R03  21842198.061 7  21842202.584 7 116922983.063 7  90939950.133 7
R04  19287786.060 8  19287787.820 7 103285212.614 8  80333044.287 7
R05  20786307.869 8  20786310.409 7 111114754.987 8  86422613.751 7
R12  23560831.638 7  23560835.366 6 125857812.731 7  97889377.288 6
R13  22189345.826 7                 118489896.318 7
R14  23288795.743 7  23288801.827 6 124142393.598 7  96555218.885 6
R19  20381969.344 8  20381970.469 7 109029779.914 8  84800913.606 7
R20  20234075.545 6  20234079.595 7 108200714.665 6  84156130.364 7
> 2025 06 15 15 24 45.0000000  0 36
C05  39166664.372 6  39166661.069 6 203951068.337 6 157707919.354 6
C06  38227939.557 7  38227933.452 7 199062916.667 7 153928052.484 7
C09  38300948.418 7  38300945.397 7 199443087.190 7 154222049.667 7
C11  23126196.551 7  23126194.018 8 120424144.371 7  93119696.386 8
C12  24156575.078 7  24156574.088 8 125789581.393 7  97268321.428 8
C16  38887682.665 7  38887683.566 7 202498353.363 7 156584574.246 7
C21  21845485.751 8                 113755164.239 8
C22  23256709.474 8                 121103766.245 8
C34  23140987.622 7                 120501170.648 7
C36  24590727.443 7                 128050392.954 7
C39  39169356.594 7                 203965122.674 7
C42  24314449.252 7                 126611750.979 7
C43  23996711.537 7                 124957165.780 7
C45  25312655.418 6                 131809640.458 6
E03  23633048.360 8  23633050.618 9 124192517.587 8  93950849.539 9
E05  22669342.555 8  22669344.966 9 119128206.732 8  90119679.381 9
E08  27288213.466 7  27288217.876 8 143400547.375 7 108481612.094 8
E13  26673527.834 7  26673532.319 8 140170355.818 7 106037990.412 8
E15  23601950.024 8  23601952.955 9 124029084.914 8  93827212.484 9
E34  24791750.070 8  24791753.132 8 130281511.660 8  98557124.354 8
G01  23204266.999 6                  23204272.893 6  23204274.670 7 121939209.274 6                  95017581.071 6  91058515.421 7
G03  20784276.932 8                  20784282.855 7  20784280.890 8 109222102.612 8                  85108156.353 7  81561976.655 8
G04  20053579.630 7                  20053583.182 8  20053583.749 9 105382272.641 7                  82116078.601 8  78694578.008 9
G06  22054057.694 7                  22054063.742 7  22054062.407 8 115894873.101 7                  90307724.650 7  86544898.717 8
G09  21239040.114 7                  21239045.491 8  21239044.160 8 111611929.317 7                  86970646.708 8  83346604.039 8
G17  24120059.786 6                  24120066.388 7                 126751734.374 6                  98767462.988 7
G19  22769056.569 7  22769059.500 5                                 119652181.668 7  93235475.964 5                
G31  22703945.514 7                  22703949.684 6                 119310040.843 7                  92968881.698 6
R03  21851025.781 7  21851029.898 7 116970232.724 7  90976699.804 7
R04  19289506.014 8  19289507.448 7 103294422.558 8  80340207.580 7
R05  20779007.489 8  20779010.112 8 111075730.394 8  86392261.313 8
R12  23566962.574 7  23566966.723 6 125890562.508 7  97914849.266 6
R13  22187166.176 7                 118478254.944 7
R14  23277962.104 7  23277967.265 6 124084643.918 7  96510302.526 6
R19  20390220.807 8  20390221.947 7 109073920.100 8  84835244.854 7
R20  20229682.086 6  20229687.198 7 108177223.831 6  84137859.715 7
> 2025 06 15 15 25  0.0000000  0 36
C05  39166537.334 6  39166534.173 6 203950408.320 6 157707408.994 6
C06  38228213.098 7  38228207.719 7 199064344.645 7 153929156.685 7
C09  38299647.019 7  38299643.692 7 199436308.186 7 154216807.707 7
C11  23127003.537 7  23127000.606 8 120428347.169 7  93122946.227 8
C12  24165151.693 7  24165150.631 8 125834241.710 7  97302855.578 8
C16  38888339.096 7  38888340.250 7 202501772.307 7 156587217.999 7
C21  21844458.184 8                 113749813.510 8
C22  23263048.545 7                 121136775.653 7
C34  23146377.852 7                 120529240.412 7
C36  24588362.429 7                 128038077.667 7
C39  39171241.121 7                 203974936.226 7
C42  24307063.671 7                 126573293.703 7
C43  23993808.251 7                 124942046.188 7
C45  25304371.332 6                 131766498.452 6
E03  23629446.597 8  23629448.733 9 124173589.455 8  93936530.541 9
E05  22673537.992 8  22673540.212 9 119150252.875 8  90136357.135 9
E08  27279868.294 7  27279872.481 8 143356692.419 7 108448436.182 8
E13  26665591.410 7  26665595.953 8 140128649.013 7 106006439.528 8
E15  23600744.702 8  23600747.629 9 124022750.781 8  93822420.768 9
E34  24798380.030 7  24798383.211 8 130316353.318 7  98583481.822 8
G01  23214344.819 5                  23214351.072 6  23214352.693 7 121992170.016 5                  95058849.049 6  91098063.901 7
G03  20789725.567 8                  20789731.177 7  20789729.646 8 109250735.425 8                  85130467.599 7  81583358.286 8
G04  20052606.184 8                  20052610.190 8  20052610.583 9 105377159.157 8                  82112094.074 8  78690759.494 9
G06  22047577.867 7                  22047584.081 7  22047582.599 8 115860820.888 7                  90281190.497 7  86519470.158 8
G09  21231719.283 7                  21231724.623 8  21231723.316 8 111573456.774 7                  86940668.146 8  83317874.585 8
G17  24127805.026 6                  24127811.402 6                 126792435.720 6                  98799178.231 6
G19  22774590.212 7  22774593.203 5                                 119681261.364 7  93258135.428 5                
G31  22709188.920 7                  22709192.630 6                 119337593.563 7                  92990351.326 6
R03  21859859.728 8  21859862.322 7 117017519.734 8  91013478.528 7
R04  19291247.438 8  19291248.925 7 103303747.259 8  80347460.120 7
R05  20771724.040 8  20771726.919 8 111036795.938 8  86361979.015 8
R12  23573124.184 7  23573127.712 6 125923474.427 7  97940447.411 6
R13  22185023.384 7                 118466813.014 7
R14  23267140.731 7  23267147.337 6 124026959.782 7  96465437.219 6
R19  20398501.670 8  20398502.837 7 109118217.715 8  84869698.507 7
R20  20225327.162 6  20225331.253 8 108153931.750 6  84119743.659 8
> 2025 06 15 15 25 15.0000000  0 36
C05  39166411.225 6  39166407.724 6 203949750.540 6 157706900.371 6
C06  38228494.714 6  38228488.983 7 199065809.590 6 153930289.473 7
C09  38298352.034 7  38298348.950 7 199429566.242 7 154211594.410 7
C11  23127836.226 7  23127832.842 8 120432683.119 7  93126299.058 8
C12  24173739.606 7  24173738.542 8 125878961.674 7  97337435.852 8
C16  38889002.428 7  38889003.434 7 202505225.718 7 156589888.396 7
C21  21843445.271 8                 113744538.475 8
C22  23269395.413 8                 121169824.973 8
C34  23151788.027 7                 120557413.306 7
C36  24586020.562 7                 128025882.667 7
C39  39173131.735 6                 203984779.440 6
C42  24299685.868 7                 126534875.954 7
C43  23990928.630 7                 124927051.409 7
C45  25296095.440 6                 131723404.853 6
E03  23625859.654 8  23625861.840 9 124154740.395 8  93922271.363 9
E05  22677744.901 8  22677747.379 9 119172361.604 8  90153082.245 9
E08  27271528.530 7  27271532.740 8 143312866.952 7 108415282.591 8
E13  26657662.477 7  26657667.145 8 140086982.229 7 105974918.878 8
E15  23599558.290 8  23599561.433 9 124016517.292 8  93817705.166 9
E34  24805023.718 8  24805026.741 8 130351265.274 8  98609892.448 8
G01  23224432.854 6                  23224438.290 6  23224439.828 7 122045180.369 6                  95100155.801 6  91137649.487 7
G03  20795190.482 7                  20795195.858 7  20795194.210 8 109279452.064 7                  85152844.202 7  81604802.530 8
G04  20051656.108 8                  20051659.829 8  20051660.592 9 105372166.557 8                  82108203.751 8  78687031.251 9
G06  22041118.971 7                  22041125.676 7  22041124.022 8 115826881.749 7                  90254744.411 7  86494125.991 8
G09  21224414.601 7                  21224420.167 8  21224419.149 8 111535073.002 7                  86910758.737 8  83289211.403 8
G17  24135559.640 6                  24135566.041 6                 126833184.151 6                  98830930.196 6
G19  22780147.010 7  22780149.995 5                                 119710462.865 7  93280889.815 5                
G31  22714459.330 7                  22714462.628 6                 119365287.747 7                  93011931.215 6
R03  21868699.327 8  21868702.624 7 117064841.478 8  91050284.360 7
R04  19293009.873 8  19293010.953 7 103313184.309 8  80354800.013 7
R05  20764456.848 8  20764459.906 8 110997949.465 8  86331765.122 8
R12  23579314.102 7  23579318.553 6 125956545.826 7  97966169.646 6
R13  22182917.560 7                 118455568.489 7
R14  23256331.041 7  23256337.302 6 123969339.095 7  96420621.186 6
R19  20406811.457 8  20406812.798 7 109162669.767 8  84904272.301 7
R20  20221008.122 6  20221012.857 8 108130836.989 6  84101781.048 8
> 2025 06 15 15 25 30.0000000  0 36
C05  39166286.097 6  39166282.891 6 203949098.027 6 157706395.802 6
C06  38228783.403 7  38228777.903 7 199067314.537 7 153931453.210 7
C09  38297064.984 7  38297061.871 7 199422864.396 7 154206412.131 7
C11  23128695.476 7  23128691.701 8 120437155.345 7  93129757.294 8
C12  24182339.798 7  24182338.551 8 125923744.194 7  97372064.496 8
C16  38889672.889 7  38889674.113 7 202508716.738 7 156592587.873 7
C21  21842447.595 8                 113739342.220 8
C22  23275750.470 8                 121202917.219 8
C34  23157218.918 7                 120585692.203 7
C36  24583702.341 7                 128013811.161 7
C39  39175028.286 7                 203994655.396 7
C42  24292315.890 7                 126496500.906 7
C43  23988073.745 7                 124912184.700 7
C45  25287829.671 6                 131680363.068 6
E03  23622288.529 8  23622290.602 9 124135973.510 8  93908074.355 9
E05  22681964.752 8  22681967.017 9 119194535.922 8  90169856.961 9
E08  27263194.999 7  27263199.219 8 143269074.193 7 108382153.729 8
E13  26649741.948 7  26649746.451 8 140045358.750 7 105943431.011 8
E15  23598391.836 8  23598395.027 9 124010387.660 8  93813068.141 9
E34  24811681.702 8  24811684.316 8 130386250.464 8  98636358.509 8
G01  23234530.237 6                  23234536.097 6  23234537.404 7 122098243.295 6                  95141503.479 6  91177274.361 7
G03  20800671.492 7                  20800677.039 7  20800675.274 8 109308255.623 7                  85175288.529 7  81626311.677 8
G04  20050729.932 7                  20050733.489 8  20050734.182 9 105367297.989 7                  82104410.063 8  78683395.634 9
G06  22034683.018 7                  22034689.568 7  22034687.762 8 115793059.070 7                  90228389.110 7  86468868.846 8
G09  21217127.961 8                  21217133.743 8  21217132.253 8 111496781.286 8                  86880921.090 8  83260616.977 8
G17  24143323.108 6                  24143329.608 6                 126873982.641 6                  98862721.122 6
G19  22785728.049 6  22785730.756 5                                 119739789.286 6  93303741.522 5                
G31  22719757.279 7                  22719760.400 7                 119393126.271 7                  93033623.589 7
R03  21877546.462 8  21877550.126 7 117112201.302 8  91087119.744 7
R04  19294793.173 8  19294794.699 7 103322736.601 8  80362229.608 7
R05  20757206.920 8  20757209.213 7 110959194.195 8  86301622.136 7
R12  23585535.979 7  23585540.776 5 125989779.555 7  97992018.146 5
R13  22180849.077 7                 118444524.532 7
R14  23245534.395 7  23245539.442 6 123911785.770 7  96375857.541 6
R19  20415150.959 8  20415151.998 7 109207279.390 8  84938968.656 7
R20  20216725.760 6  20216730.731 7 108107942.665 6  84083974.393 7
> 2025 06 15 15 25 45.0000000  0 36
C05  39166161.681 6  39166157.944 6 203948450.446 6 157705895.054 6
C06  38229079.715 6  38229074.741 7 199068859.182 6 153932647.636 7
C09  38295785.619 7  38295782.312 7 199416202.368 7 154201260.630 7
C11  23129579.789 7  23129576.990 8 120441763.366 7  93133320.538 8
C12  24190951.856 7  24190950.459 7 125968588.588 7  97406740.984 7
C16  38890350.101 7  38890351.272 7 202512244.907 7 156595316.086 7
C21  21841464.403 8                 113734224.352 8
C22  23282114.817 8                 121236051.903 8
C34  23162669.904 7                 120614076.552 7
C36  24581407.754 7                 128001862.851 7
C39  39176930.778 7                 204004563.640 7
C42  24284954.706 7                 126458168.272 7
C43  23985243.611 7                 124897445.745 7
C45  25279573.968 6                 131637373.086 6
E03  23618732.771 8  23618734.920 9 124117288.490 8  93893939.283 9
E05  22686196.865 8  22686198.995 9 119216775.291 8  90186680.891 9
E08  27254867.374 7  27254871.819 8 143225313.875 7 108349049.416 8
E13  26641829.316 7  26641833.994 8 140003778.409 7 105911975.799 8
E15  23597245.085 8  23597248.342 9 124004361.608 8  93808509.484 9
E34  24818352.491 8  24818355.853 8 130421308.449 8  98662879.637 8
G01  23244637.678 6                  23244643.331 6  23244644.789 7 122151358.176 6                  95182891.649 6  91216937.971 7
G03  20806169.074 8                  20806174.839 7  20806172.900 8 109337145.690 8                  85197800.271 7  81647885.420 8
G04  20049827.057 7                  20049830.376 8  20049831.206 9 105362552.980 7                  82100712.637 8  78679852.285 9
G06  22028268.640 7                  22028274.920 7  22028273.425 8 115759352.801 7                  90202124.505 7  86443698.593 8
G09  21209858.800 7                  21209863.982 7  21209863.118 8 111458581.420 7                  86851154.969 7  83232091.117 8
G17  24151096.000 6                  24151102.692 6                 126914830.406 6                  98894550.506 6
G19  22791332.143 6  22791335.102 5                                 119769239.695 6  93326689.904 5                
G31  22725081.615 7                  22725084.845 7                 119421108.479 7                  93055427.900 7
R03  21886400.769 8  21886403.903 7 117159598.101 8  91123983.893 7
R04  19296598.687 8  19296599.873 7 103332403.540 8  80369748.324 7
R05  20749973.868 8  20749976.481 7 110920529.802 8  86271549.833 7
R12  23591786.945 7  23591792.740 6 126023174.975 7  98017992.352 6
R13  22178818.350 7                 118433681.147 7
R14  23234749.777 7  23234756.089 6 123854300.064 7  96331146.463 6
R19  20423519.518 8  20423520.521 7 109252045.624 8  84973786.784 7
R20  20212482.840 6  20212486.820 8 108085248.768 6  84066323.588 8
> 2025 06 15 15 26  0.0000000  0 36
C05  39166036.983 6  39166033.771 6 203947801.964 6 157705393.644 6
C06  38229383.317 6  38229377.680 7 199070437.590 6 153933868.168 7
C09  38294513.029 7  38294509.475 7 199409574.193 7 154196135.285 7
C11  23130490.435 7  23130487.218 8 120446501.473 7  93136984.330 8
C12  24199574.372 7  24199573.131 8 126013488.695 7  97441460.565 8
C16  38891033.434 7  38891035.068 7 202515804.423 7 156598068.507 7
C21  21840495.573 8                 113729179.033 8
C22  23288483.590 8                 121269223.137 8
C34  23168140.057 7                 120642560.257 7
C36  24579135.972 7                 127990032.069 7
C39  39178838.972 7                 204014498.317 7
C42  24277600.221 7                 126419872.270 7
C43  23982436.180 7                 124882828.869 7
C45  25271328.061 7                 131594429.442 7
E03  23615192.179 8  23615193.673 9 124098679.476 8  93879861.688 9
E05  22690440.372 8  22690442.263 9 119239073.673 8  90203549.458 9
E08  27246545.189 7  27246549.622 8 143181580.207 7 108315965.258 8
E13  26633924.123 7  26633928.534 8 139962235.598 7 105880548.960 8
E15  23596117.042 8  23596120.227 9 123998433.373 8  93804024.808 9
E34  24825036.797 8  24825039.802 8 130456433.277 8  98689451.288 8
G01  23254753.999 6                  23254759.512 6  23254761.357 7 122204518.813 6                  95224315.465 6  91256635.748 7
G03  20811682.352 8                  20811687.877 7  20811685.875 8 109366116.274 8                  85220374.694 7  81669519.244 8
G04  20048946.488 8                  20048949.895 8  20048950.717 9 105357925.599 8                  82097106.896 8  78676396.784 9
G06  22021875.457 7                  22021881.944 7  22021880.550 8 115725757.343 7                  90175946.240 7  86418611.084 8
G09  21202606.096 7                  21202611.112 7  21202610.039 8 111420467.627 7                  86821455.935 7  83203629.549 8
G17  24158877.334 7                  24158884.512 6                 126955721.264 7                  98926413.454 6
G19  22796958.859 6  22796961.917 5                                 119798808.125 6  93349730.164 5                
G31  22730432.655 7                  22730436.157 7                 119449228.299 7                  93077339.476 7
R03  21895260.748 8  21895264.649 7 117207026.262 8  91160872.467 7
R04  19298424.619 8  19298425.776 7 103342179.188 8  80377351.614 7
R05  20742756.789 8  20742759.403 8 110881950.172 8  86241543.453 8
R12  23598067.758 7  23598072.554 6 126056725.493 7  98044087.233 6
R13  22176824.328 7                 118423032.136 7
R14  23223977.684 7  23223983.772 6 123796876.413 7  96286483.732 6
R19  20431916.413 8  20431917.154 7 109296961.928 8  85008721.668 7
R20  20208275.266 6  20208279.771 8 108062749.817 6  84048824.440 8
> 2025 06 15 15 26 15.0000000  0 36
C05  39165912.997 6  39165909.408 6 203947154.754 6 157704893.200 6
C06  38229693.201 6  38229687.933 7 199072051.891 6 153935116.454 7
C09  38293246.691 7  38293243.544 7 199402982.111 7 154191037.875 7
C11  23131425.096 7  23131423.033 8 120451371.671 7  93140750.268 8
C12  24208207.954 7  24208207.189 8 126058446.391 7  97476224.673 8
C16  38891724.146 7  38891724.940 7 202519397.315 7 156600846.773 7
C21  21839541.047 8                 113724208.359 8
C22  23294861.156 7                 121302433.003 7
C34  23173629.491 7                 120671145.261 7
C36  24576886.764 7                 127978321.112 7
C39  39180752.224 7                 204024461.527 7
C42  24270253.477 7                 126381615.153 7
C43  23979652.654 7                 124868336.313 7
C45  25263089.490 7                 131551534.575 7
E03  23611665.610 8  23611667.370 9 124080148.630 8  93865843.223 9
E05  22694695.005 8  22694697.160 8 119261433.109 8  90220464.222 8
E08  27238228.522 7  27238232.847 8 143137875.461 7 108282902.967 8
E13  26626026.764 7  26626030.636 8 139920732.602 7 105849152.272 8
E15  23595008.132 8  23595011.170 9 123992605.191 8  93799615.830 9
E34  24831733.955 8  24831736.849 8 130491626.875 8  98716075.010 8
G01  23264879.009 6                  23264885.249 7  23264886.924 7 122257727.169 6                  95265776.423 7  91296369.179 7
G03  20817210.862 8                  20817216.351 7  20817214.753 8 109395169.367 8                  85243013.482 7  81691214.767 8
G04  20048088.458 7                  20048092.054 8  20048092.995 9 105353417.975 7                  82093594.468 8  78673030.715 9
G06  22015504.369 7                  22015510.830 7  22015509.152 8 115692275.160 7                  90149856.247 7  86393608.198 8
G09  21195369.876 7                  21195375.299 7  21195374.030 8 111382442.225 7                  86791825.786 7  83175233.985 8
G17  24166667.246 6                  24166673.954 7                 126996657.119 6                  98958311.390 7
G19  22802607.755 7  22802611.216 5                                 119828496.187 7  93372863.708 5                
G31  22735809.955 7                  22735813.698 7                 119477487.679 7                  93099359.734 7
R03  21904127.148 8  21904130.976 7 117254487.664 8  91197786.850 7
R04  19300270.555 8  19300272.215 7 103352065.600 8  80385041.059 7
R05  20735555.943 8  20735558.821 7 110843457.856 8  86211605.045 7
R12  23604379.515 7  23604382.818 6 126090433.085 7  98070304.182 6
R13  22174867.245 7                 118412580.253 7
R14  23213217.160 7  23213221.968 6 123739517.642 7  96241871.457 6
R19  20440340.952 8  20440342.569 8 109342030.036 8  85043774.615 8
R20  20204104.716 6  20204109.233 8 108040448.134 6  84031478.708 8
> 2025 06 15 15 26 30.0000000  0 36
C05  39165789.157 6  39165785.949 6 203946510.778 6 157704395.232 6
C06  38230010.038 6  38230004.811 6 199073703.981 6 153936393.963 6
C09  38291988.341 7  38291984.800 7 199396428.048 7 154185969.873 7
C11  23132386.102 7  23132384.290 8 120456375.965 7  93144619.842 8
C12  24216853.226 7  24216852.151 8 126103463.370 7  97511034.605 8
C16  38892420.187 7  38892422.008 7 202523025.569 7 156603652.384 7
C21  21838601.062 8                 113719314.343 8
C22  23301246.851 7                 121335683.361 7
C34  23179138.695 7                 120699833.340 7
C36  24574661.504 7                 127966732.052 7
C39  39182671.505 6                 204034455.197 6
C42  24262914.195 7                 126343398.849 7
C43  23976893.915 7                 124853970.145 7
C45  25254861.749 7                 131508690.730 7
E03  23608154.555 8  23608156.306 9 124061697.909 8  93851885.370 9
E05  22698961.761 8  22698963.932 8 119283855.434 8  90237426.564 8
E08  27229917.191 7  27229922.031 8 143094201.704 7 108249864.115 8
E13  26618137.069 7  26618140.775 8 139879271.688 7 105817787.385 8
E15  23593918.598 8  23593921.609 9 123986879.159 8  93795284.111 9
E34  24838444.503 8  24838447.599 8 130526891.208 8  98742752.213 8
G01  23275013.573 6                  23275019.701 7  23275021.819 7 122310984.906 6                  95307275.888 7  91336139.485 7
G03  20822755.270 8                  20822761.124 7  20822759.404 8 109424306.986 8                  85265718.112 7  81712973.352 8
G04  20047253.803 8                  20047257.460 8  20047258.511 9 105349032.040 8                  82090176.849 8  78669755.499 9
G06  22009155.125 7                  22009161.295 7  22009159.805 8 115658908.512 7                  90123856.282 7  86368691.567 8
G09  21188151.446 7                  21188156.429 7  21188155.125 8 111344507.317 7                  86762266.137 7  83146906.006 8
G17  24174465.609 6                  24174472.697 6                 127037639.393 6                  98990245.617 6
G19  22808280.475 7  22808283.874 5                                 119858305.632 7  93396091.812 5                
G31  22741214.184 7                  22741218.001 7                 119505888.245 7                  93121489.963 7
R03  21912999.525 8  21913003.149 7 117301983.823 8  91234728.302 7
R04  19302137.725 8  19302139.572 8 103362064.377 8  80392817.884 8
R05  20728371.758 8  20728374.429 7 110805054.814 8  86181736.062 7
R12  23610717.974 7  23610722.324 6 126124299.133 7  98096644.441 6
R13  22172947.347 7                 118402327.440 7
R14  23202468.791 7  23202474.898 6 123682226.200 7  96197311.491 6
R19  20448794.720 8  20448796.175 8 109387251.664 8  85078946.966 8
R20  20199971.573 6  20199976.081 7 108018346.069 6  84014288.173 7
> 2025 06 15 15 26 45.0000000  0 35
C05  39165666.234 6  39165662.848 6 203945870.888 6 157703900.437 6
C06  38230334.215 6  38230329.551 7 199075394.781 6 153937701.399 7
C09  38290737.255 7  38290733.589 7 199389912.906 7 154180931.954 7
C11  23133373.244 7  23133370.632 8 120461515.093 7  93148593.731 8
C12  24225509.505 7  24225508.943 8 126148540.310 7  97545890.913 8
C16  38893124.343 7  38893125.441 7 202526690.018 7 156606485.979 7
C21  21837676.175 8                 113714497.810 8
C22  23307640.274 8                 121368974.981 8
C34  23184667.631 7                 120728625.136 7
C36  24572459.315 7                 127955265.899 7
C39  39184596.659 6                 204044480.146 6
C42  24255583.280 7                 126305224.406 7
C43  23974159.685 7                 124839731.355 7
C45  25246644.367 7                 131465899.120 7
E03  23604658.377 8  23604660.667 9 124043328.245 8  93837988.865 9
E05  22703240.635 8  22703242.883 9 119306341.440 8  90254437.074 9
E08  27221612.630 7  27221617.210 8 143050559.960 7 108216849.501 8
E13  26610255.487 7  26610259.146 8 139837853.941 7 105786455.160 8
E15  23592848.442 8  23592851.651 9 123981256.272 8  93791030.444 9
E34  24845168.759 8  24845171.819 8 130562226.999 8  98769483.490 8
G01  23285158.243 6                  23285163.410 6  23285166.061 7 122364292.716 6                  95348814.345 6  91375947.150 7
G03  20828316.243 8                  20828322.078 7  20828320.186 8 109453529.893 8                  85288489.223 7  81734795.639 8
G04  20046442.270 8                  20046446.445 8  20046447.158 9 105344768.636 8                  82086854.729 8  78666571.787 9
G06  22002827.795 7                  22002833.929 7  22002832.704 8 115625658.616 7                  90097947.290 7  86343862.112 8
G09  21180950.108 7                  21180955.293 8  21180953.683 8 111306663.987 7                  86732777.855 8  83118646.400 8
G17  24182273.705 6                  24182279.988 6                 127078668.751 6                  99022216.416 6
G19  22813976.448 7  22813979.612 5                                 119888237.019 7  93419414.940 5                
G31  22746646.066 7                  22746649.865 7                 119534430.721 7                  93143730.843 7
R03  21921878.361 7  21921882.661 7 117349515.896 7  91271697.677 7
R04  19304025.872 8  19304027.383 7 103372176.655 8  80400682.987 7
R05  20721204.730 8  20721206.545 7 110766742.147 8  86151937.337 7
R13  22171064.013 6                 118392275.045 6
R14  23191734.205 7  23191739.537 6 123625003.776 7  96152805.249 6
R19  20457277.525 8  20457279.012 7 109432627.487 8  85114239.246 7
R20  20195875.908 6  20195880.542 7 107996445.252 6  83997254.239 7
> 2025 06 15 15 27  0.0000000  0 35
C05  39165543.727 6  39165540.694 6 203945232.678 6 157703406.938 6
C06  38230666.968 6  38230661.464 7 199077121.698 6 153939036.775 7
C09  38289493.171 7  38289489.913 7 199383434.065 7 154175922.109 7
C11  23134385.491 7  23134382.200 8 120466786.577 7  93152670.009 8
C12  24234177.216 7  24234176.139 8 126193674.296 7  97580791.313 8
C16  38893834.727 7  38893835.821 7 202530388.112 7 156609345.567 7
C21  21836765.691 8                 113709756.234 8
C22  23314041.062 8                 121402305.199 8
C34  23190216.192 7                 120757517.868 7
C36  24570280.441 7                 127943920.257 7
C39  39186527.343 7                 204054533.763 7
C42  24248259.899 7                 126267089.313 7
C43  23971449.417 7                 124825617.546 7
C45  25238435.737 7                 131423157.556 7
E03  23601177.370 8  23601180.047 9 124025037.111 8  93824151.760 9
E05  22707531.216 8  22707533.431 9 119328888.388 8  90271493.688 9
E08  27213313.460 7  27213318.027 8 143006947.730 7 108183857.208 8
E13  26602381.976 7  26602385.423 8 139796477.010 7 105755153.805 8
E15  23591797.414 8  23591800.718 9 123975734.067 8  93786852.938 9
E34  24851905.288 7  24851909.164 8 130597631.558 7  98796266.793 8
G01  23295311.399 6                  23295316.485 6  23295319.057 7 122417647.707 6                  95390389.583 6  91415790.086 7
G03  20833892.940 8                  20833898.648 7  20833897.111 8 109482835.470 8                  85311324.698 7  81756679.646 8
G04  20045653.663 8                  20045657.704 8  20045658.587 9 105340625.098 8                  82083626.019 8  78663477.604 9
G06  21996522.469 7                  21996528.448 7  21996527.021 8 115592523.208 7                  90072127.495 7  86319118.148 8
G09  21173765.534 7                  21173771.192 8  21173769.140 8 111268909.741 7                  86703359.014 8  83090453.352 8
G17  24190089.979 6                  24190096.286 6                 127119742.074 6                  99054221.573 6
G19  22819695.036 6  22819697.759 5                                 119918287.541 6  93442830.853 5                
G31  22752104.069 7                  22752107.930 7                 119563112.146 7                  93166080.003 7
R03  21930764.756 7  21930767.758 7 117397080.653 7  91308692.422 7
R04  19305934.939 8  19305936.340 8 103382399.417 8  80408634.051 8
R05  20714053.682 8  20714056.554 7 110728517.286 8  86122206.897 7
R13  22169218.410 6                 118382420.423 6
R14  23181011.960 7  23181017.576 6 123567848.135 7  96108350.937 6
R19  20465788.260 8  20465789.524 7 109478154.387 8  85149649.008 7
R20  20191817.900 6  20191821.818 7 107974742.378 6  83980374.206 7
