     3.04           OBSERVATION DATA    Mixed(MIXED)        RINEX VERSION / TYPE
cnvtToRINEX 3.14.0  convertToRINEX OPR  20250615 162739 UTC PGM / RUN BY / DATE 
----------------------------------------------------------- COMMENT             
44K                                                         MARKER NAME         
44K                                                         MARKER NUMBER       
GEODETIC                                                    MARKER TYPE         
GNSS Observer       Trimble                                 OBSERVER / AGENCY   
6203S17886          Geo Explorer 3      5.53                REC # / TYPE / VERS 
                    UNKNOWN EXT     NONE                    ANT # / TYPE        
  3912275.4243  1190403.9626  4879350.7121                  APPROX POSITION XYZ 
        1.1590        0.0000        0.0000                  ANTENNA: DELTA H/E/N
G    6 C1C C2W C2X L1C L2W L2X                              SYS / # / OBS TYPES 
C    4 C2I C7I L2I L7I                                      SYS / # / OBS TYPES 
R    4 C1C C2C L1C L2C                                      SYS / # / OBS TYPES 
E    4 C1X C8X L1X L8X                                      SYS / # / OBS TYPES 
     5.000                                                  INTERVAL            
  2025     6    15    14    50   45.0000000     GPS         TIME OF FIRST OBS   
  2025     6    15    15    31   10.0000000     GPS         TIME OF LAST OBS    
     0                                                      RCV CLOCK OFFS APPL 
 10 R03  5 R04  6 R05  1 R12 -1 R13 -2 R14 -7 R18 -3 R19  3 GLONASS SLOT / FRQ #
    R20  2 R21  4                                           GLONASS SLOT / FRQ #
G L2X -0.25000                                              SYS / PHASE SHIFT   
R L2C -0.25000                                              SYS / PHASE SHIFT   
    18                                                      LEAP SECONDS        
    34                                                      # OF SATELLITES     
   C05   452   452   452   452                              PRN / # OF OBS      
   C06   482   482   482   482                              PRN / # OF OBS      
   C11   482   482   482   482                              PRN / # OF OBS      
   C12   482   482   482   482                              PRN / # OF OBS      
   C16   482   482   482   482                              PRN / # OF OBS      
   C21   482     0   482     0                              PRN / # OF OBS      
   C22   482     0   482     0                              PRN / # OF OBS      
   E03   482   482   482   482                              PRN / # OF OBS      
   E05   482   482   482   482                              PRN / # OF OBS      
   E08   243   243   243   243                              PRN / # OF OBS      
   E13   479   479   479   479                              PRN / # OF OBS      
   E15   482   482   482   482                              PRN / # OF OBS      
   E34   482   482   482   482                              PRN / # OF OBS      
   G01   482     0   482   482     0   482                  PRN / # OF OBS      
   G02    67    67     0    67    67     0                  PRN / # OF OBS      
   G03   482     0   482   482     0   482                  PRN / # OF OBS      
   G04   482     0   482   482     0   482                  PRN / # OF OBS      
   G06   482     0   482   482     0   482                  PRN / # OF OBS      
   G09   482     0   482   482     0   482                  PRN / # OF OBS      
   G11    15     0    14    15     0    14                  PRN / # OF OBS      
   G17   482     0   481   481     0   481                  PRN / # OF OBS      
   G19   482   482     0   482   482     0                  PRN / # OF OBS      
   G28    41     0    31    33     0    31                  PRN / # OF OBS      
   G31   482     0   482   482     0   482                  PRN / # OF OBS      
   R03   482   482   482   482                              PRN / # OF OBS      
   R04   482   482   482   482                              PRN / # OF OBS      
   R05   482   482   482   482                              PRN / # OF OBS      
   R12   290   254   280   243                              PRN / # OF OBS      
   R13   347     0   347     0                              PRN / # OF OBS      
   R14    77    75    75    75                              PRN / # OF OBS      
   R18   276   276   276   276                              PRN / # OF OBS      
   R19   482   482   482   482                              PRN / # OF OBS      
   R20   482   482   482   482                              PRN / # OF OBS      
   R21    47    47    47    47                              PRN / # OF OBS      
DBHZ                                                        SIGNAL STRENGTH UNIT
                                                            END OF HEADER       
>                              2  1
              *** Start of Kinematic Data ***               COMMENT             
> 2025 06 15 14 50 45.0000000  0 26
C06  38394644.041 6  38394638.743 7 199930923.05116 154599297.40017
C11  23388207.288 7  23388203.450 7 121788549.90317  94174597.62217
C12  23260193.230 7  23260190.190 7 121122118.21517  93659147.40317
C16  38997905.954 6  38997907.716 7 203072431.55116 157028412.64217
C21  22258355.233 7                 115905177.42417
C22  22610647.033 7                 117739748.22317
E03  24400838.642 8  24400840.655 8 128227451.15718  97003104.78718
E05  22358016.085 8  22358017.653 9 117492131.73218  88882064.30919
E15  24069529.546 8  24069531.859 8 126486344.41718  95686022.55718
E34  24163724.256 8  24163726.317 9 126981476.89118  96060481.08119
G01  22085075.380 7                  22085081.097 7 116058059.76417                  90434720.43317
G02  24778278.105 6  24778284.003 4                 130210727.99216 101462922.71614
G03  20335051.291 8                  20335057.297 7 106861513.33418                  83268675.59617
G04  20541006.941 7                  20541012.231 8 107943935.82017                  84112014.62518
G06  23242995.858 7                  23243002.995 7 122142735.03217                  95176207.53817
G09  22519491.070 7                  22519497.577 7 118340886.35117                  92213579.14217
G17  23316316.683 7                  23316322.620 6 122528201.35217                  95476449.76616
G19  22391829.294 7  22391832.181 5                 117669777.62317  91690815.26115
G28  24045127.512 5                  24045132.215 6 126358054.86715                  98460799.22916
G31  22395447.238 7                  22395452.403 7 117688974.25817                  91705647.20617
R03  20862295.143 8  20862300.303 7 111677610.98018  86860295.41217
R04  19395407.105 8  19395410.980 7 103861574.06818  80781200.42317
R05  22052018.919 7  22052024.769 6 117880808.07917  91684985.18016
R18  22526897.310 7  22526904.083 7 120250287.53017  93527892.97717
R19  19701895.438 8  19701897.041 7 105391887.64318  81971450.81517
R20  21267661.450 6  21267668.763 7 113727770.68016  88454943.70517
> 2025 06 15 14 50 50.0000000  0 26
C06  38393533.330 6  38393528.440 7 199925142.419 6 154594827.459 7
C11  23386469.185 7  23386465.727 7 121779500.771 7  94167600.248 7
C12  23261510.066 6  23261507.142 7 121128975.367 6  93664449.782 7
C16  38996942.101 6  38996943.207 7 203067409.828 6 157024529.530 7
C21  22256481.289 8                 115895421.462 8
C22  22611487.987 7                 117744129.328 7
E03  24398108.385 8  24398110.706 8 128213105.159 8  96992252.147 8
E05  22357926.351 8  22357928.262 9 117491662.027 8  88881708.975 9
E15  24067472.834 8  24067474.834 8 126475534.640 8  95677845.029 8
E34  24164409.328 8  24164411.629 8 126985078.489 8  96063205.660 8
G01  22086994.977 7                  22087000.286 7 116068145.506 7                  90442579.450 7
G02  24780647.865 6  24780653.300 4                 130223179.110 6 101472624.845 4
G03  20335240.428 8                  20335246.036 7 106862505.900 8                  83269449.026 7
G04  20538764.065 7                  20538769.295 8 107932150.454 7                  84102831.233 8
G06  23239181.646 7                  23239189.234 7 122122693.513 7                  95160590.761 7
G09  22515512.648 7                  22515519.805 7 118319982.475 7                  92197290.412 7
G17  23317431.365 7                  23317436.817 6 122534056.911 7                  95481012.538 6
G19  22391595.056 7  22391597.935 5                 117668545.916 7  91689855.486 5
G28  24046247.039 5                  24046254.082 6 126363948.568 5                  98465391.707 6
G31  22394988.957 7                  22394993.897 7 117686563.843 7                  91703768.934 7
R03  20863953.786 8  20863958.120 7 111686486.856 8  86867198.881 7
R04  19394089.949 8  19394093.035 7 103854515.525 8  80775710.448 7
R05  22048043.643 7  22048049.164 7 117859558.705 7  91668457.948 7
R18  22530068.451 7  22530075.553 7 120267215.884 7  93541059.443 7
R19  19702279.403 8  19702281.505 7 105393942.934 8  81973049.371 7
R20  21263905.262 6  21263912.132 7 113707681.980 6  88439319.171 7
>                              3  5
              *** Start of Occupation ***                   COMMENT             
44K                                                         MARKER NAME         
44K                                                         MARKER NUMBER       
  3912275.4243  1190403.9626  4879350.7121                  APPROX POSITION XYZ 
        1.1590        0.0000        0.0000                  ANTENNA: DELTA H/E/N
> 2025 06 15 14 50 55.0000000  0 25
C06  38392423.241 6  38392418.703 7 199919362.666 6 154590358.188 7
C11  23384733.562 7  23384729.991 7 121770462.028 7  94160610.936 7
C12  23262829.010 7  23262825.186 7 121135839.428 7  93669757.503 7
C16  38995977.606 6  38995978.979 6 203062388.671 6 157020646.858 6
C21  22254609.003 7                 115885670.388 7
C22  22612330.289 7                 117748512.851 7
E03  24395379.179 8  24395381.618 8 128198763.620 8  96981402.871 8
E05  22357838.116 8  22357839.848 9 117491197.650 8  88881357.680 9
E15  24065416.740 8  24065418.898 8 126464730.329 8  95669671.642 8
E34  24165095.812 8  24165098.003 8 126988685.538 8  96065934.363 8
G01  22088915.210 7                  22088920.394 7 116078236.853 7                  90450442.833 7
G02  24783017.314 6  24783022.742 4                 130235629.171 6 101482326.163 4
G03  20335430.724 8                  20335436.004 7 106863505.135 8                  83270227.650 7
G04  20536523.145 7                  20536528.719 8 107920374.707 7                  84093655.330 8
G06  23235368.579 6                  23235376.079 7 122102656.118 6                  95144977.231 7
G09  22511535.812 7                  22511542.692 7 118299082.212 7                  92181004.511 7
G17  23318546.511 7                  23318551.841 6 122539919.010 7                  95485580.391 6
G19  22391363.227 7  22391365.901 5                 117667327.808 7  91688906.308 5
G31  22394533.321 7                  22394538.053 7 117684167.980 7                  91701902.007 7
R03  20865612.055 8  20865616.777 7 111695366.294 8  86874105.100 7
R04  19392772.900 8  19392777.020 7 103847467.600 8  80770228.736 7
R05  22044069.480 7  22044075.291 7 117838313.481 7  91651933.889 7
R18  22533241.192 7  22533247.337 7 120284147.354 7  93554228.348 7
R19  19702667.015 8  19702669.454 7 105396016.354 8  81974662.035 7
R20  21260152.395 6  21260157.861 7 113687604.941 6  88423703.704 7
> 2025 06 15 14 51  0.0000000  0 27
C06  38391313.656 6  38391309.359 7 199913584.479 6 154585890.125 7
C11  23382999.399 7  23382996.232 7 121761434.432 7  94153630.217 7
C12  23264148.066 7  23264144.780 7 121142711.150 7  93675071.151 7
C16  38995013.887 6  38995015.090 6 203057368.870 6 157016765.236 6
C21  22252737.529 8                 115875924.931 8
C22  22613172.633 7                 117752899.522 7
E03  24392651.070 8  24392653.511 9 128184427.268 8  96970557.521 9
E05  22357750.930 8  22357752.620 9 117490739.321 8  88881010.947 9
E13  27927800.567 6  27927804.396 6 146761587.79516 111024198.64116
E15  24063362.038 8  24063364.056 8 126453932.221 8  95661502.947 8
E34  24165783.275 8  24165785.650 8 126992298.751 8  96068667.723 8
G01  22090836.585 7                  22090842.072 7 116088334.485 7                  90458311.111 7
G02  24785387.043 6  24785391.884 4                 130248078.819 6 101492027.147 4
G03  20335621.813 8                  20335627.599 7 106864511.775 8                  83271012.042 7
G04  20534284.424 7                  20534289.547 8 107908609.331 7                  84084487.511 8
G06  23231557.085 6                  23231564.406 7 122082623.627 6                  95129367.500 7
G09  22507559.312 7                  22507566.289 7 118278186.307 7                  92164722.000 7
G17  23319664.280 7                  23319668.878 6 122545788.369 7                  95490153.928 6
G19  22391133.831 7  22391136.872 5                 117666124.089 7  91687968.341 5
G28  24048496.151 5                                 126375764.36615                
G31  22394079.352 7                  22394084.962 7 117681787.285 7                  91700046.932 7
R03  20867271.569 8  20867276.648 7 111704250.344 8  86881014.909 7
R04  19391459.836 8  19391463.098 7 103840431.012 8  80764755.844 7
R05  22040095.643 7  22040101.302 7 117817073.302 7  91635413.735 7
R18  22536414.039 7  22536420.060 7 120301082.558 7  93567400.146 7
R19  19703058.025 8  19703060.447 7 105398108.495 8  81976289.252 7
R20  21256398.902 6  21256405.257 7 113667540.434 6  88408097.968 7
> 2025 06 15 14 51  5.0000000  0 27
C06  38390204.360 6  38390199.585 7 199907807.432 6 154581422.940 7
C11  23381268.040 7  23381264.497 7 121752417.613 7  94146657.836 7
C12  23265469.490 7  23265465.917 7 121149590.156 7  93680390.443 7
C16  38994049.548 6  38994051.228 7 203052350.066 6 157012884.382 7
C21  22250867.300 8                 115866184.731 8
C22  22614015.956 7                 117757289.018 7
E03  24389924.144 8  24389926.313 8 128170095.738 8  96959715.818 8
E05  22357664.908 8  22357666.497 9 117490286.698 8  88880668.543 9
E13  27924063.641 6  27924067.715 7 146741951.632 6 111009344.022 7
E15  24061308.410 8  24061310.359 8 126443139.962 8  95653338.679 8
E34  24166472.189 8  24166474.297 8 126995917.788 8  96071405.497 8
G01  22092759.074 7                  22092764.285 7 116098438.096 7                  90466184.046 7
G02  24787754.867 6  24787760.901 4                 130260527.771 6 101501727.619 4
G03  20335814.612 8                  20335820.593 7 106865525.436 8                  83271801.901 7
G04  20532047.267 7                  20532052.708 8 107896853.976 7                  84075327.484 8
G06  23227745.839 7                  23227753.150 7 122062595.641 7                  95113761.299 7
G09  22503582.731 7                  22503590.950 7 118257294.362 7                  92148442.594 7
G17  23320781.706 7                  23320786.854 6 122551664.672 7                  95494732.873 6
G19  22390907.347 7  22390910.649 5                 117664934.398 7  91687041.295 5
G28  24049622.244 5                  24049629.838 6 126381687.771 5                  98479211.25016
G31  22393629.666 7                  22393634.180 7 117679421.502 7                  91698203.456 7
R03  20868932.071 8  20868937.157 7 111713138.141 8  86887927.632 7
R04  19390147.023 8  19390150.841 7 103833405.602 8  80759291.643 7
R05  22036124.370 7  22036128.976 7 117795837.637 7  91618897.113 7
R18  22539586.732 7  22539592.726 7 120318021.190 7  93580574.627 7
R19  19703452.041 8  19703455.038 7 105400219.102 8  81977930.818 7
R20  21252649.746 6  21252655.710 7 113647488.165 6  88392501.759 7
> 2025 06 15 14 51 10.0000000  0 27
C06  38389094.451 6  38389090.488 7 199902031.344 6 154576956.500 7
C11  23379538.354 7  23379534.938 7 121743411.377 7  94139693.650 7
C12  23266792.353 7  23266788.347 7 121156476.291 7  93685715.226 7
C16  38993085.434 6  38993087.586 7 203047332.114 6 157009004.162 7
C21  22248997.918 8                 115856449.598 8
C22  22614859.106 7                 117761681.107 7
E03  24387197.578 8  24387199.990 8 128155768.851 8  96948877.625 8
E05  22357579.667 8  22357581.405 9 117489839.571 8  88880330.297 9
E13  27920326.254 6  27920330.657 6 146722313.504 6 110994487.908 6
E15  24059255.869 8  24059257.762 9 126432353.379 8  95645178.694 9
E34  24167161.408 8  24167163.966 9 126999542.450 8  96074147.518 9
G01  22094682.400 7                  22094688.505 7 116108547.418 7                  90474061.422 7
G02  24790123.728 6  24790129.501 4                 130272975.808 6 101511427.347 4
G03  20336009.082 8                  20336014.703 7 106866545.948 8                  83272597.103 7
G04  20529811.936 7                  20529817.612 8 107885108.463 7                  84066175.140 8
G06  23223934.986 6                  23223942.685 7 122042572.021 6                  95098158.469 7
G09  22499608.986 7                  22499615.645 7 118236406.238 7                  92132166.145 7
G17  23321901.672 7                  23321906.914 6 122557547.710 7                  95499317.060 6
G19  22390683.321 7  22390686.112 5                 117663758.452 7  91686124.987 5
G28  24050753.419 4                  24050759.285 6 126387620.85114                  98483834.41816
G31  22393182.174 7                  22393186.775 6 117677070.405 7                  91696371.407 6
R03  20870593.148 8  20870597.818 7 111722030.014 8  86894843.528 7
R04  19388836.818 8  19388840.885 7 103826390.978 8  80753835.820 7
R05  22032150.898 7  22032157.330 7 117774606.297 7  91602383.906 7
R18  22542760.876 7  22542766.462 7 120334963.110 7  93593751.665 7
R19  19703851.220 8  19703852.945 7 105402348.005 8  81979586.637 7
R20  21248901.691 6  21248907.883 7 113627447.762 6  88376914.784 7
> 2025 06 15 14 51 15.0000000  0 27
C06  38387985.850 6  38387981.046 7 199896255.883 6 154572490.560 7
C11  23377810.765 7  23377807.191 7 121734415.404 7  94132737.388 7
C12  23268116.058 7  23268112.072 7 121163369.131 7  93691045.193 7
C16  38992121.983 6  38992123.995 7 203042314.563 6 157005124.276 7
C21  22247129.457 8                 115846719.179 8
C22  22615703.044 7                 117766075.429 7
E03  24384472.138 8  24384474.436 9 128141446.237 8  96938042.673 9
E05  22357495.650 8  22357497.278 9 117489397.569 8  88879995.921 9
E13  27916589.430 6  27916593.182 6 146702673.037 6 110979630.042 6
E15  24057203.983 8  24057206.167 8 126421572.078 8  95637022.718 8
E34  24167852.610 8  24167854.763 9 127003172.360 8  96076893.524 9
G01  22096607.241 7                  22096613.254 7 116118662.115 7                  90481943.008 7
G02  24792491.715 6  24792498.049 4                 130285422.498 6 101521126.025 4
G03  20336204.665 8                  20336210.010 7 106867572.921 8                  83273397.333 7
G04  20527578.971 7                  20527584.318 8 107873372.390 7                  84057030.142 8
G06  23220125.348 6                  23220133.354 7 122022552.359 6                  95082558.741 7
G09  22495634.538 7                  22495641.774 7 118215521.564 7                  92115892.398 7
G17  23323021.079 7                  23323027.345 6 122563437.047 7                  95503906.160 6
G19  22390462.607 7  22390465.164 5                 117662595.961 7  91685219.152 5
G28  24051881.571 4                  24051890.363 6 126393563.327 4                  98488464.876 6
G31  22392737.462 7                  22392741.631 6 117674733.596 7                  91694550.503 6
R03  20872254.996 8  20872259.679 7 111730925.306 8  86901762.078 7
R04  19387528.728 8  19387533.010 7 103819386.762 8  80748388.109 7
R05  22028179.999 7  22028186.614 7 117753378.943 7  91585873.753 7
R18  22545935.507 7  22545940.871 7 120351907.800 7  93606930.853 7
R19  19704252.092 8  19704254.245 7 105404494.945 8  81981256.477 7
R20  21245155.726 6  21245162.950 7 113607418.951 6  88361336.825 7
> 2025 06 15 14 51 20.0000000  0 26
C06  38386877.297 6  38386872.044 7 199890480.630 6 154568024.753 7
C11  23376084.590 7  23376081.461 7 121725429.158 7  94125788.654 7
C12  23269439.760 6  23269436.936 7 121170268.180 6  93696379.968 7
C16  38991158.539 6  38991160.379 7 203037296.967 6 157001244.354 7
C21  22245261.708 7                 115836992.991 7
C22  22616546.933 7                 117770471.490 7
E03  24381747.405 8  24381749.610 9 128127127.423 8  96927210.585 9
E05  22357412.411 8  22357414.038 9 117488960.229 8  88879665.071 9
E13  27912850.952 6  27912855.181 6 146683029.869 6 110964770.117 6
E15  24055153.470 8  24055155.427 8 126410795.617 8  95628870.393 8
E34  24168544.046 7  24168546.478 9 127006807.032 7  96079643.122 9
G01  22098533.502 7                  22098538.954 7 116128781.686 7                  90489828.363 7
G02  24794860.073 6  24794866.493 4                 130297867.396 6 101530823.321 4
G03  20336401.119 8                  20336406.386 7 106868605.870 8                  83274202.229 7
G04  20525347.465 7                  20525352.640 8 107861645.294 7                  84047892.146 8
G06  23216316.856 6                  23216323.997 7 122002536.259 6                  95066961.791 7
G09  22491661.744 7                  22491668.500 7 118194639.835 7                  92099620.941 7
G17  23324143.800 7                  23324148.941 7 122569332.264 7                  95508499.802 7
G19  22390244.277 7  22390246.801 5                 117661446.415 7  91684323.394 5
G31  22392295.448 7                  22392300.176 7 117672410.628 7                  91692740.418 7
R03  20873918.036 8  20873921.826 7 111739823.549 8  86908682.922 7
R04  19386222.379 8  19386227.231 7 103812392.532 8  80742948.156 7
R05  22024210.537 7  22024215.861 7 117732155.134 7  91569366.340 7
R18  22549110.148 8  22549115.436 7 120368854.789 8  93620111.821 7
R19  19704656.802 8  19704658.546 7 105406659.290 8  81982939.841 7
R20  21241412.910 6  21241418.919 7 113587401.383 6  88345767.618 7
> 2025 06 15 14 51 25.0000000  0 26
C06  38385767.702 6  38385763.316 6 199884706.749 6 154563560.050 6
C11  23374361.628 7  23374357.982 7 121716453.991 7  94118848.475 7
C12  23270766.014 6  23270763.619 7 121177174.819 6  93701720.617 7
C16  38990194.931 6  38990196.983 7 203032280.630 6 156997365.406 7
C21  22243394.664 7                 115827272.351 7
C22  22617391.976 7                 117774870.669 7
E03  24379023.496 8  24379025.890 8 128112813.719 8  96916382.368 8
E05  22357330.116 8  22357331.938 9 117488528.832 8  88879338.723 9
E13  27909113.352 6  27909116.873 6 146663385.118 6 110949909.003 6
E15  24053104.074 8  24053105.876 8 126400025.312 8  95620722.731 8
E34  24169236.907 7  24169239.306 8 127010447.794 7  96082397.328 8
G01  22100460.617 7                  22100466.094 7 116138907.473 7                  90497718.562 7
G02  24797228.782 6  24797234.595 4                 130310311.848 6 101540520.270 4
G03  20336598.944 8                  20336604.391 7 106869646.143 8                  83275012.830 7
G04  20523118.103 7                  20523123.215 8 107849928.519 7                  84038762.191 8
G06  23212508.138 6                  23212516.517 7 121982525.005 6                  95051368.620 7
G09  22487687.900 7                  22487695.314 7 118173762.439 7                  92083352.848 7
G17  23325267.344 7                  23325272.947 7 122575234.603 7                  95513098.998 7
G19  22390027.934 7  22390030.600 5                 117660311.086 7  91683438.729 5
G31  22391856.562 7                  22391860.698 6 117670102.792 7                  91690942.109 6
R03  20875580.297 8  20875585.159 7 111748726.195 8  86915607.179 7
R04  19384918.839 8  19384923.396 7 103805409.626 8  80737517.013 7
R05  22020239.837 7  22020246.394 7 117710936.188 7  91552862.742 7
R18  22552285.536 7  22552290.667 7 120385805.479 7  93633295.656 7
R19  19705064.687 8  19705067.151 7 105408842.325 8  81984637.764 7
R20  21237673.022 6  21237677.844 7 113567396.463 6  88330208.238 7
> 2025 06 15 14 51 30.0000000  0 26
C06  38384659.730 6  38384654.406 6 199878934.194 6 154559096.345 6
C11  23372639.682 7  23372636.408 7 121707489.767 7  94111916.759 7
C12  23272094.025 6  23272091.130 7 121184088.816 6  93707066.958 7
C16  38989231.651 6  38989233.924 7 203027265.470 6 156993487.346 7
C21  22241529.250 7                 115817557.063 7
C22  22618236.877 7                 117779272.690 7
E03  24376300.829 8  24376302.943 8 128098504.981 8  96905557.902 8
E05  22357249.269 8  22357250.964 9 117488103.235 8  88879016.756 9
E13  27905374.447 6  27905378.288 7 146643738.844 6 110935046.725 7
E15  24051055.365 8  24051057.473 8 126389260.998 8  95612579.604 8
E34  24169930.517 8  24169933.189 8 127014094.461 8  96085156.009 8
G01  22102387.896 7                  22102393.972 7 116149039.248 7                  90505613.443 7
G02  24799597.008 6  24799602.189 4                 130322755.563 6 101550216.644 4
G03  20336798.417 8                  20336803.670 7 106870693.561 8                  83275829.006 7
G04  20520890.422 7                  20520895.427 8 107838221.897 7                  84029640.155 8
G06  23208701.536 6                  23208709.015 7 121962518.427 6                  95035779.102 7
G09  22483715.504 7                  22483723.286 7 118152889.164 7                  92067087.960 7
G17  23326391.382 7                  23326397.690 7 122581143.964 7                  95517703.701 7
G19  22389814.753 7  22389817.008 5                 117659189.865 7  91682565.033 5
G31  22391420.249 7                  22391424.572 7 117667809.989 7                  91689155.512 7
R03  20877244.735 8  20877249.007 7 111757632.887 8  86922534.616 7
R04  19383616.621 8  19383621.339 7 103798437.940 8  80732094.576 7
R05  22016272.425 7  22016278.088 7 117689722.041 7  91536362.867 7
R18  22555461.407 7  22555467.372 7 120402759.578 7  93646482.139 7
R19  19705476.079 8  19705478.252 7 105411043.871 8  81986350.071 7
R20  21233933.385 6  21233939.454 7 113547403.913 6  88314658.500 7
> 2025 06 15 14 51 35.0000000  0 26
C06  38383550.514 6  38383546.195 6 199873162.040 6 154554632.937 6
C11  23370919.679 7  23370916.830 7 121698535.498 7  94104992.762 7
C12  23273422.498 6  23273420.124 7 121191009.213 6  93712418.234 7
C16  38988268.891 6  38988271.078 7 203022250.379 6 156989609.391 7
C21  22239664.260 7                 115807846.222 7
C22  22619082.929 7                 117783676.677 7
E03  24373578.689 8  24373580.876 8 128084200.245 8  96894736.473 8
E05  22357169.119 8  22357170.901 9 117487682.460 8  88878698.440 9
E13  27901635.342 6  27901639.240 7 146624089.964 6 110920182.480 7
E15  24049008.505 8  24049010.082 8 126378501.760 8  95604440.313 8
E34  24170625.835 8  24170628.094 9 127017746.128 8  96087918.471 9
G01  22104317.346 7                  22104323.112 7 116159176.113 7                  90513512.277 7
G02  24801964.124 6  24801969.721 3                 130335197.671 6 101559911.771 3
G03  20336998.926 8                  20337004.304 7 106871747.162 8                  83276649.993 7
G04  20518663.967 7                  20518669.720 8 107826524.463 7                  84020525.266 8
G06  23204894.738 6                  23204902.683 7 121942515.663 6                  95020192.522 7
G09  22479743.920 7                  22479751.946 7 118132019.086 7                  92050825.570 7
G17  23327516.770 7                  23327523.049 7 122587059.355 7                  95522313.074 7
G19  22389603.800 7  22389606.080 5                 117658081.754 7  91681701.573 5
G31  22390986.899 7                  22390990.996 7 117665531.204 7                  91687379.832 7
R03  20878909.103 8  20878913.192 7 111766542.670 8  86929464.438 7
R04  19382317.146 8  19382321.097 7 103791476.427 8  80726680.060 7
R05  22012304.295 7  22012309.959 7 117668511.576 7  91519865.843 7
R18  22558637.052 7  22558643.506 7 120419716.183 7  93659670.596 7
R19  19705891.187 8  19705893.031 7 105413263.082 8  81988076.120 7
R20  21230196.028 6  21230202.793 7 113527422.810 6  88299117.639 7
> 2025 06 15 14 51 40.0000000  0 26
C06  38382442.135 6  38382437.828 6 199867392.049 6 154550171.229 6
C11  23369203.092 7  23369199.500 7 121689593.073 7  94098077.910 7
C12  23274752.717 6  23274751.049 7 121197937.882 6  93717775.905 7
C16  38987305.750 6  38987308.334 7 203017237.327 6 156985732.978 7
C21  22237800.812 8                 115798141.661 8
C22  22619929.381 7                 117788084.459 7
E03  24370857.632 8  24370859.852 8 128069901.405 8  96883919.502 8
E05  22357090.455 8  22357092.136 9 117487268.380 8  88878385.197 9
E13  27897896.482 6  27897900.197 7 146604440.397 6 110905317.729 7
E15  24046962.044 8  24046963.958 8 126367749.424 8  95596306.242 8
E34  24171322.088 8  24171324.281 9 127021404.630 8  96090686.091 9
G01  22106247.684 7                  22106253.537 7 116169319.864 7                  90521416.503 7
G02  24804332.214 6  24804337.306 4                 130347640.059 6 101569607.115 4
G03  20337200.241 8                  20337206.383 7 106872808.811 8                  83277477.248 7
G04  20516440.187 7                  20516445.534 8 107814838.093 7                  84011419.003 8
G06  23201089.610 6                  23201097.364 7 121922518.555 6                  95004610.379 7
G09  22475773.286 6                  22475781.142 7 118111154.127 6                  92034567.168 7
G17  23328644.957 7                  23328649.988 7 122592982.598 7                  95526928.565 7
G19  22389395.578 7  22389397.829 5                 117656988.604 7  91680849.780 5
G31  22390556.287 7                  22390560.340 7 117663268.280 7                  91685616.528 7
R03  20880574.935 8  20880578.276 7 111775457.490 8  86936398.193 7
R04  19381019.558 8  19381023.298 7 103784526.893 8  80721274.867 7
R05  22008338.318 7  22008343.632 7 117647306.729 7  91503373.189 7
R18  22561815.599 7  22561820.715 7 120436677.140 7  93672862.410 7
R19  19706309.550 8  19706311.619 7 105415501.712 8  81989817.271 7
R20  21226461.752 6  21226468.792 7 113507455.002 6  88283587.129 7
> 2025 06 15 14 51 45.0000000  0 27
C06  38381333.876 6  38381329.857 6 199861622.519 6 154545709.855 6
C11  23367487.820 7  23367484.262 7 121680660.755 7  94091170.885 7
C12  23276085.285 7  23276082.818 7 121204873.049 7  93723138.607 7
C16  38986343.456 6  38986345.347 7 203012224.582 6 156981856.810 7
C21  22235937.912 8                 115788441.662 8
C22  22620775.804 7                 117792494.284 7
E03  24368137.618 8  24368139.626 8 128055606.690 8  96873105.639 8
E05  22357012.344 8  22357014.189 9 117486859.257 8  88878075.697 9
E13  27894156.238 6  27894160.506 6 146584788.403 6 110890451.116 6
E15  24044916.931 8  24044918.837 8 126357002.281 8  95588176.101 8
E34  24172019.468 8  24172021.527 9 127025068.198 8  96093457.553 9
G01  22108179.353 7                  22108184.509 7 116179468.802 7                  90529324.757 7
G02  24806699.344 6  24806704.986 4                 130360080.928 6 101579301.250 4
G03  20337403.860 8                  20337409.691 7 106873876.746 8                  83278309.411 7
G04  20514218.734 7                  20514223.502 8 107803161.036 7                  84002319.997 8
G06  23197284.556 6                  23197292.670 7 121902525.322 6                  94989031.237 7
G09  22471804.268 7                  22471811.407 7 118090292.445 7                  92018311.317 7
G17  23329773.958 7                  23329778.615 7 122598911.967 7                  95531548.857 7
G19  22389190.599 7  22389192.462 5                 117655908.767 7  91680008.323 5
G28  24058709.430 5                                 126429411.86215                
G31  22390128.165 7                  22390132.236 7 117661019.509 7                  91683864.221 7
R03  20882240.192 8  20882244.586 7 111784375.545 8  86943334.453 7
R04  19379723.307 8  19379727.478 7 103777587.706 8  80715877.725 7
R05  22004372.044 7  22004377.436 7 117626105.804 7  91486883.583 7
R18  22564993.039 7  22564998.626 7 120453640.616 7  93686056.201 7
R19  19706731.369 8  19706733.486 7 105417758.034 8  81991572.189 7
R20  21222730.012 6  21222736.563 7 113487498.663 6  88268065.548 7
> 2025 06 15 14 51 50.0000000  0 28
C06  38380226.521 6  38380222.108 6 199855854.113 6 154541249.347 6
C11  23365774.885 7  23365770.938 7 121671739.144 7  94084272.135 7
C12  23277417.827 7  23277416.147 7 121211815.361 7  93728506.834 7
C16  38985381.140 6  38985382.879 6 203007212.693 6 156977981.290 6
C21  22234075.724 8                 115778746.832 8
C22  22621623.437 7                 117796906.784 7
E03  24365418.187 8  24365420.317 8 128041316.721 8  96862295.389 8
E05  22356935.428 8  22356937.446 9 117486455.675 8  88877770.396 9
E13  27890416.573 6  27890420.546 7 146565134.605 6 110875583.154 7
E15  24042872.958 8  24042874.805 8 126346260.928 8  95580050.348 8
E34  24172717.583 8  24172719.727 8 127028737.475 8  96096233.332 8
G01  22110111.566 7                  22110117.182 7 116189623.471 7                  90537237.482 7
G02  24809066.603 6  24809071.940 4                 130372520.878 6 101588994.684 4
G03  20337608.425 8                  20337614.411 7 106874951.656 8                  83279147.000 7
G04  20511998.465 7                  20512003.365 8 107791493.934 7                  83993228.747 8
G06  23193480.702 6                  23193489.360 7 121882536.630 6                  94973455.655 7
G09  22467834.463 7                  22467842.068 7 118069434.716 7                  92002058.564 7
G17  23330902.436 7                  23330908.209 7 122604848.072 7                  95536174.389 7
G19  22388987.657 7  22388989.459 5                 117654842.710 7  91679177.636 5
G28  24059851.233 5                  24059857.010 6 126435421.725 5                  98521092.17716
G31  22389702.698 7                  22389707.087 7 117658785.475 7                  91682123.402 7
R03  20883907.108 8  20883911.128 7 111793297.592 8  86950273.826 7
R04  19378429.651 8  19378433.625 7 103770659.442 8  80710489.071 7
R05  22000405.936 7  22000412.009 7 117604909.361 7  91470397.502 7
R12  23159962.832 5                                
R18  22568172.437 7  22568177.292 7 120470607.290 7  93699252.479 7
R19  19707156.914 8  19707158.628 7 105420032.784 8  81993341.423 7
R20  21219002.078 6  21219007.042 7 113467554.617 6  88252553.511 7
> 2025 06 15 14 51 55.0000000  0 28
C06  38379119.560 6  38379114.559 6 199850086.379 6 154536789.359 6
C11  23364063.390 7  23364059.539 7 121662827.954 7  94077381.449 7
C12  23278752.859 7  23278750.849 7 121218764.458 7  93733880.310 7
C16  38984418.944 6  38984420.593 6 203002201.394 6 156974106.247 6
C21  22232214.936 7                 115769056.854 7
C22  22622471.357 7                 117801321.639 7
E03  24362699.359 8  24362701.895 8 128027031.195 8  96851488.483 8
E05  22356859.732 8  22356861.711 9 117486057.354 8  88877469.069 9
E13  27886676.706 6  27886680.081 7 146545478.722 6 110860713.620 7
E15  24040829.950 8  24040831.851 9 126335525.095 8  95571928.756 9
E34  24173416.759 8  24173419.028 8 127032412.122 8  96099013.176 8
G01  22112044.815 7                  22112050.682 7 116199783.621 7                  90545154.488 7
G02  24811433.608 6  24811438.856 4                 130384959.571 6 101598687.129 4
G03  20337814.330 8                  20337820.230 7 106876033.124 8                  83279989.699 7
G04  20509780.214 7                  20509784.959 8 107779836.456 7                  83984145.000 8
G06  23189678.538 6                  23189686.506 7 121862552.186 6                  94957883.349 7
G09  22463866.543 7                  22463874.009 7 118048580.648 7                  91985808.682 7
G17  23332032.936 7                  23332039.019 6 122610790.651 7                  95540804.962 6
G19  22388787.171 7  22388789.116 5                 117653790.212 7  91678357.522 5
G28  24060994.507 5                  24061003.124 6 126441441.005 5                  98525782.572 6
G31  22389280.667 7                  22389284.705 7 117656565.836 7                  91680393.849 7
R03  20885574.285 8  20885578.513 7 111802223.037 8  86957215.830 7
R04  19377137.805 8  19377142.134 7 103763741.751 8  80705108.654 7
R05  21996441.226 7  21996447.612 7 117583717.092 7  91453914.625 7
R12  23159672.207 5  23159675.937 4 123714822.864 5  96222644.89214
R18  22571351.198 7  22571355.917 7 120487576.774 7  93712450.956 7
R19  19707584.661 8  19707587.097 7 105422325.540 8  81995124.689 7
R20  21215273.856 6  21215280.285 7 113447622.484 6  88237050.756 7
> 2025 06 15 14 52  0.0000000  0 28
C06  38378011.915 6  38378007.011 6 199844319.799 6 154532330.288 6
C11  23362354.096 7  23362350.481 7 121653927.498 7  94070499.056 7
C12  23280088.529 6  23280086.624 7 121225720.659 6  93739259.266 7
C16  38983456.872 6  38983458.231 7 202997190.979 6 156970231.876 7
C21  22230354.870 7                 115759372.021 7
C22  22623319.321 7                 117805739.123 7
E03  24359981.906 8  24359984.313 9 128012750.432 8  96840685.192 9
E05  22356785.031 8  22356786.938 9 117485664.555 8  88877171.912 9
E13  27882934.842 6  27882939.549 7 146525821.004 6 110845842.697 7
E15  24038788.226 8  24038790.001 8 126324795.066 8  95563811.557 8
E34  24174116.982 8  24174119.344 9 127036092.473 8  96101797.337 9
G01  22113979.287 7                  22113984.813 7 116209949.505 7                  90553075.935 7
G02  24813802.020 6  24813805.755 4                 130397397.368 6 101608378.896 4
G03  20338021.081 8                  20338026.892 7 106877121.534 8                  83280837.800 7
G04  20507563.494 7                  20507568.506 8 107768188.911 7                  83975068.994 8
G06  23185875.989 6                  23185884.589 7 121842572.283 6                  94942314.622 7
G09  22459898.237 7                  22459906.645 7 118027730.549 7                  91969561.867 7
G17  23333165.399 7                  23333170.970 6 122616739.858 7                  95545440.688 6
G19  22388589.860 7  22388591.649 5                 117652751.572 7  91677548.190 5
G28  24062144.584 5                  24062149.940 6 126447470.039 5                  98530480.478 6
G31  22388861.076 7                  22388864.952 6 117654360.992 7                  91678675.768 6
R03  20887241.639 8  20887246.844 7 111811152.572 8  86964161.022 7
R04  19375848.541 8  19375851.736 7 103756834.910 8  80699736.668 7
R05  21992478.166 7  21992484.032 7 117562529.303 7  91437435.277 7
R12  23159381.175 5  23159387.136 5 123713283.833 5  96221447.881 5
R18  22574529.442 7  22574535.293 7 120504549.419 7  93725651.865 7
R19  19708017.079 8  19708019.670 7 105424636.551 8  81996922.137 7
R20  21211549.955 6  21211554.352 7 113427702.638 6  88221557.539 7
> 2025 06 15 14 52  5.0000000  0 28
C06  38376904.132 6  38376899.754 7 199838554.091 6 154527871.888 7
C11  23360646.726 7  23360643.137 7 121645037.630 7  94063624.854 7
C12  23281426.175 6  23281423.787 7 121232683.812 6  93744643.624 7
C16  38982494.551 6  38982496.305 6 202992181.304 6 156966358.092 6
C21  22228495.956 7                 115749692.212 7
C22  22624168.355 7                 117810159.086 7
E03  24357265.542 8  24357267.616 8 127998474.286 8  96829885.389 8
E05  22356711.380 8  22356713.216 9 117485277.187 8  88876878.867 9
E13  27879194.164 6  27879198.390 7 146506161.350 6 110830970.311 7
E15  24036747.545 8  24036749.155 8 126314070.719 8  95555698.655 8
E34  24174818.273 8  24174820.689 9 127039778.355 8  96104585.682 9
G01  22115914.279 7                  22115920.529 7 116220120.995 7                  90561001.762 7
G02  24816168.921 6  24816172.492 3                 130409834.077 6 101618069.774 3
G03  20338229.546 8                  20338235.858 7 106878216.658 8                  83281691.146 7
G04  20505349.115 7                  20505353.949 8 107756551.163 7                  83966000.625 8
G06  23182074.863 6                  23182083.353 7 121822596.817 6                  94926749.358 7
G09  22455931.736 7                  22455940.433 7 118006884.271 7                  91953318.047 7
G17  23334299.209 7                  23334304.207 7 122622695.606 7                  95550081.519 7
G19  22388394.698 7  22388396.622 5                 117651726.604 7  91676749.522 5
G28  24063292.377 5                                                                
G31  22388444.047 7                  22388448.392 6 117652170.724 7                  91676969.097 6
R03  20888910.693 8  20888915.536 7 111820085.646 8  86971108.956 7
R04  19374560.859 8  19374564.352 7 103749938.931 8  80694373.130 7
R05  21988515.401 7  21988520.834 6 117541345.884 7  91420959.306 6
R12  23159099.272 5  23159101.809 4 123711762.561 5  96220264.628 4
R18  22577709.311 7  22577715.720 7 120521525.028 7  93738855.099 7
R19  19708452.321 8  19708454.970 7 105426965.682 8  81998733.695 7
R20  21207826.208 6  21207831.741 7 113407794.854 6  88206073.717 7
> 2025 06 15 14 52 10.0000000  0 28
C06  38375797.609 6  38375792.947 6 199832790.387 6 154523415.015 6
C11  23358941.265 7  23358938.446 7 121636159.407 7  94056759.639 7
C12  23282763.893 7  23282762.743 7 121239654.951 7  93750034.136 7
C16  38981533.319 6  38981534.617 6 202987173.438 6 156962485.679 6
C21  22226638.040 7                 115740018.489 7
C22  22625018.139 7                 117814582.630 7
E03  24354549.554 8  24354552.018 8 127984203.804 8  96819089.864 8
E05  22356638.836 8  22356640.741 9 117484896.252 8  88876590.688 9
E13  27875452.190 6  27875456.989 7 146486500.838 6 110816097.273 7
E15  24034708.083 8  24034709.702 8 126303353.110 8  95547590.859 8
E34  24175521.284 8  24175523.337 8 127043470.859 8  96107379.022 8
G01  22117851.313 7                  22117857.361 7 116230299.150 7                  90568932.765 7
G02  24818534.394 6  24818539.187 3                 130422270.761 6 101627760.644 3
G03  20338439.317 8                  20338445.471 7 106879319.627 8                  83282550.595 7
G04  20503136.460 7                  20503141.546 8 107744924.279 7                  83956940.728 8
G06  23178274.128 6                  23178283.146 7 121802626.859 6                  94911188.338 7
G09  22451965.566 7                  22451974.281 7 117986042.932 7                  91937078.055 7
G17  23335433.921 7                  23335438.726 7 122628658.970 7                  95554728.272 7
G19  22388202.658 7  22388204.454 5                 117650716.399 7  91675962.341 5
G28  24064443.601 5                  24064449.866 6 126459557.57315                  98539899.37816
G31  22388030.431 7                  22388034.517 6 117649996.132 7                  91675274.602 6
R03  20890580.210 8  20890585.379 7 111829023.451 8  86978060.578 7
R04  19373274.941 8  19373278.559 7 103743054.783 8  80689018.792 7
R05  21984554.742 8  21984558.527 7 117520168.043 8  91404487.656 7
R12  23158815.731 5  23158820.190 4 123710259.992 5  96219095.968 4
R18  22580890.333 7  22580897.002 7 120538504.663 7  93752061.459 7
R19  19708891.330 8  19708893.904 7 105429313.997 8  82000560.147 7
R20  21204105.738 6  21204111.319 7 113387900.287 6  88190600.169 7
> 2025 06 15 14 52 15.0000000  0 28
C06  38374690.378 6  38374686.398 6 199827028.322 6 154518959.431 6
C11  23357238.827 7  23357235.840 7 121627292.456 7  94049903.166 7
C12  23284105.178 6  23284102.574 7 121246633.716 6  93755430.556 7
C16  38980571.467 6  38980572.982 7 202982166.975 6 156958614.362 7
C21  22224781.589 7                 115730350.444 7
C22  22625867.834 7                 117819009.373 7
E03  24351835.275 8  24351837.468 8 127969938.656 8  96808298.379 8
E05  22356567.525 8  22356569.383 9 117484521.387 8  88876307.106 9
E13  27871709.997 6  27871715.473 7 146466839.099 6 110801223.314 7
E15  24032669.607 8  24032671.360 8 126292641.876 8  95539487.883 8
E34  24176225.090 8  24176227.230 8 127047169.587 8  96110177.090 8
G01  22119789.201 7                  22119795.226 7 116240483.563 7                  90576868.671 7
G02  24820901.329 6  24820906.273 4                 130434707.035 6 101637451.226 4
G03  20338650.372 7                  20338656.842 7 106880430.040 7                  83283415.869 7
G04  20500925.787 7                  20500931.095 8 107733307.893 7                  83947889.011 8
G06  23174475.969 6                  23174483.942 7 121782662.020 6                  94895631.329 7
G09  22448000.391 7                  22448008.760 7 117965206.126 7                  91920841.604 7
G17  23336569.974 7                  23336575.232 7 122634629.541 7                  95559380.636 7
G19  22388013.108 7  22388015.203 5                 117649720.559 7  91675186.363 5
G28  24065596.963 5                  24065602.558 6 126465616.811 5                  98544620.836 6
G31  22387619.901 7                  22387623.682 6 117647836.852 7                  91673592.047 6
R03  20892251.341 8  20892256.329 7 111837965.720 8  86985015.665 7
R04  19371991.432 8  19371995.192 7 103736182.026 8  80683673.321 7
R05  21980593.388 7  21980597.871 7 117498995.261 7  91388019.947 7
R12  23158535.067 4  23158540.822 3 123708775.847 4  96217941.591 3
R18  22584072.130 7  22584078.044 7 120555487.937 7  93765270.648 7
R19  19709334.369 8  19709336.433 7 105431681.202 8  82002401.294 7
R20  21200386.878 6  21200393.509 7 113368018.674 6  88175136.708 7
> 2025 06 15 14 52 20.0000000  0 28
C06  38373584.441 6  38373579.852 6 199821267.263 6 154514504.614 6
C11  23355538.355 7  23355534.570 7 121618436.230 7  94043054.964 7
C12  23285445.931 6  23285444.088 7 121253619.478 6  93760832.374 7
C16  38979610.150 6  38979612.023 6 202977161.352 6 156954743.686 6
C21  22222925.840 8                 115720687.520 8
C22  22626718.295 7                 117823438.675 7
E03  24349121.346 8  24349123.735 8 127955678.217 8  96797510.450 8
E05  22356497.439 8  22356499.103 8 117484152.019 8  88876027.684 8
E13  27867968.828 6  27867973.656 6 146447175.548 6 110786347.968 6
E15  24030632.116 8  24030634.205 8 126281936.431 8  95531389.280 8
E34  24176930.241 8  24176932.113 9 127050873.951 8  96112979.408 9
G01  22121729.098 7                  22121734.472 7 116250673.644 7                  90584808.982 7
G02  24823267.533 6  24823272.627 4                 130447142.259 6 101647140.986 4
G03  20338863.350 8                  20338869.356 7 106881547.321 8                  83284286.492 7
G04  20498717.460 7                  20498722.460 8 107721701.415 7                  83938845.021 8
G06  23170676.728 6                  23170685.730 7 121762701.802 6                  94880077.934 7
G09  22444035.353 6                  22444044.184 7 117944373.240 6                  91904608.188 7
G17  23337706.586 7                  23337712.865 7 122640606.705 7                  95564038.188 7
G19  22387826.327 7  22387828.173 5                 117648738.481 7  91674421.118 5
G28  24066752.028 5                  24066757.419 6 126471685.729 5                  98549349.862 6
G31  22387211.708 7                  22387215.617 6 117645692.232 7                  91671920.926 6
R03  20893922.367 8  20893927.134 7 111846911.729 8  86991973.665 7
R04  19370709.811 8  19370714.300 7 103729320.177 8  80678336.336 7
R05  21976633.405 8  21976638.371 7 117477826.968 8  91371555.742 7
R12  23158257.337 4  23158266.842 4 123707309.37014
R18  22587254.613 7  22587260.344 7 120572474.242 7  93778482.175 7
R19  19709780.204 8  19709782.603 7 105434066.702 8  82004256.684 7
R20  21196672.270 6  21196677.323 7 113348149.313 6  88159682.763 7
> 2025 06 15 14 52 25.0000000  0 27
C06  38372478.429 6  38372473.869 6 199815507.560 6 154510050.840 6
C11  23353839.963 7  23353835.961 7 121609591.032 7  94036215.304 7
C12  23286789.187 6  23286786.941 7 121260612.618 6  93766239.896 7
C16  38978649.279 6  38978650.695 7 202972156.868 6 156950873.918 7
C21  22221071.488 8                 115711030.039 8
C22  22627569.773 7                 117827870.876 7
E03  24346408.703 8  24346411.056 8 127941422.811 8  96786726.341 8
E05  22356428.237 8  22356429.970 9 117483788.441 8  88875752.635 9
E13  27864226.466 6  27864231.491 6 146427510.536 6 110771471.520 6
E15  24028596.495 8  24028598.233 8 126271237.112 8  95523295.322 8
E34  24177636.273 8  24177638.154 8 127054584.257 8  96115786.234 8
G01  22123669.307 7                  22123674.679 7 116260869.715 7                  90592753.967 7
G02  24825634.029 6  24825638.731 4                 130459576.758 6 101656830.204 4
G03  20339076.626 7                  20339083.590 7 106882671.785 7                  83285162.689 7
G04  20496510.674 7                  20496515.610 8 107710105.167 7                  83929808.979 8
G06  23166880.248 6                  23166888.529 7 121742746.405 6                  94864528.261 7
G09  22440072.384 6                  22440080.696 7 117923544.623 6                  91888378.146 7
G17  23338845.028 7                  23338851.653 7 122646590.739 7                  95568701.046 7
G19  22387641.459 7  22387644.106 5                 117647770.485 7  91673666.818 5
G28  24067908.341 5                  24067914.356 5 126477764.371 5                  98554086.463 5
G31  22386806.104 7                  22386810.462 6 117643562.657 7                  91670261.532 6
R03  20895595.061 8  20895598.827 7 111855861.775 8  86998934.810 7
R04  19369430.531 8  19369434.879 7 103722469.439 8  80673007.984 7
R05  21972673.705 7  21972679.151 6 117456663.440 7  91355095.208 6
R18  22590437.570 7  22590442.700 7 120589463.873 7  93791696.304 7
R19  19710229.692 8  19710232.029 7 105436470.786 8  82006126.526 7
R20  21192958.937 6  21192964.208 7 113328292.661 6  88144238.696 7
> 2025 06 15 14 52 30.0000000  0 27
C06  38371372.325 6  38371368.532 6 199809750.188 6 154505598.848 6
C11  23352143.315 7  23352139.837 7 121600757.811 7  94029384.897 7
C12  23288133.251 6  23288131.459 7 121267614.036 6  93771653.835 7
C16  38977689.201 6  38977690.086 6 202967154.517 6 156947005.789 6
C21  22219218.108 8                 115701378.965 8
C22  22628421.685 7                 117832306.965 7
E03  24343697.469 8  24343699.509 9 127927173.458 8  96775946.795 9
E05  22356360.467 8  22356362.098 9 117483431.647 8  88875482.721 9
E13  27860485.059 6  27860489.191 6 146407844.996 6 110756594.660 6
E15  24026561.751 8  24026563.576 9 126260544.915 8  95515206.748 9
E34  24178343.797 8  24178345.550 9 127058301.541 8  96118598.324 9
G01  22125610.915 7                  22125616.286 7 116271072.729 7                  90600704.360 7
G02  24827999.502 6  24828005.208 4                 130472011.591 6 101666519.634 4
G03  20339292.319 7                  20339299.026 7 106883804.401 7                  83286045.250 7
G04  20494306.185 7                  20494310.880 8 107698520.133 7                  83920781.679 8
G06  23163084.010 6                  23163092.199 7 121722796.913 6                  94848983.214 7
G09  22436110.062 6                  22436117.875 7 117902721.285 6                  91872152.177 7
G17  23339986.271 7                  23339991.690 7 122652582.672 7                  95573370.077 7
G19  22387460.558 7  22387462.917 5                 117646817.541 7  91672924.271 5
G28  24069066.677 5                  24069072.824 6 126483854.055 5                  98558831.635 6
G31  22386403.783 7                  22386408.095 7 117641449.063 7                  91668614.582 7
R03  20897267.992 8  20897272.338 7 111864816.896 8  87005899.880 7
R04  19368153.112 8  19368157.460 7 103715630.965 8  80667689.174 7
R05  21968716.688 7  21968721.515 7 117435505.820 7  91338639.308 7
R18  22593620.969 7  22593626.795 7 120606457.828 7  93804913.822 7
R19  19710682.693 8  19710684.631 7 105438894.411 8  82008011.563 7
R20  21189247.873 6  21189253.563 7 113308449.815 6  88128805.359 7
> 2025 06 15 14 52 35.0000000  0 27
C06  38370267.428 6  38370262.953 6 199803993.974 6 154501147.801 6
C11  23350448.862 7  23350445.344 7 121591935.530 7  94022562.947 7
C12  23289479.703 6  23289477.362 7 121274622.597 6  93777073.293 7
C16  38976728.654 6  38976729.579 6 202962153.185 6 156943138.442 6
C21  22217366.065 8                 115691733.182 8
C22  22629274.324 7                 117836745.783 7
E03  24340986.660 8  24340988.850 8 127912929.001 8  96765170.966 8
E05  22356293.309 8  22356295.298 9 117483080.494 8  88875217.073 9
E13  27856742.397 6  27856746.748 6 146388177.877 6 110741716.610 6
E15  24024528.145 8  24024530.042 8 126249858.696 8  95507122.696 8
E34  24179052.322 8  24179054.058 9 127062024.617 8  96121414.803 9
G01  22127553.605 7                  22127558.941 7 116281281.595 7                  90608659.305 7
G02  24830365.207 6  24830371.133 4                 130484445.551 6 101676208.404 4
G03  20339509.461 7                  20339516.052 7 106884944.050 7                  83286933.294 7
G04  20492103.579 7                  20492108.335 8 107686945.193 7                  83911762.245 8
G06  23159287.886 6                  23159297.037 7 121702852.214 6                  94833441.921 7
G09  22432148.435 6                  22432156.459 7 117881902.142 6                  91855929.463 7
G17  23341127.224 7                  23341132.981 7 122658581.378 7                  95578044.401 7
G19  22387281.955 7  22387284.122 5                 117645878.483 7  91672192.550 5
G28  24070227.365 5                  24070233.300 6 126489953.429 5                  98563584.391 6
G31  22386004.433 7                  22386008.522 7 117639350.341 7                  91666979.194 7
R03  20898941.484 8  20898945.349 7 111873776.023 8  87012868.072 7
R04  19366878.698 8  19366882.540 7 103708803.359 8  80662378.818 7
R05  21964759.348 7  21964763.837 6 117414352.952 7  91322187.095 6
R18  22596806.418 7  22596811.004 7 120623454.965 7  93818133.763 7
R19  19711138.908 8  19711141.126 7 105441336.524 8  82009910.980 7
R20  21185539.090 6  21185545.659 7 113288619.586 6  88113381.864 7
> 2025 06 15 14 52 40.0000000  0 27
C06  38369161.707 6  38369157.921 6 199798239.857 6 154496698.355 6
C11  23348757.235 7  23348753.379 7 121583124.951 7  94015750.043 7
C12  23290826.843 6  23290824.924 7 121281639.181 6  93782498.957 7
C16  38975768.746 6  38975769.408 6 202957153.716 6 156939272.549 6
C21  22215514.968 7                 115682093.544 7
C22  22630127.774 7                 117841188.215 7
E03  24338277.329 8  24338279.319 8 127898690.307 8  96754399.496 8
E05  22356228.089 8  22356229.681 9 117482735.834 8  88874956.344 9
E13  27852999.887 6  27853004.051 6 146368509.989 6 110726837.985 6
E15  24022495.929 8  24022497.851 8 126239179.327 8  95499043.830 8
E34  24179761.935 8  24179763.804 9 127065754.358 8  96124236.324 9
G01  22129497.351 7                  22129502.928 7 116291497.116 7                  90616619.447 7
G02  24832731.722 6  24832737.581 4                 130496879.537 6 101685897.176 4
G03  20339727.747 7                  20339734.336 7 106886091.603 7                  83287827.483 7
G04  20489903.023 7                  20489907.703 8 107675381.192 7                  83902751.343 8
G06  23155493.460 6                  23155502.390 7 121682913.109 6                  94817904.979 7
G09  22428187.567 6                  22428194.949 7 117861088.006 6                  91839710.654 7
G17  23342269.782 7                  23342276.026 7 122664587.693 7                  95582724.656 7
G19  22387106.117 7  22387108.233 5                 117644954.205 7  91671472.314 5
G28  24071389.883 5                  24071396.610 5 126496063.404 5                  98568345.392 5
G31  22385608.079 7                  22385612.318 7 117637267.326 7                  91665356.070 7
R03  20900615.958 8  20900619.652 7 111882739.742 8  87019839.855 7
R04  19365605.523 8  19365609.535 7 103701987.779 8  80657077.806 7
R05  21960803.561 7  21960807.830 6 117393205.585 7  91305739.138 6
R18  22599990.755 7  22599995.358 7 120640456.090 7  93831356.835 7
R19  19711598.697 8  19711601.230 7 105443797.799 8  82011825.318 7
R20  21181833.489 6  21181839.466 7 113268802.735 6  88097968.763 7
> 2025 06 15 14 52 45.0000000  0 28
C06  38368057.339 6  38368053.434 6 199792487.941 6 154492250.604 6
C11  23347067.066 7  23347063.968 7 121574326.319 7  94008946.384 7
C12  23292175.879 6  23292173.972 7 121288663.961 6  93787930.954 7
C16  38974809.020 6  38974809.977 6 202952156.252 6 156935408.183 6
C21  22213664.835 7                 115672460.229 7
C22  22630981.227 7                 117845634.401 7
E03  24335569.153 8  24335570.900 8 127884457.554 8  96743632.508 8
E05  22356163.749 8  22356165.356 8 117482397.847 8  88874700.656 8
E13  27849256.345 6  27849261.326 7 146348841.482 6 110711958.906 7
E15  24020464.878 8  24020466.979 8 126228506.985 8  95490970.272 8
E34  24180472.653 8  24180474.833 9 127069490.932 8  96127063.014 9
G01  22131442.543 7                  22131448.265 7 116301719.496 7                  90624584.925 7
G02  24835096.822 6  24835103.575 4                 130509313.681 6 101695586.070 4
G03  20339947.834 7                  20339953.979 7 106887247.182 7                  83288727.939 7
G04  20487704.150 7                  20487709.440 8 107663828.337 7                  83893749.120 8
G06  23151700.515 6                  23151709.174 7 121662979.897 6                  94802372.618 7
G09  22424227.812 6                  22424235.186 7 117840279.027 6                  91823495.864 7
G17  23343413.932 7                  23343420.672 7 122670601.720 7                  95587410.895 7
G19  22386933.363 7  22386935.281 5                 117644044.858 7  91670763.722 5
G28  24072555.602 5                  24072560.875 5 126502184.168 5                  98573114.812 5
G31  22385214.641 7                  22385219.004 7 117635200.202 7                  91663745.324 7
R03  20902291.503 8  20902295.377 7 111891708.520 8  87026815.572 7
R04  19364335.485 8  19364339.123 7 103695184.150 8  80651786.099 7
R05  21956848.508 7  21956852.634 6 117372064.059 7  91289295.718 6
R12  23156953.172 5                                
R18  22603175.629 7  22603180.812 7 120657461.374 7  93844583.146 7
R19  19712063.484 8  19712065.242 7 105446278.452 8  82013754.710 7
R20  21178130.056 6  21178136.012 7 113248999.438 6  88082566.210 7
> 2025 06 15 14 52 50.0000000  0 28
C06  38366953.154 6  38366949.355 6 199786738.163 6 154487804.526 6
C11  23345380.165 7  23345376.585 7 121565539.544 7  94002151.896 7
C12  23293526.521 6  23293524.606 7 121295696.824 6  93793369.209 7
C16  38973850.021 6  38973850.258 7 202947160.783 6 156931545.366 7
C21  22211816.051 7                 115662833.167 7
C22  22631836.227 7                 117850084.293 7
E03  24332861.973 8  24332863.622 8 127870230.694 8  96732869.994 8
E05  22356100.804 8  22356102.310 9 117482066.453 8  88874449.960 9
E13  27845513.277 6  27845518.478 7 146329172.353 6 110697079.337 7
E15  24018435.399 8  24018437.445 8 126217841.632 8  95482902.001 8
E34  24181185.123 8  24181187.184 9 127073234.285 8  96129894.829 9
G01  22133388.946 7                  22133394.936 7 116311948.609 7                  90632555.672 7
G02  24837464.369 6  24837469.583 4                 130521747.916 6 101705275.051 4
G03  20340169.037 8                  20340175.690 7 106888410.761 8                  83289634.625 7
G04  20485508.209 7                  20485513.001 8 107652286.538 7                  83884755.518 8
G06  23147908.810 6                  23147916.790 7 121643052.424 6                  94786844.720 7
G09  22420268.830 7                  22420276.500 7 117819475.218 7                  91807285.131 7
G17  23344560.212 7                  23344566.522 7 122676623.577 7                  95592103.248 7
G19  22386762.667 7  22386765.110 5                 117643150.348 7  91670066.707 5
G28  24073721.230 5                  24073728.409 6 126508315.497 5                  98577892.470 6
G31  22384824.588 7                  22384828.729 7 117633148.862 7                  91662146.894 7
R03  20903967.953 8  20903971.829 7 111900682.229 8  87033795.135 7
R04  19363066.388 8  19363070.895 7 103688392.503 8  80646503.712 7
R05  21952893.765 7  21952898.502 6 117350927.949 7  91272856.565 6
R12  23156699.275 5                 123698896.42615
R18  22606362.868 7  22606367.346 6 120674470.737 7  93857812.607 6
R19  19712530.353 8  19712532.080 7 105448778.478 8  82015699.142 7
R20  21174428.795 6  21174435.545 7 113229209.641 6  88067174.165 7
> 2025 06 15 14 52 55.0000000  0 28
C06  38365849.295 6  38365845.138 6 199780988.652 6 154483358.649 6
C11  23343694.508 7  23343691.483 7 121556762.779 7  93995365.146 7
C12  23294878.858 6  23294876.786 7 121302735.909 6  93798812.273 7
C16  38972890.647 6  38972891.191 6 202942165.399 6 156927682.625 6
C21  22209968.382 7                 115653210.484 7
C22  22632690.854 7                 117854535.983 7
E03  24330155.264 8  24330157.093 9 127856007.828 8  96722110.490 9
E05  22356038.546 8  22356040.138 9 117481739.778 8  88874202.835 9
E13  27841770.454 6  27841775.189 7 146309500.769 6 110682197.925 7
E15  24016406.799 8  24016408.904 8 126207181.348 8  95474837.581 8
E34  24181898.143 8  24181900.454 8 127076982.507 8  96132730.332 8
G01  22135336.608 7                  22135342.009 7 116322182.617 7                  90640530.211 7
G02  24839830.105 6  24839835.613 4                 130534180.351 6 101714962.621 4
G03  20340391.878 8                  20340398.263 7 106889580.442 8                  83290546.055 7
G04  20483313.614 7                  20483318.641 8 107640753.903 7                  83875769.054 8
G06  23144116.715 6                  23144125.425 7 121623128.856 6                  94771319.875 7
G09  22416310.716 7                  22416317.902 7 117798674.653 7                  91791076.899 7
G17  23345707.659 7                  23345713.814 7 122682651.108 7                  95596800.002 7
G19  22386595.391 7  22386597.314 5                 117642268.841 7  91669379.805 5
G28  24074889.242 5                  24074897.213 5 126514455.699 5                  98582677.056 5
G31  22384436.621 7                  22384441.179 7 117631111.477 7                  91660559.332 7
R03  20905644.793 8  20905648.578 7 111909658.904 8  87040776.969 7
R04  19361799.758 8  19361804.007 7 103681610.926 8  80641229.154 7
R05  21948940.734 7  21948945.289 6 117329795.776 7  91256420.449 6
R12  23156445.285 5  23156438.288 4 123697558.769 5
R18  22609549.216 7  22609554.065 7 120691482.224 7  93871043.744 7
R19  19713001.230 8  19713002.939 7 105451295.973 8  82017657.186 7
R20  21170730.495 5  21170736.741 7 113209431.580 5  88051791.248 7
> 2025 06 15 14 53  0.0000000  0 28
C06  38364744.983 6  38364741.558 6 199775241.057 6 154478914.265 6
C11  23342011.277 7  23342007.865 7 121547997.629 7  93988587.364 7
C12  23296231.735 6  23296229.824 7 121309782.854 6  93804261.402 7
C16  38971931.403 6  38971932.213 6 202937171.705 6 156923821.188 6
C21  22208121.689 8                 115643593.822 8
C22  22633547.257 7                 117858991.146 7
E03  24327449.763 8  24327451.594 8 127841790.610 8  96711355.266 8
E05  22355977.649 8  22355979.156 9 117481419.435 8  88873960.500 9
E13  27838026.703 6  27838031.777 6 146289828.293 6 110667315.837 6
E15  24014379.413 8  24014381.572 8 126196527.814 8  95466778.251 8
E34  24182612.679 8  24182614.965 8 127080737.252 8  96135570.768 8
G01  22137284.910 7                  22137291.205 7 116332423.148 7                  90648509.829 7
G02  24842195.204 6  24842201.438 4                 130546612.602 6 101724650.087 4
G03  20340616.395 8                  20340622.231 7 106890757.865 8                  83291463.521 7
G04  20481121.104 7                  20481125.663 8 107629232.102 7                  83866791.030 8
G06  23140326.901 6                  23140334.962 6 121603210.865 6                  94755799.360 6
G09  22412353.646 7                  22412361.288 7 117777879.000 7                  91774872.506 7
G17  23346855.546 7                  23346861.911 7 122688686.049 7                  95601502.546 7
G19  22386429.667 7  22386432.413 5                 117641401.938 7  91668704.306 5
G28  24076059.905 5                  24076067.512 5 126520606.30515                  98587469.71315
G31  22384051.737 7                  22384056.523 7 117629089.719 7                  91658983.908 7
R03  20907322.112 8  20907326.530 7 111918640.109 8  87047762.350 7
R04  19360536.365 8  19360539.760 7 103674841.122 8  80635963.739 7
R05  21944988.867 8  21944993.747 6 117308669.025 8  91239988.556 6
R12  23156194.532 4  23156193.149 4 123696239.822 4  96208167.54214
R18  22612736.983 7  22612741.647 7 120708497.526 7  93884277.850 7
R19  19713475.978 8  19713477.272 7 105453832.587 8  82019630.102 7
R20  21167033.471 6  21167040.402 7 113189666.734 6  88036418.610 7
> 2025 06 15 14 53  5.0000000  0 28
C06  38363642.369 6  38363638.248 6 199769495.555 6 154474471.473 6
C11  23340330.574 7  23340326.603 7 121539244.223 7  93981818.686 7
C12  23297586.992 6  23297584.963 7 121316837.754 6  93809716.694 7
C16  38970973.142 6  38970973.592 6 202932179.916 6 156919961.217 6
C21  22206275.935 8                 115633983.273 8
C22  22634403.268 7                 117863449.837 7
E03  24324745.436 8  24324747.291 8 127827579.155 8  96700604.394 8
E05  22355918.020 8  22355919.433 9 117481105.549 8  88873723.044 9
E13  27834283.270 6  27834288.111 7 146270155.062 6 110652433.173 7
E15  24012353.206 8  24012355.601 8 126185881.136 8  95458724.113 8
E34  24183328.657 8  24183330.693 8 127084498.636 8  96138416.229 8
G01  22139235.075 7                  22139240.990 7 116342670.267 7                  90656494.573 7
G02  24844560.996 6  24844567.233 3                 130559044.800 6 101734337.461 3
G03  20340841.820 8                  20340847.913 7 106891943.142 8                  83292387.104 7
G04  20478930.395 7                  20478935.173 8 107617721.245 7                  83857821.531 8
G06  23136537.433 6                  23136545.683 7 121583298.553 6                  94740283.281 7
G09  22408396.836 6                  22408405.070 7 117757088.370 6                  91758672.039 7
G17  23348005.354 7                  23348011.977 7 122694728.414 7                  95606210.882 7
G19  22386267.964 7  22386270.306 5                 117640549.802 7  91668040.280 5
G28  24077231.605 5                                                                
G31  22383669.963 7                  22383674.515 7 117627083.605 7                  91657420.708 7
R03  20909001.047 8  20909005.041 7 111927625.821 8  87054751.232 7
R04  19359273.990 8  19359277.659 7 103668083.213 8  80630707.588 7
R05  21941037.257 8  21941042.077 6 117287547.786 8  91223560.900 6
R12  23155953.254 5  23155949.929 4 123694939.566 5  96207156.277 4
R18  22615924.974 7  22615930.201 7 120725516.786 7  93897515.054 7
R19  19713953.051 8  19713954.918 7 105456388.328 8  82021617.911 7
R20  21163340.122 5  21163346.956 7 113169915.404 5  88021056.484 7
> 2025 06 15 14 53 10.0000000  0 28
C06  38362538.763 6  38362535.195 7 199763752.325 6 154470030.410 7
C11  23338652.015 7  23338648.619 7 121530502.832 7  93975059.279 7
C12  23298942.472 6  23298941.293 7 121323900.855 6  93815178.325 7
C16  38970015.105 7  38970015.220 6 202927190.149 7 156916102.818 6
C21  22204431.496 7                 115624379.117 7
C22  22635260.351 7                 117867912.367 7
E03  24322041.998 8  24322044.058 8 127813373.720 8  96689858.084 8
E05  22355859.271 8  22355861.011 8 117480798.378 8  88873490.671 8
E13  27830539.257 6  27830544.327 7 146250481.333 6 110637550.131 7
E15  24010328.744 8  24010330.982 8 126175241.613 8  95450675.381 8
E34  24184045.932 8  24184047.841 9 127088266.911 8  96141266.901 9
G01  22141186.198 7                  22141192.330 7 116352924.269 7                  90664484.699 7
G02  24846927.715 6  24846933.419 4                 130571477.188 6 101744024.997 4
G03  20341068.972 8                  20341074.884 7 106893136.546 8                  83293317.027 7
G04  20476742.181 7                  20476746.950 8 107606221.609 7                  83848860.771 8
G06  23132749.896 6                  23132757.353 7 121563392.162 6                  94724771.822 7
G09  22404441.902 6                  22404449.935 7 117736303.038 6                  91742475.687 7
G17  23349157.161 7                  23349163.986 7 122700778.572 7                  95610925.287 7
G19  22386108.215 7  22386111.152 5                 117639712.658 7  91667387.964 5
G28  24078407.129 5                  24078414.380 5 126532939.24315                  98597079.81115
G31  22383291.183 7                  22383295.772 7 117625093.433 7                  91655869.946 7
R03  20910680.030 8  20910685.023 7 111936616.936 8  87061744.316 7
R04  19358014.799 8  19358018.199 7 103661337.415 8  80625460.845 7
R05  21937088.011 8  21937091.919 6 117266432.627 8  91207138.038 6
R12  23155711.477 5  23155711.787 4 123693658.474 5  96206159.878 4
R18  22619113.712 7  22619119.099 7 120742540.111 7  93910755.400 7
R19  19714434.608 8  19714436.450 7 105458963.537 8  82023620.846 7
R20  21159649.084 5  21159655.912 7 113150177.763 5  88005704.992 7
> 2025 06 15 14 53 15.0000000  0 29
C05  39301636.818 5  39301634.128 6 204653931.15615 158251392.94816
C06  38361436.157 6  38361432.337 6 199758010.399 6 154465590.413 6
C11  23336975.312 7  23336972.066 7 121521772.534 7  93968308.464 7
C12  23300301.764 6  23300299.147 7 121330971.192 6  93820645.560 7
C16  38969056.368 6  38969057.317 6 202922201.580 6 156912245.329 6
C21  22202588.041 7                 115614780.415 7
C22  22636117.655 7                 117872377.754 7
E03  24319340.146 8  24319341.787 9 127799173.381 8  96679115.631 9
E05  22355802.125 8  22355803.635 8 117480496.967 8  88873262.670 8
E13  27826794.257 6  27826800.343 7 146230806.277 6 110622666.111 7
E15  24008305.379 8  24008307.582 8 126164608.264 8  95442631.335 8
E34  24184764.350 8  24184766.037 8 127092041.158 8  96144122.078 8
G01  22143138.891 7                  22143144.789 7 116363184.180 7                  90672479.434 7
G02  24849293.130 6  24849298.983 4                 130583908.843 6 101753711.974 4
G03  20341297.707 8                  20341303.447 7 106894337.118 8                  83294252.538 7
G04  20474556.123 7                  20474560.548 8 107594732.240 7                  83839908.013 8
G06  23128962.424 6                  23128970.734 6 121543490.836 6                  94709264.299 6
G09  22400487.473 7                  22400495.465 7 117715522.089 7                  91726282.762 7
G17  23350309.435 7                  23350316.200 7 122706835.537 7                  95615644.981 7
G19  22385952.580 7  22385954.475 5                 117638889.492 7  91666746.526 5
G28  24079583.498 5                  24079590.528 5 126539120.980 5                  98601896.739 5
G31  22382915.884 7                  22382920.205 7 117623118.266 7                  91654330.845 7
R03  20912360.750 8  20912365.574 7 111945611.663 8  87068740.225 7
R04  19356756.824 8  19356760.798 7 103654602.688 8  80620222.737 7
R05  21933138.517 8  21933143.499 6 117245322.236 8  91190718.898 6
R12  23155475.369 5  23155476.596 5 123692395.513 5  96205177.590 5
R18  22622303.685 7  22622308.768 7 120759566.650 7  93923998.267 7
R19  19714920.342 8  19714921.327 7 105461557.334 8  82025638.249 7
R20  21155959.937 6  21155967.028 7 113130452.912 6  87990363.461 7
> 2025 06 15 14 53 20.0000000  0 29
C05  39300701.348 5  39300697.777 6 204649055.358 5 158247622.685 6
C06  38360334.319 6  38360330.149 6 199752270.521 6 154461151.979 6
C11  23335300.927 7  23335297.760 7 121513054.019 7  93961566.757 7
C12  23301660.748 7  23301658.073 7 121338049.485 7  93826118.933 7
C16  38968098.724 6  38968099.647 6 202917214.875 6 156908389.315 6
C21  22200745.757 8                 115605187.852 8
C22  22636975.959 7                 117876846.718 7
E03  24316639.159 8  24316640.645 8 127784978.820 8  96668377.540 8
E05  22355745.824 8  22355747.496 9 117480202.045 8  88873039.558 9
E13  27823050.248 6  27823056.120 7 146211130.433 6 110607781.452 7
E15  24006283.132 8  24006285.413 8 126153981.820 8  95434592.497 8
E34  24185484.000 8  24185485.499 8 127095822.040 8  96146982.291 8
G01  22145092.882 7                  22145097.919 7 116373450.706 7                  90680479.319 7
G02  24851659.004 6  24851664.784 4                 130596340.403 6 101763398.858 4
G03  20341527.424 8                  20341533.250 7 106895545.564 8                  83295194.181 7
G04  20472371.797 7                  20472376.395 8 107583253.816 7                  83830963.793 8
G06  23125177.076 6                  23125184.314 6 121523595.245 6                  94693761.239 6
G09  22396533.707 7                  22396542.018 7 117694746.220 7                  91710093.771 7
G17  23351463.607 7                  23351470.158 7 122712899.971 7                  95620370.501 7
G19  22385797.976 7  22385800.712 5                 117638081.025 7  91666116.571 5
G28  24080761.832 5                  24080768.485 5 126545313.210 5                  98606721.845 5
G31  22382542.831 7                  22382547.083 7 117621158.806 7                  91652803.999 7
R03  20914041.982 8  20914046.489 7 111954611.301 8  87075739.926 7
R04  19355501.266 8  19355505.417 7 103647879.860 8  80614993.861 7
R05  21929190.363 7  21929194.926 6 117224217.554 7  91174304.154 6
R12  23155241.705 5  23155244.449 5 123691151.244 5  96204209.862 5
R18  22625493.855 7  22625499.328 7 120776597.081 7  93937244.122 7
R19  19715408.486 8  19715409.728 7 105464170.287 8  82027670.545 7
R20  21152273.829 6  21152281.046 7 113110741.720 6  87975032.540 7
> 2025 06 15 14 53 25.0000000  0 29
C05  39299764.433 5  39299761.046 6 204644177.820 5 158243851.046 6
C06  38359232.253 6  38359228.202 6 199746533.119 6 154456715.462 6
C11  23333628.621 7  23333626.042 7 121504347.673 7  93954834.468 7
C12  23303021.749 6  23303019.190 7 121345136.131 6  93831598.766 7
C16  38967141.454 7  38967142.323 7 202912230.366 7 156904534.978 7
C21  22198904.685 8                 115595601.841 8
C22  22637835.464 7                 117881319.622 7
E03  24313938.638 8  24313940.689 8 127770790.443 8  96657644.135 8
E05  22355691.333 8  22355692.669 9 117479913.969 8  88872821.630 9
E13  27819306.349 6  27819311.919 7 146191454.343 6 110592896.629 7
E15  24004262.190 8  24004264.658 8 126143362.680 8  95426559.188 8
E34  24186204.702 8  24186206.332 8 127099609.970 8  96149847.827 8
G01  22147047.791 7                  22147053.318 7 116383724.229 7                  90688484.657 7
G02  24854025.319 6  24854030.402 4                 130608772.229 6 101773085.959 4
G03  20341758.907 8                  20341764.912 7 106896762.260 8                  83296142.254 7
G04  20470189.223 7                  20470194.158 8 107571786.777 7                  83822028.439 8
G06  23121391.286 6                  23121399.514 7 121503705.795 6                  94678262.986 7
G09  22392580.964 6                  22392589.275 7 117673975.813 6                  91693909.066 7
G17  23352619.439 7                  23352625.997 7 122718972.310 7                  95625102.188 7
G19  22385647.602 7  22385649.685 5                 117637287.725 7  91665498.396 5
G28  24081940.787 5                  24081948.387 5 126551516.337 5                  98611555.489 5
G31  22382173.073 7                  22382177.709 7 117619215.466 7                  91651289.714 7
R03  20915724.154 8  20915728.515 7 111963616.020 8  87082743.605 7
R04  19354248.779 8  19354252.048 7 103641169.335 8  80609774.566 7
R05  21925243.410 8  21925248.298 6 117203118.786 8  91157894.019 6
R12  23155012.777 5  23155014.418 5 123689926.185 5  96203257.028 5
R18  22628684.520 7  22628690.633 6 120793631.820 7  93950493.328 6
R19  19715900.227 8  19715901.967 7 105466802.903 8  82029718.124 7
R20  21148591.137 6  21148597.955 7 113091044.531 6  87959712.503 7
> 2025 06 15 14 53 30.0000000  0 29
C05  39298825.946 5  39298823.831 6 204639297.216 5 158240077.050 6
C06  38358131.303 6  38358126.930 7 199740797.049 6 154452279.964 7
C11  23331959.438 7  23331956.123 7 121495652.421 7  93948110.742 7
C12  23304383.833 6  23304381.263 7 121352229.955 6  93837084.150 7
C16  38966185.030 6  38966185.460 6 202907247.044 6 156900681.550 6
C21  22197064.817 8                 115586021.247 8
C22  22638694.724 7                 117885795.357 7
E03  24311239.971 8  24311241.711 8 127756607.129 8  96646914.556 8
E05  22355637.151 8  22355638.941 9 117479631.626 8  88872608.040 9
E13  27815561.969 6  27815567.444 7 146171776.793 6 110578010.720 7
E15  24002242.775 8  24002245.102 8 126132749.722 8  95418530.553 8
E34  24186926.498 8  24186928.291 8 127103403.815 8  96152717.842 8
G01  22149004.162 7                  22149009.666 7 116394003.596 7                  90696494.549 7
G02  24856390.103 6  24856396.142 4                 130621203.236 6 101782772.437 4
G03  20341992.096 8                  20341997.974 7 106897986.115 8                  83297095.900 7
G04  20468009.074 7                  20468014.303 8 107560329.975 7                  83813101.081 8
G06  23117607.706 6                  23117615.685 7 121483821.388 6                  94662768.648 7
G09  22388630.424 7                  22388637.357 7 117653209.756 7                  91677727.742 7
G17  23353776.480 7                  23353782.744 7 122725051.368 7                  95629839.130 7
G19  22385498.158 7  22385501.235 5                 117636508.385 7  91664891.127 5
G28  24083123.037 4                                                                
G31  22381806.360 7                  22381810.503 7 117617287.103 7                  91649787.091 7
R03  20917407.065 8  20917411.799 7 111972624.479 8  87089750.176 7
R04  19352997.640 8  19353000.870 7 103634469.878 8  80604563.877 7
R05  21921296.364 8  21921302.528 6 117182024.863 8  91141487.649 6
R12  23154789.144 5  23154789.569 5 123688719.264 5  96202318.296 5
R18  22631875.217 7  22631882.925 6 120810669.648 7  93963744.946 6
R19  19716395.548 8  19716397.274 7 105469453.995 8  82031780.065 7
R20  21144910.522 6  21144916.755 7 113071360.207 6  87944402.474 7
> 2025 06 15 14 53 35.0000000  0 29
C05  39297889.191 5  39297886.009 6 204634413.550 5 158236300.701 6
C06  38357030.548 6  38357025.520 7 199735062.201 6 154447845.421 7
C11  23330290.687 7  23330288.221 7 121486968.170 7  93941395.515 7
C12  23305747.451 6  23305744.752 7 121359330.917 6  93842575.051 7
C16  38965227.748 6  38965228.770 7 202902264.748 6 156896828.918 7
C21  22195225.850 8                 115576445.997 8
C22  22639554.475 7                 117890273.853 7
E03  24308541.649 8  24308543.649 8 127742428.829 8  96636188.773 8
E05  22355584.841 8  22355586.269 9 117479354.925 8  88872398.710 9
E13  27811817.306 6  27811822.767 7 146152097.841 6 110563123.727 7
E15  24000224.182 8  24000226.690 8 126122142.889 8  95410506.557 8
E34  24187649.491 8  24187651.323 8 127107203.499 8  96155592.278 8
G01  22150961.029 7                  22150966.811 7 116404288.764 7                  90704508.954 7
G02  24858756.009 6  24858761.659 4                 130633633.244 6 101792458.127 4
G03  20342226.035 8                  20342232.048 7 106899217.033 8                  83298055.066 7
G04  20465830.974 7                  20465835.635 8 107548883.364 7                  83804181.657 8
G06  23113824.596 6                  23113832.507 6 121463941.953 6                  94647278.192 6
G09  22384679.220 7                  22384686.370 7 117632448.009 7                  91661549.786 7
G17  23354934.975 7                  23354940.464 7 122731137.122 7                  95634581.273 7
G19  22385353.108 7  22385355.440 5                 117635743.026 7  91664294.730 5
G28  24084306.577 4                                                                
G31  22381441.901 7                  22381446.446 7 117615373.624 7                  91648296.051 7
R03  20919090.359 8  20919095.165 7 111981636.872 8  87096759.822 7
R04  19351748.406 8  19351752.123 7 103627781.457 8  80599361.782 7
R05  21917351.751 7  21917356.448 6 117160935.849 7  91125085.089 6
R12  23154568.012 4  23154567.059 5 123687530.129 4  96201393.499 5
R18  22635067.512 7  22635074.473 6 120827710.461 7  93976998.891 6
R19  19716894.851 8  19716896.336 7 105472123.425 8  82033856.293 7
R20  21141233.569 6  21141237.906 7 113051688.695 6  87929102.421 7
> 2025 06 15 14 53 40.0000000  0 28
C05  39296950.399 5  39296947.802 6 204629527.576 5 158232522.553 6
C06  38355928.994 6  38355924.554 7 199729329.335 6 154443412.412 7
C11  23328625.209 7  23328622.779 7 121478295.627 7  93934689.343 7
C12  23307112.984 6  23307109.714 7 121366439.694 6  93848072.002 7
C16  38964271.166 6  38964272.037 7 202897284.227 6 156892977.649 7
C21  22193388.070 8                 115566876.807 8
C22  22640415.218 7                 117894755.804 7
E03  24305844.380 8  24305846.686 8 127728256.226 8  96625467.297 8
E05  22355533.166 8  22355534.800 9 117479084.562 8  88872194.192 9
E13  27808072.878 5  27808077.826 7 146132418.071 5 110548236.118 7
E15  23998207.226 8  23998209.571 8 126111542.891 8  95402487.734 8
E34  24188373.691 8  24188375.623 9 127111009.728 8  96158471.661 9
G01  22152919.431 7                  22152925.381 7 116414580.401 7                  90712528.398 7
G02  24861120.429 6  24861127.640 4                 130646063.113 6 101802143.705 4
G03  20342461.881 8                  20342467.768 7 106900455.715 8                  83299020.269 7
G04  20463654.843 7                  20463659.677 8 107537447.640 7                  83795270.704 8
G06  23110043.340 6                  23110050.713 7 121444068.202 6                  94631792.152 7
G09  22380728.438 6                  22380736.785 7 117611691.271 6                  91645375.709 7
G17  23356093.616 7                  23356099.986 7 122737230.259 7                  95639329.161 7
G19  22385210.255 7  22385212.452 5                 117634992.244 7  91663709.698 5
G28  24085491.301 4                                                                
G31  22381080.590 7                  22381085.325 7 117613475.744 7                  91646817.189 7
R03  20920774.586 8  20920779.633 7 111990653.929 8  87103773.083 7
R04  19350501.497 8  19350505.130 7 103621104.817 8  80594168.850 7
R05  21913407.883 8  21913412.253 6 117139852.361 8  91108686.827 6
R18  22638260.499 7  22638267.931 7 120844755.008 7  93990255.739 7
R19  19717397.276 8  19717399.068 7 105474811.896 8  82035947.336 7
R20  21137556.021 6  21137562.163 7 113032030.669 6  87913812.850 7
> 2025 06 15 14 53 45.0000000  0 27
C05  39296011.561 5  39296008.761 6 204624639.371 5 158228742.683 6
C06  38354829.138 6  38354824.120 7 199723598.475 6 154438980.946 7
C11  23326961.840 7  23326959.707 7 121469634.885 7  93927992.306 7
C12  23308479.954 6  23308476.470 7 121373556.400 6  93853575.078 7
C16  38963314.905 6  38963316.223 7 202892305.537 6 156889127.819 7
C21  22191551.658 8                 115557313.759 8
C22  22641276.366 7                 117899241.288 7
E03  24303148.866 8  24303150.830 8 127714089.440 8  96614750.220 8
E05  22355482.900 8  22355484.596 9 117478820.661 8  88871994.550 9
E13  27804327.926 6  27804332.673 6 146112737.644 6 110533348.008 6
E15  23996191.667 8  23996193.817 8 126100949.827 8  95394474.150 8
E34  24189099.305 8  24189101.160 8 127114822.609 8  96161356.085 8
G01  22154878.570 7                  22154884.980 7 116424878.621 7                  90720552.979 7
G02  24863485.890 6  24863492.412 4                 130658492.960 6 101811829.259 4
G03  20342698.815 8                  20342705.124 7 106901702.250 8                  83299991.595 7
G04  20461480.731 7                  20461485.503 8 107526022.890 7                  83786368.305 8
G06  23106261.373 6                  23106270.133 7 121424200.234 6                  94616310.637 7
G09  22376779.473 6                  22376787.933 7 117590939.646 6                  91629205.628 7
G17  23357255.121 7                  23357261.177 7 122743330.807 7                  95644082.826 7
G19  22385069.710 7  22385072.119 5                 117634256.181 7  91663136.145 5
G31  22380722.466 7                  22380727.012 7 117611593.541 7                  91645350.533 7
R03  20922459.553 8  20922464.612 7 111999675.612 8  87110789.936 7
R04  19349256.706 8  19349260.559 7 103614440.024 8  80588985.125 7
R05  21909464.434 8  21909469.846 7 117118774.625 8  91092293.040 7
R18  22641455.570 7  22641461.792 7 120861803.382 7  94003515.524 7
R19  19717903.215 8  19717905.164 7 105477519.667 8  82038053.380 7
R20  21133882.083 6  21133888.894 7 113012386.352 6  87898533.955 7
> 2025 06 15 14 53 50.0000000  0 27
C05  39295073.062 5  39295069.400 6 204619748.372 5 158224960.645 6
C06  38353728.237 6  38353723.881 7 199717869.170 6 154434550.679 7
C11  23325301.421 7  23325298.571 7 121460985.390 7  93921303.978 7
C12  23309847.797 6  23309844.579 7 121380680.418 6  93859083.826 7
C16  38962359.503 6  38962360.639 7 202887328.190 6 156885279.011 7
C21  22189716.804 8                 115547756.344 8
C22  22642137.956 7                 117903729.806 7
E03  24300454.107 8  24300456.017 9 127699927.930 8  96604037.137 9
E05  22355433.704 8  22355435.519 9 117478562.665 8  88871799.385 9
E13  27800583.382 5  27800587.241 6 146093055.988 5 110518459.007 6
E15  23994176.889 8  23994179.251 8 126090363.166 8  95386465.412 8
E34  24189825.806 8  24189827.919 9 127118641.586 8  96164245.117 9
G01  22156840.032 7                  22156846.078 7 116435182.888 7                  90728582.260 7
G02  24865851.479 6  24865857.501 4                 130670922.159 6 101821514.319 4
G03  20342937.269 8                  20342943.829 7 106902956.115 8                  83300968.636 7
G04  20459308.298 7                  20459313.282 8 107514608.608 7                  83777474.063 8
G06  23102482.931 6                  23102490.756 7 121404337.611 6                  94600833.282 7
G09  22372831.813 6                  22372839.368 7 117570192.627 6                  91613039.125 7
G17  23358417.126 7                  23358422.707 6 122749438.289 7                  95648841.882 6
G19  22384932.423 7  22384934.254 5                 117633534.282 7  91662573.625 5
G31  22380367.315 7                  22380371.808 7 117609726.511 7                  91643895.715 7
R03  20924145.084 7  20924150.627 7 112008701.193 7  87117809.827 7
R04  19348013.391 8  19348018.269 7 103607786.521 8  80583810.187 7
R05  21905522.367 7  21905527.145 6 117097701.849 7  91075903.132 6
R18  22644649.840 7  22644655.949 7 120878854.988 7  94016777.871 7
R19  19718412.938 8  19718414.723 7 105480246.008 8  82040173.867 7
R20  21130210.115 6  21130217.520 7 112992755.201 6  87883265.284 7
> 2025 06 15 14 53 55.0000000  0 27
C05  39294132.887 5  39294129.789 6 204614855.279 5 158221176.998 6
C06  38352628.289 6  38352624.115 6 199712142.063 6 154430122.125 6
C11  23323642.923 7  23323639.730 7 121452347.896 7  93914624.923 7
C12  23311217.497 6  23311214.286 7 121387812.523 6  93864598.815 7
C16  38961403.951 7  38961404.952 6 202882352.906 7 156881431.796 6
C21  22187882.486 8                 115538205.219 8
C22  22643000.704 7                 117908221.997 7
E03  24297760.198 8  24297762.329 8 127685772.369 8  96593328.558 8
E05  22355385.942 8  22355387.670 9 117478311.263 8  88871609.197 9
E13  27796837.541 6  27796841.797 6 146073373.885 6 110503569.615 6
E15  23992163.704 8  23992166.042 8 126079783.599 8  95378462.039 8
E34  24190553.930 8  24190555.979 9 127122467.372 8  96167139.290 9
G01  22158802.380 7                  22158808.377 7 116445493.823 7                  90736616.748 7
G02  24868217.785 6  24868222.510 4                 130683351.432 6 101831199.435 4
G03  20343177.166 8                  20343183.826 7 106904218.013 8                  83301951.927 7
G04  20457138.235 7                  20457143.642 8 107503205.465 7                  83768588.502 8
G06  23098703.348 6                  23098711.747 7 121384480.903 6                  94585360.533 7
G09  22368885.209 6                  22368892.860 7 117549450.864 6                  91596876.723 7
G17  23359580.267 7                  23359586.564 6 122755553.349 7                  95653606.850 6
G19  22384797.895 7  22384799.852 5                 117632827.209 7  91662022.662 5
G31  22380014.891 7                  22380019.784 7 117607875.292 7                  91642453.213 7
R03  20925832.876 7  20925837.763 7 112017731.766 7  87124833.608 7
R04  19346774.744 8  19346777.981 7 103601145.004 8  80578644.560 7
R05  21901581.230 7  21901585.650 7 117076634.842 7  91059517.654 7
R18  22647844.272 7  22647850.965 7 120895910.503 7  94030043.230 7
R19  19718926.827 8  19718928.112 7 105482991.627 8  82042309.349 7
R20  21126542.993 6  21126548.728 7 112973138.057 6  87868007.513 7
> 2025 06 15 14 54  0.0000000  0 27
C05  39293191.363 5  39293189.920 6 204609960.043 5 158217391.686 6
C06  38351528.973 6  38351524.586 7 199706417.146 6 154425695.248 7
C11  23321986.015 7  23321983.020 7 121443722.344 7  93907955.106 7
C12  23312588.279 6  23312585.904 7 121394952.619 6  93870119.991 7
C16  38960448.755 6  38960449.687 6 202877379.521 6 156877586.063 6
C21  22186049.535 8                 115528660.399 8
C22  22643863.908 7                 117912717.859 7
E03  24295067.836 8  24295069.757 8 127671622.765 8  96582624.475 8
E05  22355339.373 8  22355341.070 9 117478066.422 8  88871423.976 9
E13  27793091.858 6  27793096.245 6 146053691.298 6 110488679.889 6
E15  23990151.876 8  23990154.160 8 126069211.124 8  95370464.031 8
E34  24191283.328 8  24191285.305 9 127126299.931 8  96170038.593 9
G01  22160765.622 7                  22160771.675 7 116455811.466 7                  90744656.445 7
G02  24870582.407 6  24870587.950 4                 130695780.726 6 101840884.589 4
G03  20343418.721 8                  20343425.647 7 106905487.883 8                  83302941.440 7
G04  20454970.937 7                  20454975.897 8 107491813.445 7                  83759711.599 8
G06  23094925.807 6                  23094934.450 7 121364630.199 6                  94569892.463 7
G09  22364939.135 7                  22364946.664 7 117528714.395 7                  91580718.445 7
G17  23360745.886 7                  23360752.123 7 122761675.928 7                  95658377.667 7
G19  22384666.153 7  22384668.186 5                 117632134.979 7  91661483.258 5
G31  22379665.220 7                  22379670.346 7 117606039.896 7                  91641023.024 7
R03  20927520.224 7  20927525.946 7 112026767.076 7  87131861.069 7
R04  19345536.438 8  19345540.252 7 103594515.480 8  80573488.260 7
R05  21897641.860 7  21897646.435 7 117055573.894 7  91043136.946 7
R18  22651040.924 7  22651047.142 6 120912969.903 7  94043311.624 6
R19  19719443.522 8  19719445.162 7 105485756.513 8  82044459.797 7
R20  21122876.549 6  21122882.571 7 112953534.651 6  87852760.439 7
> 2025 06 15 14 54  5.0000000  0 27
C05  39292251.810 5  39292249.625 6 204605062.947 5 158213604.940 6
C06  38350429.612 6  38350425.561 7 199700694.601 6 154421270.212 7
C11  23320332.093 7  23320329.018 7 121435108.960 7  93901294.686 7
C12  23313960.959 6  23313958.887 7 121402100.930 6  93875647.513 7
C16  38959494.120 6  38959495.068 6 202872408.364 6 156873742.052 6
C21  22184217.671 7                 115519122.054 7
C22  22644728.056 7                 117917217.584 7
E03  24292376.527 8  24292378.355 8 127657479.304 8  96571925.044 8
E05  22355294.458 8  22355295.764 9 117477828.340 8  88871243.868 9
E13  27789346.051 6  27789350.672 6 146034008.382 6 110473789.895 6
E15  23988141.402 8  23988143.688 8 126058645.933 8  95362471.540 8
E34  24192013.839 8  24192015.947 9 127130139.449 8  96172943.155 9
G01  22162730.002 7                  22162736.227 7 116466135.956 7                  90752701.499 7
G02  24872946.550 6  24872953.581 4                 130708210.212 6 101850569.884 4
G03  20343661.836 8                  20343668.856 7 106906765.956 8                  83303937.339 7
G04  20452805.438 7                  20452810.383 8 107480432.766 7                  83750843.539 8
G06  23091149.828 6                  23091157.721 7 121344785.695 6                  94554429.214 7
G09  22360993.941 7                  22361001.469 7 117507983.407 7                  91564564.424 7
G17  23361913.190 7                  23361917.658 6 122767806.247 7                  95663154.529 6
G19  22384537.299 7  22384539.244 5                 117631457.687 7  91660955.516 5
G31  22379318.915 7                  22379324.160 7 117604220.540 7                  91639605.355 7
R03  20929209.737 8  20929214.833 7 112035807.364 8  87138892.398 7
R04  19344300.370 8  19344303.973 7 103587898.146 8  80568341.446 7
R05  21893703.051 7  21893707.440 7 117034518.868 7  91026760.819 7
R18  22654237.483 7  22654243.633 6 120930033.353 7  94056583.175 6
R19  19719964.401 8  19719965.576 7 105488540.986 8  82046625.481 7
R20  21119213.970 6  21119219.179 7 112933945.350 6  87837524.319 7
> 2025 06 15 14 54 10.0000000  0 27
C05  39291310.988 5  39291308.457 6 204600163.392 5 158209816.286 6
C06  38349331.639 6  38349326.972 6 199694973.916 6 154416846.621 6
C11  23318679.955 7  23318676.920 7 121426507.228 7  93894643.282 7
C12  23315335.396 6  23315333.117 7 121409256.925 6  93881180.967 7
C16  38958539.842 6  38958540.664 6 202867438.862 6 156869899.315 6
C21  22182386.945 7                 115509589.677 7
C22  22645592.303 7                 117921720.628 7
E03  24289686.227 8  24289688.002 8 127643341.479 8  96561229.876 8
E05  22355249.763 8  22355251.639 9 117477596.502 8  88871068.484 9
E13  27785600.527 6  27785604.948 6 146014324.661 6 110458899.297 6
E15  23986132.127 8  23986134.499 8 126048087.528 8  95354484.177 8
E34  24192745.499 8  24192747.840 9 127133985.415 8  96175852.598 9
G01  22164695.938 7                  22164701.992 7 116476466.813 7                  90760751.490 7
G02  24875311.859 6  24875318.901 4                 130720639.336 6 101860254.869 4
G03  20343906.983 8                  20343913.328 8 106908051.710 8                  83304939.212 8
G04  20450641.346 7                  20450646.704 8 107469062.889 7                  83741983.892 8
G06  23087373.894 6                  23087383.227 7 121324946.848 6                  94538970.378 7
G09  22357050.147 7                  22357057.330 7 117487257.359 7                  91548414.282 7
G17  23363080.333 7                  23363086.338 6 122773943.773 7                  95667937.010 6
G19  22384410.723 7  22384413.238 5                 117630794.906 7  91660439.063 5
G31  22378976.281 7                  22378981.442 7 117602416.661 7                  91638199.741 7
R03  20930898.848 8  20930904.399 7 112044851.944 8  87145927.079 7
R04  19343066.765 8  19343070.868 7 103581292.374 8  80563203.621 7
R05  21889764.839 7  21889769.917 6 117013469.165 7  91010388.837 6
R18  22657435.088 7  22657441.167 6 120947100.343 7  94069857.462 6
R19  19720487.924 8  19720489.560 7 105491344.362 8  82048805.889 7
R20  21115552.321 6  21115558.326 7 112914369.586 6  87822298.720 7
> 2025 06 15 14 54 15.0000000  0 27
C05  39290370.458 5  39290366.891 6 204595261.009 5 158206025.460 6
C06  38348233.551 6  38348228.441 7 199689254.662 6 154412424.140 7
C11  23317030.573 7  23317027.340 7 121417916.713 7  93888000.542 7
C12  23316710.943 6  23316708.874 7 121416420.166 6  93886720.036 7
C16  38957585.300 6  38957586.663 6 202862470.590 6 156866057.539 6
C21  22180557.752 7                 115500062.841 7
C22  22646457.493 7                 117926226.593 7
E03  24286996.967 8  24286998.650 8 127629208.870 8  96550538.656 8
E05  22355207.091 8  22355208.624 9 117477370.454 8  88870897.480 9
E13  27781854.548 5  27781859.045 6 145994639.653 5 110444007.739 6
E15  23984124.342 8  23984126.513 8 126037535.483 8  95346501.629 8
E34  24193478.619 8  24193480.864 9 127137837.416 8  96178766.601 9
G01  22166663.268 7                  22166669.205 7 116486803.562 7                  90768806.101 7
G02  24877677.173 6  24877683.962 4                 130733067.710 6 101869939.268 4
G03  20344153.219 8                  20344159.367 7 106909344.699 8                  83305946.732 7
G04  20448479.971 7                  20448484.628 8 107457703.392 7                  83733132.342 8
G06  23083599.368 6                  23083609.222 7 121305113.261 6                  94523515.658 7
G09  22353106.550 7                  22353113.703 7 117466535.874 7                  91532267.678 7
G17  23364249.468 7                  23364255.314 6 122780088.032 7                  95672724.728 6
G19  22384288.133 7  22384289.992 5                 117630146.175 7  91659933.559 5
G31  22378635.988 7                  22378640.574 7 117600627.875 7                  91636805.866 7
R03  20932589.530 7  20932594.866 7 112053900.875 7  87152965.121 7
R04  19341835.482 8  19341839.438 7 103574697.904 8  80558074.598 7
R05  21885827.790 7  21885833.148 6 116992424.467 7  90994020.766 6
R18  22660631.945 7  22660638.905 6 120964170.470 7  94083134.190 6
R19  19721015.229 8  19721017.499 7 105494166.257 8  82051000.698 7
R20  21111894.799 6  21111900.227 7 112894807.041 6  87807083.411 7
> 2025 06 15 14 54 20.0000000  0 27
C05  39289427.787 5  39289424.970 6 204590355.482 5 158202232.201 6
C06  38347135.990 6  38347130.536 7 199683536.526 6 154408002.515 7
C11  23315383.637 7  23315379.450 7 121409337.146 7  93881366.272 7
C12  23318088.089 6  23318085.640 7 121423590.352 6  93892264.458 7
C16  38956631.204 6  38956632.763 6 202857503.255 6 156862216.486 6
C21  22178729.426 7                 115490541.248 7
C22  22647323.357 7                 117930735.171 7
E03  24284308.273 8  24284310.231 9 127615081.167 8  96539851.144 9
E05  22355164.877 8  22355166.666 9 117477149.933 8  88870730.649 9
E13  27778108.696 6  27778112.773 6 145974953.178 6 110429115.057 6
E15  23982117.202 8  23982119.671 9 126026989.492 8  95338523.662 9
E34  24194213.049 8  24194214.966 8 127141695.105 8  96181684.917 8
G01  22168631.454 7                  22168637.356 7 116497145.914 7                  90776865.060 7
G02  24880042.141 6  24880048.932 4                 130745494.999 6 101879622.817 4
G03  20344400.530 8                  20344406.653 7 106910644.616 8                  83306959.648 7
G04  20446319.928 7                  20446325.180 8 107446353.975 7                  83724288.646 8
G06  23079826.668 6                  23079835.435 7 121285284.633 6                  94508064.807 7
G09  22349164.501 7                  22349171.382 7 117445818.625 7                  91516124.372 7
G17  23365420.013 7                  23365425.596 6 122786238.793 7                  95677517.512 6
G19  22384165.908 7  22384169.458 5                 117629511.187 7  91659438.780 5
G31  22378298.296 7                  22378303.065 7 117598853.826 7                  91635423.501 7
R03  20934280.947 7  20934285.913 7 112062953.239 7  87160005.837 7
R04  19340605.271 8  19340609.439 7 103568114.283 8  80552954.007 7
R05  21881891.925 7  21881897.725 6 116971384.723 7  90977656.538 6
R18  22663830.639 7  22663836.789 6 120981243.312 7  94096413.045 6
R19  19721546.413 8  19721548.556 7 105497006.313 8  82053209.625 7
R20  21108238.127 6  21108244.206 7 112875257.346 6  87791878.104 7
> 2025 06 15 14 54 25.0000000  0 28
C05  39288485.553 5  39288482.440 6 204585447.156 5 158198436.771 6
C06  38346037.785 6  38346032.651 7 199677819.918 6 154403582.068 7
C11  23313737.698 7  23313733.883 7 121400768.870 7  93874740.730 7
C12  23319466.326 6  23319463.853 7 121430767.806 6  93897814.517 7
C16  38955677.831 6  38955679.170 6 202852537.247 6 156858376.446 6
C21  22176901.913 7                 115481025.273 7
C22  22648190.321 7                 117935246.709 7
E03  24281621.038 8  24281622.795 8 127600958.750 8  96529167.635 8
E05  22355124.251 8  22355125.813 9 117476935.248 8  88870568.243 9
E13  27774362.239 5  27774366.193 6 145955265.538 5 110414221.493 6
E15  23980111.677 8  23980114.043 8 126016449.934 8  95330550.549 8
E34  24194947.956 8  24194950.238 9 127145558.875 8  96184607.826 9
G01  22170600.157 7                  22170606.457 7 116507494.228 7                  90784928.678 7
G02  24882407.205 6  24882413.587 4                 130757921.528 6 101889305.813 4
G03  20344648.934 8                  20344655.495 7 106911951.836 8                  83307978.263 7
G04  20444162.204 7                  20444167.373 8 107435015.018 7                  83715453.107 8
G06  23076055.160 6                  23076063.296 7 121265461.366 6                  94492618.112 7
G09  22345223.198 7                  22345229.691 7 117425105.993 7                  91499984.671 7
G17  23366592.169 7                  23366597.321 6 122792396.377 7                  95682315.624 6
G19  22384049.010 7  22384051.494 5                 117628890.313 7  91658954.966 5
G31  22377963.449 7                  22377968.318 7 117597094.972 7                  91634052.961 7
R03  20935972.351 7  20935977.647 7 112072009.629 7  87167049.675 7
R04  19339378.297 8  19339382.535 7 103561541.928 8  80547842.172 7
R05  21877956.269 7  21877963.009 6 116950350.016 7  90961296.221 6
R12  23152528.114 5  23152534.830 4 123676650.80715
R18  22667029.571 7  22667035.966 6 120998319.265 7  94109694.320 6
R19  19722080.677 8  19722082.682 7 105499865.021 8  82055433.072 7
R20  21104584.089 6  21104590.660 7 112855720.862 6  87776683.061 7
> 2025 06 15 14 54 30.0000000  0 28
C05  39287541.725 5  39287539.292 6 204580535.565 5 158194638.823 6
C06  38344940.546 6  38344935.192 7 199672104.313 6 154399162.396 7
C11  23312094.181 7  23312090.240 7 121392211.380 7  93868123.530 7
C12  23320845.946 6  23320843.625 7 121437952.094 6  93903369.847 7
C16  38954724.719 7  38954725.529 6 202847572.029 7 156854537.033 6
C21  22175075.859 7                 115471514.415 7
C22  22649057.019 7                 117939760.729 7
E03  24278934.319 8  24278936.287 9 127586841.136 8  96518487.752 9
E05  22355084.415 8  22355085.982 9 117476725.948 8  88870409.900 9
E13  27770615.275 5  27770619.346 6 145935576.260 5 110399326.679 6
E15  23978107.278 8  23978109.606 8 126005916.336 8  95322581.955 8
E34  24195684.476 8  24195686.553 8 127149428.243 8  96187534.972 8
G01  22172570.671 7                  22172576.687 7 116517847.994 7                  90792996.536 7
G02  24884771.955 6  24884777.937 4                 130770346.851 6 101898987.848 4
G03  20344899.315 8                  20344905.588 7 106913265.872 8                  83309002.189 7
G04  20442007.285 7                  20442011.644 8 107423686.037 7                  83706625.341 8
G06  23072283.227 6                  23072292.391 7 121245642.970 6                  94477175.227 7
G09  22341282.855 7                  22341289.189 7 117404397.501 7                  91483848.205 7
G17  23367765.370 7                  23367770.265 6 122798560.238 7                  95687118.635 6
G19  22383932.981 7  22383935.814 5                 117628283.082 7  91658481.789 5
G31  22377631.482 7                  22377636.408 7 117595350.721 7                  91632693.813 7
R03  20937665.106 8  20937670.070 7 112081069.407 8  87174096.181 7
R04  19338152.971 8  19338156.850 7 103554980.360 8  80542738.733 7
R05  21874022.782 7  21874028.228 7 116929320.021 7  90944939.565 7
R12  23152343.407 5  23152349.970 5 123675664.551 5  96192210.31815
R18  22670229.703 7  22670235.306 6 121015397.823 7  94122977.601 6
R19  19722618.392 8  19722620.694 7 105502741.727 8  82057670.508 7
R20  21100933.745 6  21100940.189 7 112836197.119 6  87761497.948 7
> 2025 06 15 14 54 35.0000000  0 28
C05  39286598.228 5  39286595.152 6 204575621.146 5 158190838.674 6
C06  38343842.505 6  38343837.575 6 199666390.187 6 154394743.878 6
C11  23310452.770 7  23310449.149 7 121383665.178 7  93861515.065 7
C12  23322227.266 6  23322224.426 7 121445143.604 6  93908930.765 7
C16  38953771.593 7  38953772.238 6 202842608.077 7 156850698.587 6
C21  22173250.401 7                 115462009.105 7
C22  22649924.897 7                 117944277.638 7
E03  24276248.655 8  24276250.741 9 127572728.736 8  96507811.820 9
E05  22355045.249 8  22355047.247 9 117476522.429 8  88870255.942 9
E13  27766868.692 6  27766872.322 6 145915885.700 6 110384430.917 6
E15  23976104.054 8  23976106.296 9 125995389.117 8  95314618.182 9
E34  24196422.101 8  24196424.027 9 127153303.625 8  96190466.666 9
G01  22174541.927 7                  22174547.778 7 116528207.632 7                  90801068.979 7
G02  24887135.397 6  24887142.297 4                 130782771.340 6 101908669.251 4
G03  20345150.712 8                  20345156.999 7 106914587.137 8                  83310031.742 7
G04  20439852.784 7                  20439857.869 8 107412367.466 7                  83697805.673 8
G06  23068512.879 6                  23068521.463 7 121225829.862 6                  94461736.465 7
G09  22337342.377 7                  22337349.045 7 117383693.602 7                  91467715.287 7
G17  23368938.629 7                  23368944.265 6 122804730.847 7                  95691926.894 6
G19  22383820.092 7  22383823.036 5                 117627689.843 7  91658019.535 5
G31  22377302.604 7                  22377307.374 7 117593621.512 7                  91631346.376 7
R03  20939358.014 8  20939363.365 7 112090133.060 8  87181145.673 7
R04  19336929.781 8  19336933.839 7 103548429.984 8  80537643.990 7
R05  21870089.053 7  21870094.682 6 116908295.115 7  90928586.877 6
R12  23152162.400 5  23152168.169 5 123674696.518 5  96191457.416 5
R18  22673429.328 7  22673434.863 6 121032479.393 7  94136263.240 6
R19  19723159.047 8  19723161.623 7 105505636.959 8  82059922.357 7
R20  21097284.612 6  21097291.290 7 112816686.615 6  87746323.109 7
> 2025 06 15 14 54 40.0000000  0 28
C05  39285653.786 5  39285651.141 6 204570703.758 5 158187036.241 6
C06  38342746.073 6  38342740.331 7 199660677.363 6 154390326.359 7
C11  23308813.343 7  23308810.036 7 121375130.125 7  93854915.225 7
C12  23323609.774 6  23323606.925 7 121452342.238 6  93914497.203 7
C16  38952817.772 7  38952819.169 6 202837645.267 7 156846861.036 6
C21  22171425.815 7                 115452509.267 7
C22  22650792.301 7                 117948797.367 7
E03  24273564.024 8  24273566.205 8 127558621.481 8  96497139.775 8
E05  22355007.800 8  22355009.617 9 117476324.610 8  88870106.286 9
E13  27763121.371 5  27763125.096 6 145896193.884 5 110369534.190 6
E15  23974102.092 8  23974104.233 9 125984868.203 8  95306659.181 9
E34  24197160.860 8  24197162.590 8 127157184.929 8  96193402.841 8
G01  22176514.181 7                  22176520.133 7 116538573.046 7                  90809145.921 7
G02  24889499.789 6  24889506.701 4                 130795194.909 6 101918349.907 4
G03  20345403.728 8                  20345409.610 7 106915915.553 8                  83311066.875 7
G04  20437701.110 7                  20437705.804 8 107401059.190 7                  83688994.028 8
G06  23064743.967 6                  23064752.162 7 121206022.043 6                  94446301.806 7
G09  22333403.401 7                  22333410.431 7 117362994.185 7                  91451585.881 7
G17  23370114.771 7                  23370120.064 6 122810908.108 7                  95696740.316 6
G19  22383710.310 7  22383712.732 5                 117627110.595 7  91657568.146 5
G31  22376976.402 7                  22376981.041 7 117591907.270 7                  91630010.608 7
R03  20941051.630 8  20941057.330 7 112099200.662 8  87188198.243 7
R04  19335708.909 8  19335712.951 7 103541890.761 8  80532557.931 7
R05  21866157.874 7  21866162.722 6 116887275.111 7  90912237.991 6
R12  23151982.822 5  23151989.943 5 123673746.467 5  96190718.490 5
R18  22676629.710 7  22676635.236 6 121049563.872 7  94149551.164 6
R19  19723703.871 8  19723706.536 7 105508550.564 8  82062188.475 7
R20  21093638.329 6  21093645.128 7 112797189.300 6  87731158.553 7
> 2025 06 15 14 54 45.0000000  0 28
C05  39284709.723 5  39284705.983 6 204565783.221 5 158183231.361 6
C06  38341648.974 6  38341643.799 6 199654965.656 6 154385909.697 6
C11  23307176.413 7  23307172.966 7 121366605.994 7  93848323.829 7
C12  23324993.587 7  23324990.743 7 121459547.708 7  93920068.916 7
C16  38951866.032 6  38951866.297 6 202832683.371 6 156843024.185 6
C21  22169602.567 7                 115443014.647 7
C22  22651660.874 7                 117953319.642 7
E03  24270880.507 8  24270882.597 8 127544519.095 8  96486471.421 8
E05  22354971.270 8  22354973.007 9 117476132.229 8  88869960.748 9
E13  27759373.813 5  27759377.615 6 145876500.626 5 110354636.364 6
E15  23972101.155 8  23972103.304 8 125974353.333 8  95298704.750 8
E34  24197900.220 8  24197902.255 8 127161071.893 8  96196343.305 8
G01  22178488.011 7                  22178493.673 7 116548943.992 7                  90817227.174 7
G02  24891863.372 6  24891870.390 4                 130807617.347 6 101928029.682 4
G03  20345657.368 8                  20345663.717 7 106917250.861 8                  83312107.372 7
G04  20435551.123 7                  20435555.912 8 107389760.975 7                  83680190.229 8
G06  23060975.814 6                  23060984.253 7 121186219.195 6                  94430871.026 7
G09  22329464.924 7                  22329472.530 7 117342299.029 7                  91435459.811 7
G17  23371291.872 7                  23371296.668 6 122817091.718 7                  95701558.697 6
G19  22383602.428 7  22383604.988 5                 117626544.987 7  91657127.432 5
G31  22376652.263 7                  22376657.831 7 117590207.685 7                  91628686.256 7
R03  20942746.161 8  20942751.743 7 112108271.706 8  87195253.496 7
R04  19334489.446 8  19334493.536 7 103535362.349 8  80527480.281 7
R05  21862226.464 7  21862231.416 6 116866259.977 7  90895892.891 6
R12  23151809.368 5  23151816.030 5 123672814.148 5  96189993.363 5
R18  22679830.868 7  22679835.804 6 121066650.996 7  94162841.133 6
R19  19724251.599 8  19724254.359 7 105511482.253 8  82064468.653 7
R20  21089995.652 6  21090001.660 7 112777704.880 6  87716003.994 7
> 2025 06 15 14 54 50.0000000  0 28
C05  39283763.893 5  39283760.653 6 204560859.985 5 158179424.408 6
C06  38340552.673 6  38340547.080 7 199649255.589 6 154381494.324 7
C11  23305541.784 7  23305538.353 7 121358093.283 7  93841741.260 7
C12  23326378.615 6  23326375.607 7 121466760.566 6  93925646.356 7
C16  38950912.767 7  38950913.506 6 202827722.884 7 156839188.414 6
C21  22167780.258 7                 115433525.734 7
C22  22652530.149 7                 117957844.966 7
E03  24268198.351 8  24268200.011 8 127530422.133 8  96475807.162 8
E05  22354935.982 8  22354937.532 9 117475945.804 8  88869819.720 9
E13  27755626.440 6  27755629.887 6 145856806.282 6 110339737.735 6
E15  23970101.393 8  23970103.627 9 125963845.045 8  95290755.297 9
E34  24198641.438 8  24198643.102 8 127164965.047 8  96199288.439 8
G01  22180462.348 7                  22180468.451 7 116559320.966 7                  90825313.112 7
G02  24894227.285 6  24894234.326 4                 130820039.093 6 101937708.933 4
G03  20345913.168 8                  20345919.243 7 106918593.582 8                  83313153.644 7
G04  20433403.371 7                  20433408.080 8 107378473.353 7                  83671394.672 8
G06  23057208.602 6                  23057216.693 7 121166421.870 6                  94415444.552 7
G09  22325527.689 7                  22325535.361 7 117321608.640 7                  91419337.442 7
G17  23372468.637 7                  23372474.639 6 122823282.188 7                  95706382.417 6
G19  22383497.856 7  22383500.039 5                 117625993.611 7  91656697.779 5
G31  22376332.646 7                  22376337.073 7 117588523.365 7                  91627373.799 7
R03  20944442.518 8  20944447.019 7 112117347.041 8  87202312.078 7
R04  19333272.191 8  19333276.250 7 103528845.301 8  80522411.466 7
R05  21858296.472 7  21858301.210 6 116845250.079 7  90879551.914 6
R12  23151637.839 5  23151644.042 5 123671900.081 5  96189282.398 5
R18  22683032.584 7  22683037.760 6 121083741.262 7  94176133.524 6
R19  19724803.190 8  19724805.990 7 105514432.643 8  82066763.403 7
R20  21086354.220 6  21086359.924 7 112758233.886 6  87700859.889 7
> 2025 06 15 14 54 55.0000000  0 28
C05  39282817.559 5  39282814.766 6 204555933.928 5 158175615.273 6
C06  38339456.098 6  38339450.975 7 199643546.901 6 154377080.009 7
C11  23303909.117 7  23303905.975 7 121349591.843 7  93835167.406 7
C12  23327765.265 6  23327762.354 7 121473980.563 6  93931229.298 7
C16  38949960.051 7  38949961.190 6 202822763.634 7 156835353.612 6
C21  22165958.927 7                 115424042.399 7
C22  22653399.635 7                 117962373.181 7
E03  24265516.899 8  24265518.430 8 127516330.391 8  96465146.866 8
E05  22354901.603 8  22354903.168 9 117475765.145 8  88869683.049 9
E13  27751878.433 6  27751881.933 6 145837110.738 6 110324838.213 6
E15  23968103.094 8  23968105.165 8 125953343.172 8  95282810.701 8
E34  24199383.382 8  24199385.093 8 127168864.195 8  96202238.119 8
G01  22182438.635 7                  22182444.276 7 116569703.799 7                  90833403.627 7
G02  24896591.207 6  24896597.698 4                 130832460.069 6 101947387.567 4
G03  20346169.898 8                  20346175.928 7 106919943.530 8                  83314205.555 7
G04  20431257.057 7                  20431262.165 8 107367196.124 7                  83662607.221 8
G06  23053442.825 7                  23053450.505 7 121146629.910 7                  94400022.261 7
G09  22321591.777 7                  22321598.696 7 117300922.855 7                  91403218.674 7
G17  23373648.126 7                  23373653.866 6 122829479.380 7                  95711211.411 6
G19  22383395.556 7  22383397.707 5                 117625456.222 7  91656279.033 5
G31  22376014.641 7                  22376019.708 7 117586854.084 7                  91626073.059 7
R03  20946138.752 8  20946142.845 7 112126426.154 8  87209373.604 7
R04  19332057.837 8  19332061.646 7 103522339.438 8  80517351.352 7
R05  21854366.870 7  21854372.026 6 116824245.229 7  90863214.795 6
R12  23151471.717 5  23151476.408 5 123671004.134 5  96188585.562 5
R18  22686234.022 7  22686240.273 7 121100834.508 7  94189428.256 7
R19  19725358.217 8  19725360.680 7 105517401.449 8  82069072.475 7
R20  21082715.109 6  21082721.333 7 112738776.141 6  87685726.103 7
> 2025 06 15 14 55  0.0000000  0 28
C05  39281870.365 5  39281868.086 6 204551004.975 5 158171803.889 6
C06  38338359.726 6  38338354.970 6 199637839.636 6 154372666.788 6
C11  23302278.020 7  23302275.361 7 121341101.625 7  93828602.230 7
C12  23329152.443 6  23329150.163 7 121481207.745 6  93936817.809 7
C16  38949007.532 7  38949009.242 6 202817805.567 7 156831519.726 6
C21  22164138.533 7                 115414564.514 7
C22  22654269.668 7                 117966904.199 7
E03  24262836.284 8  24262837.846 8 127502243.830 8  96454490.474 8
E05  22354868.289 8  22354869.862 9 117475590.198 8  88869550.704 9
E13  27748130.566 6  27748133.793 6 145817414.008 6 110309937.764 6
E15  23966105.707 8  23966107.910 9 125942847.655 8  95274870.907 9
E34  24200126.496 8  24200128.192 8 127172769.289 8  96205192.295 8
G01  22184415.552 7                  22184421.130 7 116580092.402 7                  90841498.640 7
G02  24898955.125 6  24898961.402 4                 130844880.158 6 101957065.516 4
G03  20346428.241 8                  20346434.313 7 106921300.640 8                  83315263.055 7
G04  20429113.418 7                  20429117.941 8 107355929.253 7                  83653827.845 8
G06  23049676.594 6                  23049684.925 7 121126843.285 6                  94384604.117 7
G09  22317655.527 7                  22317663.756 7 117280241.623 7                  91387103.449 7
G17  23374828.101 6                  23374834.398 6 122835683.188 6                  95716045.524 6
G19  22383295.235 7  22383298.330 5                 117624932.771 7  91655871.144 5
G31  22375699.948 7                  22375704.507 7 117585199.744 7                  91624783.959 7
R03  20947834.383 8  20947839.844 7 112135508.978 8  87216438.027 7
R04  19330845.562 8  19330848.590 7 103515844.622 8  80512299.829 7
R05  21850438.359 7  21850443.380 6 116803245.464 7  90846881.634 6
R12  23151308.327 6  23151311.771 5 123670126.240 6  96187902.738 5
R18  22689438.124 7  22689442.819 7 121117930.635 7  94202725.235 7
R19  19725916.910 8  19725919.464 7 105520388.580 8  82071395.784 7
R20  21079078.022 6  21079084.941 7 112719331.679 6  87670602.636 7
> 2025 06 15 14 55  5.0000000  0 28
C05  39280924.002 5  39280920.823 6 204546073.029 5 158167990.186 6
C06  38337263.180 6  38337259.397 7 199632133.658 6 154368254.552 7
C11  23300649.898 7  23300647.101 7 121332622.509 7  93822045.650 7
C12  23330542.308 6  23330539.505 7 121488441.882 6  93942411.703 7
C16  38948056.515 6  38948056.899 6 202812848.575 6 156827686.668 6
C21  22162319.671 7                 115405092.041 7
C22  22655140.585 7                 117971437.947 7
E03  24260156.528 8  24260158.226 8 127488162.357 8  96443837.941 8
E05  22354836.016 8  22354837.660 9 117475420.849 8  88869422.595 9
E13  27744381.620 6  27744385.313 6 145797715.954 6 110295036.335 6
E15  23964109.876 8  23964111.853 9 125932358.385 8  95266935.845 9
E34  24200870.728 8  24200872.432 8 127176680.213 8  96208150.886 8
G01  22186393.586 7                  22186398.989 7 116590486.673 7                  90849598.059 7
G02  24901318.268 6  24901324.553 4                 130857299.216 6 101966742.673 4
G03  20346687.597 8                  20346694.048 7 106922664.834 8                  83316326.053 7
G04  20426970.818 7                  20426976.036 8 107344672.647 7                  83645056.464 8
G06  23045912.379 7                  23045920.593 7 121107061.872 7                  94369190.030 7
G09  22313720.859 7                  22313729.417 7 117259564.885 7                  91370991.708 7
G17  23376010.849 6                  23376016.083 6 122841893.478 6                  95720884.711 6
G19  22383198.369 7  22383201.272 5                 117624423.119 7  91655474.025 5
G31  22375387.881 7                  22375392.664 7 117583560.272 7                  91623506.440 7
R03  20949531.928 8  20949536.977 7 112144595.653 8  87223505.447 7
R04  19329633.812 8  19329637.840 7 103509360.861 8  80507256.902 7
R05  21846511.411 8  21846516.222 7 116782250.628 8  90830552.321 7
R12  23151148.180 6  23151149.276 5 123669266.256 6  96187233.879 5
R18  22692640.425 7  22692646.941 7 121135029.491 7  94216024.318 7
R19  19726479.223 8  19726480.953 7 105523394.065 8  82073733.367 7
R20  21075445.066 6  21075451.175 7 112699900.494 6  87655489.503 7
> 2025 06 15 14 55 10.0000000  0 28
C05  39279976.861 5  39279973.144 6 204541138.695 5 158164174.653 6
C06  38336168.558 6  38336163.723 6 199626429.566 6 154363843.798 6
C11  23299023.505 7  23299021.042 7 121324155.121 7  93815498.121 7
C12  23331932.612 6  23331930.253 7 121495683.638 6  93948011.482 7
C16  38947104.919 7  38947105.456 6 202807893.325 7 156823854.942 6
C21  22160501.370 7                 115395625.579 7
C22  22656011.673 7                 117975975.028 7
E03  24257477.563 8  24257479.697 8 127474086.597 8  96433189.716 8
E05  22354805.304 8  22354806.635 9 117475257.736 8  88869299.195 9
E13  27740633.792 6  27740636.815 6 145778017.207 6 110280134.367 6
E15  23962115.100 8  23962117.093 9 125921876.011 8  95259005.998 9
E34  24201615.934 8  24201617.935 8 127180597.608 8  96211114.371 8
G01  22188372.372 7                  22188378.183 7 116600887.232 7                  90857702.368 7
G02  24903680.906 6  24903687.465 4                 130869717.920 6 101976419.557 4
G03  20346948.937 8                  20346954.940 7 106924036.709 8                  83317395.033 7
G04  20424830.996 7                  20424836.081 8 107333426.905 7                  83636293.547 8
G06  23042149.886 7                  23042157.796 7 121087286.307 7                  94353780.503 7
G09  22309787.544 7                  22309795.202 7 117238893.206 7                  91354883.929 7
G17  23377194.015 6                  23377199.711 6 122848110.936 6                  95725729.456 6
G19  22383105.296 7  22383106.902 5                 117623927.939 7  91655088.142 5
G31  22375078.752 7                  22375083.903 7 117581936.323 7                  91622241.026 7
R03  20951230.362 8  20951235.368 7 112153686.664 8  87230576.219 7
R04  19328425.496 8  19328429.399 7 103502888.710 8  80502223.008 7
R05  21842584.125 7  21842589.449 7 116761261.374 7  90814227.335 7
R12  23150990.725 6  23150991.578 5 123668424.827 6  96186579.461 5
R18  22695845.125 7  22695850.894 7 121152131.726 7  94229326.036 7
R19  19727044.456 8  19727046.374 7 105526418.477 8  82076085.688 7
R20  21071814.225 6  21071820.321 7 112680483.085 6  87640387.084 7
> 2025 06 15 14 55 15.0000000  0 28
C05  39279027.966 5  39279025.364 6 204536201.904 5 158160357.202 6
C06  38335073.397 6  38335068.702 7 199620727.345 6 154359434.475 7
C11  23297399.919 7  23297397.224 7 121315699.464 7  93808959.677 7
C12  23333325.064 6  23333322.579 7 121502932.996 6  93953617.141 7
C16  38946153.104 7  38946154.360 6 202802939.700 7 156820024.484 6
C21  22158684.845 8                 115386165.116 8
C22  22656883.739 7                 117980515.413 7
E03  24254800.403 8  24254802.235 8 127460016.509 8  96422545.796 8
E05  22354775.438 8  22354776.777 9 117475100.827 8  88869180.500 9
E13  27736884.799 5  27736888.110 6 145758317.678 5 110265231.828 6
E15  23960121.907 8  23960123.651 8 125911400.523 8  95251081.362 8
E34  24202362.435 8  24202364.631 8 127184521.444 8  96214082.726 8
G01  22190352.791 7                  22190358.963 7 116611294.032 7                  90865811.568 7
G02  24906044.320 6  24906050.786 4                 130882136.182 6 101986096.096 4
G03  20347211.390 8                  20347217.481 7 106925416.236 8                  83318469.997 7
G04  20422693.250 7                  20422697.875 8 107322192.025 7                  83627539.102 8
G06  23038388.567 7                  23038395.526 7 121067516.623 7                  94338375.564 7
G09  22305854.823 7                  22305862.314 7 117218226.616 7                  91338780.113 7
G17  23378378.464 7                  23378383.360 6 122854335.463 7                  95730579.721 6
G19  22383013.550 7  22383015.360 5                 117623447.168 7  91654713.517 5
G31  22374772.834 7                  22374777.781 7 117580327.852 7                  91620987.670 7
R03  20952928.642 8  20952934.033 7 112162782.042 8  87237650.410 7
R04  19327219.608 8  19327222.799 7 103496428.224 8  80497198.180 7
R05  21838657.763 7  21838663.113 7 116740277.734 7  90797906.769 7
R12  23150835.582 5  23150838.757 4 123667601.842 5  96185939.365 4
R18  22699049.686 7  22699054.917 7 121169237.345 7  94242630.379 7
R19  19727612.736 8  19727615.672 7 105529461.774 8  82078452.711 7
R20  21068185.363 6  21068191.720 7 112661079.394 6  87625295.335 7
> 2025 06 15 14 55 20.0000000  0 28
C05  39278078.891 5  39278076.848 6 204531261.614 5 158156537.073 6
C06  38333978.358 6  38333973.876 7 199615025.838 6 154355025.717 7
C11  23295778.188 7  23295775.579 7 121307254.399 7  93802429.421 7
C12  23334718.854 6  23334715.985 7 121510188.792 6  93959227.776 7
C16  38945201.859 7  38945202.991 6 202797986.642 7 156816194.473 6
C21  22156869.017 8                 115376709.502 8
C22  22657756.197 7                 117985057.966 7
E03  24252124.019 8  24252125.663 8 127445950.988 8  96411905.322 8
E05  22354746.563 8  22354747.910 9 117474948.966 8  88869065.616 9
E13  27733135.595 6  27733139.024 6 145738616.419 6 110250327.958 6
E15  23958129.597 8  23958131.300 9 125900930.777 8  95243161.063 9
E34  24203110.330 8  24203112.345 8 127188450.588 8  96217055.096 8
G01  22192333.864 7                  22192340.148 7 116621705.955 7                  90873924.734 7
G02  24908406.808 6  24908413.762 4                 130894552.907 6 101995771.414 4
G03  20347475.300 8                  20347481.194 7 106926802.313 8                  83319550.049 7
G04  20420557.249 7                  20420562.268 8 107310966.854 7                  83618792.226 8
G06  23034626.992 7                  23034634.085 7 121047751.631 7                  94322974.277 7
G09  22301923.122 7                  22301930.521 7 117197563.996 7                  91322679.377 7
G17  23379563.683 6                  23379569.461 6 122860565.925 6                  95735434.625 6
G19  22382924.097 7  22382926.609 5                 117622979.675 7  91654349.232 5
G31  22374469.412 7                  22374474.513 7 117578733.767 7                  91619745.519 7
R03  20954629.139 8  20954634.145 7 112171880.586 8  87244727.046 7
R04  19326014.217 8  19326017.940 7 103489978.175 8  80492181.480 7
R05  21834734.532 8  21834738.541 6 116719298.463 8  90781589.601 6
R12  23150680.651 5  23150687.124 4 123666796.304 5  96185312.811 4
R18  22702254.375 7  22702260.010 7 121186345.070 7  94255936.378 7
R19  19728185.532 8  19728187.951 7 105532522.797 8  82080833.500 7
R20  21064558.776 6  21064565.209 7 112641688.404 6  87610213.449 7
> 2025 06 15 14 55 25.0000000  0 28
C05  39277129.588 5  39277127.459 6 204526317.815 5 158152714.214 6
C06  38332883.964 6  38332879.051 7 199609325.129 6 154350617.563 7
C11  23294158.356 7  23294156.023 7 121298819.956 7  93795907.384 7
C12  23336113.463 6  23336110.521 7 121517451.047 6  93964843.404 7
C16  38944251.656 7  38944252.148 6 202793034.127 7 156812364.880 6
C21  22155053.952 8                 115367258.754 8
C22  22658628.861 7                 117989602.681 7
E03  24249447.984 8  24249449.951 9 127431890.013 8  96401268.295 9
E05  22354718.736 8  22354719.996 9 117474802.161 8  88868954.554 9
E13  27729386.543 6  27729389.633 6 145718913.254 6 110235422.660 6
E15  23956138.392 8  23956140.063 9 125890466.761 8  95235245.101 9
E34  24203858.856 8  24203861.067 8 127192385.026 8  96220031.471 8
G01  22194316.330 7                  22194322.536 7 116632122.982 7                  90882041.898 7
G02  24910769.425 6  24910776.619 4                 130906968.011 6 102005445.479 4
G03  20347739.660 8                  20347746.163 7 106928194.900 8                  83320635.183 7
G04  20418422.783 7                  20418427.983 8 107299751.437 7                  83610052.941 8
G06  23030866.533 7                  23030873.707 7 121027991.396 7                  94307576.700 7
G09  22297991.964 7                  22297998.890 7 117176905.291 7                  91306581.700 7
G17  23380751.126 7                  23380756.172 6 122866802.284 7                  95740294.103 6
G19  22382837.779 7  22382840.266 5                 117622525.454 7  91653995.289 5
G31  22374168.928 7                  22374173.976 7 117577154.019 7                  91618514.551 7
R03  20956329.143 8  20956334.203 7 112180982.305 8  87251806.155 7
R04  19324811.624 8  19324815.448 7 103483538.595 8  80487172.917 7
R05  21830809.779 7  21830814.692 6 116698323.674 7  90765275.866 6
R12  23150536.776 5  23150538.761 4 123666007.926 5  96184699.646 4
R18  22705459.253 7  22705465.138 7 121203454.968 7  94269244.044 7
R19  19728761.611 8  19728763.538 7 105535601.507 8  82083228.052 7
R20  21060933.433 6  21060941.501 7 112622310.172 6  87595141.496 7
> 2025 06 15 14 55 30.0000000  0 28
C05  39276179.954 5  39276177.005 6 204521371.191 5 158148889.174 6
C06  38331790.066 6  38331784.680 7 199603625.865 6 154346210.542 7
C11  23292540.627 7  23292538.437 7 121290396.792 7  93789394.066 7
C12  23337508.814 6  23337506.354 7 121524720.467 6  93970464.567 7
C16  38943300.634 6  38943301.050 6 202788082.886 6 156808536.269 6
C21  22153240.404 8                 115357813.591 8
C22  22659502.345 7                 117994150.290 7
E03  24246773.433 8  24246775.253 8 127417834.331 8  96390635.268 8
E05  22354691.726 8  22354693.158 9 117474661.122 8  88868847.862 9
E13  27725637.186 6  27725640.077 6 145699209.059 6 110220516.580 6
E15  23954148.312 8  23954150.039 9 125880009.229 8  95227334.051 9
E34  24204608.356 8  24204610.908 8 127196325.478 8  96223012.391 8
G01  22196299.546 7                  22196305.840 7 116642545.839 7                  90890163.579 7
G02  24913132.412 6  24913139.209 4                 130919382.308 6 102015118.900 4
G03  20348006.467 8                  20348012.596 7 106929594.724 8                  83321725.956 7
G04  20416290.648 7                  20416295.950 8 107288546.456 7                  83601321.794 8
G06  23027106.779 7                  23027114.994 7 121008236.627 7                  94292183.383 7
G09  22294061.116 7                  22294068.243 7 117156251.296 7                  91290487.703 7
G17  23381938.774 7                  23381944.152 6 122873045.260 7                  95745158.748 6
G19  22382754.120 7  22382756.657 5                 117622085.211 7  91653652.250 5
G31  22373871.458 7                  22373876.114 7 117575589.324 7                  91617295.301 7
R03  20958030.183 8  20958035.110 7 112190087.896 8  87258888.281 7
R04  19323611.511 8  19323615.306 7 103477110.165 8  80482173.034 7
R05  21826887.651 7  21826892.027 6 116677354.018 7  90748966.176 6
R12  23150392.511 4                                
R18  22708664.919 7  22708671.392 7 121220567.697 7  94282553.922 7
R19  19729340.129 8  19729341.976 7 105538698.696 8  82085636.968 7
R20  21057312.964 6  21057319.811 7 112602945.513 6  87580080.115 7
> 2025 06 15 14 55 35.0000000  0 29
C05  39275229.296 5  39275226.665 6 204516421.068 5 158145061.417 6
C06  38330695.431 6  38330690.390 7 199597927.361 6 154341804.103 7
C11  23290925.023 7  23290922.855 7 121281984.282 7  93782888.975 7
C12  23338906.452 6  23338903.855 7 121531996.297 6  93976090.688 7
C16  38942349.394 6  38942350.502 6 202783132.211 6 156804708.082 6
C21  22151427.548 7                 115348373.284 7
C22  22660376.074 7                 117998700.066 7
E03  24244099.665 8  24244101.432 8 127403783.220 8  96380005.698 8
E05  22354665.885 8  22354667.317 9 117474525.123 8  88868744.980 9
E13  27721887.897 6  27721890.088 6 145679503.046 6 110205609.121 6
E15  23952159.348 8  23952161.154 9 125869557.484 8  95219427.375 9
E34  24205359.297 8  24205361.770 8 127200271.247 8  96225997.334 8
G01  22198284.406 7                  22198290.047 7 116652973.765 7                  90898289.216 7
G02  24915493.754 6  24915501.160 4                 130931795.019 6 102024791.111 4
G03  20348273.721 8                  20348280.178 7 106931001.080 8                  83322821.818 7
G04  20414159.671 7                  20414165.419 8 107277351.214 7                  83592598.230 8
G06  23023349.394 7                  23023356.470 7 120988486.631 7                  94276793.785 7
G09  22290131.807 7                  22290139.021 7 117135601.285 7                  91274396.786 7
G17  23383127.858 7                  23383133.781 6 122879294.188 7                  95750028.065 6
G19  22382673.047 7  22382675.831 5                 117621658.266 7  91653319.556 5
G28  24113303.154 5                                                                
G31  22373576.416 7                  22373580.805 7 117574038.991 7                  91616087.246 7
R03  20959732.321 8  20959736.333 7 112199196.521 8  87265972.763 7
R04  19322412.147 8  19322416.386 7 103470692.141 8  80477181.234 7
R05  21822965.646 7  21822970.746 6 116656388.943 7  90732659.996 6
R12  23150250.875 4  23150254.023 3 123664485.03514  96183515.07313
R18  22711870.639 7  22711877.009 7 121237682.593 7  94295865.470 7
R19  19729922.219 8  19729924.468 7 105541813.527 8  82088059.599 7
R20  21053695.725 6  21053701.143 7 112583593.610 6  87565028.644 7
> 2025 06 15 14 55 40.0000000  0 29
C05  39274279.043 5  39274275.665 6 204511468.622 5 158141231.880 6
C06  38329601.903 6  38329596.441 7 199592230.795 6 154337399.160 7
C11  23289311.345 7  23289309.263 7 121273583.594 7  93776393.032 7
C12  23340304.380 6  23340302.540 7 121539279.786 6  93981722.740 7
C16  38941398.905 6  38941400.288 6 202778183.294 6 156800881.274 6
C21  22149615.416 7                 115338939.076 7
C22  22661250.261 7                 118003253.206 7
E03  24241426.812 8  24241428.690 8 127389737.898 8  96369380.509 8
E05  22354641.214 8  22354642.632 9 117474395.394 8  88868646.845 9
E13  27718137.278 6  27718139.986 6 145659796.407 6 110190701.186 6
E15  23950171.833 8  23950173.553 9 125859112.735 8  95211525.988 9
E34  24206111.358 8  24206113.878 8 127204223.522 8  96228987.202 8
G01  22200270.072 7                  22200275.452 7 116663408.017 7                  90906419.790 7
G02  24917856.747 6  24917863.225 4                 130944207.334 6 102034462.988 4
G03  20348543.075 8                  20348549.180 7 106932415.192 8                  83323923.724 7
G04  20412031.861 7                  20412036.921 8 107266166.954 7                  83583883.221 8
G06  23019592.424 7                  23019599.613 7 120968742.639 7                  94261408.867 7
G09  22286203.123 7                  22286210.294 7 117114956.445 7                  91258309.884 7
G17  23384317.935 7                  23384324.400 6 122885550.217 7                  95754902.872 6
G19  22382594.689 7  22382597.380 5                 117621245.791 7  91652998.149 5
G28  24114531.881 4                  24114537.776 5 126722778.72314                  98745001.22215
G31  22373284.266 7                  22373288.898 7 117572504.181 7                  91614891.294 7
R03  20961434.439 8  20961439.527 7 112208309.430 8  87273060.574 7
R04  19321216.598 8  19321220.299 7 103464285.932 8  80472198.630 7
R05  21819045.385 8  21819049.423 6 116635429.354 8  90716358.063 6
R12  23150111.694 4  23150117.321 4 123663750.86214
R18  22715078.235 7  22715084.280 7 121254800.870 7  94309179.667 7
R19  19730508.222 8  19730510.000 7 105544947.247 8  82090496.925 7
R20  21050078.802 6  21050084.866 7 112564255.640 6  87549987.989 7
> 2025 06 15 14 55 45.0000000  0 29
C05  39273327.126 5  39273323.927 6 204506513.328 5 158137400.129 6
C06  38328508.130 6  38328502.792 7 199586535.718 6 154332995.364 7
C11  23287701.286 7  23287698.211 7 121265194.226 7  93769905.833 7
C12  23341705.681 6  23341702.511 7 121546570.343 6  93987360.250 7
C16  38940448.604 6  38940449.949 6 202773235.601 6 156797055.406 6
C21  22147804.596 8                 115329510.432 8
C22  22662124.932 7                 118007809.229 7
E03  24238755.172 8  24238756.927 8 127375697.841 8  96358759.307 8
E05  22354617.699 8  22354619.069 9 117474271.412 8  88868553.052 9
E13  27714387.083 6  27714389.799 6 145640088.669 6 110175792.410 6
E15  23948185.331 8  23948187.207 9 125848674.457 8  95203629.501 9
E34  24206864.159 8  24206867.120 8 127208181.813 8  96231981.611 8
G01  22202256.114 7                  22202262.216 7 116673848.020 7                  90914554.839 7
G02  24920218.524 6  24920225.135 4                 130956618.761 6 102044134.199 4
G03  20348813.805 7                  20348819.902 7 106933836.532 7                  83325031.261 7
G04  20409905.395 7                  20409910.643 8 107254993.118 7                  83575176.340 8
G06  23015835.720 7                  23015843.011 7 120949004.146 7                  94246028.226 7
G09  22282275.159 6                  22282282.420 7 117094316.333 6                  91242226.693 7
G17  23385509.735 7                  23385516.162 6 122891812.802 7                  95759782.811 6
G19  22382518.434 7  22382521.680 5                 117620847.246 7  91652687.595 5
G28  24115764.374 4                  24115770.561 5 126729256.82914                  98750049.07815
G31  22372994.732 7                  22372999.410 7 117570984.396 7                  91613707.041 7
R03  20963137.841 8  20963142.505 7 112217426.198 8  87280151.388 7
R04  19320021.976 8  19320026.231 7 103457890.877 8  80467224.695 7
R05  21815124.681 8  21815129.644 6 116614475.122 8  90700060.370 6
R12  23149977.986 4  23149984.215 4 123663034.78014  96182387.14214
R18  22718284.760 7  22718292.091 7 121271921.899 7  94322495.976 7
R19  19731097.050 8  19731099.603 7 105548099.418 8  82092948.621 7
R20  21046465.170 6  21046471.145 7 112544931.133 6  87534957.835 7
> 2025 06 15 14 55 50.0000000  0 28
C05  39272374.738 5  39272371.813 6 204501554.686 5 158133565.794 6
C06  38327414.657 6  38327409.115 7 199580841.514 6 154328592.240 7
C11  23286092.151 7  23286088.975 7 121256815.649 7  93763426.990 7
C12  23343106.900 6  23343104.353 7 121553867.505 6  93993002.875 7
C16  38939498.710 6  38939499.826 6 202768288.644 6 156793230.096 6
C21  22145995.071 7                 115320086.825 7
C22  22662999.995 7                 118012367.540 7
E03  24236084.337 8  24236086.072 8 127361662.510 8  96348141.684 8
E05  22354595.136 8  22354596.483 9 117474152.636 8  88868463.199 9
E13  27710636.710 6  27710639.211 6 145620379.341 6 110160882.447 6
E15  23946200.077 8  23946202.000 9 125838242.124 8  95195737.507 9
E34  24207618.453 8  24207621.353 8 127212145.536 8  96234980.145 8
G01  22204244.044 7                  22204249.848 7 116684293.269 7                  90922693.987 7
G02  24922579.860 6  24922586.369 4                 130969028.653 6 102053804.209 4
G03  20349085.591 8                  20349091.523 7 106935264.533 8                  83326143.983 7
G04  20407781.250 7                  20407786.375 8 107243829.184 7                  83566477.178 8
G06  23012079.912 7                  23012087.536 7 120929270.607 7                  94230651.462 7
G09  22278348.625 6                  22278355.547 7 117073680.369 6                  91226146.740 7
G17  23386701.930 6                  23386708.507 6 122898081.400 6                  95764667.441 6
G19  22382445.235 7  22382448.355 5                 117620462.171 7  91652387.534 5
G28  24117002.793 5                  24117005.834 5 126735743.953 5                  98755103.986 5
G31  22372708.282 7                  22372712.968 7 117569479.092 7                  91612534.076 7
R03  20964841.104 8  20964845.950 7 112226546.282 8  87287244.794 7
R04  19318829.500 8  19318833.708 7 103451506.353 8  80462258.952 7
R05  21811205.906 8  21811210.153 6 116593525.434 8  90683766.148 6
R18  22721492.756 7  22721499.958 7 121289045.193 7  94335814.072 7
R19  19731690.712 8  19731692.016 7 105551269.468 8  82095414.222 7
R20  21042854.610 6  21042859.470 7 112525619.627 6  87519937.781 7
> 2025 06 15 14 55 55.0000000  0 28
C05  39271422.361 5  39271418.951 6 204496593.415 5 158129729.426 6
C06  38326321.695 6  38326315.672 7 199575148.955 6 154324190.404 7
C11  23284485.049 7  23284482.366 7 121248448.589 7  93756957.055 7
C12  23344509.541 7  23344506.647 7 121561171.912 7  93998651.095 7
C16  38938549.463 6  38938550.160 6 202763343.103 6 156789405.903 6
C21  22144186.429 8                 115310668.954 8
C22  22663875.803 7                 118016928.875 7
E03  24233414.568 8  24233416.296 8 127347632.655 8  96337528.192 8
E05  22354573.502 8  22354575.014 9 117474039.771 8  88868377.819 9
E13  27706886.338 6  27706888.403 6 145600669.074 6 110145971.764 6
E15  23944216.196 8  23944218.049 9 125827816.471 8  95187850.571 9
E34  24208374.286 8  24208376.792 8 127216115.454 8  96237983.350 8
G01  22206232.885 7                  22206238.803 7 116694744.449 7                  90930837.756 7
G02  24924941.898 6  24924948.002 4                 130981437.795 6 102063473.646 4
G03  20349358.820 8                  20349364.582 7 106936699.947 8                  83327262.496 7
G04  20405658.730 7                  20405663.959 8 107232675.881 7                  83557786.301 8
G06  23008326.695 7                  23008333.299 7 120909542.764 7                  94215279.128 7
G09  22274422.999 6                  22274429.756 7 117053049.300 6                  91210070.579 7
G17  23387896.920 7                  23387902.785 6 122904356.764 7                  95769557.297 6
G19  22382375.055 7  22382377.848 5                 117620091.238 7  91652098.467 5
G28  24118238.074 5                  24118241.954 5 126742240.857 5                  98760166.493 5
G31  22372425.217 7                  22372429.420 7 117567988.987 7                  91611372.965 7
R03  20966545.236 7  20966550.901 7 112235670.225 7  87294341.188 7
R04  19317639.993 8  19317643.388 7 103445133.248 8  80457302.091 7
R05  21807288.087 8  21807292.664 7 116572581.108 8  90667476.159 7
R18  22724701.506 7  22724708.138 7 121306171.466 7  94349134.479 7
R19  19732285.963 8  19732288.794 7 105554458.007 8  82097894.208 7
R20  21039245.365 6  21039250.970 7 112506321.793 6  87504928.368 7
> 2025 06 15 14 56  0.0000000  0 28
C05  39270469.035 5  39270465.688 6 204491630.172 5 158125891.532 6
C06  38325228.632 6  38325223.138 7 199569458.677 6 154319790.313 7
C11  23282881.128 7  23282877.735 7 121240093.666 7  93750496.499 7
C12  23345913.660 7  23345911.315 7 121568484.225 7  94004305.443 7
C16  38937599.484 6  38937600.813 6 202758399.647 6 156785583.306 6
C21  22142378.704 8                 115301257.486 8
C22  22664752.466 7                 118021493.886 7
E03  24230745.791 8  24230747.661 9 127333608.918 8  96326919.331 9
E05  22354553.048 8  22354554.811 9 117473933.474 8  88868297.414 9
E13  27703134.868 6  27703137.682 6 145580958.622 6 110131060.960 6
E15  23942233.789 8  23942235.504 8 125817398.156 8  95179969.190 8
E34  24209130.606 8  24209133.547 8 127220092.196 8  96240991.721 8
G01  22208223.232 7                  22208228.243 7 116705202.235 7                  90938986.676 7
G02  24927303.571 6  24927309.252 4                 130993846.873 6 102073143.018 4
G03  20349633.240 8                  20349639.203 7 106938143.430 8                  83328387.281 7
G04  20403538.713 7                  20403543.425 8 107221533.888 7                  83549104.223 8
G06  23004574.055 7                  23004580.856 7 120889821.313 7                  94199911.775 7
G09  22270497.779 7                  22270504.767 7 117032423.770 7                  91193998.758 7
G17  23389093.072 7                  23389098.500 6 122910639.543 7                  95774452.943 6
G19  22382306.249 7  22382309.804 5                 117619735.077 7  91651820.960 5
G28  24119476.271 5                  24119479.505 5 126748748.244 5                  98765237.160 5
G31  22372144.273 7                  22372148.905 7 117566514.750 7                  91610224.205 7
R03  20968250.914 8  20968256.133 7 112244798.765 8  87301441.159 7
R04  19316451.822 8  19316455.693 7 103438772.152 8  80452354.569 7
R05  21803371.257 8  21803375.875 7 116551642.785 8  90651190.803 7
R18  22727910.609 7  22727917.410 7 121323301.331 7  94362457.664 7
R19  19732886.279 8  19732888.092 7 105557665.866 8  82100389.200 7
R20  21035639.122 6  21035645.026 7 112487038.429 6  87489930.206 7
> 2025 06 15 14 56  5.0000000  0 28
C05  39269515.636 5  39269511.885 6 204486663.702 5 158122051.151 6
C06  38324136.333 6  38324130.871 7 199563769.404 6 154315391.010 7
C11  23281278.635 7  23281275.350 7 121231749.676 7  93744044.390 7
C12  23347319.261 7  23347316.614 7 121575803.228 7  94009964.943 7
C16  38936651.049 6  38936651.613 6 202753457.034 6 156781761.363 6
C21  22140572.328 7                 115291851.174 7
C22  22665629.476 7                 118026061.318 7
E03  24228077.803 8  24228079.949 8 127319590.064 8  96316314.170 8
E05  22354533.597 8  22354535.579 9 117473832.491 8  88868221.019 9
E13  27699383.854 6  27699386.684 6 145561246.665 6 110116148.994 6
E15  23940252.245 8  23940254.123 9 125806985.933 8  95172092.410 9
E34  24209888.566 8  24209891.371 8 127224074.523 8  96244004.313 8
G01  22210214.170 7                  22210219.849 7 116715665.340 7                  90947139.730 7
G02  24929664.347 6  24929670.287 4                 131006254.640 6 102082811.381 4
G03  20349909.425 8                  20349915.256 7 106939593.687 8                  83329517.351 7
G04  20401420.391 7                  20401425.074 8 107210401.909 7                  83540429.960 8
G06  23000821.343 7                  23000828.505 7 120870104.992 7                  94184548.412 7
G09  22266572.801 6                  22266580.768 7 117011802.549 6                  91177930.288 7
G17  23390289.536 7                  23390295.653 6 122916928.403 7                  95779353.325 6
G19  22382241.827 7  22382244.483 5                 117619392.437 7  91651553.961 5
G28  24120714.196 4                  24120719.201 5 126755264.788 4                  98770314.979 5
G31  22371866.585 7                  22371870.968 7 117565055.163 7                  91609086.866 7
R03  20969956.615 7  20969962.372 7 112253930.770 7  87308543.827 7
R04  19315265.900 8  19315270.032 7 103432421.677 8  80447415.327 7
R05  21799455.616 8  21799459.644 7 116530709.436 8  90634909.322 7
R18  22731120.155 7  22731126.799 7 121340433.482 7  94375782.635 7
R19  19733488.683 8  19733490.869 7 105560891.704 8  82102898.178 7
R20  21032035.712 6  21032041.290 7 112467768.162 6  87474942.229 7
> 2025 06 15 14 56 10.0000000  0 28
C05  39268561.699 5  39268557.769 6 204481694.227 5 158118208.441 6
C06  38323043.643 6  38323038.340 7 199558081.473 6 154310992.751 7
C11  23279678.610 7  23279675.195 7 121223416.865 7  93737600.947 7
C12  23348725.416 7  23348723.580 7 121583129.151 7  94015629.804 7
C16  38935701.847 6  38935702.832 6 202748515.509 6 156777940.263 6
C21  22138766.903 7                 115282450.299 7
C22  22666507.347 7                 118030631.445 7
E03  24225411.198 8  24225413.203 9 127305576.345 8  96305712.883 9
E05  22354515.371 8  22354517.438 9 117473737.081 8  88868148.840 9
E13  27695633.004 6  27695635.296 6 145541533.515 6 110101236.127 6
E15  23938272.132 8  23938273.948 8 125796580.079 8  95164220.450 8
E34  24210647.707 8  24210650.253 8 127228062.688 8  96247021.327 8
G01  22212206.064 7                  22212211.609 7 116726134.046 7                  90955297.159 7
G02  24932025.898 6  24932031.428 4                 131018661.267 6 102092478.835 4
G03  20350186.553 8                  20350192.508 7 106941051.027 8                  83330652.939 7
G04  20399303.322 7                  20399308.602 8 107199280.249 7                  83531763.744 8
G06  22997071.519 7                  22997078.007 6 120850394.074 7                  94169189.280 6
G09  22262650.430 7                  22262657.549 7 116991185.920 7                  91161865.395 7
G17  23391487.792 7                  23391493.740 7 122923223.719 7                  95784258.748 7
G19  22382178.753 7  22382181.888 5                 117619063.566 7  91651297.710 5
G28  24121958.154 5                  24121960.881 5 126761790.75015                  98775400.18815
G31  22371591.891 7                  22371596.212 7 117563610.445 7                  91607961.116 7
R03  20971663.203 7  20971669.177 7 112263066.604 7  87315649.468 7
R04  19314081.669 8  19314085.999 7 103426082.351 8  80442484.748 7
R05  21795540.093 8  21795544.319 7 116509780.930 8  90618631.612 7
R18  22734329.586 7  22734336.949 7 121357568.268 7  94389109.659 7
R19  19734095.177 8  19734097.331 7 105564135.705 8  82105421.289 7
R20  21028432.773 6  21028440.131 7 112448511.402 6  87459964.748 7
> 2025 06 15 14 56 15.0000000  0 28
C05  39267605.223 5  39267603.039 6 204476721.947 5 158114363.542 6
C06  38321951.487 6  38321946.399 7 199552394.942 6 154306595.550 7
C11  23278081.126 7  23278076.952 7 121215095.376 7  93731166.237 7
C12  23350134.375 6  23350131.787 7 121590462.105 6  94021300.100 7
C16  38934752.889 6  38934753.757 6 202743575.220 6 156774120.115 6
C21  22136963.156 7                 115273054.945 7
C22  22667385.875 7                 118035204.381 7
E03  24222745.448 8  24222747.487 8 127291567.896 8  96295115.593 8
E05  22354498.353 8  22354500.326 9 117473647.362 8  88868080.969 9
E13  27691881.389 6  27691883.707 6 145521819.262 6 110086322.432 6
E15  23936293.135 8  23936295.038 8 125786180.712 8  95156353.400 8
E34  24211408.239 8  24211410.306 8 127232056.805 8  96250042.842 8
G01  22214199.205 7                  22214205.059 7 116736608.443 7                  90963459.011 7
G02  24934386.074 6  24934391.988 4                 131031066.990 6 102102145.605 4
G03  20350464.998 8                  20350471.374 7 106942515.581 8                  83331794.146 7
G04  20397189.440 7                  20397194.384 8 107188169.013 7                  83523105.642 8
G06  22993321.686 7                  22993328.080 6 120830688.691 7                  94153834.433 6
G09  22258728.240 7                  22258735.587 7 116970574.016 7                  91145804.174 7
G17  23392686.618 7                  23392692.970 6 122929525.479 7                  95789169.202 6
G19  22382119.179 7  22382121.853 5                 117618748.612 7  91651052.290 5
G28  24123201.066 4                  24123205.303 5 126768326.318 4                  98780492.753 5
G31  22371319.161 7                  22371324.152 7 117562180.688 7                  91606847.013 7
R03  20973370.814 8  20973376.417 7 112272205.902 8  87322757.798 7
R04  19312899.272 8  19312904.220 7 103419753.972 8  80437562.680 7
R05  21791625.601 8  21791630.058 6 116488857.689 8  90602357.998 6
R18  22737540.236 7  22737547.613 7 121374705.726 7  94402438.753 7
R19  19734705.174 8  19734706.780 7 105567398.066 8  82107958.675 7
R20  21024835.963 6  21024841.524 7 112429268.159 6  87444997.780 7
> 2025 06 15 14 56 20.0000000  0 27
C05  39266650.194 5  39266647.239 6 204471746.867 5 158110516.505 6
C06  38320859.700 6  38320854.505 7 199546709.925 6 154302199.541 7
C11  23276486.084 7  23276481.124 7 121206785.346 7  93724740.405 7
C12  23351544.141 6  23351541.275 7 121597802.189 6  94026975.902 7
C16  38933804.238 6  38933805.381 7 202738636.235 6 156770300.989 7
C21  22135159.658 7                 115263665.247 7
C22  22668264.606 7                 118039780.203 7
E03  24220080.815 8  24220082.794 8 127277564.826 8  96284522.374 8
E05  22354482.489 8  22354484.376 9 117473563.426 8  88868017.469 9
E13  27688129.181 6  27688131.903 6 145502104.026 6 110071408.008 6
E15  23934315.406 8  23934317.372 9 125775787.960 8  95148491.354 9
E34  24212169.517 7  24212171.536 8 127236056.979 7  96253068.942 8
G01  22216194.029 7                  22216199.278 7 116747088.645 7                  90971625.386 7
G03  20350744.663 8                  20350751.601 7 106943987.406 8                  83332941.022 7
G04  20395077.298 7                  20395081.985 8 107177068.318 7                  83514455.751 8
G06  22989572.592 7                  22989579.388 6 120810988.959 7                  94138484.008 6
G09  22254807.501 7                  22254813.852 7 116949966.902 7                  91129746.701 7
G17  23393888.028 7                  23393893.549 6 122935833.845 7                  95794084.795 6
G19  22382061.498 7  22382064.725 5                 117618447.672 7  91650817.785 5
G28  24124445.313 4                                                                
G31  22371050.475 7                  22371054.756 7 117560766.025 7                  91605744.678 7
R03  20975078.840 8  20975084.364 7 112281349.060 8  87329869.138 7
R04  19311720.207 8  19311724.645 7 103413436.911 8  80432649.401 7
R05  21787713.049 8  21787717.094 6 116467939.726 8  90586088.445 6
R18  22740751.766 7  22740758.478 7 121391845.923 7  94415769.982 7
R19  19735317.795 8  19735320.048 7 105570678.896 8  82110510.426 7
R20  21021238.302 6  21021245.218 7 112410038.460 6  87430041.356 7
> 2025 06 15 14 56 25.0000000  0 27
C05  39265694.863 5  39265691.213 6 204466769.724 5 158106667.862 6
C06  38319767.960 6  38319763.207 7 199541027.104 6 154297805.244 7
C11  23274892.020 7  23274887.785 7 121198487.441 7  93718323.936 7
C12  23352954.703 6  23352952.303 7 121605150.082 6  94032657.746 7
C16  38932856.311 6  38932857.443 7 202733699.240 6 156766483.376 7
C21  22133357.336 7                 115254281.874 7
C22  22669143.869 7                 118044359.608 7
E03  24217416.886 8  24217419.242 8 127263567.799 8  96273933.719 8
E05  22354467.624 8  22354469.645 9 117473485.963 8  88867958.873 9
E13  27684377.259 6  27684380.222 6 145482388.567 6 110056493.390 6
E15  23932338.975 8  23932341.113 8 125765402.484 8  95140634.809 8
E34  24212932.040 8  24212934.033 8 127240063.903 8  96256100.143 8
G01  22218189.515 7                  22218195.111 7 116757575.324 7                  90979796.808 7
G03  20351026.821 8                  20351032.735 7 106945467.202 8                  83334094.105 7
G04  20392966.410 7                  20392971.910 8 107165978.853 7                  83505814.613 8
G06  22985825.638 7                  22985831.806 6 120791295.623 7                  94123138.540 6
G09  22250886.138 7                  22250893.858 7 116929365.339 7                  91113693.540 7
G17  23395089.747 7                  23395095.471 7 122942149.414 7                  95799006.016 7
G19  22382007.587 7  22382010.054 5                 117618161.414 7  91650594.717 5
G28  24125689.995 3                                                                
G31  22370784.436 7                  22370788.576 7 117559367.115 7                  91604654.622 7
R03  20976787.639 7  20976793.252 7 112290496.853 7  87336984.069 7
R04  19310542.880 8  19310546.785 7 103407131.666 8  80427745.318 7
R05  21783800.864 8  21783804.718 7 116447027.731 8  90569823.579 7
R18  22743962.675 7  22743969.853 7 121408989.560 7  94429103.911 7
R19  19735934.990 8  19735937.621 7 105573978.800 8  82113076.997 7
R20  21017646.142 6  21017652.277 7 112390823.172 6  87415096.138 7
> 2025 06 15 14 56 30.0000000  0 26
C05  39264738.567 5  39264734.690 6 204461789.675 5 158102816.971 6
C06  38318677.353 6  38318671.965 7 199535345.624 6 154293411.955 7
C11  23273300.391 7  23273296.040 7 121190200.713 7  93711916.115 7
C12  23354366.869 6  23354364.796 7 121612504.863 6  94038344.926 7
C16  38931908.834 6  38931909.290 6 202728763.362 6 156762666.656 6
C21  22131557.112 7                 115244903.933 7
C22  22670024.288 7                 118048941.701 7
E03  24214754.345 8  24214756.682 8 127249575.928 8  96263348.976 8
E05  22354453.827 8  22354455.987 9 117473414.075 8  88867904.486 9
E13  27680625.632 6  27680628.274 6 145462671.871 6 110041577.862 6
E15  23930364.036 8  23930366.067 8 125755023.416 8  95132783.118 8
E34  24213696.121 8  24213697.643 9 127244076.670 8  96259135.769 9
G01  22220186.598 7                  22220191.643 7 116768067.562 7                  90987972.558 7
G03  20351309.521 8                  20351315.817 7 106946954.070 8                  83335252.701 7
G04  20390858.651 7                  20390863.276 8 107154899.713 7                  83497181.516 8
G06  22982078.541 7                  22982085.438 6 120771607.740 7                  94107797.342 6
G09  22246967.522 7                  22246974.123 7 116908768.354 7                  91097643.969 7
G17  23396292.885 7                  23396298.442 7 122948471.329 7                  95803932.173 7
G19  22381956.202 7  22381958.208 5                 117617888.918 7  91650382.386 5
G31  22370520.959 7                  22370525.465 7 117557983.070 7                  91603576.139 7
R03  20978496.922 7  20978502.328 7 112299648.035 7  87344101.638 7
R04  19309366.944 8  19309371.952 7 103400837.471 8  80422849.834 7
R05  21779889.158 8  21779893.685 6 116426120.803 8  90553562.640 6
R18  22747174.260 7  22747182.002 7 121426135.762 7  94442439.817 7
R19  19736555.476 8  19736557.985 7 105577296.853 8  82115657.687 7
R20  21014054.810 6  21014061.695 7 112371621.503 6  87400161.506 7
> 2025 06 15 14 56 35.0000000  0 27
C05  39263781.093 5  39263778.451 6 204456807.193 5 158098964.204 6
C06  38317586.165 6  38317581.386 7 199529666.008 6 154289020.111 7
C11  23271710.968 7  23271707.177 7 121181925.798 7  93705517.418 7
C12  23355780.576 7  23355778.791 7 121619867.056 7  94044037.838 7
C16  38930961.057 6  38930961.904 7 202723829.138 6 156758851.203 7
C21  22129757.305 7                 115235531.988 7
C22  22670905.186 7                 118053527.020 7
E03  24212092.999 8  24212095.213 9 127235589.805 8  96252768.572 9
E05  22354441.125 8  22354443.466 9 117473348.312 8  88867854.740 9
E13  27676873.046 6  27676876.244 6 145442954.607 6 110026661.918 6
E15  23928390.355 8  23928392.316 8 125744651.321 8  95124936.699 8
E34  24214460.512 8  24214462.473 9 127248095.832 8  96262176.240 9
G01  22222183.940 7                  22222189.411 7 116778565.920 7                  90996153.086 7
G03  20351594.306 8                  20351600.227 7 106948448.575 8                  83336417.251 7
G04  20388752.332 7                  20388757.216 8 107143831.466 7                  83488556.911 8
G06  22978333.154 7                  22978339.859 6 120751925.884 7                  94092460.845 6
G09  22243048.173 7                  22243055.353 7 116888176.593 7                  91081598.445 7
G17  23397497.494 7                  23397503.044 7 122954800.194 7                  95808863.732 7
G19  22381906.083 7  22381909.192 5                 117617630.717 7  91650181.192 5
G31  22370260.357 7                  22370264.731 7 117556614.460 7                  91602509.692 7
R03  20980207.205 7  20980212.976 7 112308803.605 7  87351222.627 7
R04  19308193.725 8  19308198.860 7 103394554.854 8  80417963.362 7
R05  21775978.854 8  21775983.617 6 116405219.617 8  90537306.200 6
R12  23148826.956 5                 123656868.53315
R18  22750388.108 7  22750394.234 7 121443285.036 7  94455778.114 7
R19  19737179.538 8  19737181.632 7 105580633.703 8  82118253.009 7
R20  21010467.652 6  21010473.327 7 112352433.886 6  87385237.805 7
> 2025 06 15 14 56 40.0000000  0 27
C05  39262823.994 5  39262821.109 6 204451822.063 5 158095109.385 6
C06  38316495.587 6  38316490.568 7 199523987.934 6 154284629.473 7
C11  23270123.938 7  23270120.239 7 121173662.367 7  93699127.603 7
C12  23357196.357 7  23357194.361 7 121627236.429 7  94049736.304 7
C16  38930013.544 6  38930014.680 7 202718896.285 6 156755036.809 7
C21  22127957.887 7                 115226165.729 7
C22  22671785.648 7                 118058115.276 7
E03  24209432.824 8  24209434.773 8 127221609.095 8  96242192.260 8
E05  22354429.725 8  22354432.080 9 117473288.364 8  88867809.383 9
E13  27673120.040 6  27673124.038 6 145423236.451 6 110011745.272 6
E15  23926417.879 8  23926419.855 8 125734285.891 8  95117095.316 8
E34  24215226.667 8  24215228.462 8 127252121.101 8  96265221.321 8
G01  22224182.149 7                  22224188.112 7 116789070.068 7                  91004338.134 7
G03  20351880.151 7                  20351886.025 7 106949950.411 7                  83337587.515 7
G04  20386648.346 7                  20386652.877 8 107132773.792 7                  83479940.540 8
G06  22974589.196 7                  22974595.450 6 120732249.774 7                  94077128.823 6
G09  22239131.174 7                  22239137.837 7 116867589.713 7                  91065556.745 7
G17  23398702.803 7                  23398708.521 7 122961135.617 7                  95813800.406 7
G19  22381859.374 7  22381862.603 5                 117617386.530 7  91649990.931 5
G31  22370002.657 7                  22370007.225 7 117555260.935 7                  91601454.990 7
R03  20981918.342 7  20981923.627 7 112317962.954 7  87358346.559 7
R04  19307022.838 8  19307027.449 7 103388283.591 8  80413085.714 7
R05  21772070.287 8  21772074.735 7 116384323.791 8  90521053.880 7
R12  23148730.404 5                 123656351.810 5
R18  22753601.215 7  22753607.139 7 121460437.072 7  94469118.558 7
R19  19737806.272 8  19737808.821 7 105583988.898 8  82120862.611 7
R20  21006880.128 6  21006887.333 7 112333260.104 6  87370324.892 7
> 2025 06 15 14 56 45.0000000  0 27
C05  39261866.126 5  39261863.297 6 204446834.236 5 158091252.480 6
C06  38315405.419 6  38315400.744 7 199518311.468 6 154280240.072 7
C11  23268539.308 7  23268535.649 7 121165410.456 7  93692746.705 7
C12  23358612.440 6  23358610.757 7 121634612.950 6  94055440.296 7
C16  38929066.826 6  38929067.640 7 202713964.848 6 156751223.501 7
C21  22126160.870 7                 115216805.178 7
C22  22672667.835 7                 118062706.488 7
E03  24206773.438 8  24206775.358 9 127207633.842 8  96231620.082 9
E05  22354419.427 8  22354421.774 9 117473234.247 8  88867768.445 9
E13  27669367.469 6  27669371.640 6 145403517.417 6 109996827.958 6
E15  23924446.492 8  23924448.663 9 125723927.167 8  95109259.008 9
E34  24215994.048 8  24215995.638 8 127256152.481 8  96268271.032 8
G01  22226183.258 7                  22226188.461 7 116799580.059 7                  91012527.726 7
G03  20352167.409 7                  20352173.266 7 106951459.594 7                  83338763.493 7
G04  20384546.340 7                  20384550.497 8 107121726.735 7                  83471332.446 8
G06  22970846.261 7                  22970852.511 6 120712579.454 7                  94061801.312 6
G09  22235213.573 7                  22235220.918 7 116847007.751 7                  91049518.861 7
G17  23399909.644 7                  23399915.127 6 122967477.606 7                  95818742.213 6
G19  22381816.241 7  22381818.936 5                 117617156.373 7  91649811.575 5
G31  22369747.814 7                  22369752.866 7 117553922.504 7                  91600412.059 7
R03  20983631.280 8  20983635.270 7 112327126.087 8  87365473.448 7
R04  19305853.542 8  19305858.655 7 103382023.364 8  80408216.656 7
R05  21768161.539 8  21768166.453 7 116363433.341 8  90504805.776 7
R12  23148634.635 5                 123655853.250 5
R18  22756813.941 7  22756821.048 7 121477591.823 7  94482461.127 7
R19  19738437.073 8  19738439.543 7 105587362.548 8  82123486.559 7
R20  21003299.694 6  21003304.702 7 112314100.337 6  87355422.841 7
> 2025 06 15 14 56 50.0000000  0 27
C05  39260908.292 5  39260904.510 6 204441843.738 5 158087393.512 6
C06  38314315.629 6  38314310.656 7 199512636.605 6 154275851.902 7
C11  23266957.061 7  23266953.067 7 121157170.063 7  93686374.711 7
C12  23360030.992 7  23360028.678 7 121641996.632 7  94061149.804 7
C16  38928119.997 6  38928121.061 7 202709034.789 6 156747411.267 7
C21  22124364.139 7                 115207450.389 7
C22  22673550.052 7                 118067300.668 7
E03  24204114.845 8  24204116.980 8 127193664.076 8  96221052.058 8
E05  22354410.120 7  22354412.576 9 117473185.996 7  88867731.938 9
E13  27665615.517 6  27665619.151 6 145383797.576 6 109981910.062 6
E15  23922476.536 8  23922478.753 8 125713575.182 8  95101427.795 8
E34  24216762.208 8  24216763.956 8 127260190.010 8  96271325.400 8
G01  22228184.090 7                  22228189.437 7 116810095.895 7                  91020721.867 7
G03  20352455.869 8                  20352462.046 7 106952976.160 8                  83339945.231 7
G04  20382445.589 7                  20382450.325 8 107110690.333 7                  83462732.653 8
G06  22967103.694 7                  22967110.727 6 120692914.963 7                  94046478.339 6
G09  22231297.668 7                  22231305.301 7 116826430.766 7                  91033484.840 7
G17  23401117.711 7                  23401122.865 7 122973826.250 7                  95823689.202 7
G19  22381774.751 7  22381777.646 5                 117616940.273 7  91649643.172 5
G31  22369496.039 7                  22369501.028 7 117552599.256 7                  91599380.952 7
R03  20985342.950 7  20985347.922 7 112336293.057 7  87372603.303 7
R04  19304687.027 8  19304691.577 7 103375774.634 8  80403356.534 7
R05  21764254.617 8  21764260.054 6 116342548.271 8  90488561.831 6
R12  23148543.811 5                 123655372.838 5
R18  22760028.474 7  22760035.178 7 121494749.343 7  94495805.845 7
R19  19739070.653 8  19739073.792 7 105590754.698 8  82126124.888 7
R20  20999718.127 6  20999724.747 7 112294954.562 6  87340531.698 7
> 2025 06 15 14 56 55.0000000  0 27
C05  39259948.168 5  39259945.354 6 204436849.531 5 158083531.673 6
C06  38313226.258 6  38313221.333 7 199506962.256 6 154271464.140 7
C11  23265376.411 7  23265372.753 7 121148940.138 7  93680010.812 7
C12  23361450.114 7  23361448.019 7 121649386.414 7  94066864.051 7
C16  38927173.138 6  38927174.297 7 202704105.058 6 156743599.293 7
C21  22122568.259 7                 115198100.236 7
C22  22674432.348 7                 118071896.726 7
E03  24201457.278 8  24201459.452 9 127179698.670 8  96210487.322 9
E05  22354401.979 8  22354404.324 9 117473142.475 8  88867699.012 9
E13  27661861.818 6  27661866.245 6 145364075.777 6 109966990.667 6
E15  23920507.822 8  23920509.892 9 125703228.823 8  95093600.848 9
E34  24217531.649 8  24217533.264 9 127264232.548 8  96274383.553 9
G01  22230185.941 7                  22230191.700 7 116820616.433 7                  91028919.681 7
G03  20352745.814 8                  20352751.647 7 106954498.969 8                  83341131.834 7
G04  20380347.229 7                  20380351.912 8 107099663.458 7                  83454140.294 8
G06  22963363.573 7                  22963369.311 6 120673255.198 7                  94031159.052 6
G09  22227383.496 7                  22227390.265 7 116805857.625 7                  91017453.841 7
G17  23402326.712 7                  23402332.007 6 122980180.414 7                  95828640.472 6
G19  22381735.997 7  22381738.752 5                 117616737.072 7  91649484.835 5
G31  22369247.481 7                  22369251.810 7 117551290.077 7                  91598360.829 7
R03  20987056.328 8  20987060.963 7 112345462.731 8  87379735.267 7
R04  19303521.912 8  19303526.836 7 103369535.874 8  80398504.156 7
R05  21760348.229 7  21760353.629 7 116321667.600 7  90472321.315 7
R12  23148457.371 5  23148461.758 4 123654909.466 5  96176051.97614
R18  22763242.831 7  22763249.467 7 121511908.549 7  94509151.873 7
R19  19739708.453 8  19739711.200 7 105594164.160 8  82128776.684 7
R20  20996139.589 6  20996146.271 7 112275821.603 6  87325650.503 7
> 2025 06 15 14 57  0.0000000  0 27
C05  39258988.151 5  39258985.894 6 204431851.608 5 158079666.969 6
C06  38312136.320 6  38312131.832 7 199501288.496 6 154267076.825 7
C11  23263798.190 7  23263794.143 7 121140720.706 7  93673655.033 7
C12  23362869.939 6  23362868.220 7 121656782.296 6  94072582.991 7
C16  38926226.596 6  38926227.692 7 202699175.677 6 156739787.581 7
C21  22120773.974 7                 115188754.770 7
C22  22675315.455 7                 118076494.688 7
E03  24198800.955 8  24198802.764 8 127165737.711 8  96199925.952 8
E05  22354394.767 8  22354396.963 9 117473103.756 8  88867669.719 9
E13  27658108.201 6  27658112.874 6 145344352.113 6 109952069.857 6
E15  23918540.040 8  23918542.158 8 125692888.141 8  95085778.191 8
E34  24218302.014 7  24218303.511 9 127268280.187 7  96277445.564 9
G01  22232188.973 7                  22232194.122 7 116831141.740 7                  91037121.215 7
G03  20353037.117 8                  20353042.513 7 106956028.096 8                  83342323.362 7
G04  20378250.517 7                  20378255.599 8 107088646.188 7                  83445555.409 8
G06  22959622.955 7                  22959628.975 6 120653600.254 7                  94015843.513 6
G09  22223469.549 7                  22223476.406 7 116785288.427 7                  91001425.896 7
G17  23403537.535 7                  23403542.140 6 122986540.088 7                  95833596.052 6
G19  22381699.563 7  22381702.215 5                 117616546.882 7  91649336.632 5
G31  22369000.542 7                  22369005.332 7 117549995.029 7                  91597351.702 7
R03  20988769.697 8  20988774.572 7 112354635.200 8  87386869.397 7
R04  19302359.109 8  19302363.323 7 103363307.445 8  80393659.825 7
R05  21756443.250 8  21756448.253 6 116300791.122 8  90456084.091 6
R12  23148375.111 5  23148378.634 4 123654463.202 5  96175704.896 4
R18  22766458.118 7  22766464.718 7 121529069.426 7  94522499.201 7
R19  19740348.846 8  19740351.485 7 105597591.043 8  82131442.040 7
R20  20992564.551 6  20992571.428 7 112256701.429 6  87310779.254 7
> 2025 06 15 14 57  5.0000000  0 27
C05  39258029.238 5  39258025.187 6 204426850.161 5 158075799.547 6
C06  38311045.811 6  38311042.253 7 199495615.458 6 154262690.077 7
C11  23262221.138 7  23262217.999 7 121132511.922 7  93667307.485 7
C12  23364290.677 6  23364289.588 7 121664184.395 6  94078306.753 7
C16  38925280.151 7  38925281.245 6 202694246.840 7 156735976.285 6
C21  22118980.268 7                 115179414.143 7
C22  22676198.968 7                 118081094.719 7
E03  24196144.849 8  24196146.939 8 127151781.338 8  96189368.049 8
E05  22354388.330 8  22354390.541 9 117473069.970 8  88867644.157 9
E13  27654355.056 6  27654359.248 6 145324626.739 6 109937147.752 6
E15  23916573.190 8  23916575.520 8 125682553.303 8  95077959.958 8
E34  24219073.234 8  24219074.747 8 127272333.055 8  96280511.533 8
G01  22234193.389 7                  22234198.081 7 116841671.980 7                  91045326.580 7
G03  20353329.449 8                  20353334.828 7 106957563.690 8                  83343519.927 7
G04  20376155.939 7                  20376160.741 8 107077638.656 7                  83436978.116 8
G06  22955883.188 7                  22955889.927 6 120633950.231 7                  94000531.809 6
G09  22219556.036 7                  22219563.065 7 116764723.307 7                  90985401.132 7
G17  23404748.088 7                  23404752.968 6 122992905.442 7                  95838556.075 6
G19  22381665.892 7  22381668.635 5                 117616369.897 7  91649198.711 5
G31  22368756.972 7                  22368762.035 7 117548714.239 7                  91596353.685 7
R03  20990484.046 7  20990488.488 7 112363810.739 7  87394005.914 7
R04  19301198.493 8  19301202.316 7 103357089.387 8  80388823.557 7
R05  21752539.111 8  21752544.213 6 116279919.338 8  90439850.443 6
R12  23148295.757 5  23148297.642 4 123654034.257 5  96175371.220 4
R18  22769672.769 7  22769679.406 7 121546232.040 7  94535847.890 7
R19  19740993.150 8  19740995.853 7 105601035.458 8  82134121.040 7
R20  20988991.775 6  20988997.363 7 112237594.226 6  87295918.100 7
> 2025 06 15 14 57 10.0000000  0 27
C05  39257066.664 5  39257064.040 6 204421844.495 5 158071928.839 6
C06  38309957.404 6  38309952.809 7 199489942.428 6 154258303.337 7
C11  23260647.238 7  23260643.473 7 121124313.158 7  93660967.681 7
C12  23365713.702 6  23365711.979 7 121671592.060 6  94084034.824 7
C16  38924332.979 7  38924334.029 6 202689317.802 7 156732164.849 6
C21  22117187.485 7                 115170077.679 7
C22  22677082.670 7                 118085696.141 7
E03  24193490.070 8  24193491.868 9 127137828.865 8  96178813.108 9
E05  22354382.969 8  22354384.932 9 117473040.444 8  88867621.825 9
E13  27650601.263 6  27650605.156 6 145304898.947 6 109922223.827 6
E15  23914607.582 8  23914609.859 8 125672223.635 8  95070145.637 8
E34  24219845.272 8  24219846.877 9 127276390.473 8  96283580.936 9
G01  22236197.148 7                  22236202.809 7 116852206.403 7                  91053535.224 7
G03  20353622.660 8                  20353627.968 7 106959105.059 8                  83344720.991 7
G04  20374062.851 7                  20374067.749 8 107066640.185 7                  83428407.887 8
G06  22952144.091 7                  22952151.415 6 120614304.508 7                  93985223.450 6
G09  22215643.845 7                  22215650.168 7 116744161.567 7                  90969379.018 7
G17  23405959.681 7                  23405965.349 6 122999275.732 7                  95843519.936 6
G19  22381634.690 7  22381637.191 5                 117616205.314 7  91649070.464 5
G31  22368515.650 7                  22368520.797 7 117547447.028 7                  91595366.239 7
R03  20992198.244 7  20992202.816 7 112372988.520 7  87401144.181 7
R04  19300039.135 8  19300042.574 7 103350880.991 8  80383994.805 7
R05  21748634.818 7  21748640.136 7 116259051.330 7  90423619.818 7
R12  23148219.068 5  23148220.225 4 123653621.76515  96175050.38414
R18  22772888.126 7  22772895.441 7 121563395.788 7  94549197.435 7
R19  19741640.479 8  19741642.714 7 105604496.645 8  82136813.077 7
R20  20985420.736 6  20985426.839 7 112218499.360 6  87281066.535 7
> 2025 06 15 14 57 15.0000000  0 27
C05  39256104.908 5  39256101.958 6 204416835.284 5 158068055.406 6
C06  38308867.762 6  38308863.271 7 199484270.128 6 154253917.162 7
C11  23259074.112 7  23259071.053 7 121116125.061 7  93654636.132 7
C12  23367137.926 6  23367135.703 7 121679005.971 6  94089767.728 7
C16  38923386.938 6  38923388.193 6 202684389.323 6 156728353.843 6
C21  22115395.660 7                 115160746.113 7
C22  22677966.806 7                 118090299.624 7
E03  24190835.764 8  24190837.678 8 127123881.005 8  96168261.643 8
E05  22354378.129 8  22354380.270 9 117473015.870 8  88867603.231 9
E13  27646846.339 6  27646850.800 6 145285169.520 6 109907298.667 6
E15  23912642.957 8  23912645.303 8 125661899.868 8  95062335.773 8
E34  24220618.233 8  24220619.970 8 127280453.149 8  96286654.321 8
G01  22238202.549 7                  22238208.394 7 116862745.757 7                  91061747.696 7
G03  20353917.051 8                  20353922.758 7 106960652.917 8                  83345927.114 7
G04  20371972.115 7                  20371976.866 8 107055651.487 7                  83419845.271 8
G06  22948406.857 7                  22948414.230 7 120594663.819 7                  93969919.023 7
G09  22211731.820 7                  22211738.182 7 116723603.942 7                  90953360.089 7
G17  23407173.745 7                  23407179.065 6 123005651.741 7                  95848488.236 6
G19  22381606.776 7  22381608.587 5                 117616053.865 7  91648952.441 5
G31  22368277.502 7                  22368281.925 7 117546194.117 7                  91594389.954 7
R03  20993913.029 7  20993917.874 7 112382168.983 7  87408284.541 7
R04  19298881.282 8  19298885.445 7 103344682.958 8  80379174.102 7
R05  21744731.749 7  21744737.794 6 116238187.773 7  90407392.610 6
R12  23148148.972 5  23148146.572 4 123653226.539 5  96174742.946 4
R18  22776104.038 7  22776110.668 6 121580561.297 7  94562548.329 6
R19  19742290.061 8  19742292.843 7 105607975.316 8  82139518.711 7
R20  20981851.966 6  20981858.987 7 112199417.632 6  87266225.208 7
> 2025 06 15 14 57 20.0000000  0 27
C05  39255142.428 5  39255139.361 6 204411821.648 5 158064178.544 6
C06  38307778.180 6  38307774.248 7 199478597.647 6 154249530.831 7
C11  23257504.064 7  23257500.551 7 121107946.764 7  93648312.152 7
C12  23368563.698 6  23368560.551 7 121686425.213 6  94095504.751 7
C16  38922440.397 6  38922441.630 6 202679460.434 6 156724542.519 6
C21  22113604.089 7                 115151418.483 7
C22  22678850.682 7                 118094904.272 7
E03  24188182.300 8  24188184.192 8 127109936.836 8  96157712.976 8
E05  22354374.115 8  22354376.372 9 117472995.309 8  88867587.672 9
E13  27643091.108 6  27643095.916 6 145265437.453 6 109892371.502 6
E15  23910679.404 8  23910681.728 8 125651581.041 8  95054529.650 8
E34  24221391.852 8  24221393.915 9 127284520.145 8  96289730.970 9
G01  22240208.636 7                  22240214.776 7 116873289.092 7                  91069963.271 7
G03  20354212.810 8                  20354218.400 7 106962206.318 8                  83347137.559 7
G04  20369882.478 7                  20369887.223 8 107044671.642 7                  83411289.555 8
G06  22944670.494 7                  22944677.471 7 120575027.169 7                  93954617.746 7
G09  22207820.659 7                  22207827.021 7 116703049.544 7                  90937343.706 7
G17  23408388.695 7                  23408392.934 6 123012032.489 7                  95853460.233 6
G19  22381579.673 7  22381581.938 5                 117615914.598 7  91648843.926 5
G31  22368041.782 7                  22368046.610 7 117544954.536 7                  91593424.041 7
R03  20995628.603 7  20995633.189 7 112391351.458 7  87415426.458 7
R04  19297726.303 8  19297729.522 7 103338494.375 8  80374360.765 7
R05  21740828.496 7  21740835.166 7 116217327.911 7  90391168.274 7
R12  23148077.801 4  23148075.401 5 123652847.691 4  96174448.252 5
R18  22779320.230 7  22779327.252 6 121597727.626 7  94575899.896 6
R19  19742943.562 8  19742946.312 7 105611470.647 8  82142237.295 7
R20  20978285.127 6  20978292.329 7 112180348.151 6  87251393.395 7
> 2025 06 15 14 57 25.0000000  0 26
C05  39254178.958 5  39254176.141 6 204406805.015 5 158060299.365 6
C06  38306689.080 6  38306684.985 7 199472926.457 6 154245145.513 7
C11  23255935.472 7  23255931.914 7 121099779.670 7  93641996.843 7
C12  23369989.390 6  23369986.391 7 121693851.158 6  94101246.960 7
C16  38921494.290 7  38921495.436 6 202674532.588 7 156720731.990 6
C21  22111813.721 7                 115142096.215 7
C22  22679736.055 7                 118099511.468 7
E03  24185529.688 8  24185531.676 9 127095997.760 8  96147168.163 9
E05  22354371.419 8  22354373.519 9 117472980.200 8  88867576.238 9
E13  27639335.820 6  27639340.704 6 145245704.225 6 109877443.466 6
E15  23908716.832 8  23908719.336 8 125641268.600 8  95046728.358 8
E34  24222167.015 8  24222168.943 8 127288592.873 8  96292811.955 8
G01  22242216.593 7                  22242222.054 7 116883837.854 7                  91078183.059 7
G03  20354509.742 8                  20354515.388 7 106963766.708 8                  83348353.450 7
G04  20367795.155 7                  20367800.110 8 107033702.070 7                  83402741.833 8
G06  22940934.901 7                  22940941.880 7 120555396.041 7                  93939320.774 7
G09  22203909.627 7                  22203916.406 7 116682499.727 7                  90921330.871 7
G17  23409603.258 7                  23409608.722 6 123018419.331 7                  95858436.987 6
G19  22381555.898 7  22381558.250 5                 117615788.920 7  91648745.997 5
G31  22367808.448 7                  22367813.445 7 117543729.675 7                  91592469.589 7
R03  20997344.362 7  20997348.917 7 112400537.391 7  87422571.073 7
R04  19296572.191 8  19296576.168 7 103332316.630 8  80369555.848 7
R05  21736928.264 7  21736933.920 7 116196473.003 7  90374947.799 7
R18  22782535.457 7  22782542.873 6 121614896.234 7  94589253.233 6
R19  19743600.508 8  19743603.151 7 105614983.942 8  82144969.841 7
R20  20974723.791 6  20974729.346 7 112161292.350 6  87236572.221 7
> 2025 06 15 14 57 30.0000000  0 26
C05  39253214.622 5  39253212.260 6 204401785.823 5 158056418.216 6
C06  38305600.847 6  38305596.418 7 199467256.937 6 154240761.484 7
C11  23254368.921 7  23254365.748 7 121091624.221 7  93635690.541 7
C12  23371416.616 6  23371413.880 7 121701284.359 6  94106994.771 7
C16  38920547.878 6  38920549.277 6 202669606.239 6 156716922.640 6
C21  22110024.337 7                 115132779.808 7
C22  22680621.219 7                 118104121.727 7
E03  24182878.224 8  24182880.231 8 127082064.305 8  96136627.605 8
E05  22354369.615 8  22354371.755 9 117472971.008 8  88867569.288 9
E13  27635580.246 6  27635585.445 6 145225970.317 6 109862514.900 6
E15  23906755.924 8  23906758.256 8 125630963.057 8  95038932.282 8
E34  24222943.019 8  24222945.126 9 127292671.830 8  96295897.652 9
G01  22244225.399 7                  22244230.694 8 116894392.475 7                  91086407.431 8
G03  20354808.256 8                  20354813.480 7 106965334.549 8                  83349575.146 7
G04  20365709.880 7                  20365714.467 8 107022743.258 7                  83394202.500 8
G06  22937200.184 7                  22937207.163 6 120535770.956 7                  93924028.531 6
G09  22200000.277 7                  22200007.420 7 116661955.046 7                  90905322.051 7
G17  23410820.067 7                  23410825.383 6 123024812.845 7                  95863418.945 6
G19  22381534.689 7  22381536.916 5                 117615677.345 7  91648659.054 5
G31  22367578.521 7                  22367583.370 7 117542520.084 7                  91591527.054 7
R03  20999060.651 7  20999066.121 7 112409727.286 7  87429718.772 7
R04  19295420.679 8  19295424.453 7 103326150.332 8  80364759.843 7
R05  21733027.632 7  21733034.006 7 116175623.727 7  90358731.691 7
R18  22785752.916 6  22785760.196 6 121632067.618 6  94602608.712 6
R19  19744261.164 8  19744262.985 7 105618515.878 8  82147716.894 7
R20  20971162.552 6  20971168.022 7 112142250.556 6  87221761.940 7
> 2025 06 15 14 57 35.0000000  0 26
C05  39252250.732 5  39252247.801 6 204396763.543 5 158052534.674 6
C06  38304511.506 6  38304508.063 7 199461588.563 6 154236378.343 7
C11  23252804.979 7  23252801.632 7 121083479.917 7  93629392.843 7
C12  23372845.760 7  23372843.062 7 121708724.170 7  94112747.705 7
C16  38919602.166 6  38919603.359 6 202664680.859 6 156713114.012 6
C21  22108236.052 7                 115123468.674 7
C22  22681507.116 7                 118108734.456 7
E03  24180227.465 8  24180229.746 8 127068135.905 8  96126090.866 8
E05  22354369.100 8  22354371.019 9 117472967.188 8  88867566.393 9
E13  27631824.844 6  27631829.894 6 145206235.217 6 109847585.454 6
E15  23904796.236 8  23904798.359 8 125620663.840 8  95031140.998 8
E34  24223720.204 8  24223722.411 8 127296756.457 8  96298987.642 8
G01  22246234.769 7                  22246239.980 7 116904952.404 7                  91094635.921 7
G03  20355107.263 8                  20355113.149 7 106966909.289 8                  83350802.205 7
G04  20363625.898 7                  20363631.251 8 107011794.653 7                  83385671.118 8
G06  22933466.162 7                  22933473.481 6 120516151.372 7                  93908740.530 6
G09  22196091.075 7                  22196098.550 7 116641414.926 7                  90889316.777 7
G17  23412039.086 7                  23412043.125 6 123031212.387 7                  95868405.587 6
G19  22381516.647 7  22381518.546 5                 117615579.288 7  91648582.650 5
G31  22367351.631 7                  22367355.653 7 117541325.145 7                  91590595.935 7
R03  21000778.690 7  21000783.526 7 112418920.445 7  87436869.005 7
R04  19294271.126 8  19294275.344 7 103319994.739 8  80359972.151 7
R05  21729128.730 7  21729134.379 7 116154779.479 7  90342519.507 7
R18  22788969.893 6  22788977.075 7 121649241.148 6  94615965.880 7
R19  19744924.252 8  19744926.987 7 105622065.750 8  82150477.902 7
R20  20967604.193 6  20967609.768 7 112123222.329 6  87206962.224 7
> 2025 06 15 14 57 40.0000000  0 26
C05  39251285.648 5  39251282.826 6 204391738.628 5 158048649.091 6
C06  38303422.956 6  38303419.815 7 199455921.821 6 154231996.452 7
C11  23251244.110 7  23251239.694 7 121075347.178 7  93623104.099 7
C12  23374274.809 6  23374273.210 7 121716171.059 6  94118506.097 7
C16  38918656.231 7  38918657.581 6 202659756.873 7 156709306.479 6
C21  22106449.230 7                 115114163.286 7
C22  22682393.645 7                 118113350.113 7
E03  24177578.282 8  24177580.322 8 127054213.004 8  96115558.284 8
E05  22354369.683 8  22354371.421 9 117472969.186 8  88867567.899 9
E13  27628069.417 6  27628074.308 6 145186499.328 6 109832655.405 6
E15  23902837.480 8  23902839.774 8 125610371.414 8  95023354.839 8
E34  24224498.758 8  24224500.862 8 127300847.208 8  96302082.265 8
G01  22248245.561 7                  22248250.645 7 116915518.080 7                  91102868.905 7
G03  20355409.000 8                  20355414.261 7 106968491.397 8                  83352035.018 7
G04  20361545.059 7                  20361549.812 8 107000856.688 7                  83377148.036 8
G06  22929733.279 6                  22929741.228 6 120496537.691 6                  93893457.161 6
G09  22192182.996 7                  22192190.888 7 116620879.847 7                  90873315.430 7
G17  23413256.566 7                  23413261.260 6 123037618.456 7                  95873397.324 6
G19  22381500.684 7  22381503.003 5                 117615495.197 7  91648517.117 5
G31  22367125.864 7                  22367131.031 7 117540145.340 7                  91589676.595 7
R03  21002496.395 8  21002501.349 7 112428117.418 8  87444022.209 7
R04  19293123.185 8  19293128.115 7 103313850.494 8  80355193.298 7
R05  21725230.871 8  21725236.236 7 116133940.812 8  90326311.674 7
R18  22792187.780 7  22792194.974 7 121666417.317 7  94629325.078 7
R19  19745590.891 8  19745593.937 7 105625633.993 8  82153253.199 7
R20  20964047.429 6  20964053.923 7 112104208.229 6  87192173.497 7
> 2025 06 15 14 57 45.0000000  0 27
C05  39250319.756 5  39250316.595 6 204386710.518 5 158044761.025 6
C06  38302335.948 6  38302331.785 7 199450256.160 6 154227615.404 7
C11  23249684.211 7  23249680.087 7 121067225.473 7  93616823.892 7
C12  23375707.083 7  23375704.688 7 121723624.484 7  94124269.563 7
C16  38917710.845 6  38917711.962 6 202654833.758 6 156705499.615 6
C21  22104663.103 7                 115104863.106 7
C22  22683280.230 7                 118117968.180 7
E03  24174929.875 8  24174931.838 8 127040295.076 8  96105029.469 8
E05  22354370.936 8  22354372.786 9 117472976.430 8  88867573.386 9
E13  27624314.001 6  27624318.421 6 145166762.144 6 109817724.374 6
E15  23900880.026 8  23900882.397 8 125600085.252 8  95015573.419 8
E34  24225278.117 8  24225280.352 8 127304943.547 8  96305181.112 8
G01  22250256.525 7                  22250262.106 7 116926088.970 7                  91111105.948 7
G03  20355710.952 8                  20355716.479 7 106970080.301 8                  83353273.126 7
G04  20359464.847 7                  20359470.155 8 106989928.878 7                  83368632.859 8
G06  22926002.628 6                  22926009.745 6 120476929.457 6                  93878178.033 6
G09  22188276.828 7                  22188284.312 7 116600349.264 7                  90857317.597 7
G17  23414476.596 7                  23414481.914 6 123044030.455 7                  95878393.650 6
G19  22381487.233 7  22381489.639 5                 117615424.555 7  91648462.074 5
G31  22366904.211 7                  22366909.424 7 117538980.136 7                  91588768.638 7
R03  21004214.648 8  21004220.322 7 112437317.580 8  87451177.896 7
R04  19291977.444 8  19291982.609 7 103307716.816 8  80350422.663 7
R05  21721333.914 8  21721338.376 7 116113106.877 8  90310107.517 7
R12  23147770.446 5                 123651203.81015
R18  22795406.078 7  22795412.821 7 121683595.478 7  94642685.845 7
R19  19746261.484 8  19746264.671 7 105629219.999 8  82156042.318 7
R20  20960494.786 6  20960500.476 7 112085207.644 6  87177395.269 7
> 2025 06 15 14 57 50.0000000  0 27
C05  39249353.773 5  39249350.645 6 204381680.108 5 158040871.200 6
C06  38301247.575 6  38301243.921 7 199444592.419 6 154223235.815 7
C11  23248125.734 7  23248122.686 7 121059115.729 7  93610552.917 7
C12  23377140.403 7  23377137.475 7 121731085.309 7  94130038.739 7
C16  38916765.480 6  38916767.144 6 202649912.378 6 156701694.094 6
C21  22102878.145 7                 115095569.014 7
C22  22684167.798 7                 118122589.492 7
E03  24172282.815 8  24172284.460 8 127026383.001 8  96094505.083 8
E05  22354373.706 8  22354375.335 9 117472989.836 8  88867583.521 9
E13  27620557.859 6  27620562.542 6 145147024.556 6 109802793.037 6
E15  23898924.032 8  23898926.363 8 125589806.226 8  95007797.400 8
E34  24226059.208 8  24226061.092 8 127309046.319 8  96308284.833 8
G01  22252269.202 7                  22252275.001 7 116936665.942 7                  91119347.747 7
G03  20356015.149 8                  20356020.535 7 106971676.894 8                  83354517.225 7
G04  20357387.776 7                  20357392.631 8 106979012.071 7                  83360126.257 8
G06  22922272.332 6                  22922279.720 7 120457327.523 6                  93862903.821 7
G09  22184370.320 7                  22184377.978 7 116579824.078 7                  90841323.953 7
G17  23415697.919 7                  23415702.983 6 123050449.290 7                  95883395.293 6
G19  22381476.055 7  22381479.068 5                 117615368.232 7  91648418.178 5
G31  22366685.952 7                  22366690.526 7 117537830.383 7                  91587872.735 7
R03  21005934.305 8  21005939.907 7 112446521.952 8  87458336.844 7
R04  19290835.118 8  19290838.731 7 103301594.861 8  80345661.153 7
R05  21717436.869 7  21717442.174 7 116092278.909 7  90293908.014 7
R12  23147720.236 5  23147720.270 5 123650932.634 5  96172971.50515
R18  22798623.822 7  22798631.167 7 121700776.601 7  94656048.912 7
R19  19746935.743 8  19746938.157 7 105632824.824 8  82158846.071 7
R20  20956943.923 6  20956949.432 7 112066221.543 6  87162628.298 7
> 2025 06 15 14 57 55.0000000  0 27
C05  39248387.200 5  39248384.135 6 204376646.986 5 158036979.274 6
C06  38300160.657 6  38300156.607 7 199438930.230 6 154218857.464 7
C11  23246570.882 7  23246567.513 7 121051017.497 7  93604290.849 7
C12  23378573.641 6  23378571.641 7 121738553.110 6  94135813.310 7
C16  38915821.441 6  38915822.668 6 202644992.326 6 156697889.602 6
C21  22101094.541 7                 115086280.584 7
C22  22685055.417 7                 118127213.673 7
E03  24169635.902 8  24169638.117 8 127012476.376 8  96083984.810 8
E05  22354377.290 8  22354378.980 9 117473008.955 8  88867597.978 9
E13  27616801.554 6  27616806.469 6 145127286.148 6 109787861.081 6
E15  23896969.209 8  23896971.628 8 125579533.932 8  95000026.485 8
E34  24226841.028 8  24226842.990 8 127313155.143 8  96311393.132 8
G01  22254282.930 7                  22254288.612 7 116947248.568 7                  91127593.946 7
G03  20356319.896 8                  20356325.626 7 106973280.772 8                  83355767.001 7
G04  20355312.374 7                  20355317.543 8 106968105.845 7                  83351627.903 8
G06  22918543.108 6                  22918550.773 6 120437731.505 6                  93847634.213 6
G09  22180466.417 7                  22180473.019 7 116559303.839 7                  90825334.184 7
G17  23416920.947 7                  23416926.164 6 123056874.499 7                  95888401.969 6
G19  22381468.306 7  22381470.969 5                 117615325.746 7  91648385.077 5
G31  22366470.154 7                  22366474.456 7 117536695.658 7                  91586988.542 7
R03  21007654.064 8  21007659.602 7 112455729.879 8  87465498.558 7
R04  19289693.941 8  19289697.739 7 103295484.038 8  80340908.278 7
R05  21713542.142 7  21713546.674 7 116071456.312 7  90277712.661 7
R12  23147674.036 5  23147673.249 5 123650679.501 5  96172774.622 5
R18  22801842.680 7  22801850.295 7 121717960.252 7  94669413.925 7
R19  19747613.424 8  19747615.713 7 105636447.956 8  82161664.061 7
R20  20953395.759 6  20953402.054 7 112047249.546 6  87147872.287 7
> 2025 06 15 14 58  0.0000000  0 27
C05  39247420.111 5  39247417.649 6 204371612.038 5 158033085.938 6
C06  38299073.072 6  38299069.858 7 199433270.471 6 154214480.976 7
C11  23245018.738 7  23245014.637 7 121042931.704 7  93598038.407 7
C12  23380009.839 6  23380007.555 7 121746028.799 6  94141593.979 7
C16  38914877.105 7  38914878.068 6 202640074.516 7 156694086.844 6
C21  22099312.162 8                 115076998.740 8
C22  22685944.362 7                 118131841.584 7
E03  24166990.835 8  24166992.983 8 126998576.087 8  96073469.346 8
E05  22354382.043 8  22354383.883 9 117473034.713 8  88867617.470 9
E13  27613046.577 6  27613050.386 6 145107547.860 6 109772929.207 6
E15  23895015.927 8  23895018.294 8 125569269.282 8  94992261.355 8
E34  24227624.037 8  24227626.202 8 127317270.909 8  96314506.680 8
G01  22256298.706 7                  22256303.784 7 116957837.764 7                  91135845.258 7
G03  20356626.554 8                  20356632.658 7 106974892.848 8                  83357023.156 7
G04  20353239.682 7                  20353244.436 8 106957211.146 7                  83343138.527 8
G06  22914814.962 6                  22914823.230 6 120418142.307 6                  93832369.909 6
G09  22176562.530 7                  22176569.007 7 116538789.515 7                  90809348.997 7
G17  23418144.351 7                  23418150.138 6 123063306.977 7                  95893414.318 6
G19  22381463.056 7  22381466.016 5                 117615298.078 7  91648363.516 5
G31  22366256.805 7                  22366261.364 7 117535576.882 7                  91586116.765 7
R03  21009375.265 8  21009380.828 7 112464942.431 8  87472663.885 7
R04  19288555.160 8  19288558.818 7 103289385.165 8  80336164.714 7
R05  21709647.726 8  21709652.575 7 116050640.012 8  90261522.226 7
R12  23147626.211 4  23147630.184 5 123650445.229 4  96172592.484 5
R18  22805063.199 7  22805070.333 7 121735147.221 7  94682781.551 7
R19  19748294.419 8  19748296.386 7 105640090.193 8  82164496.907 7
R20  20949850.982 6  20949857.368 7 112028292.613 6  87133128.025 7
> 2025 06 15 14 58  5.0000000  0 27
C05  39246452.596 5  39246450.034 6 204366574.383 5 158029190.508 6
C06  38297985.879 6  38297983.400 7 199427612.222 6 154210105.664 7
C11  23243468.428 7  23243463.991 7 121034857.406 7  93591794.850 7
C12  23381445.783 6  23381443.878 7 121753511.387 6  94147379.971 7
C16  38913932.057 6  38913933.843 6 202635158.002 6 156690285.093 6
C21  22097530.597 8                 115067722.521 8
C22  22686833.490 7                 118136472.279 7
E03  24164346.731 8  24164348.887 8 126984681.223 8  96062957.972 8
E05  22354388.116 8  22354389.825 9 117473066.135 8  88867641.247 9
E13  27609289.803 6  27609294.254 6 145087808.753 6 109757996.708 6
E15  23893064.120 8  23893066.282 8 125559011.359 8  94984501.299 8
E34  24228408.198 8  24228410.534 8 127321392.688 8  96317624.775 8
G01  22258314.344 7                  22258319.904 7 116968432.561 7                  91144100.933 7
G03  20356934.651 8                  20356940.804 7 106976512.156 8                  83358284.965 7
G04  20351168.403 7                  20351173.221 8 106946326.995 7                  83334657.376 8
G06  22911089.264 6                  22911096.757 6 120398558.995 6                  93817110.209 6
G09  22172659.093 7                  22172666.144 7 116518280.142 7                  90793367.679 7
G17  23419369.511 7                  23419375.744 6 123069745.853 7                  95898431.565 6
G19  22381459.889 7  22381463.339 5                 117615284.264 7  91648352.746 5
G31  22366047.172 7                  22366051.537 7 117534473.121 7                  91585256.694 7
R03  21011097.502 8  21011102.619 7 112474158.649 8  87479832.051 7
R04  19287418.363 8  19287421.741 7 103283297.459 8  80331429.838 7
R05  21705753.711 8  21705759.068 7 116029829.197 8  90245336.038 7
R12  23147585.080 4  23147589.302 5 123650229.059 4  96172424.380 5
R18  22808283.574 7  22808289.804 7 121752336.637 7  94696151.073 7
R19  19748978.482 8  19748980.665 7 105643750.682 8  82167343.939 7
R20  20946308.477 6  20946314.565 7 112009349.703 6  87118394.648 7
> 2025 06 15 14 58 10.0000000  0 26
C05  39245484.533 5  39245482.464 6 204361534.972 5 158025293.717 6
C06  38296900.061 6  38296897.159 7 199421956.455 6 154205732.260 7
C11  23241919.550 7  23241915.888 7 121026795.571 7  93585560.935 7
C12  23382884.621 6  23382882.502 7 121761001.924 6  94153172.117 7
C16  38912989.002 6  38912990.078 6 202630243.768 6 156686485.100 6
C21  22095750.797 7                 115058452.923 7
C22  22687723.220 7                 118141106.802 7
E03  24161704.020 8  24161705.997 9 126970792.784 8  96052451.459 9
E05  22354395.441 8  22354397.127 9 117473104.260 8  88867670.090 9
E13  27605533.343 6  27605538.019 6 145068069.779 6 109743064.326 6
E15  23891113.509 8  23891115.764 8 125548761.161 8  94976747.085 8
E34  24229193.688 8  24229196.225 8 127325521.452 8  96320748.150 8
G01  22260331.490 7                  22260337.378 7 116979033.966 7                  91152361.770 7
G03  20357244.235 8                  20357250.397 7 106978139.685 8                  83359553.175 7
G04  20349099.342 7                  20349104.083 8 106935454.417 7                  83326185.241 8
G06  22907364.207 6                  22907371.490 7 120378982.619 6                  93801855.896 7
G09  22168758.349 7                  22168764.752 7 116497776.744 7                  90777391.011 7
G17  23420596.230 7                  23420602.163 6 123076192.017 7                  95903454.506 6
G19  22381459.512 7  22381463.821 5                 117615285.281 7  91648353.536 5
G31  22365839.934 7                  22365844.689 7 117533385.389 7                  91584409.109 7
R03  21012819.611 8  21012824.936 7 112483379.322 8  87487003.673 7
R04  19286284.053 8  19286287.744 7 103277222.021 8  80326704.504 7
R05  21701862.688 8  21701867.425 7 116009024.689 8  90229154.773 7
R18  22811503.654 7  22811510.648 7 121769529.477 7  94709523.243 7
R19  19749666.785 8  19749668.577 7 105647430.551 8  82170206.060 7
R20  20942769.066 6  20942774.850 7 111990421.836 6  87103672.978 7
> 2025 06 15 14 58 15.0000000  0 27
C05  39244517.192 5  39244514.214 6 204356493.418 5 158021395.260 6
C06  38295814.820 6  38295811.470 7 199416302.840 6 154201360.547 7
C11  23240373.703 7  23240370.359 7 121018745.901 7  93579336.438 7
C12  23384324.729 6  23384322.515 7 121768500.005 6  94158970.104 7
C16  38912045.388 6  38912046.836 6 202625331.464 6 156682686.582 6
C21  22093971.700 7                 115049189.598 7
C22  22688614.471 7                 118145744.727 7
E03  24159062.352 8  24159064.234 8 126956910.396 8  96041949.519 8
E05  22354403.755 8  22354405.589 9 117473148.690 8  88867703.696 9
E13  27601778.070 6  27601781.749 6 145048330.634 6 109728131.805 6
E15  23889164.374 8  23889166.671 9 125538518.305 8  94968998.439 9
E34  24229981.021 8  24229983.120 8 127329656.858 8  96323876.559 8
G01  22262350.397 7                  22262355.606 7 116989641.588 7                  91160627.419 7
G03  20357555.686 8                  20357561.731 7 106979775.102 8                  83360827.523 7
G04  20347032.469 7                  20347037.537 8 106924593.051 7                  83317721.831 8
G06  22903639.987 6                  22903647.500 6 120359412.778 6                  93786606.684 6
G09  22164857.698 7                  22164863.981 7 116477278.974 7                  90761418.710 7
G17  23421824.172 7                  23421830.021 6 123082645.103 7                  95908482.825 6
G19  22381462.744 7  22381467.090 5                 117615300.786 7  91648365.612 5
G31  22365636.004 7                  22365640.506 7 117532313.281 7                  91583573.688 7
R03  21014542.617 8  21014548.059 7 112492604.422 8  87494178.753 7
R04  19285150.970 8  19285155.420 7 103271158.266 8  80321988.249 7
R05  21697971.843 7  21697976.433 7 115988226.354 7  90212978.295 7
R12  23147518.731 5                 123649851.13915
R18  22814724.918 7  22814732.312 7 121786725.303 7  94722897.748 7
R19  19750357.894 8  19750360.314 7 105651129.229 8  82173082.789 7
R20  20939231.782 6  20939237.905 7 111971508.646 6  87088962.729 7
> 2025 06 15 14 58 20.0000000  0 27
C05  39243547.523 5  39243544.725 6 204351448.776 5 158017494.424 6
C06  38294729.686 6  38294726.085 7 199410650.308 6 154196989.646 7
C11  23238829.491 7  23238826.497 7 121010707.346 7  93573120.513 7
C12  23385765.659 6  23385763.558 7 121776004.610 6  94164773.123 7
C16  38911102.456 6  38911103.695 6 202620420.068 6 156678888.787 6
C21  22092193.906 7                 115039931.547 7
C22  22689505.351 7                 118150385.075 7
E03  24156421.756 8  24156423.470 8 126943033.025 8  96031451.392 8
E05  22354413.306 8  22354414.999 9 117473198.388 8  88867741.294 9
E13  27598021.161 6  27598025.365 6 145028590.327 6 109713198.396 6
E15  23887216.755 8  23887218.716 8 125528281.811 8  94961254.601 8
E34  24230768.899 8  24230771.137 8 127333797.883 8  96327009.210 8
G01  22264369.869 7                  22264375.837 7 117000254.391 7                  91168897.143 7
G03  20357868.093 8                  20357874.065 7 106981417.344 8                  83362107.185 7
G04  20344968.130 7                  20344972.693 8 106913741.877 7                  83309266.385 8
G06  22899916.579 6                  22899924.328 7 120339848.521 6                  93771361.813 7
G09  22160958.097 7                  22160964.277 7 116456785.818 7                  90745450.013 7
G17  23423053.712 7                  23423059.334 6 123089104.119 7                  95913515.858 6
G19  22381468.268 7  22381472.826 5                 117615329.733 7  91648388.173 5
G31  22365434.540 7                  22365439.250 7 117531255.811 7                  91582749.674 7
R03  21016266.238 8  21016272.563 7 112501832.777 8  87501356.358 7
R04  19284021.025 8  19284024.452 7 103265105.284 8  80317280.377 7
R05  21694082.270 8  21694086.459 7 115967432.978 8  90196805.659 7
R12  23147485.625 5  23147488.189 5 123649690.153 5  96172009.86615
R18  22817946.438 7  22817953.282 7 121803923.122 7  94736273.815 7
R19  19751052.823 8  19751055.240 7 105654845.794 8  82175973.438 7
R20  20935697.489 6  20935703.687 7 111952609.278 6  87074263.208 7
> 2025 06 15 14 58 25.0000000  0 27
C05  39242578.780 5  39242575.933 6 204346402.283 5 158013592.179 6
C06  38293643.906 6  38293640.982 7 199405000.232 6 154192620.639 7
C11  23237288.084 7  23237285.055 7 121002681.243 7  93566914.205 7
C12  23387207.847 6  23387206.201 7 121783517.025 6  94170582.175 7
C16  38910159.358 6  38910160.679 6 202615510.900 6 156675092.689 6
C21  22090416.994 7                 115030680.042 7
C22  22690397.287 7                 118155029.132 7
E03  24153781.738 8  24153783.906 8 126929162.018 8  96020958.070 8
E05  22354424.036 8  22354425.657 9 117473254.690 8  88867783.881 9
E13  27594265.252 6  27594268.955 6 145008850.102 6 109698265.068 6
E15  23885269.898 8  23885272.196 9 125518052.980 8  94953516.562 9
E34  24231558.257 8  24231560.462 8 127337945.824 8  96330147.095 8
G01  22266390.674 7                  22266396.452 7 117010873.715 7                  91177171.929 7
G03  20358181.924 8                  20358188.209 7 106983067.768 8                  83363393.230 7
G04  20342905.093 7                  20342909.783 8 106902902.185 7                  83300819.880 8
G06  22896195.384 6                  22896202.785 6 120320291.125 6                  93756122.298 6
G09  22157059.155 7                  22157065.826 7 116436298.546 7                  90729485.932 7
G17  23424284.324 7                  23424290.247 6 123095570.370 7                  95918554.479 6
G19  22381476.746 7  22381480.767 5                 117615373.424 7  91648422.192 5
G31  22365235.815 7                  22365241.183 7 117530214.216 7                  91581938.045 7
R03  21017991.296 8  21017997.125 7 112511065.640 8  87508537.458 7
R04  19282892.544 8  19282896.559 7 103259064.410 8  80312581.933 7
R05  21690194.049 8  21690197.757 7 115946645.993 8  90180638.021 7
R12  23147460.505 5  23147460.418 5 123649547.997 5  96171899.319 5
R18  22821169.263 7  22821176.063 7 121821124.279 7  94749652.475 7
R19  19751751.042 8  19751752.954 7 105658581.506 8  82178879.003 7
R20  20932166.980 6  20932172.247 7 111933724.877 6  87059575.369 7
> 2025 06 15 14 58 30.0000000  0 27
C05  39241608.393 5  39241606.530 6 204341353.861 5 158009688.416 6
C06  38292560.049 6  38292556.188 7 199399352.438 6 154188253.411 7
C11  23235749.268 7  23235746.319 7 120994667.451 7  93560717.441 7
C12  23388652.333 6  23388650.123 7 121791037.094 6  94176397.161 7
C16  38909217.203 6  38909218.316 6 202610603.834 6 156671298.247 6
C21  22088641.837 7                 115021434.989 7
C22  22691289.773 7                 118159676.784 7
E03  24151143.391 8  24151145.499 9 126915297.247 8  96010469.470 9
E05  22354436.025 8  22354437.592 9 117473317.487 8  88867831.389 9
E13  27590507.829 6  27590512.519 6 144989109.921 6 109683331.764 6
E15  23883324.769 8  23883327.139 8 125507831.711 8  94945784.244 8
E34  24232348.694 7  24232351.094 8 127342100.583 7  96333290.143 8
G01  22268412.243 7                  22268418.462 7 117021499.427 7                  91185451.688 7
G03  20358497.934 8                  20358503.773 7 106984726.237 8                  83364685.542 7
G04  20340844.201 7                  20340849.268 8 106892073.893 7                  83292382.256 8
G06  22892474.498 6                  22892482.455 6 120300740.528 6                  93740888.072 6
G09  22153161.437 7                  22153168.082 7 116415817.089 7                  90713526.376 7
G17  23425516.368 7                  23425521.738 6 123102043.698 7                  95923598.604 6
G19  22381488.465 7  22381491.867 5                 117615431.768 7  91648467.644 5
G31  22365041.213 7                  22365045.918 7 117529188.452 7                  91581138.755 7
R03  21019716.854 7  21019723.133 7 112520302.772 7  87515721.881 7
R04  19281767.112 8  19281770.799 7 103253035.389 8  80307892.692 7
R05  21686305.982 8  21686310.383 7 115925865.225 8  90164475.190 7
R12  23147437.333 5  23147435.355 4 123649424.715 5  96171803.336 4
R18  22824392.454 7  22824399.054 7 121838328.555 7  94763033.561 7
R19  19752452.820 8  19752454.982 7 105662336.132 8  82181799.268 7
R20  20928638.299 6  20928644.028 7 111914855.438 6  87044899.140 7
> 2025 06 15 14 58 35.0000000  0 27
C05  39240640.160 5  39240636.451 6 204336302.944 5 158005782.722 6
C06  38291476.193 6  38291471.843 7 199393706.400 6 154183887.547 7
C11  23234212.557 7  23234209.188 7 120986665.396 7  93554529.749 7
C12  23390098.243 7  23390095.607 7 121798564.373 7  94182217.716 7
C16  38908275.385 6  38908275.946 6 202605698.280 6 156667504.975 6
C21  22086867.681 7                 115012195.845 7
C22  22692182.855 7                 118164327.462 7
E03  24148505.868 8  24148508.188 9 126901438.160 8  95999985.167 9
E05  22354449.003 8  22354450.648 9 117473386.183 8  88867883.353 9
E13  27586751.711 6  27586755.863 6 144969369.174 6 109668398.021 6
E15  23881381.047 8  23881383.462 8 125497617.465 8  94938057.228 8
E34  24233140.670 7  24233142.888 8 127346261.582 7  96336437.899 8
G01  22270435.997 7                  22270441.751 7 117032130.964 7                  91193735.982 7
G03  20358815.117 8                  20358820.892 7 106986392.179 8                  83365983.673 7
G04  20338785.882 7                  20338790.689 8 106881256.447 7                  83283953.073 8
G06  22888755.317 6                  22888763.252 6 120281196.144 6                  93725658.688 6
G09  22149265.035 7                  22149271.664 7 116395340.906 7                  90697570.909 7
G17  23426748.887 7                  23426755.284 6 123108523.545 7                  95928647.818 6
G19  22381501.846 7  22381505.980 5                 117615504.136 7  91648524.026 5
G31  22364849.055 7                  22364853.617 7 117528177.956 7                  91580351.350 7
R03  21021443.868 8  21021448.614 7 112529543.891 8  87522909.411 7
R04  19280642.668 8  19280646.912 7 103247017.767 8  80303212.329 7
R05  21682419.124 8  21682423.951 7 115905090.120 8  90148316.794 7
R12  23147419.312 5  23147416.159 5 123649319.560 5  96171721.506 5
R18  22827616.231 7  22827622.495 7 121855535.546 7  94776416.708 7
R19  19753158.738 8  19753160.349 7 105666109.140 8  82184733.813 7
R20  20925111.219 6  20925118.145 7 111896000.445 6  87030234.153 7
> 2025 06 15 14 58 40.0000000  0 27
C05  39239669.765 5  39239666.116 6 204331249.071 5 158001874.766 6
C06  38290391.928 6  38290388.009 7 199388061.653 6 154179522.674 7
C11  23232678.478 7  23232674.797 7 120978674.683 7  93548350.826 7
C12  23391545.172 7  23391542.020 7 121806098.217 7  94188043.364 7
C16  38907333.302 6  38907334.220 6 202600793.828 6 156663712.529 6
C21  22085093.844 7                 115002962.102 7
C22  22693076.368 7                 118168980.707 7
E03  24145869.753 8  24145871.857 8 126887584.255 8  95989504.788 8
E05  22354463.114 8  22354464.744 9 117473460.295 8  88867939.421 9
E13  27582995.171 6  27582999.054 6 144949627.437 6 109653463.539 6
E15  23879438.771 8  23879440.961 9 125487409.711 8  94930335.132 9
E34  24233933.518 7  24233935.799 8 127350428.314 7  96339590.008 8
G01  22272459.923 7                  22272465.804 7 117042767.793 7                  91202024.399 7
G03  20359133.299 8                  20359139.301 7 106988065.104 8                  83367287.250 7
G04  20336729.384 7                  20336734.000 8 106870449.314 7                  83275531.945 8
G06  22885037.985 6                  22885045.355 7 120261657.490 6                  93710433.783 7
G09  22145369.220 7                  22145376.213 7 116374869.490 7                  90681619.174 7
G17  23427983.612 7                  23427989.592 6 123115009.357 7                  95933701.687 6
G19  22381518.367 7  22381521.768 5                 117615590.010 7  91648590.949 5
G31  22364659.358 7                  22364664.049 7 117527182.162 7                  91579575.421 7
R03  21023170.103 7  21023176.434 7 112538788.160 7  87530099.392 7
R04  19279521.187 8  19279526.064 7 103241011.074 8  80298540.458 7
R05  21678534.562 8  21678538.619 7 115884320.230 8  90132162.419 7
R12  23147401.352 5  23147401.772 5 123649232.134 5  96171653.518 5
R18  22830839.014 7  22830846.565 6 121872744.484 7  94789801.431 6
R19  19753867.449 8  19753869.377 7 105669900.224 8  82187682.419 7
R20  20921588.812 6  20921594.982 7 111877159.496 6  87015580.088 7
> 2025 06 15 14 58 45.0000000  0 27
C05  39238698.169 5  39238695.148 6 204326192.644 5 157997964.796 6
C06  38289307.898 6  38289304.282 7 199382418.573 6 154175159.081 7
C11  23231145.203 7  23231142.799 7 120970695.645 7  93542180.940 7
C12  23392993.486 7  23392990.584 7 121813639.116 7  94193874.462 7
C16  38906392.059 6  38906392.746 6 202595890.816 6 156659921.225 6
C21  22083321.752 8                 114993734.188 8
C22  22693970.330 7                 118173636.898 7
E03  24143234.246 8  24143236.633 8 126873736.009 8  95979028.686 8
E05  22354478.292 7  22354479.969 9 117473540.258 7  88867999.915 9
E13  27579238.619 6  27579242.225 6 144929885.103 6 109638528.610 6
E15  23877497.542 8  23877499.773 9 125477208.936 8  94922618.316 9
E34  24234727.516 8  24234729.888 8 127354601.257 8  96342746.799 8
G01  22274485.628 7                  22274491.051 7 117053410.355 7                  91210317.316 7
G03  20359453.151 8                  20359459.307 7 106989745.484 8                  83368596.631 7
G04  20334675.051 7                  20334679.831 8 106859652.983 7                  83267119.220 8
G06  22881319.886 6                  22881328.244 7 120242125.071 6                  93695213.732 7
G09  22141474.089 7                  22141481.387 7 116354403.276 7                  90665671.474 7
G17  23429218.810 7                  23429224.813 6 123121501.640 7                  95938760.608 6
G19  22381537.206 7  22381540.792 5                 117615689.914 7  91648668.783 5
G31  22364473.212 7                  22364477.208 7 117526201.575 7                  91578811.329 7
R03  21024898.203 7  21024903.479 7 112548036.387 7  87537292.457 7
R04  19278401.499 8  19278406.176 7 103235015.615 8  80293877.333 7
R05  21674649.598 7  21674654.234 7 115863556.047 7  90116012.530 7
R12  23147388.077 5  23147389.641 5 123649162.895 5  96171599.678 5
R18  22834063.059 7  22834070.684 6 121889955.951 7  94803188.106 6
R19  19754579.859 8  19754581.090 7 105673709.715 8  82190645.353 7
R20  20918068.209 6  20918074.468 7 111858332.957 6  87000937.237 7
> 2025 06 15 14 58 50.0000000  0 27
C05  39237726.175 5  39237723.336 6 204321133.414 5 157994052.688 6
C06  38288225.002 6  38288221.197 7 199376776.963 6 154170796.623 7
C11  23229615.507 7  23229612.915 7 120962728.121 7  93536019.947 7
C12  23394443.012 6  23394440.062 7 121821186.852 6  94199710.847 7
C16  38905450.461 6  38905451.305 6 202590989.054 6 156656130.872 6
C21  22081550.851 7                 114984511.872 7
C22  22694865.016 7                 118178295.802 7
E03  24140600.206 8  24140602.398 8 126859893.135 8  95968556.644 8
E05  22354494.658 7  22354496.215 9 117473625.813 7  88868064.626 9
E13  27575480.975 6  27575485.192 6 144910141.957 6 109623593.056 6
E15  23875557.806 8  23875559.903 8 125467014.854 8  94914906.559 8
E34  24235522.851 8  24235525.114 8 127358780.111 8  96345908.079 8
G01  22276511.652 7                  22276517.377 7 117064058.418 7                  91218614.465 7
G03  20359773.751 8                  20359780.142 7 106991432.996 8                  83369911.578 7
G04  20332622.103 7                  20332627.197 8 106848867.175 7                  83258714.699 8
G06  22877605.320 7                  22877612.357 7 120222598.572 7                  93679998.277 7
G09  22137581.525 7                  22137587.665 7 116333942.046 7                  90649727.651 7
G17  23430455.127 7                  23430461.767 6 123128000.133 7                  95943824.352 6
G19  22381558.905 7  22381562.332 5                 117615803.529 7  91648757.306 5
G31  22364288.909 7                  22364293.576 7 117525235.891 7                  91578058.844 7
R03  21026626.181 7  21026632.023 7 112557287.854 7  87544488.026 7
R04  19277284.393 8  19277288.382 7 103229031.178 8  80289222.769 7
R05  21670767.022 7  21670770.978 7 115842797.192 7  90099866.756 7
R12  23147382.052 5  23147378.731 5 123649111.425 5  96171559.703 5
R18  22837289.350 7  22837295.173 6 121907169.604 7  94816576.484 6
R19  19755294.415 8  19755296.661 7 105677537.291 8  82193622.353 7
R20  20914548.742 6  20914556.222 7 111839520.597 6  86986305.413 7
> 2025 06 15 14 58 55.0000000  0 27
C05  39236754.178 5  39236750.766 6 204316069.775 5 157990137.179 6
C06  38287141.367 6  38287137.608 7 199371135.165 6 154166434.028 7
C11  23228087.820 7  23228085.035 7 120954770.448 7  93529866.579 7
C12  23395893.055 7  23395890.642 7 121828739.762 7  94205551.231 7
C16  38904508.459 6  38904509.793 6 202586086.935 6 156652340.237 6
C21  22079780.882 8                 114975293.511 8
C22  22695760.235 7                 118182955.817 7
E03  24137966.652 8  24137968.877 8 126846054.000 8  95958087.437 8
E05  22354511.901 8  22354513.223 9 117473715.313 8  88868132.333 9
E13  27571723.527 6  27571727.722 6 144890396.353 6 109608655.640 6
E15  23873618.769 8  23873620.984 8 125456825.887 8  94907198.675 8
E34  24236318.800 7  24236321.149 8 127362963.264 7  96349072.604 8
G01  22278538.419 7                  22278544.109 7 117074710.299 7                  91226914.618 7
G03  20360096.100 8                  20360102.373 7 106993126.051 8                  83371230.838 7
G04  20330571.597 7                  20330576.441 8 106838090.252 7                  83250317.099 8
G06  22873890.086 7                  22873897.713 6 120203076.405 7                  93664786.213 6
G09  22133687.908 7                  22133694.622 7 116313484.195 7                  90633786.483 7
G17  23431692.946 7                  23431699.481 6 123134503.147 7                  95948891.623 6
G19  22381582.331 7  22381586.156 5                 117615929.224 7  91648855.248 5
G31  22364108.243 7                  22364112.598 7 117524283.486 7                  91577316.710 7
R03  21028355.152 8  21028360.484 7 112566541.370 8  87551685.197 7
R04  19276168.159 8  19276172.293 7 103223056.179 8  80284575.536 7
R05  21666882.928 7  21666888.163 7 115822042.085 7  90083723.917 7
R12  23147365.816 4                                
R18  22840514.070 7  22840520.057 6 121924383.837 7  94829965.300 6
R19  19756013.675 8  19756014.996 7 105681381.293 8  82196612.121 7
R20  20911034.031 6  20911040.399 7 111820720.761 6  86971683.342 7
> 2025 06 15 14 59  0.0000000  0 26
C05  39235781.081 5  39235777.861 6 204311002.031 5 157986218.467 6
C06  38286058.233 6  38286054.047 7 199365493.457 6 154162071.510 7
C11  23226561.695 7  23226558.601 7 120946822.906 7  93523721.049 7
C12  23397345.332 6  23397342.443 7 121836298.121 6  94211395.834 7
C16  38903567.630 6  38903568.510 6 202581184.696 6 156648549.513 6
C21  22078011.184 7                 114966079.407 7
C22  22696655.667 7                 118187617.184 7
E03  24135333.914 8  24135336.126 8 126832218.908 8  95947621.289 8
E05  22354529.383 7  22354531.057 9 117473809.031 7  88868203.228 9
E13  27567965.720 6  27567969.827 6 144870648.573 6 109593716.599 6
E15  23871681.157 8  23871683.091 8 125446642.270 8  94899494.834 8
E34  24237115.533 8  24237118.045 8 127367150.984 8  96352240.585 8
G01  22280567.236 7                  22280571.969 7 117085366.300 7                  91235217.980 7
G03  20360419.541 8                  20360425.971 7 106994824.925 8                  83372554.636 7
G04  20328522.493 7                  20328527.503 8 106827322.510 7                  83241926.659 8
G06  22870175.867 7                  22870183.307 7 120183558.872 7                  93649577.750 7
G09  22129796.019 7                  22129802.119 7 116293029.922 7                  90617848.102 7
G17  23432931.140 7                  23432937.833 7 123141010.928 7                  95953962.630 7
G19  22381609.398 7  22381612.463 5                 117616067.272 7  91648962.809 5
G31  22363929.220 7                  22363933.833 7 117523344.643 7                  91576585.147 7
R03  21030083.863 8  21030089.303 7 112575796.883 8  87558883.926 7
R04  19275054.448 8  19275058.035 7 103217090.800 8  80279935.798 7
R05  21663000.891 7  21663006.762 7 115801290.955 7  90067584.197 7
R18  22843738.337 7  22843745.163 6 121941598.863 7  94843354.743 6
R19  19756735.004 8  19756736.945 7 105685242.009 8  82199614.907 7
R20  20907522.044 6  20907526.921 7 111801933.777 6  86957071.246 7
> 2025 06 15 14 59  5.0000000  0 26
C05  39234807.057 5  39234803.969 6 204305931.051 5 157982297.260 6
C06  38284974.247 6  38284970.623 7 199359852.762 6 154157709.766 7
C11  23225037.254 7  23225034.462 7 120938886.408 7  93517584.034 7
C12  23398797.328 7  23398795.247 7 121843862.787 7  94217245.297 7
C16  38902626.145 6  38902627.079 6 202576283.277 6 156644759.422 6
C21  22076242.794 7                 114956870.447 7
C22  22697551.316 7                 118192280.818 7
E03  24132702.149 8  24132704.339 8 126818388.771 8  95937158.881 8
E05  22354548.165 8  22354549.862 9 117473907.896 8  88868278.019 9
E13  27564207.614 6  27564211.585 6 144850899.556 6 109578776.610 6
E15  23869744.133 8  23869746.410 8 125436464.948 8  94891795.754 8
E34  24237913.428 8  24237915.999 8 127371344.196 8  96355412.709 8
G01  22282595.461 7                  22282600.691 7 117096027.280 7                  91243525.226 7
G03  20360743.679 8                  20360750.295 7 106996530.496 8                  83373883.649 7
G04  20326475.584 7                  20326480.158 8 106816564.863 7                  83233544.080 8
G06  22866462.532 7                  22866470.852 7 120164046.929 7                  93634373.630 7
G09  22125903.838 7                  22125910.987 7 116272580.231 7                  90601913.288 7
G17  23434171.214 7                  23434177.219 6 123147524.440 7                  95959038.059 6
G19  22381638.022 7  22381641.226 5                 117616218.557 7  91649080.687 5
G31  22363753.072 7                  22363757.927 7 117522420.296 7                  91575864.873 7
R03  21031814.293 8  21031818.896 7 112585055.495 8  87566085.061 7
R04  19273942.442 8  19273946.363 7 103211135.977 8  80275304.256 7
R05  21659119.938 7  21659126.083 7 115780544.872 7  90051448.354 7
R18  22846963.873 7  22846970.616 6 121958815.617 7  94856745.530 6
R19  19757460.628 8  19757462.000 7 105689120.389 8  82202631.401 7
R20  20904009.004 6  20904016.230 7 111783160.637 6  86942469.902 7
> 2025 06 15 14 59 10.0000000  0 26
C05  39233832.681 5  39233829.714 6 204300856.245 5 157978373.110 6
C06  38283892.192 6  38283887.562 7 199354212.483 6 154153348.350 7
C11  23223515.152 7  23223511.929 7 120930960.385 7  93511455.123 7
C12  23400252.057 7  23400248.914 7 121851433.188 7  94223099.209 7
C16  38901685.308 6  38901686.002 6 202571382.016 6 156640969.465 6
C21  22074475.297 7                 114947666.058 7
C22  22698447.164 7                 118196946.139 7
E03  24130071.073 8  24130073.335 8 126804562.984 8  95926699.773 8
E05  22354567.915 8  22354569.527 9 117474011.274 8  88868356.225 9
E13  27560448.736 6  27560453.022 6 144831148.736 6 109563835.252 6
E15  23867808.680 8  23867810.762 8 125426293.330 8  94884100.994 8
E34  24238712.357 8  24238714.858 8 127375542.272 8  96358588.525 8
G01  22284624.703 7                  22284630.292 7 117106692.702 7                  91251835.941 7
G03  20361069.846 7                  20361076.096 7 106998242.215 7                  83375217.461 7
G04  20324429.970 7                  20324434.675 8 106805816.731 7                  83225168.906 8
G06  22862751.601 7                  22862758.586 7 120144539.906 7                  93619173.382 7
G09  22122014.174 7                  22122019.995 7 116252134.492 7                  90585981.544 7
G17  23435411.526 7                  23435417.651 6 123154043.021 7                  95964117.452 6
G19  22381668.706 7  22381672.438 5                 117616382.550 7  91649208.461 5
G31  22363580.126 7                  22363584.895 7 117521509.813 7                  91575155.408 7
R03  21033543.976 8  21033548.850 7 112594316.380 8  87573287.961 7
R04  19272832.023 8  19272836.313 7 103205191.197 8  80270680.546 7
R05  21655240.632 7  21655245.072 7 115759803.040 7  90035315.841 7
R18  22850189.131 7  22850196.064 7 121976033.430 7  94870137.142 7
R19  19758188.330 8  19758190.132 7 105693015.735 8  82205661.115 7
R20  20900502.102 6  20900507.697 7 111764400.721 6  86927878.862 7
> 2025 06 15 14 59 15.0000000  0 27
C05  39232858.512 5  39232854.414 6 204295778.566 5 157974446.739 6
C06  38282809.115 6  38282804.702 7 199348573.592 6 154148987.998 7
C11  23221996.192 7  23221992.141 7 120923045.798 7  93505335.063 7
C12  23401706.724 6  23401704.032 7 121859010.256 6  94228958.272 7
C16  38900744.041 6  38900745.008 6 202566481.938 6 156637180.410 6
C21  22072708.801 7                 114938467.165 7
C22  22699343.341 7                 118201614.069 7
E03  24127441.209 8  24127443.377 8 126790742.506 8  95916244.671 8
E05  22354588.590 8  22354590.216 9 117474120.168 8  88868438.595 9
E13  27556690.532 6  27556694.304 6 144811397.021 6 109548893.215 6
E15  23865874.530 8  23865876.417 8 125416128.362 8  94876411.261 8
E34  24239512.543 8  24239514.853 8 127379746.206 8  96361768.763 8
G01  22286655.689 7                  22286661.062 7 117117363.471 7                  91260150.806 7
G03  20361396.600 7                  20361403.513 7 106999961.005 7                  83376556.771 7
G04  20322386.867 7                  20322391.433 8 106795079.045 7                  83216801.884 8
G06  22859039.914 7                  22859047.647 7 120125038.839 7                  93603977.739 7
G09  22118124.136 7                  22118130.187 6 116231693.678 7                  90570053.653 6
G17  23436653.191 7                  23436659.168 6 123160567.646 7                  95969201.543 6
G19  22381702.833 7  22381705.780 5                 117616560.124 7  91649346.813 5
G31  22363409.760 7                  22363414.301 7 117520614.166 7                  91574457.492 7
R03  21035274.786 8  21035279.818 7 112603580.834 8  87580493.655 7
R04  19271724.247 8  19271728.420 7 103199257.350 8  80266065.336 7
R05  21651361.083 7  21651365.851 7 115739066.588 7  90019187.491 7
R12  23147372.627 5                 123649098.30815
R18  22853414.174 7  22853421.971 7 121993253.351 7  94883530.369 7
R19  19758919.747 8  19758921.403 7 105696929.037 8  82208704.804 7
R20  20896996.228 6  20897002.188 7 111745654.991 6  86913298.843 7
> 2025 06 15 14 59 20.0000000  0 27
C05  39231881.822 5  39231878.505 6 204290696.428 5 157970516.903 6
C06  38281726.008 6  38281721.581 7 199342934.387 6 154144627.409 7
C11  23220477.601 7  23220474.260 7 120915140.987 7  93499222.558 7
C12  23403161.984 7  23403160.310 7 121866592.364 7  94234821.222 7
C16  38899802.681 6  38899804.117 6 202561581.369 6 156633390.981 6
C21  22070943.151 7                 114929272.148 7
C22  22700239.898 7                 118206282.964 7
E03  24124811.832 8  24124814.127 8 126776925.694 8  95905792.352 8
E05  22354609.917 8  22354611.668 9 117474232.859 8  88868523.846 9
E13  27552931.269 6  27552935.131 6 144791642.782 6 109533949.279 6
E15  23863940.830 8  23863943.030 8 125405968.422 8  94868725.338 8
E34  24240313.151 8  24240315.632 8 127383954.296 8  96364952.148 8
G01  22288686.682 7                  22288692.052 7 117128037.933 7                  91268468.556 7
G03  20361724.748 7                  20361731.583 8 107001685.188 7                  83377900.290 8
G04  20320345.158 7                  20320349.557 8 106784350.158 7                  83208441.701 8
G06  22855330.322 7                  22855337.542 7 120105542.054 7                  93588785.448 7
G09  22114234.552 7                  22114241.029 6 116211256.119 7                  90554128.295 6
G17  23437895.804 7                  23437901.191 6 123167096.678 7                  95974289.083 6
G19  22381737.784 7  22381741.961 5                 117616749.623 7  91649494.487 5
G31  22363241.745 7                  22363246.265 7 117519731.653 7                  91573769.829 7
R03  21037006.041 8  21037010.717 7 112612846.785 8  87587700.490 7
R04  19270617.874 8  19270621.711 7 103193332.649 8  80261457.233 7
R05  21647481.901 7  21647487.330 7 115718333.646 7  90003061.892 7
R12  23147381.192 4  23147387.421 5 123649147.691 4  96171585.25915
R18  22856640.607 7  22856647.973 6 122010473.599 7  94896923.858 6
R19  19759654.821 8  19759656.491 7 105700858.761 8  82211761.250 7
R20  20893493.246 6  20893499.079 7 111726921.757 6  86898728.545 7
> 2025 06 15 14 59 25.0000000  0 27
C05  39230904.676 5  39230901.541 6 204285610.047 5 157966583.800 6
C06  38280642.548 6  38280638.490 7 199337295.250 6 154140266.880 7
C11  23218961.370 7  23218958.124 7 120907246.304 7  93493117.894 7
C12  23404619.768 7  23404617.162 7 121874179.852 7  94240688.336 7
C16  38898861.488 6  38898862.833 6 202556680.658 6 156629601.449 6
C21  22069177.904 8                 114920081.347 8
C22  22701136.356 7                 118210953.172 7
E03  24122183.741 8  24122185.656 8 126763112.887 8  95895343.063 8
E05  22354632.581 8  22354633.932 9 117474349.740 8  88868612.259 9
E13  27549171.802 6  27549175.603 6 144771886.404 6 109519003.712 6
E15  23862008.611 8  23862010.662 9 125395813.847 8  94861043.464 9
E34  24241114.695 8  24241117.291 8 127388166.931 8  96368138.973 8
G01  22290719.076 7                  22290724.426 7 117138716.429 7                  91276789.444 7
G03  20362054.160 7                  20362060.853 7 107003415.152 7                  83379248.310 7
G04  20318305.028 7                  20318309.997 8 106773630.434 7                  83200088.670 8
G06  22851620.569 7                  22851628.108 7 120086049.919 7                  93573596.767 7
G09  22110346.353 7                  22110352.134 6 116190822.223 7                  90538205.778 6
G17  23439139.651 7                  23439144.539 6 123173630.430 7                  95979380.292 6
G19  22381776.960 7  22381780.523 5                 117616951.470 7  91649651.754 5
G31  22363076.136 7                  22363080.753 7 117518862.684 7                  91573092.696 7
R03  21038737.832 8  21038742.233 7 112622114.688 8  87594908.853 7
R04  19269513.468 8  19269517.252 7 103187417.640 8  80256856.678 7
R05  21643604.846 7  21643609.512 7 115697604.893 7  89986939.535 7
R12  23147394.407 4  23147399.375 5 123649213.439 4  96171636.417 5
R18  22859867.539 7  22859874.036 6 122027694.595 7  94910317.926 6
R19  19760392.718 8  19760394.129 7 105704805.178 8  82214830.681 7
R20  20889992.178 5  20889998.593 7 111708201.396 5  86884168.276 7
> 2025 06 15 14 59 30.0000000  0 27
C05  39229927.386 5  39229924.094 6 204280520.593 5 157962648.309 6
C06  38279560.291 6  38279555.982 7 199331657.252 6 154135907.221 7
C11  23217446.511 7  23217444.053 7 120899362.794 7  93487021.862 7
C12  23406077.838 7  23406075.418 7 121881773.744 7  94246560.408 7
C16  38897920.295 6  38897921.903 6 202551780.841 6 156625812.588 6
C21  22067413.764 8                 114910895.779 8
C22  22702033.914 7                 118215625.729 7
E03  24119556.057 8  24119558.121 8 126749305.138 8  95884897.591 8
E05  22354655.360 8  22354657.149 9 117474471.827 8  88868704.618 9
E13  27545412.495 6  27545415.831 6 144752128.895 6 109504057.302 6
E15  23860077.572 8  23860079.491 8 125385665.676 8  94853366.441 8
E34  24241917.545 8  24241919.977 8 127392385.113 8  96371329.999 8
G01  22292751.821 7                  22292757.191 7 117149399.971 7                  91285114.270 7
G03  20362385.033 8                  20362391.029 7 107005151.928 8                  83380601.635 7
G04  20316267.592 7                  20316271.893 8 106762920.889 7                  83191743.582 8
G06  22847912.202 7                  22847920.181 7 120066563.507 7                  93558412.564 7
G09  22106458.466 7                  22106465.120 6 116170393.005 7                  90522286.928 6
G17  23440383.277 7                  23440388.845 6 123180169.913 7                  95984475.995 6
G19  22381818.262 7  22381821.617 5                 117617166.624 7  91649819.387 5
G31  22362913.524 7                  22362917.971 7 117518008.277 7                  91572426.928 7
R03  21040469.101 8  21040473.985 7 112631385.654 8  87602119.598 7
R04  19268410.779 8  19268414.853 7 103181513.254 8  80252264.380 7
R05  21639727.706 7  21639733.219 7 115676881.106 7  89970821.050 7
R12  23147406.163 4  23147416.479 5 123649296.69014
R18  22863094.095 7  22863100.454 6 122044917.332 7  94923713.337 6
R19  19761133.289 8  19761135.168 7 105708769.240 8  82217913.837 7
R20  20886494.508 5  20886499.817 7 111689495.027 5  86869618.893 7
> 2025 06 15 14 59 35.0000000  0 26
C05  39228949.584 5  39228946.286 6 204275427.904 5 157958710.324 6
C06  38278478.582 6  38278473.306 7 199326020.282 6 154131548.360 7
C11  23215934.756 7  23215932.289 7 120891490.404 7  93480934.426 7
C12  23407538.340 7  23407535.067 7 121889373.920 7  94252437.339 7
C16  38896978.988 6  38896980.887 6 202546881.851 6 156622024.389 6
C21  22065650.875 8                 114901715.426 8
C22  22702932.207 7                 118220300.569 7
E03  24116929.515 7  24116931.542 8 126735502.400 7  95874455.919 8
E05  22354679.757 8  22354681.350 9 117474599.048 8  88868800.860 9
E13  27541652.350 6  27541655.782 6 144732370.229 6 109489110.005 6
E15  23858147.432 8  23858149.556 8 125375523.872 8  94845694.239 8
E34  24242721.259 8  24242723.727 8 127396608.820 8  96374525.198 8
G01  22294785.694 7                  22294791.170 7 117160088.538 7                  91293443.009 7
G03  20362716.778 8                  20362722.937 7 107006895.468 8                  83381960.234 7
G04  20314231.385 7                  20314235.921 8 106752221.491 7                  83183406.393 8
G06  22844205.189 7                  22844213.009 7 120047082.735 7                  93543232.761 7
G09  22102572.019 7                  22102578.318 7 116149968.438 7                  90506371.701 7
G17  23441628.322 7                  23441634.490 6 123186715.050 7                  95989576.098 6
G19  22381861.785 7  22381865.344 5                 117617395.011 7  91649997.354 5
G31  22362754.042 7                  22362758.294 7 117517168.346 7                  91571772.439 7
R03  21042201.171 8  21042206.965 7 112640659.607 8  87609332.653 7
R04  19267309.903 8  19267314.243 7 103175619.452 8  80247680.314 7
R05  21635852.013 7  21635856.861 7 115656162.349 7  89954706.455 7
R18  22866320.448 7  22866327.821 6 122062141.659 7  94937109.992 6
R19  19761877.033 8  19761879.317 7 105712750.902 8  82221010.679 7
R20  20882999.384 6  20883004.546 7 111670802.436 6  86855080.216 7
> 2025 06 15 14 59 40.0000000  0 26
C05  39227970.537 5  39227967.524 6 204270332.107 5 157954769.948 6
C06  38277396.305 6  38277391.233 7 199320384.378 6 154127190.327 7
C11  23214425.600 7  23214422.852 7 120883629.149 7  93474855.604 7
C12  23408998.410 7  23408995.686 7 121896980.466 7  94258319.183 7
C16  38896038.759 6  38896040.362 6 202541983.755 6 156618236.876 6
C21  22063888.976 7                 114892540.305 7
C22  22703830.286 7                 118224977.756 7
E03  24114303.840 8  24114305.947 8 126721704.714 8  95864018.067 8
E05  22354705.121 8  22354706.527 9 117474731.477 8  88868901.043 9
E13  27537892.226 6  27537895.605 6 144712610.476 6 109474161.889 6
E15  23856218.767 8  23856220.867 9 125365388.501 8  94838026.895 9
E34  24243526.045 8  24243528.512 8 127400838.085 8  96377724.603 8
G01  22296820.736 7                  22296826.456 7 117170782.139 7                  91301775.660 7
G03  20363049.884 8                  20363055.894 7 107008645.788 8                  83383324.116 7
G04  20312197.228 7                  20312201.649 8 106741532.293 7                  83175077.159 8
G06  22840499.418 7                  22840507.023 7 120027607.710 7                  93528057.400 7
G09  22098685.560 7                  22098692.464 7 116129548.530 7                  90490460.099 7
G17  23442875.654 7                  23442881.570 6 123193265.924 7                  95994680.665 6
G19  22381907.433 7  22381911.328 5                 117617636.743 7  91650185.714 5
G31  22362596.529 7                  22362601.593 7 117516342.945 7                  91571129.271 7
R03  21043934.543 8  21043939.361 7 112649936.392 8  87616547.937 7
R04  19266211.326 8  19266215.440 7 103169736.328 8  80243104.555 7
R05  21631977.259 7  21631982.363 7 115635448.688 7  89938595.860 7
R18  22869548.157 7  22869554.757 6 122079367.719 7  94950508.011 6
R19  19762625.545 8  19762626.952 7 105716750.257 8  82224121.281 7
R20  20879505.137 6  20879511.167 7 111652123.813 6  86840552.402 7
> 2025 06 15 14 59 45.0000000  0 26
C05  39226990.891 5  39226988.420 6 204265233.724 5 157950827.533 6
C06  38276314.839 6  38276308.845 7 199314750.173 6 154122833.604 7
C11  23212918.070 7  23212915.455 7 120875779.614 7  93468785.847 7
C12  23410460.800 6  23410457.755 7 121904593.931 6  94264206.392 7
C16  38895098.185 6  38895100.032 6 202537087.037 6 156614450.428 6
C21  22062127.945 7                 114883370.972 7
C22  22704729.061 7                 118229657.791 7
E03  24111679.304 8  24111681.396 9 126707912.642 8  95853584.457 9
E05  22354731.443 8  22354732.817 9 117474869.635 8  88869005.556 9
E13  27534132.574 6  27534135.284 6 144692850.171 6 109459213.355 6
E15  23854291.615 8  23854293.489 8 125355260.101 8  94830364.829 8
E34  24244332.203 8  24244334.473 8 127405073.444 8  96380928.619 8
G01  22298857.041 7                  22298862.430 7 117181481.313 7                  91310112.667 7
G03  20363384.657 8                  20363390.531 7 107010403.470 8                  83384693.728 7
G04  20310164.944 7                  20310169.763 8 106730853.840 7                  83166756.286 8
G06  22836794.426 7                  22836802.402 7 120008138.953 7                  93512886.955 7
G09  22094801.017 7                  22094807.931 7 116109133.885 7                  90474552.595 7
G17  23444123.084 7                  23444129.034 6 123199823.022 7                  95999790.069 6
G19  22381955.964 7  22381960.214 5                 117617892.308 7  91650384.840 5
G31  22362442.445 7                  22362447.376 7 117515532.614 7                  91570497.842 7
R03  21045668.455 8  21045673.365 7 112659216.989 8  87623766.170 7
R04  19265115.520 8  19265118.866 7 103163864.447 8  80238537.521 7
R05  21628104.239 7  21628108.061 7 115614740.795 7  89922489.713 7
R18  22872775.121 7  22872782.827 6 122096596.017 7  94963907.748 6
R19  19763376.351 8  19763378.367 7 105720767.734 8  82227245.982 7
R20  20876015.173 5  20876020.815 7 111633459.778 5  86826035.941 7
> 2025 06 15 14 59 50.0000000  0 26
C05  39226012.522 5  39226009.092 6 204260133.688 5 157946883.873 6
C06  38275232.213 6  38275227.386 7 199309118.517 6 154118478.857 7
C11  23211413.087 7  23211410.152 7 120867942.734 7  93462725.873 7
C12  23411923.641 6  23411921.289 7 121912215.192 6  94270099.624 7
C16  38894158.983 6  38894160.362 6 202532192.748 6 156610665.857 6
C21  22060368.466 8                 114874208.373 8
C22  22705628.375 7                 118234341.646 7
E03  24109056.109 8  24109058.094 8 126694127.130 8  95843155.813 8
E05  22354759.093 8  22354760.373 9 117475014.483 8  88869115.133 9
E13  27530372.999 6  27530375.088 6 144673090.269 6 109444265.105 6
E15  23852365.565 8  23852367.612 9 125345139.627 8  94822708.758 9
E34  24245139.701 8  24245141.791 8 127409315.852 8  96384137.970 8
G01  22300893.701 7                  22300899.550 7 117192187.028 7                  91318454.780 7
G03  20363720.647 8                  20363726.426 7 107012169.437 8                  83386069.800 7
G04  20308135.098 7                  20308140.022 8 106720187.091 7                  83158444.547 8
G06  22833091.154 7                  22833099.224 7 119988677.474 7                  93497722.167 7
G09  22090917.279 7                  22090924.526 7 116088725.443 7                  90458649.933 7
G17  23445372.810 7                  23445377.852 6 123206387.334 7                  96004905.081 6
G19  22382007.781 7  22382011.337 5                 117618162.680 7  91650595.524 5
G31  22362291.297 7                  22362296.190 7 117514738.288 7                  91569878.887 7
R03  21047402.104 7  21047408.131 7 112668502.117 7  87630987.935 7
R04  19264021.041 8  19264024.583 7 103158004.688 8  80233979.937 7
R05  21624230.913 7  21624235.714 7 115594039.447 7  89906388.677 7
R18  22876003.164 7  22876010.182 6 122113827.530 7  94977309.972 6
R19  19764131.252 8  19764132.416 7 105724804.397 8  82230385.607 7
R20  20872528.056 5  20872533.515 7 111614811.339 5  86811531.620 7
> 2025 06 15 14 59 55.0000000  0 27
C05  39225032.429 5  39225029.332 6 204255031.145 5 157942938.281 6
C06  38274151.551 6  38274146.472 7 199303488.579 6 154114125.428 7
C11  23209910.166 7  23209907.816 7 120860117.647 7  93456675.018 7
C12  23413388.515 6  23413386.175 7 121919843.457 6  94275998.272 7
C16  38893219.238 6  38893220.365 6 202527299.942 6 156606882.420 6
C21  22058610.348 8                 114865051.640 8
C22  22706528.304 7                 118239028.427 7
E03  24106433.694 8  24106435.860 8 126680347.313 8  95832731.477 8
E05  22354787.458 8  22354789.082 9 117475165.144 8  88869229.107 9
E13  27526611.861 6  27526614.855 6 144653329.912 6 109429316.550 6
E15  23850441.300 8  23850443.096 9 125335026.231 8  94815058.039 9
E34  24245947.862 8  24245950.260 8 127413564.447 8  96387351.988 8
G01  22302932.065 7                  22302937.623 7 117202898.375 7                  91326801.276 7
G03  20364058.002 8                  20364063.900 7 107013942.824 8                  83387451.667 7
G04  20306106.810 7                  20306112.143 8 106709531.159 7                  83150141.234 8
G06  22829389.070 7                  22829397.075 7 119969222.354 7                  93482562.355 7
G09  22087034.887 7                  22087041.982 7 116068322.351 7                  90442751.433 7
G17  23446623.684 7                  23446628.442 6 123212957.934 7                  96010025.046 6
G19  22382061.879 7  22382065.337 5                 117618446.963 7  91650817.030 5
G31  22362142.724 7                  22362147.718 7 117513959.130 7                  91569271.751 7
R03  21049137.677 7  21049142.997 7 112677790.935 7  87638212.554 7
R04  19262928.992 8  19262931.895 7 103152156.187 8  80229431.110 7
R05  21620359.893 7  21620364.033 7 115573343.826 7  89890292.129 7
R12  23147536.370 4                 123649985.09314
R18  22879231.131 7  22879238.602 7 122131061.346 7  94990714.018 7
R19  19764888.380 8  19764890.831 7 105728859.370 8  82233539.468 7
R20  20869042.683 5  20869049.139 7 111596177.539 5  86797038.682 7
> 2025 06 15 15 00  0.0000000  0 27
C05  39224051.203 5  39224049.109 6 204249925.994 5 157938990.639 6
C06  38273070.345 6  38273065.436 7 199297860.245 6 154109773.235 7
C11  23208410.325 7  23208407.093 7 120852304.244 7  93450633.204 7
C12  23414854.520 6  23414852.531 7 121927478.554 6  94281902.207 7
C16  38892279.401 6  38892281.328 6 202522408.522 6 156603100.077 6
C21  22056852.622 7                 114855900.652 7
C22  22707429.084 7                 118243718.049 7
E03  24103812.451 7  24103814.697 8 126666573.077 7  95822311.365 8
E05  22354816.943 8  22354818.841 9 117475321.481 8  88869347.381 9
E13  27522851.608 6  27522854.511 6 144633569.033 6 109414367.584 6
E15  23848517.907 8  23848519.907 8 125324919.802 8  94807412.592 8
E34  24246757.531 8  24246759.913 8 127417819.085 8  96390570.590 8
G01  22304971.404 7                  22304977.170 7 117213615.258 7                  91335152.080 7
G03  20364396.810 8                  20364402.690 7 107015723.521 8                  83388839.213 7
G04  20304081.606 7                  20304086.642 8 106698885.972 7                  83141846.282 8
G06  22825687.993 7                  22825695.967 7 119949773.558 7                  93467407.452 7
G09  22083153.195 7                  22083160.588 7 116047924.495 7                  90426857.008 7
G17  23447874.606 7                  23447880.082 6 123219534.691 7                  96015149.791 6
G19  22382119.135 7  22382122.000 5                 117618745.013 7  91651049.277 5
G31  22361997.465 7                  22362002.112 7 117513195.012 7                  91568676.318 7
R03  21050874.059 7  21050879.102 7 112687083.329 7  87645439.959 7
R04  19261838.550 8  19261842.383 7 103146318.846 8  80224890.959 7
R05  21616488.314 7  21616493.518 7 115552653.909 7  89874199.944 7
R12  23147571.870 4  23147578.264 5 123650176.274 4  96172375.31015
R18  22882460.535 7  22882467.441 7 122148297.290 7  95004119.740 7
R19  19765650.318 8  19765652.426 7 105732932.510 8  82236707.465 7
R20  20865561.351 5  20865567.557 7 111577558.284 5  86782557.040 7
> 2025 06 15 15 00  5.0000000  0 27
C05  39223070.830 5  39223067.904 6 204244817.357 5 157935040.328 6
C06  38271989.765 6  38271984.584 7 199292232.649 6 154105421.625 7
C11  23206912.300 7  23206908.671 7 120844501.685 7  93444599.772 7
C12  23416322.606 6  23416319.832 7 121935119.601 6  94287810.735 7
C16  38891341.045 6  38891342.020 6 202517517.660 6 156599318.159 6
C21  22055096.387 7                 114846754.579 7
C22  22708330.381 7                 118248409.627 7
E03  24101192.681 7  24101194.422 8 126652803.547 7  95811894.816 8
E05  22354847.583 8  22354849.505 9 117475482.660 8  88869469.312 9
E13  27519091.000 6  27519093.811 6 144613806.701 6 109399417.515 6
E15  23846596.081 8  23846597.886 8 125314819.468 8  94799771.757 8
E34  24247568.136 8  24247570.540 8 127422078.924 8  96393793.124 8
G01  22307011.932 7                  22307017.318 7 117224336.787 7                  91343506.496 7
G03  20364736.751 8                  20364742.710 7 107017510.661 8                  83390231.794 7
G04  20302057.703 7                  20302062.763 8 106688250.620 7                  83133558.996 8
G06  22821987.854 7                  22821996.103 7 119930330.180 7                  93452256.775 7
G09  22079272.758 7                  22079279.389 7 116027531.020 7                  90410966.003 7
G17  23449127.273 7                  23449132.482 6 123226116.761 7                  96020278.674 6
G19  22382177.621 7  22382181.330 5                 117619056.014 7  91651291.617 5
G31  22361854.456 7                  22361859.732 7 117512445.051 7                  91568091.923 7
R03  21052610.308 7  21052615.606 7 112696378.150 7  87652669.249 7
R04  19260749.979 8  19260754.258 7 103140491.815 8  80220358.824 7
R05  21612618.594 7  21612624.357 7 115531968.705 7  89858111.502 7
R12  23147612.142 5  23147618.507 6 123650384.596 5  96172537.282 6
R18  22885689.877 7  22885697.235 7 122165534.568 7  95017526.477 7
R19  19766414.947 8  19766416.810 7 105737022.926 8  82239888.892 7
R20  20862081.664 5  20862088.425 7 111558952.714 5  86768086.044 7
> 2025 06 15 15 00 10.0000000  0 27
C05  39222088.036 5  39222086.126 6 204239705.833 5 157931087.775 6
C06  38270908.569 6  38270904.302 7 199286606.400 6 154101071.056 7
C11  23205415.649 7  23205412.535 7 120836710.588 7  93438575.202 7
C12  23417791.742 6  23417788.303 7 121942767.256 6  94293724.383 7
C16  38890401.818 6  38890402.738 6 202512627.917 6 156595537.099 6
C21  22053340.873 7                 114837614.015 7
C22  22709231.725 7                 118253103.771 7
E03  24098573.367 8  24098575.171 8 126639039.373 8  95801482.309 8
E05  22354879.677 8  22354881.232 9 117475649.266 8  88869595.348 9
E13  27515330.165 6  27515333.054 6 144594043.581 6 109384466.844 6
E15  23844675.034 8  23844677.136 9 125304725.858 8  94792136.006 9
E34  24248379.856 8  24248382.273 8 127426344.581 8  96397020.059 8
G01  22309053.043 7                  22309058.495 7 117235063.597 7                  91351865.030 7
G03  20365078.193 8                  20365084.079 7 107019304.865 8                  83391629.867 7
G04  20300035.905 7                  20300040.958 8 106677625.751 7                  83125279.883 8
G06  22818288.980 7                  22818297.723 7 119910892.878 7                  93437110.830 7
G09  22075392.731 7                  22075399.533 7 116007142.573 7                  90395078.896 7
G17  23450380.604 7                  23450386.968 6 123232704.746 7                  96025412.158 6
G19  22382239.383 7  22382242.913 5                 117619380.535 7  91651544.494 5
G31  22361714.980 7                  22361719.613 7 117511709.927 7                  91567519.085 7
R03  21054346.890 7  21054352.087 7 112705676.511 7  87659901.311 7
R04  19259664.049 8  19259667.952 7 103134675.619 8  80215835.114 7
R05  21608749.753 7  21608755.715 7 115511288.825 7  89842027.170 7
R12  23147656.615 6  23147661.962 6 123650610.562 6  96172712.989 6
R18  22888919.118 7  22888926.240 7 122182773.725 7  95030934.673 7
R19  19767182.638 8  19767185.031 7 105741131.143 8  82243084.165 7
R20  20858605.015 5  20858611.601 7 111540361.674 5  86753626.336 7
> 2025 06 15 15 00 15.0000000  0 27
C05  39221107.210 5  39221104.217 6 204234592.108 5 157927133.531 6
C06  38269828.919 6  38269824.105 7 199280982.187 6 154096722.053 7
C11  23203921.832 7  23203918.633 7 120828931.605 7  93432560.002 7
C12  23419261.315 6  23419258.288 7 121950422.066 6  94299643.562 7
C16  38889462.945 6  38889464.265 6 202507739.977 6 156591757.438 6
C21  22051586.983 7                 114828479.581 7
C22  22710133.906 7                 118257801.140 7
E03  24095955.354 8  24095957.066 9 126625281.168 8  95791074.323 9
E05  22354912.561 8  22354914.109 9 117475821.950 8  88869725.982 9
E13  27511569.027 6  27511572.235 6 144574280.312 6 109369516.083 6
E15  23842755.877 8  23842757.808 9 125294639.635 8  94784505.848 9
E34  24249192.920 8  24249195.265 8 127430616.687 8  96400251.873 8
G01  22311094.822 7                  22311101.265 7 117245796.292 7                  91360228.169 7
G03  20365421.049 8                  20365427.231 7 107021106.751 8                  83393033.930 7
G04  20298015.837 7                  20298021.182 8 106667011.990 7                  83117009.428 8
G06  22814591.335 7                  22814600.136 7 119891462.280 7                  93421970.117 7
G09  22071514.470 7                  22071521.076 7 115986759.790 7                  90379196.207 7
G17  23451635.981 7                  23451641.814 6 123239299.291 7                  96030550.769 6
G19  22382303.613 7  22382307.285 5                 117619719.217 7  91651808.403 5
G31  22361578.293 7                  22361582.633 7 117510990.194 7                  91566958.241 7
R03  21056084.652 7  21056090.222 7 112714978.508 7  87667136.189 7
R04  19258579.664 8  19258583.857 7 103128871.091 8  80211320.481 7
R05  21604883.182 7  21604888.044 7 115490615.196 7  89825947.683 7
R12  23147702.045 6  23147707.561 6 123650854.869 6  96172903.026 6
R18  22892149.233 7  22892156.582 7 122200015.344 7  95044344.786 7
R19  19767954.721 8  19767956.880 7 105745257.799 8  82246293.786 7
R20  20855132.353 6  20855138.377 7 111521785.773 6  86739178.444 7
> 2025 06 15 15 00 20.0000000  0 27
C05  39220123.443 5  39220121.524 6 204229476.249 5 157923177.610 6
C06  38268748.518 6  38268744.325 7 199275360.037 6 154092374.666 7
C11  23202429.695 7  23202426.792 7 120821164.828 7  93426554.234 7
C12  23420732.182 6  23420729.847 7 121958084.224 6  94305568.414 7
C16  38888524.993 6  38888525.735 6 202502853.905 6 156587979.215 6
C21  22049834.295 7                 114819351.411 7
C22  22711036.323 7                 118262501.803 7
E03  24093338.081 8  24093340.107 8 126611529.071 8  95780670.958 8
E05  22354946.574 8  22354948.135 9 117476000.811 8  88869861.280 9
E13  27507807.646 6  27507811.496 6 144554517.034 6 109354565.300 6
E15  23840837.766 8  23840839.894 8 125284560.882 8  94776881.344 8
E34  24250007.350 8  24250009.474 8 127434895.353 8  96403488.646 8
G01  22313138.410 7                  22313144.564 7 117256534.970 7                  91368595.970 7
G03  20365765.202 7                  20365771.104 7 107022916.438 7                  83394444.080 7
G04  20295998.550 7                  20296003.456 8 106656409.472 7                  83108747.720 8
G06  22810895.351 7                  22810903.701 7 119872038.560 7                  93406834.762 7
G09  22067637.114 7                  22067643.313 7 115966382.751 7                  90363317.993 7
G17  23452891.407 7                  23452898.074 6 123245900.498 7                  96035694.561 6
G19  22382371.102 7  22382374.316 5                 117620072.147 7  91652083.396 5
G31  22361444.101 7                  22361448.241 7 117510285.997 7                  91566409.527 7
R03  21057822.978 7  21057828.128 7 112724284.699 7  87674374.346 7
R04  19257497.813 8  19257502.201 7 103123078.247 8  80206814.937 7
R05  21601016.422 7  21601021.860 7 115469947.572 7  89809872.888 7
R12  23147750.775 5  23147757.041 6 123651117.681 5  96173107.434 6
R18  22895380.047 7  22895386.532 7 122217259.600 7  95057756.969 7
R19  19768729.173 8  19768731.423 7 105749403.225 8  82249517.996 7
R20  20851659.973 6  20851667.192 7 111503225.004 6  86724742.287 7
> 2025 06 15 15 00 25.0000000  0 27
C05  39219140.947 5  39219138.687 6 204224358.588 5 157919220.320 6
C06  38267669.524 6  38267665.244 7 199269740.293 6 154088029.120 7
C11  23200940.853 7  23200937.895 7 120813410.535 7  93420558.119 7
C12  23422205.308 6  23422202.580 7 121965753.919 6  94311499.097 7
C16  38887586.961 6  38887588.115 6 202497970.055 6 156584202.706 6
C21  22048082.100 7                 114810229.798 7
C22  22711939.303 7                 118267206.098 7
E03  24090722.385 8  24090724.391 8 126597783.376 8  95770272.439 8
E05  22354981.800 8  22354983.385 9 117476186.130 8  88870001.478 9
E13  27504047.214 6  27504050.810 6 144534754.024 6 109339614.725 6
E15  23838921.348 8  23838923.485 9 125274489.913 8  94769262.726 9
E34  24250823.081 8  24250824.971 8 127439180.857 8  96406730.604 8
G01  22315183.392 7                  22315188.965 7 117267279.947 7                  91376968.663 7
G03  20366111.430 7                  20366117.333 7 107024734.238 7                  83395860.549 7
G04  20293982.878 7                  20293988.238 8 106645818.481 7                  83100495.005 8
G06  22807200.350 7                  22807208.862 7 119852621.982 7                  93391704.981 7
G09  22063760.552 7                  22063767.226 7 115946011.776 7                  90347444.528 7
G17  23454149.565 7                  23454155.573 6 123252508.634 7                  96040843.744 6
G19  22382441.512 7  22382444.054 5                 117620439.651 7  91652369.762 5
G31  22361313.530 7                  22361317.614 7 117509597.625 7                  91565873.125 7
R03  21059561.762 7  21059567.541 7 112733595.182 7  87681615.817 7
R04  19256418.372 8  19256422.578 7 103117297.258 8  80202318.605 7
R05  21597151.837 7  21597156.605 7 115449286.348 7  89793803.055 7
R12  23147803.155 6  23147809.950 6 123651399.238 6  96173326.416 6
R18  22898610.422 7  22898617.562 7 122234506.734 7  95071171.398 7
R19  19769507.837 8  19769509.662 7 105753567.634 8  82252756.968 7
R20  20848192.994 6  20848199.160 7 111484679.658 6  86710318.141 7
> 2025 06 15 15 00 30.0000000  0 27
C05  39218158.648 5  39218155.530 6 204219239.594 5 157915261.997 6
C06  38266591.429 6  38266586.636 7 199264123.442 6 154083685.824 7
C11  23199453.614 7  23199451.388 7 120805669.264 7  93414572.070 7
C12  23423679.566 6  23423677.109 7 121973431.741 6  94317436.071 7
C16  38886649.957 6  38886650.810 6 202493088.835 6 156580428.254 6
C21  22046331.713 8                 114801115.233 8
C22  22712844.040 7                 118271914.450 7
E03  24088107.835 8  24088109.959 8 126584044.602 8  95759879.151 8
E05  22355018.443 8  22355019.996 9 117476378.443 8  88870146.959 9
E13  27500286.266 6  27500290.176 6 144514991.835 6 109324664.761 6
E15  23837006.351 8  23837008.616 9 125264427.272 8  94761650.416 9
E34  24251639.586 8  24251641.880 8 127443473.717 8  96409978.113 8
G01  22317229.470 7                  22317235.132 7 117278031.706 7                  91385346.642 7
G03  20366458.237 7                  20366464.586 7 107026560.622 7                  83397283.709 7
G04  20291970.418 7                  20291974.909 8 106635239.523 7                  83092251.655 8
G06  22803507.196 7                  22803515.560 7 119833213.096 7                  93376581.177 7
G09  22059884.911 7                  22059891.923 7 115925647.403 7                  90331576.194 7
G17  23455408.247 7                  23455414.049 6 123259124.160 7                  96045998.686 6
G19  22382513.776 7  22382516.716 5                 117620822.235 7  91652667.879 5
G31  22361185.755 7                  22361189.645 7 117508925.545 7                  91565349.434 7
R03  21061302.082 7  21061307.553 7 112742910.538 7  87688861.081 7
R04  19255341.825 8  19255345.197 7 103111528.843 8  80197832.066 7
R05  21593287.431 7  21593292.631 7 115428632.351 7  89777738.847 7
R12  23147858.822 6  23147866.269 5 123651699.980 6  96173560.307 5
R18  22901843.429 7  22901848.888 6 122251757.322 7  95084588.483 6
R19  19770290.270 8  19770292.016 7 105757751.453 8  82256011.047 7
R20  20844727.097 6  20844733.688 7 111466150.337 6  86695906.459 7
> 2025 06 15 15 00 35.0000000  0 27
C05  39217175.111 5  39217172.498 6 204214119.484 5 157911302.791 6
C06  38265513.500 6  38265508.487 7 199258509.688 6 154079344.911 7
C11  23197970.381 7  23197967.081 7 120797941.162 7  93408596.228 7
C12  23425155.848 6  23425153.009 7 121981117.789 6  94323379.409 7
C16  38885712.778 6  38885714.022 6 202488210.490 6 156576656.007 6
C21  22044582.484 7                 114792007.883 7
C22  22713748.442 7                 118276627.084 7
E03  24085495.227 8  24085496.906 8 126570312.871 8  95749491.189 8
E05  22355056.465 8  22355057.965 9 117476577.884 8  88870297.838 9
E13  27496526.183 6  27496529.780 6 144495230.577 6 109309715.527 6
E15  23835093.270 8  23835095.395 9 125254373.105 8  94754044.504 9
E34  24252458.159 8  24252460.218 8 127447774.112 8  96413231.334 8
G01  22319276.839 7                  22319283.107 7 117288790.414 7                  91393730.038 7
G03  20366807.802 8                  20366813.517 7 107028395.789 8                  83398713.707 7
G04  20289959.157 7                  20289964.057 8 106624672.783 7                  83084017.842 8
G06  22799815.010 7                  22799823.654 7 119813812.043 7                  93361463.472 7
G09  22056011.025 7                  22056017.512 7 115905289.786 7                  90315713.113 7
G17  23456668.663 7                  23456674.621 6 123265747.282 7                  96051159.528 6
G19  22382589.307 7  22382592.096 5                 117621220.056 7  91652977.855 5
G31  22361060.456 7                  22361065.099 7 117508269.928 7                  91564838.577 7
R03  21063043.349 7  21063048.523 7 112752230.714 7  87696110.108 7
R04  19254267.191 8  19254270.241 7 103105773.056 8  80193355.334 7
R05  21589425.099 7  21589429.817 7 115407985.432 7  89761680.138 7
R12  23147919.496 6  23147924.882 5 123652020.125 6  96173809.347 5
R18  22905074.657 7  22905081.836 6 122269011.426 7  95098008.314 6
R19  19771075.685 8  19771077.807 7 105761954.857 8  82259280.363 7
R20  20841264.691 6  20841271.773 7 111447637.260 6  86681507.391 7
> 2025 06 15 15 00 40.0000000  0 27
C05  39216192.127 5  39216188.879 6 204208997.372 5 157907342.067 6
C06  38264435.355 6  38264430.848 7 199252898.148 6 154075005.706 7
C11  23196488.540 7  23196485.161 7 120790225.440 7  93402629.938 7
C12  23426632.959 6  23426630.485 7 121988811.280 6  94329328.498 7
C16  38884776.457 6  38884777.457 6 202483334.209 6 156572885.354 6
C21  22042834.732 7                 114782906.960 7
C22  22714654.156 7                 118281343.173 7
E03  24082882.989 8  24082885.061 8 126556587.441 8  95739107.997 8
E05  22355095.644 8  22355097.121 9 117476783.647 8  88870453.497 9
E13  27492766.196 6  27492769.475 6 144475469.497 6 109294766.405 6
E15  23833181.532 8  23833183.629 9 125244326.606 8  94746444.406 9
E34  24253277.781 8  24253279.830 8 127452081.218 8  96416489.620 8
G01  22321325.157 7                  22321331.159 7 117299555.219 7                  91402118.193 7
G03  20367158.704 8                  20367164.312 7 107030238.929 8                  83400149.927 7
G04  20287950.733 7                  20287955.389 8 106614117.457 7                  83075792.902 8
G06  22796124.765 6                  22796133.111 7 119794418.035 6                  93346351.279 7
G09  22052138.766 7                  22052144.724 7 115884938.138 7                  90299854.690 7
G17  23457930.409 7                  23457936.011 6 123272377.186 7                  96056325.669 6
G19  22382668.119 7  22382670.415 5                 117621632.242 7  91653299.040 5
G31  22360939.239 7                  22360943.461 7 117507630.010 7                  91564339.945 7
R03  21064785.053 7  21064790.252 7 112761555.196 7  87703362.487 7
R04  19253194.484 8  19253197.713 7 103100029.053 8  80188887.773 7
R05  21585564.554 7  21585569.041 7 115387344.929 7  89745626.429 7
R12  23147981.754 5  23147988.002 5 123652358.956 5  96174072.894 5
R18  22908307.816 7  22908314.603 6 122286268.244 7  95111430.249 6
R19  19771866.195 8  19771867.111 7 105766177.033 8  82262564.269 7
R20  20837806.138 6  20837812.301 7 111429139.604 6  86667120.341 7
> 2025 06 15 15 00 45.0000000  0 27
C05  39215207.422 5  39215204.956 6 204203872.804 5 157903379.432 6
C06  38263357.558 6  38263353.381 7 199247288.380 6 154070667.886 7
C11  23195009.684 7  23195005.736 7 120782521.556 7  93396672.813 7
C12  23428112.026 6  23428109.832 7 121996511.666 6  94335282.922 7
C16  38883840.298 6  38883841.053 6 202478459.426 6 156569115.878 6
C21  22041087.936 7                 114773811.909 7
C22  22715560.818 7                 118286062.160 7
E03  24080272.242 8  24080274.268 8 126542867.707 8  95728729.114 8
E05  22355135.649 8  22355137.367 9 117476995.186 8  88870613.523 9
E13  27489004.822 6  27489008.932 6 144455708.022 6 109279816.992 6
E15  23831271.081 8  23831273.194 9 125234287.243 8  94738849.694 9
E34  24254098.552 8  24254100.615 8 127456394.477 8  96419752.570 8
G01  22323374.180 7                  22323381.108 8 117310325.618 7                  91410510.696 8
G03  20367510.684 8                  20367516.589 7 107032089.459 8                  83401591.898 7
G04  20285944.334 7                  20285948.931 8 106603572.936 7                  83067576.412 8
G06  22792435.414 7                  22792443.855 7 119775030.569 7                  93331244.172 7
G09  22048266.981 7                  22048272.736 7 115864591.895 7                  90284000.478 7
G17  23459193.145 7                  23459198.924 6 123279013.234 7                  96061496.607 6
G19  22382748.910 7  22382751.383 5                 117622058.280 7  91653631.005 5
G31  22360820.046 7                  22360824.846 7 117507005.166 7                  91563853.053 7
R03  21066527.970 7  21066533.350 7 112770883.159 7  87710617.542 7
R04  19252123.564 8  19252126.975 7 103094296.249 8  80184428.937 7
R05  21581703.678 7  21581708.771 7 115366710.095 7  89729577.130 7
R12  23148049.697 5  23148054.089 4 123652715.763 5  96174350.423 4
R18  22911540.867 7  22911546.985 6 122303527.156 7  95124853.797 6
R19  19772657.491 8  19772659.995 7 105770417.414 8  82265862.350 7
R20  20834349.607 6  20834355.381 7 111410656.858 6  86652744.877 7
> 2025 06 15 15 00 50.0000000  0 27
C05  39214222.471 5  39214219.802 6 204198745.654 5 157899414.796 6
C06  38262281.500 6  38262276.472 7 199241680.224 6 154066331.303 7
C11  23193532.099 7  23193528.573 7 120774829.542 7  93390724.855 7
C12  23429591.468 6  23429589.733 7 122004218.844 6  94341242.591 7
C16  38882904.891 6  38882905.365 6 202473586.118 6 156565347.528 6
C21  22039342.760 7                 114764722.695 7
C22  22716467.577 7                 118290784.016 7
E03  24077662.759 8  24077664.577 8 126529153.675 8  95718354.545 8
E05  22355177.038 8  22355178.710 9 117477212.439 8  88870777.878 9
E13  27485245.494 6  27485248.355 6 144435946.213 6 109264867.318 6
E15  23829361.897 8  23829364.152 9 125224254.985 8  94731260.363 9
E34  24254920.607 8  24254922.591 8 127460713.871 8  96423020.159 8
G01  22325424.766 7                  22325431.299 7 117321101.563 7                  91418907.518 7
G03  20367863.724 7                  20367870.122 7 107033947.366 7                  83403039.622 7
G04  20283939.320 7                  20283944.301 8 106593039.269 7                  83059368.362 8
G06  22788746.899 7                  22788755.534 7 119755649.589 7                  93316142.104 7
G09  22044395.549 7                  22044402.019 7 115844251.077 7                  90268150.503 7
G17  23460456.380 7                  23460462.810 6 123285655.479 7                  96066672.393 6
G19  22382832.726 7  22382834.901 5                 117622498.120 7  91653973.736 5
G31  22360704.699 7                  22360708.765 7 117506395.442 7                  91563377.946 7
R03  21068271.822 7  21068276.120 7 112780214.667 7  87717875.397 7
R04  19251055.762 8  19251058.367 7 103088574.700 8  80179978.842 7
R05  21577844.115 7  21577849.716 7 115346080.938 7  89713532.234 7
R12  23148117.955 5  23148123.532 5 123653090.480 5  96174641.927 5
R18  22914774.823 7  22914781.081 6 122320788.234 7  95138279.040 6
R19  19773453.844 8  19773455.914 7 105774675.984 8  82269174.553 7
R20  20830896.028 5  20830901.975 7 111392188.895 5  86638380.908 7
> 2025 06 15 15 00 55.0000000  0 27
C05  39213237.051 5  39213234.979 6 204193616.47315 157895448.59816
C06  38261204.822 6  38261199.966 7 199236074.292 6 154061996.440 7
C11  23192057.120 7  23192053.804 7 120767149.753 7  93384786.354 7
C12  23431073.219 6  23431071.286 7 122011933.369 6  94347207.941 7
C16  38881969.031 6  38881969.746 7 202468714.762 6 156561580.682 7
C21  22037598.456 7                 114755639.809 7
C22  22717375.029 7                 118295509.233 7
E03  24075054.075 8  24075056.059 8 126515445.810 8  95707984.644 8
E05  22355219.447 8  22355221.222 9 117477435.920 8  88870946.940 9
E13  27481483.938 6  27481487.837 6 144416184.440 6 109249917.689 6
E15  23827454.430 8  23827456.530 8 125214230.316 8  94723676.771 8
E34  24255743.571 8  24255745.797 8 127465039.852 8  96426292.735 8
G01  22327477.131 7                  22327483.246 8 117331883.489 7                  91427309.002 8
G03  20368218.984 7                  20368225.102 7 107035813.118 7                  83404493.463 7
G04  20281937.017 7                  20281941.576 8 106582516.890 7                  83051169.105 8
G06  22785060.693 6                  22785068.933 7 119736275.615 6                  93301045.515 7
G09  22040526.366 7                  22040532.477 7 115823916.122 7                  90252305.090 7
G17  23461721.979 7                  23461728.016 6 123292304.361 7                  96071853.296 6
G19  22382918.335 7  22382921.279 5                 117622952.187 7  91654327.564 5
G31  22360591.305 7                  22360595.686 7 117505801.277 7                  91562914.968 7
R03  21070014.853 7  21070020.235 7 112789550.058 7  87725136.248 7
R04  19249989.286 8  19249992.275 7 103082864.943 8  80175537.923 7
R05  21573985.702 7  21573991.773 7 115325458.227 7  89697492.385 7
R12  23148192.587 5  23148197.018 4 123653483.770 5  96174947.763 4
R18  22918008.350 7  22918015.095 6 122338051.813 7  95151706.217 6
R19  19774253.560 8  19774255.692 7 105778953.135 8  82272501.224 7
R20  20827443.940 5  20827451.160 7 111373736.256 5  86624028.854 7
> 2025 06 15 15 01  0.0000000  0 27
C05  39212252.668 5  39212249.657 6 204188485.732 5 157891481.179 6
C06  38260128.376 6  38260124.231 7 199230470.985 6 154057663.612 7
C11  23190584.925 7  23190581.468 7 120759482.750 7  93378857.742 7
C12  23432557.112 6  23432554.004 7 122019655.630 6  94353179.271 7
C16  38881033.839 6  38881034.719 6 202463845.783 6 156557815.685 6
C21  22035855.461 7                 114746563.696 7
C22  22718283.334 7                 118300238.244 7
E03  24072447.048 8  24072448.808 9 126501744.598 8  95697619.779 9
E05  22355263.315 8  22355265.025 9 117477666.077 8  88871121.047 9
E13  27477723.020 6  27477727.443 6 144396423.228 6 109234968.464 6
E15  23825548.095 8  23825550.422 9 125204213.733 8  94716099.294 9
E34  24256568.329 8  24256570.359 8 127469372.914 8  96429570.665 8
G01  22329529.891 7                  22329536.104 7 117342671.883 7                  91435715.530 7
G03  20368575.495 7                  20368581.747 7 107037687.215 7                  83405953.800 7
G04  20279937.355 7                  20279941.679 8 106572006.298 7                  83042979.027 8
G06  22781374.447 6                  22781383.237 7 119716909.105 6                  93285954.740 7
G09  22036657.633 7                  22036664.264 7 115803587.518 7                  90236464.635 7
G17  23462989.179 7                  23462994.623 6 123298960.296 7                  96077039.713 6
G19  22383009.353 7  22383010.731 5                 117623421.048 7  91654692.898 5
G31  22360481.342 7                  22360485.828 7 117505223.132 7                  91562464.479 7
R03  21071759.765 7  21071765.086 7 112798889.955 7  87732400.586 7
R04  19248924.659 8  19248928.026 7 103077167.138 8  80171106.305 7
R05  21570129.404 7  21570135.679 7 115304842.183 7  89681457.688 7
R12  23148270.332 6  23148274.991 5 123653895.981 6  96175268.410 5
R18  22921243.834 7  22921250.486 6 122355318.415 7  95165135.767 6
R19  19775057.036 8  19775059.042 7 105783249.390 8  82275842.751 7
R20  20823997.582 6  20824003.035 7 111355299.510 6  86609689.160 7
> 2025 06 15 15 01  5.0000000  0 27
C05  39211267.662 5  39211264.167 6 204183353.331 5 157887512.482 6
C06  38259053.117 6  38259048.410 7 199224870.286 6 154053332.796 7
C11  23189114.716 7  23189111.551 7 120751828.491 7  93372938.993 7
C12  23434041.170 6  23434038.412 7 122027385.584 6  94359156.554 7
C16  38880099.421 6  38880100.479 6 202458979.248 6 156554052.564 6
C21  22034113.502 7                 114737494.367 7
C22  22719192.227 7                 118304971.047 7
E03  24069840.698 8  24069842.810 8 126488050.023 8  95687259.925 8
E05  22355308.281 8  22355310.109 9 117477902.868 8  88871300.178 9
E13  27473962.930 5  27473967.221 6 144376662.631 5 109220019.706 6
E15  23823643.713 8  23823645.884 8 125194205.190 8  94708527.899 8
E34  24257393.661 8  24257396.261 8 127473713.021 8  96432853.926 8
G01  22331583.341 7                  22331590.553 7 117353466.693 7                  91444127.068 7
G03  20368933.763 7                  20368939.771 7 107039569.597 7                  83407420.582 7
G04  20277939.993 7                  20277943.935 8 106561507.463 7                  83034798.121 8
G06  22777691.075 6                  22777699.381 7 119697550.064 6                  93270869.773 7
G09  22032790.907 7                  22032796.898 7 115783265.276 7                  90220629.123 7
G17  23464256.309 7                  23464261.759 6 123305623.256 7                  96082231.621 6
G19  22383100.352 7  22383103.175 5                 117623904.627 7  91655069.714 5
G31  22360374.326 7                  22360379.373 7 117504661.005 7                  91562026.453 7
R03  21073505.129 7  21073511.143 7 112808234.322 7  87739668.417 7
R04  19247863.185 8  19247866.435 7 103071481.528 8  80166684.164 7
R05  21566274.795 7  21566280.005 7 115284232.912 7  89665428.275 7
R12  23148352.341 6  23148356.111 4 123654327.133 6  96175603.723 4
R18  22924478.657 7  22924485.317 6 122372588.042 7  95178567.696 6
R19  19775863.170 8  19775865.447 7 105787564.800 8  82279199.171 7
R20  20820553.773 5  20820557.835 7 111336878.611 5  86595361.789 7
> 2025 06 15 15 01 10.0000000  0 27
C05  39210282.003 5  39210278.093 6 204178219.120 5 157883542.380 6
C06  38257977.616 6  38257973.332 7 199219271.902 6 154049003.774 7
C11  23187647.648 7  23187643.976 7 120744186.723 7  93367029.896 7
C12  23435527.721 6  23435524.483 7 122035123.029 6  94365139.625 7
C16  38879165.171 6  38879166.370 6 202454114.814 6 156550291.076 6
C21  22032372.838 7                 114728431.531 7
C22  22720101.629 7                 118309707.354 7
E03  24067236.243 8  24067238.047 9 126474361.798 8  95676904.888 9
E05  22355354.628 8  22355356.370 9 117478146.055 8  88871484.147 9
E13  27470203.554 5  27470207.031 6 144356902.260 5 109205071.136 6
E15  23821740.909 8  23821742.815 9 125184204.453 8  94700962.405 9
E34  24258221.346 7  24258223.452 8 127478059.905 7  96436142.310 8
G01  22333639.931 7                  22333645.742 7 117364267.658 7                  91452543.395 7
G03  20369293.741 8                  20369299.776 7 107041460.019 8                  83408893.623 7
G04  20275944.088 7                  20275948.236 8 106551020.101 7                  83026626.162 8
G06  22774008.545 7                  22774016.868 7 119678198.237 7                  93255790.434 7
G09  22028924.789 7                  22028931.101 7 115762949.139 7                  90204798.370 7
G17  23465525.287 7                  23465531.023 6 123312292.971 7                  96087428.789 6
G19  22383195.569 7  22383198.239 5                 117624402.657 7  91655457.767 5
G31  22360270.133 7                  22360274.823 7 117504114.618 7                  91561600.705 7
R03  21075251.859 7  21075257.334 7 112817582.864 7  87746939.506 7
R04  19246802.769 8  19246806.625 7 103065807.817 8  80162271.297 7
R05  21562420.366 7  21562425.397 7 115263630.243 7  89649403.980 7
R12  23148437.912 6  23148439.850 4 123654776.893 6  96175953.520 4
R18  22927714.548 7  22927720.900 6 122389860.359 7  95192001.679 6
R19  19776674.072 8  19776675.551 7 105791899.148 8  82282570.329 7
R20  20817111.688 6  20817116.260 7 111318473.403 6  86581046.638 7
> 2025 06 15 15 01 15.0000000  0 27
C05  39209295.299 5  39209291.977 6 204173083.452 5 157879571.166 6
C06  38256902.801 6  38256898.688 7 199213676.321 6 154044676.914 7
C11  23186182.424 7  23186179.003 7 120736557.895 7  93361130.808 7
C12  23437014.777 6  23437011.593 7 122042868.352 6  94371128.795 7
C16  38878231.648 6  38878232.606 6 202449252.942 6 156546531.569 6
C21  22030634.232 7                 114719375.634 7
C22  22721012.211 7                 118314447.612 7
E03  24064632.457 7  24064634.551 8 126460680.408 7  95666555.010 8
E05  22355402.125 8  22355403.951 9 117478396.060 8  88871673.269 9
E13  27466442.901 5  27466446.972 6 144337142.685 5 109190123.146 6
E15  23819839.297 8  23819841.306 8 125174211.951 8  94693403.147 8
E34  24259050.069 8  24259052.010 8 127482414.016 8  96439436.161 8
G01  22335695.768 7                  22335702.218 7 117375075.223 7                  91460964.861 7
G03  20369655.158 8                  20369660.945 7 107043358.911 8                  83410373.288 7
G04  20273950.105 7                  20273954.792 8 106540544.685 7                  83018463.503 8
G06  22770327.089 6                  22770335.713 7 119658854.066 6                  93240717.071 7
G09  22025059.508 7                  22025066.199 7 115742639.497 7                  90188972.691 7
G17  23466796.221 7                  23466801.447 6 123318969.887 7                  96092631.602 6
G19  22383292.472 7  22383296.007 5                 117624915.582 7  91655857.438 5
G31  22360169.037 7                  22360174.034 7 117503584.378 7                  91561187.541 7
R03  21076999.237 7  21077004.101 7 112826936.045 7  87754214.199 7
R04  19245746.307 8  19245749.507 7 103060146.536 8  80157868.080 7
R05  21558568.280 7  21558572.777 7 115243034.249 7  89633384.896 7
R12  23148524.426 6  23148526.931 4 123655245.710 6  96176318.177 4
R18  22930950.673 7  22930957.352 6 122407135.807 7  95205438.103 6
R19  19777487.733 8  19777489.668 7 105796252.690 8  82285956.426 7
R20  20813672.141 6  20813677.642 7 111300084.154 6  86566743.883 7
> 2025 06 15 15 01 20.0000000  0 27
C05  39208308.289 5  39208305.477 6 204167945.417 5 157875598.120 6
C06  38255828.462 6  38255824.405 7 199208082.565 6 154040351.470 7
C11  23184719.637 7  23184716.333 7 120728941.021 7  93355240.959 7
C12  23438502.939 6  23438499.999 7 122050620.612 6  94377123.311 7
C16  38877297.970 6  38877299.257 6 202444392.702 6 156542773.329 6
C21  22028896.289 7                 114710325.750 7
C22  22721923.361 7                 118319190.863 7
E03  24062030.120 8  24062032.185 8 126447004.870 8  95656209.563 8
E05  22355451.246 8  22355452.642 9 117478651.936 8  88871866.837 9
E13  27462681.797 5  27462686.793 6 144317382.835 5 109175174.963 6
E15  23817939.145 8  23817941.186 9 125164226.747 8  94685849.411 9
E34  24259879.673 8  24259881.777 8 127486774.392 8  96442734.755 8
G01  22337754.147 7                  22337759.529 7 117385888.421 7                  91469390.711 7
G03  20370018.070 7                  20370023.623 7 107045265.328 7                  83411858.808 7
G04  20271959.290 7                  20271963.596 8 106530080.256 7                  83010309.411 8
G06  22766647.408 6                  22766655.947 7 119639516.637 6                  93225648.950 7
G09  22021196.173 7                  22021202.475 7 115722335.480 7                  90173151.388 7
G17  23468068.877 7                  23468073.466 6 123325653.061 7                  96097839.219 6
G19  22383393.630 7  22383396.177 5                 117625442.409 7  91656267.938 5
G31  22360071.381 7                  22360075.860 7 117503069.346 7                  91560786.210 7
R03  21078746.569 7  21078752.480 7 112836292.915 7  87761491.762 7
R04  19244690.790 8  19244694.636 7 103054496.593 8  80153473.669 7
R05  21554714.236 7  21554721.156 7 115222444.454 7  89617370.614 7
R12  23148613.974 5  23148617.425 4 123655732.654 5  96176696.885 4
R18  22934187.241 7  22934194.147 6 122424413.414 7  95218876.205 6
R19  19778305.102 8  19778306.985 7 105800624.353 8  82289356.590 7
R20  20810235.170 5  20810241.397 7 111281710.053 5  86552452.917 7
> 2025 06 15 15 01 25.0000000  0 27
C05  39207321.541 5  39207318.324 6 204162805.575 5 157871623.673 6
C06  38254755.103 6  38254750.827 7 199202491.230 6 154036027.895 7
C11  23183259.318 7  23183255.725 7 120721336.716 7  93349360.828 7
C12  23439992.569 6  23439990.230 7 122058380.395 6  94383123.663 7
C16  38876365.384 6  38876366.031 6 202439534.653 6 156539016.780 6
C21  22027159.533 7                 114701282.412 7
C22  22722834.918 7                 118323937.703 7
E03  24059428.993 8  24059431.068 8 126433335.777 8  95645868.990 8
E05  22355500.900 8  22355502.561 9 117478914.222 8  88872065.254 9
E13  27458921.612 5  27458926.676 6 144297623.462 5 109160227.145 6
E15  23816040.639 8  23816042.587 9 125154249.415 8  94678301.624 9
E34  24260710.765 8  24260712.836 8 127491141.604 8  96446038.517 8
G01  22339812.290 7                  22339818.680 7 117396707.813 7                  91477821.406 7
G03  20370382.205 8                  20370388.172 7 107047179.814 8                  83413350.616 7
G04  20269969.651 7                  20269974.591 8 106519627.384 7                  83002164.319 8
G06  22762968.852 7                  22762977.261 7 119620186.516 7                  93210586.531 7
G09  22017333.428 7                  22017339.917 7 115702037.605 7                  90157334.891 7
G17  23469341.622 7                  23469346.318 6 123332343.021 7                  96103052.134 6
G19  22383496.047 7  22383499.101 5                 117625983.732 7  91656689.747 5
G31  22359976.095 7                  22359981.222 7 117502570.094 7                  91560397.179 7
R03  21080495.696 7  21080501.223 7 112845653.742 7  87768772.401 7
R04  19243638.286 8  19243641.807 7 103048858.474 8  80149088.480 7
R05  21550864.622 7  21550870.335 7 115201861.089 7  89601361.349 7
R12  23148706.750 5  23148712.868 4 123656238.346 5  96177090.275 4
R18  22937424.229 7  22937431.521 7 122441693.717 7  95232316.424 7
R19  19779125.754 8  19779127.588 7 105805014.872 8  82292771.430 7
R20  20806803.446 6  20806808.422 7 111263351.687 6  86538174.184 7
> 2025 06 15 15 01 30.0000000  0 27
C05  39206334.254 5  39206330.749 6 204157663.373 5 157867647.403 6
C06  38253681.658 6  38253677.297 7 199196901.724 6 154031705.736 7
C11  23181800.520 7  23181797.503 7 120713744.443 7  93343489.990 7
C12  23441484.632 6  23441481.954 7 122066147.106 6  94389129.369 7
C16  38875432.165 6  38875433.601 6 202434678.229 6 156535261.483 6
C21  22025424.382 7                 114692245.110 7
C22  22723746.897 7                 118328687.553 7
E03  24056828.864 7  24056831.057 8 126419672.578 7  95635532.874 8
E05  22355551.923 8  22355553.600 9 117479182.391 8  88872268.122 9
E13  27455161.927 5  27455166.559 6 144277863.887 5 109145279.146 6
E15  23814143.584 8  23814145.352 8 125144279.422 8  94670759.387 8
E34  24261543.210 8  24261545.100 8 127495515.104 8  96449347.034 8
G01  22341872.759 7                  22341878.672 7 117407532.856 7                  91486256.476 7
G03  20370748.775 8                  20370754.165 7 107049101.842 8                  83414848.304 7
G04  20267983.094 7                  20267987.557 8 106509185.531 7                  82994027.812 8
G06  22759292.316 6                  22759300.142 7 119600863.152 6                  93195529.374 7
G09  22013472.126 7                  22013478.563 7 115681745.381 7                  90141522.776 7
G17  23470615.940 7                  23470620.942 6 123339039.238 7                  96108269.940 6
G19  22383601.532 7  22383604.842 5                 117626538.963 7  91657122.388 5
G31  22359883.930 7                  22359888.847 7 117502086.089 7                  91560020.036 7
R03  21082245.707 8  21082250.639 7 112855018.383 8  87776056.006 7
R04  19242587.040 8  19242591.430 7 103043231.606 8  80144712.035 7
R05  21547015.258 7  21547020.888 7 115181283.781 7  89585356.789 7
R12  23148807.159 6  23148810.637 4 123656762.072 6  96177497.620 4
R18  22940663.356 7  22940668.777 6 122458976.225 7  95245758.323 6
R19  19779949.993 8  19779952.037 7 105809423.623 8  82296200.450 7
R20  20803372.075 5  20803378.508 7 111245008.497 5  86523907.274 7
> 2025 06 15 15 01 35.0000000  0 27
C05  39205346.281 5  39205343.442 6 204152520.613 5 157863670.700 6
C06  38252608.872 6  38252604.459 7 199191315.813 6 154027386.364 7
C11  23180345.773 7  23180342.360 7 120706165.897 7  93337629.789 7
C12  23442977.412 6  23442975.193 7 122073922.521 6  94395141.804 7
C16  38874500.491 6  38874501.405 6 202429825.209 6 156531508.831 6
C21  22023689.822 8                 114683215.571 8
C22  22724659.836 7                 118333442.156 7
E03  24054230.606 8  24054232.495 9 126406017.042 8  95625202.551 9
E05  22355604.545 8  22355606.083 9 117479458.184 8  88872476.762 9
E13  27451401.344 5  27451406.686 6 144258105.869 5 109130332.364 6
E15  23812248.119 8  23812249.878 8 125134318.518 8  94663224.027 8
E34  24262376.948 8  24262378.884 8 127499896.637 8  96452661.629 8
G01  22343933.956 7                  22343940.236 7 117418365.259 7                  91494697.305 7
G03  20371115.881 8                  20371121.317 7 107051033.174 8                  83416353.233 7
G04  20265998.223 7                  20266002.940 8 106498756.441 7                  82985901.265 8
G06  22755616.098 7                  22755624.965 7 119581548.357 7                  93180478.893 7
G09  22009611.965 7                  22009618.107 7 115661460.548 7                  90125716.424 7
G17  23471891.280 7                  23471896.475 5 123345743.452 7                  96113493.993 5
G19  22383711.458 7  22383713.399 5                 117627109.897 7  91657567.262 5
G31  22359794.943 7                  22359800.249 7 117501619.076 7                  91559656.124 7
R03  21083996.729 8  21084001.347 7 112864388.440 8  87783343.819 7
R04  19241539.235 8  19241543.000 7 103037618.106 8  80140345.981 7
R05  21543168.365 7  21543173.087 7 115160714.213 7  89569358.259 7
R12  23148909.740 6  23148912.196 4 123657305.655 6  96177920.349 4
R18  22943900.094 7  22943907.150 7 122476262.572 7  95259203.243 7
R19  19780777.091 8  19780779.809 7 105813852.469 8  82299645.116 7
R20  20799944.922 5  20799951.305 6 111226682.259 5  86509653.553 6
> 2025 06 15 15 01 40.0000000  0 27
C05  39204357.848 5  39204355.235 6 204147376.187 5 157859692.698 6
C06  38251537.494 6  38251532.323 7 199185732.473 6 154023068.974 7
C11  23178893.139 7  23178889.446 7 120698600.103 7  93331779.440 7
C12  23444472.671 6  23444469.716 7 122081705.515 6  94401160.102 7
C16  38873568.928 6  38873569.818 6 202424974.521 6 156527757.967 6
C21  22021957.649 7                 114674192.763 7
C22  22725573.731 7                 118338200.481 7
E03  24051633.398 7  24051635.186 8 126392368.085 7  95614877.207 8
E05  22355658.325 8  22355659.815 9 117479740.554 8  88872690.371 9
E13  27447641.688 5  27447646.957 6 144238348.418 5 109115385.999 6
E15  23810353.873 8  23810355.899 9 125124365.668 8  94655694.766 9
E34  24263211.907 8  24263213.966 8 127504285.154 8  96455981.509 8
G01  22345996.517 7                  22346002.362 7 117429204.008 7                  91503143.063 7
G03  20371485.185 8                  20371490.254 7 107052972.731 8                  83417864.577 7
G04  20264015.769 7                  20264020.761 8 106488339.071 7                  82977783.838 8
G06  22751941.839 7                  22751950.217 7 119562241.060 7                  93165434.258 7
G09  22005753.025 7                  22005759.517 7 115641182.053 7                  90109914.993 7
G17  23473168.444 7                  23473173.175 6 123352454.585 7                  96118723.434 6
G19  22383821.817 7  22383824.870 5                 117627695.419 7  91658023.495 5
G31  22359708.954 7                  22359714.103 7 117501167.982 7                  91559304.619 7
R03  21085747.564 8  21085752.552 7 112873762.804 8  87790634.972 7
R04  19240492.948 8  19240496.995 7 103032016.586 8  80135989.243 7
R05  21539321.991 7  21539326.024 7 115140151.345 7  89553364.943 7
R12  23149014.452 6  23149018.304 5 123657868.101 6  96178357.827 5
R18  22947139.663 7  22947146.372 7 122493551.775 7  95272650.352 7
R19  19781608.892 8  19781611.022 7 105818300.201 8  82303104.459 7
R20  20796522.355 5  20796527.070 7 111208372.068 5  86495412.311 7
> 2025 06 15 15 01 45.0000000  0 27
C05  39203369.287 5  39203367.111 6 204142231.010 5 157855714.121 6
C06  38250464.967 6  38250460.750 7 199180152.627 6 154018754.288 7
C11  23177442.709 7  23177439.353 7 120691047.943 7  93325939.639 7
C12  23445968.686 6  23445966.236 7 122089497.082 6  94407185.023 7
C16  38872637.651 6  38872639.079 6 202420127.110 6 156524009.636 6
C21  22020226.216 7                 114665177.587 7
C22  22726488.695 7                 118342963.430 7
E03  24049037.421 7  24049039.313 8 126378726.672 7  95604557.572 8
E05  22355713.235 8  22355714.960 9 117480030.424 8  88872909.657 9
E13  27443883.014 5  27443887.519 6 144218592.509 5 109100440.787 6
E15  23808461.884 8  23808463.660 8 125114421.805 8  94648172.296 8
E34  24264048.156 8  24264050.550 8 127508681.603 8  96459307.387 8
G01  22348060.181 7                  22348066.767 7 117440049.992 7                  91511594.474 7
G03  20371855.585 8                  20371861.304 7 107054921.454 8                  83419383.067 7
G04  20262035.490 7                  20262040.468 8 106477934.359 7                  82969676.275 8
G06  22748269.796 7                  22748277.503 7 119542942.209 7                  93150396.197 7
G09  22001895.635 7                  22001902.135 7 115620910.838 7                  90094119.271 7
G17  23474446.669 7                  23474452.442 5 123359173.549 7                  96123958.973 5
G19  22383936.429 7  22383939.420 5                 117628296.476 7  91658491.854 5
G31  22359626.265 7                  22359631.590 7 117500733.735 7                  91558966.230 7
R03  21087499.654 8  21087504.696 7 112883142.547 8  87797930.325 7
R04  19239449.695 8  19239453.623 7 103026428.089 8  80131642.628 7
R05  21535476.218 7  21535480.548 7 115119596.113 7  89537377.544 7
R12  23149121.731 5  23149128.807 4 123658450.343 5  96178810.738 4
R18  22950379.303 7  22950385.857 7 122510844.738 7  95286100.404 7
R19  19782444.068 8  19782446.550 7 105822767.872 8  82306579.315 7
R20  20793099.874 6  20793106.704 7 111190078.753 6  86481184.167 7
> 2025 06 15 15 01 50.0000000  0 27
C05  39202381.815 5  39202378.744 6 204137083.981 5 157851734.125 6
C06  38249394.133 6  38249389.535 7 199174575.129 6 154014441.420 7
C11  23175994.486 7  23175991.443 7 120683508.293 7  93320109.504 7
C12  23447467.140 6  23447463.975 7 122097296.021 6  94413215.640 7
C16  38871707.712 6  38871708.510 6 202415281.787 6 156520262.937 6
C21  22018496.397 7                 114656168.911 7
C22  22727403.522 7                 118347729.819 7
E03  24046443.048 8  24046444.653 8 126365091.627 8  95594242.760 8
E05  22355769.809 8  22355771.345 9 117480326.611 8  88873133.715 9
E13  27440123.786 5  27440128.199 6 144198836.897 5 109085495.801 6
E15  23806571.158 8  23806572.872 9 125104485.767 8  94640655.748 9
E34  24264886.442 8  24264888.429 8 127513084.771 8  96462638.354 8
G01  22350125.811 7                  22350131.673 7 117450902.078 7                  91520050.620 7
G03  20372228.104 8                  20372233.760 7 107056878.192 8                  83420907.800 7
G04  20260058.101 7                  20260063.026 8 106467541.137 7                  82961577.667 8
G06  22744598.486 7                  22744606.874 7 119523650.660 7                  93135363.823 7
G09  21998039.035 7                  21998045.395 7 115600645.789 7                  90078328.328 7
G17  23475726.727 7                  23475732.465 6 123365899.152 7                  96129199.715 6
G19  22384054.118 7  22384056.429 5                 117628911.899 7  91658971.400 5
G31  22359546.808 7                  22359551.924 7 117500315.158 7                  91558640.074 7
R03  21089252.993 8  21089257.258 7 112892526.091 8  87805228.623 7
R04  19238408.973 8  19238412.150 7 103020851.430 8  80127305.222 7
R05  21531631.887 7  21531636.453 7 115099047.467 7  89521395.300 7
R12  23149234.463 5  23149241.721 4 123659051.202 5  96179278.017 4
R18  22953619.735 7  22953625.715 7 122528140.216 7  95299552.428 7
R19  19783282.451 8  19783284.980 7 105827254.243 8  82310068.714 7
R20  20789681.707 5  20789688.422 7 111171801.114 5  86466968.234 7
> 2025 06 15 15 01 55.0000000  0 27
C05  39201392.395 5  39201389.735 6 204131935.064 5 157847752.646 6
C06  38248323.913 6  38248319.024 7 199168999.933 6 154010130.317 7
C11  23174549.451 7  23174545.963 7 120675981.140 7  93314289.028 7
C12  23448966.505 7  23448963.088 7 122105102.303 7  94419251.946 7
C16  38870777.525 6  38870778.433 6 202410438.587 6 156516517.869 6
C21  22016767.707 8                 114647166.718 8
C22  22728319.677 7                 118352499.706 7
E03  24043849.503 8  24043851.158 8 126351462.950 8  95583932.769 8
E05  22355827.253 8  22355828.916 9 117480629.137 8  88873362.584 9
E13  27436362.931 5  27436368.954 6 144179081.638 5 109070551.082 6
E15  23804682.016 8  23804683.628 8 125094557.561 8  94633145.124 8
E34  24265725.536 8  24265727.585 8 127517494.690 8  96465974.428 8
G01  22352191.912 7                  22352198.021 7 117461760.211 7                  91528511.493 7
G03  20372601.958 8                  20372607.842 7 107058842.933 8                  83422438.769 7
G04  20258082.770 7                  20258087.180 8 106457159.432 7                  82953488.030 8
G06  22740929.452 7                  22740937.105 7 119504366.433 7                  93120337.152 7
G09  21994184.006 7                  21994190.676 7 115580386.858 7                  90062542.169 7
G17  23477007.266 7                  23477012.785 6 123372631.464 7                  96134445.678 6
G19  22384173.314 7  22384176.665 5                 117629541.687 7  91659462.147 5
G31  22359470.634 7                  22359474.995 7 117499912.275 7                  91558326.152 7
R03  21091006.208 8  21091011.156 7 112901913.993 8  87812530.304 7
R04  19237368.381 8  19237373.003 7 103015286.468 8  80122976.921 7
R05  21527789.829 8  21527793.714 7 115078505.371 8  89505418.109 7
R12  23149350.858 5  23149358.534 4 123659670.546 5  96179759.744 4
R18  22956859.769 7  22956866.157 7 122545438.240 7  95313006.423 7
R19  19784124.945 8  19784127.493 7 105831759.308 8  82313572.633 7
R20  20786265.983 6  20786273.654 7 111153539.174 6  86452764.514 7
> 2025 06 15 15 02  0.0000000  0 28
C05  39200403.506 5  39200400.857 6 204126784.440 5 157843769.867 6
C06  38247254.020 6  38247248.851 7 199163427.217 6 154005821.145 7
C11  23173106.209 7  23173102.707 7 120668466.651 7  93308478.358 7
C12  23450466.828 7  23450463.635 7 122112916.098 7  94425294.059 7
C16  38869847.994 6  38869848.799 6 202405597.667 6 156512774.554 6
C21  22015040.201 8                 114638171.184 8
C22  22729236.412 7                 118357273.227 7
E03  24041257.001 8  24041258.979 8 126337840.818 8  95573627.726 8
E05  22355886.000 8  22355887.725 9 117480938.145 8  88873596.341 9
E13  27432604.277 5  27432609.717 6 144159326.861 5 109055606.763 6
E15  23802794.148 8  23802795.854 8 125084637.362 8  94625640.562 8
E34  24266565.611 8  24266568.081 8 127521911.531 8  96469315.736 8
G01  22354259.553 7                  22354265.656 8 117472624.586 7                  91536977.217 8
G03  20372977.304 8                  20372983.303 7 107060815.840 8                  83423976.093 7
G04  20256109.387 7                  20256114.094 8 106446789.358 7                  82945407.453 8
G06  22737260.447 7                  22737268.700 7 119485089.700 7                  93105316.317 7
G09  21990330.118 7                  21990336.414 7 115560134.250 7                  90046760.924 7
G17  23478290.532 7                  23478296.002 6 123379370.599 7                  96139696.907 6
G19  22384295.680 7  22384299.306 5                 117630185.954 7  91659964.182 5
G31  22359396.845 7                  22359401.502 7 117499525.254 7                  91558024.570 7
R03  21092760.247 8  21092765.557 7 112911305.926 8  87819835.120 7
R04  19236332.543 8  19236335.410 7 103009733.578 8  80118658.015 7
R05  21523947.162 7  21523952.355 7 115057969.959 7  89489446.170 7
R12  23149469.051 5  23149477.932 4 123660308.630 5  96180256.136 4
R13  22545719.295 5                 120392870.87915
R18  22960099.121 7  22960107.693 7 122562739.000 7  95326462.556 7
R19  19784971.130 8  19784972.840 7 105836283.191 8  82317091.201 7
R20  20782854.729 6  20782861.324 7 111135293.237 6  86438573.236 7
> 2025 06 15 15 02  5.0000000  0 28
C05  39199413.686 5  39199411.147 6 204121631.572 5 157839785.347 6
C06  38246184.435 6  38246179.135 6 199157856.470 6 154001513.492 6
C11  23171665.806 7  23171662.166 7 120660964.266 7  93302677.050 7
C12  23451969.156 7  23451965.306 7 122120736.878 7  94431341.579 7
C16  38868918.826 6  38868919.379 6 202400758.468 6 156509032.577 6
C21  22013313.922 8                 114629181.753 8
C22  22730153.501 7                 118362049.807 7
E03  24038665.827 8  24038667.908 8 126324224.682 8  95563327.212 8
E05  22355946.033 8  22355947.656 9 117481253.087 8  88873834.590 9
E13  27428845.600 5  27428850.564 6 144139572.092 5 109040662.439 6
E15  23800908.073 8  23800909.538 9 125074724.616 8  94618141.639 9
E34  24267407.243 8  24267409.783 8 127526334.708 8  96472661.839 8
G01  22356328.266 7                  22356334.097 7 117483494.599 7                  91545447.328 7
G03  20373354.188 8                  20373359.901 7 107062796.338 8                  83425519.348 7
G04  20254137.315 7                  20254142.904 8 106436430.400 7                  82937335.535 8
G06  22733593.985 7                  22733601.805 7 119465819.894 7                  93090300.898 7
G09  21986476.893 7                  21986483.458 7 115539887.388 7                  90030984.160 7
G17  23479573.388 7                  23479579.430 6 123386115.993 7                  96144953.035 6
G19  22384420.993 7  22384424.585 5                 117630844.234 7  91660477.114 5
G31  22359326.237 7                  22359330.585 7 117499153.508 7                  91557734.912 7
R03  21094516.135 8  21094520.789 7 112920701.568 8  87827142.842 7
R04  19235297.251 8  19235301.127 7 103004192.064 8  80114347.952 7
R05  21520107.072 7  21520111.828 7 115037440.558 7  89473478.857 7
R12  23149592.514 5  23149601.145 4 123660964.892 5  96180766.528 4
R13  22543004.278 5                 120378379.183 5
R18  22963341.526 6  22963349.064 7 122580041.803 6  95339920.243 7
R19  19785820.022 8  19785822.049 7 105840825.404 8  82320624.022 7
R20  20779445.745 6  20779452.421 7 111117062.739 6  86424393.976 7
