     3.04           OBSERVATION DATA    Mixed(MIXED)        RINEX VERSION / TYPE
cnvtToRINEX 3.14.0  convertToRINEX OPR  20250615 162734 UTC PGM / RUN BY / DATE 
----------------------------------------------------------- COMMENT             
39.1K                                                       MARKER NAME         
39.1K                                                       MARKER NUMBER       
GEODETIC                                                    MARKER TYPE         
GNSS Observer       Trimble                                 OBSERVER / AGENCY   
6203S17886          Geo Explorer 3      5.53                REC # / TYPE / VERS 
                    UNKNOWN EXT     NONE                    ANT # / TYPE        
  3912583.8450  1190649.1559  4878945.4245                  APPROX POSITION XYZ 
        1.3240        0.0000        0.0000                  ANTENNA: DELTA H/E/N
G    6 C1C C2W C2X L1C L2W L2X                              SYS / # / OBS TYPES 
C    4 C2I C7I L2I L7I                                      SYS / # / OBS TYPES 
R    4 C1C C2C L1C L2C                                      SYS / # / OBS TYPES 
E    4 C1X C8X L1X L8X                                      SYS / # / OBS TYPES 
     5.000                                                  INTERVAL            
  2025     6    15    12    55    0.0000000     GPS         TIME OF FIRST OBS   
  2025     6    15    13    36    5.0000000     GPS         TIME OF LAST OBS    
     0                                                      RCV CLOCK OFFS APPL 
  6 R02 -4 R03  5 R04  6 R17  4 R18 -3 R19  3               GLONASS SLOT / FRQ #
G L2X -0.25000                                              SYS / PHASE SHIFT   
R L2C -0.25000                                              SYS / PHASE SHIFT   
    18                                                      LEAP SECONDS        
    27                                                      # OF SATELLITES     
   C06   493   493   493   493                              PRN / # OF OBS      
   C12   494   494   494   494                              PRN / # OF OBS      
   C16   494   494   494   494                              PRN / # OF OBS      
   C19   494     0   494     0                              PRN / # OF OBS      
   C21   494     0   494     0                              PRN / # OF OBS      
   C22   494     0   494     0                              PRN / # OF OBS      
   E05   494   494   494   494                              PRN / # OF OBS      
   E06   324   316   322   316                              PRN / # OF OBS      
   E09   494   494   494   494                              PRN / # OF OBS      
   E15   494   494   494   494                              PRN / # OF OBS      
   E34   494   494   494   494                              PRN / # OF OBS      
   E36   494   494   494   494                              PRN / # OF OBS      
   G01   494     0   494   494     0   494                  PRN / # OF OBS      
   G02   494   494     0   494   494     0                  PRN / # OF OBS      
   G03   494     0   494   494     0   494                  PRN / # OF OBS      
   G04   223     0   215   217     0   215                  PRN / # OF OBS      
   G17   494     0   494   494     0   494                  PRN / # OF OBS      
   G19    47     0     0    40     0     0                  PRN / # OF OBS      
   G28   457     0   447   453     0   447                  PRN / # OF OBS      
   G31    19     0    13    19     0    13                  PRN / # OF OBS      
   G32   343     0   309   336     0   309                  PRN / # OF OBS      
   R02   481   479   480   479                              PRN / # OF OBS      
   R03   494   494   494   494                              PRN / # OF OBS      
   R04   494   494   494   494                              PRN / # OF OBS      
   R17   243   196   236   190                              PRN / # OF OBS      
   R18   494   494   494   494                              PRN / # OF OBS      
   R19   494   494   494   494                              PRN / # OF OBS      
DBHZ                                                        SIGNAL STRENGTH UNIT
                                                            END OF HEADER       
>                              2  1
              *** Start of Kinematic Data ***               COMMENT             
> 2025 06 15 12 55  0.0000000  0 22
C12  22473286.957 7  22473282.593 7 117024294.42017  90602251.98317
C16  39820473.743 6  39820476.390 6 207355658.86616 160340554.48116
C19  23574277.880 7                 122757449.62917
C21  25001533.119 6                 130189555.45816
C22  21640467.371 7                 112687591.65117
E05  23028349.986 8  23028352.200 9 121014794.35818  91546916.75619
E06  26173383.630 7  26173386.491 8 137542053.43817 104049682.16718
E09  24934484.287 8  24934485.445 8 131031594.92418  99124556.43018
E15  26744124.272 6  26744128.515 7 140541327.86416 106318617.82917
E34  23550349.618 8  23550351.237 9 123757921.14618  93622070.62419
E36  24778775.476 8  24778778.701 8 130213345.14318  98505560.24218
G01  20250831.577 8                  20250835.805 8 106418840.13418                  82923785.23318
G02  21240707.717 8  21240709.639 6                 111620666.96918  86977157.33016
G03  20721649.429 7                  20721656.664 7 108893005.26017                  84851721.36517
G17  22907350.196 7                  22907355.558 7 120378939.37017                  93802047.41717
G32  23192002.274 7                  23192009.881 7 121874795.03117                  94967398.23617
R02  20741600.305 8  20741606.415 7 110681159.75518  86085240.35417
R03  19450840.443 8  19450845.457 7 104121868.99918  80983885.94117
R04  22420834.984 6  22420840.690 7 120062487.93516  93382019.57717
R17  21141562.928 5  21141570.065 7 113132777.69215  87992018.74317
R18  19201932.900 8  19201936.978 7 102501232.14618  79723284.15717
R19  21481438.104 7  21481438.530 6 114911207.56517  89375406.14416
> 2025 06 15 12 55  5.0000000  0 23
C06  39428705.182 6  39428702.195 6 205315606.78616 158763044.75416
C12  22470936.801 7  22470932.028 7 117012054.633 7  90592787.423 7
C16  39818142.392 6  39818145.156 6 207343520.293 6 160331168.167 6
C19  23575375.861 7                 122763168.119 7
C21  24997486.432 6                 130168481.225 6
C22  21638638.021 7                 112678067.863 7
E05  23025333.743 8  23025335.858 9 120998943.362 8  91534925.588 9
E06  26174229.353 7  26174232.396 8 137546498.809 7 104053045.071 8
E09  24934264.522 8  24934265.378 8 131030438.614 8  99123681.697 8
E15  26740560.438 6  26740564.211 7 140522597.125 6 106304448.171 7
E34  23548530.033 8  23548531.574 9 123748358.875 8  93614836.830 9
E36  24779368.611 8  24779371.850 8 130216462.377 8  98507918.400 8
G01  20249296.445 8                  20249300.729 8 106410772.714 8                  82917498.936 8
G02  21240961.141 8  21240963.547 6                 111622000.981 8  86978196.817 6
G03  20718786.914 7                  20718793.781 7 108877962.357 7                  84839999.619 7
G17  22904585.707 7                  22904590.401 7 120364409.956 7                  93790725.776 7
G32  23193318.333 7                  23193325.890 7 121881710.636 7                  94972787.010 7
R02  20743218.778 8  20743222.983 7 110689789.858 8  86091952.663 7
R03  19448560.304 8  19448564.679 7 104109661.061 8  80974390.889 7
R04  22415971.040 6  22415977.354 7 120036443.575 6  93361762.878 7
R17  21143628.604 6  21143635.322 6 113143829.076 6  88000614.274 6
R18  19200856.900 8  19200860.694 7 102495486.465 8  79718815.284 7
R19  21477026.036 7  21477028.011 6 114887613.919 7  89357055.567 6
>                              3  5
              *** Start of Occupation ***                   COMMENT             
39.1K                                                       MARKER NAME         
39.1K                                                       MARKER NUMBER       
  3912583.8450  1190649.1559  4878945.4245                  APPROX POSITION XYZ 
        1.3240        0.0000        0.0000                  ANTENNA: DELTA H/E/N
> 2025 06 15 12 55 10.0000000  0 23
C06  39426228.562 6  39426226.313 6 205302714.893 6 158753075.938 6
C12  22468588.670 7  22468584.052 7 116999826.484 7  90583331.837 7
C16  39815812.275 6  39815815.212 6 207331385.703 6 160321784.936 6
C19  23576475.481 7                 122768893.400 7
C21  24993439.788 6                 130147412.010 6
C22  21636811.058 8                 112668555.688 8
E05  23022318.441 8  23022321.253 9 120983101.699 8  91522941.482 9
E06  26175077.262 7  26175079.891 8 137550952.139 7 104056413.983 8
E09  24934046.166 8  24934047.445 8 131029293.325 8  99122815.298 8
E15  26736996.079 6  26737000.132 7 140503867.766 6 106290279.528 7
E34  23546711.420 8  23546713.268 9 123738803.557 8  93607608.304 9
E36  24779962.512 8  24779966.202 8 130219585.646 8  98510281.125 8
G01  20247763.247 8                  20247767.895 8 106402717.596 8                  82911222.204 8
G02  21241217.111 8  21241219.133 6                 111623345.211 8  86979244.263 6
G03  20715926.593 7                  20715933.180 7 108862929.625 7                  84828285.810 7
G17  22901823.055 7                  22901827.943 7 120349893.353 7                  93779414.132 7
G32  23194636.159 7                  23194643.856 7 121888635.862 7                  94978183.286 7
R02  20744838.166 8  20744842.311 7 110698431.727 8  86098674.122 7
R03  19446282.536 7  19446287.504 7 104097471.755 7  80964910.313 7
R04  22411107.936 6  22411114.775 7 120010407.147 6  93341512.328 7
R17  21145694.533 6  21145703.131 6 113154892.477 6  88009219.126 6
R18  19199784.936 8  19199787.332 7 102489759.870 8  79714361.268 7
R19  21472617.404 7  21472618.658 6 114864028.624 7  89338711.503 6
> 2025 06 15 12 55 15.0000000  0 23
C06  39423754.256 6  39423751.211 6 205289827.031 6 158743110.231 6
C12  22466242.409 7  22466237.674 7 116987610.268 7  90573885.487 7
C16  39813482.431 6  39813485.623 6 207319255.426 6 160312405.025 6
C19  23577577.016 7                 122774625.843 7
C21  24989394.631 6                 130126348.226 6
C22  21634986.986 7                 112659055.399 7
E05  23019305.654 8  23019308.532 9 120967269.646 8  91510964.648 9
E06  26175925.811 7  26175928.915 8 137555413.713 7 104059789.134 8
E09  24933830.071 8  24933831.654 8 131028159.379 8  99121957.471 8
E15  26733432.440 6  26733436.474 7 140485140.060 6 106276112.158 7
E34  23544894.683 8  23544896.357 9 123729255.516 8  93600385.264 9
E36  24780558.719 8  24780561.740 8 130222715.285 8  98512648.659 8
G01  20246232.614 8                  20246237.450 8 106394675.090 8                  82904955.322 8
G02  21241474.831 7  21241476.781 6                 111624700.072 7  86980299.992 6
G03  20713067.812 7                  20713074.539 7 108847907.367 7                  84816580.149 7
G17  22899063.702 7                  22899067.724 7 120335389.816 7                  93768112.681 7
G32  23195955.825 7                  23195964.132 7 121895571.080 7                  94983587.354 7
R02  20746460.228 8  20746464.959 7 110707085.814 8  86105405.051 7
R03  19444009.125 7  19444014.043 7 104085301.463 7  80955444.549 7
R04  22406246.806 6  22406253.836 7 119984378.694 6  93321268.023 7
R17  21147765.469 6  21147772.925 6 113165968.202 6  88017833.544 6
R18  19198716.169 8  19198718.510 7 102484052.675 8  79709922.338 7
R19  21468208.370 7  21468211.104 6 114840451.870 7  89320374.044 6
> 2025 06 15 12 55 20.0000000  0 23
C06  39421279.813 6  39421277.092 6 205276942.813 6 158733147.348 6
C12  22463898.617 7  22463894.078 7 116975405.491 7  90564447.979 7
C16  39811153.588 6  39811156.626 6 207307128.892 6 160303028.030 6
C19  23578678.917 7                 122780364.870 7
C21  24985350.095 6                 130105289.300 6
C22  21633164.553 7                 112649566.486 7
E05  23016294.563 8  23016297.475 9 120951446.664 8  91498994.679 9
E06  26176775.821 7  26176779.401 8 137559882.972 7 104063170.094 8
E09  24933616.243 8  24933617.918 8 131027036.238 8  99121107.815 8
E15  26729869.463 6  26729872.979 7 140466413.494 6 106261945.653 7
E34  23543079.127 8  23543080.708 9 123719714.208 8  93593167.332 9
E36  24781155.744 8  24781158.403 8 130225850.746 8  98515020.604 8
G01  20244705.035 8                  20244709.386 8 106386644.649 8                  82898697.836 8
G02  21241734.711 8  21241736.259 6                 111626064.968 8  86981363.536 6
G03  20710211.181 7                  20710217.721 7 108832895.057 7                  84804882.246 7
G17  22896305.945 7                  22896310.558 7 120320898.935 7                  93756821.105 7
G32  23197277.461 7                  23197285.251 7 121902515.709 7                  94988998.750 7
R02  20748084.499 8  20748088.710 7 110715751.569 8  86112145.062 7
R03  19441738.908 7  19441743.677 7 104073149.522 7  80945993.038 7
R04  22401388.103 6  22401394.768 7 119958357.924 6  93301029.657 7
R17  21149838.351 6  21149844.942 7 113177055.593 6  88026457.045 7
R18  19197650.136 8  19197653.275 7 102478364.326 8  79705498.071 7
R19  21463801.944 7  21463804.998 6 114816883.139 7  89302042.839 6
> 2025 06 15 12 55 25.0000000  0 23
C06  39418805.783 6  39418803.553 6 205264063.430 6 158723188.189 6
C12  22461556.969 7  22461552.445 7 116963213.421 7  90555020.293 7
C16  39808826.078 6  39808828.871 6 207295007.392 6 160293654.907 6
C19  23579782.585 7                 122786111.751 7
C21  24981307.168 6                 130084236.514 6
C22  21631344.511 7                 112640090.232 7
E05  23013285.634 8  23013288.430 9 120935634.063 8  91487032.551 9
E06  26177628.104 7  26177631.598 8 137564361.215 7 104066557.854 8
E09  24933405.038 8  24933406.494 8 131025925.159 8  99120267.289 8
E15  26726306.197 6  26726309.918 7 140447689.351 6 106247780.968 7
E34  23541265.133 8  23541266.581 9 123710180.909 8  93585955.450 9
E36  24781753.676 8  24781756.434 8 130228993.308 8  98517397.920 8
G01  20243179.073 8                  20243183.447 8 106378627.559 8                  82892450.743 8
G02  21241996.548 8  21241997.987 6                 111627441.137 8  86982435.873 6
G03  20707356.691 7                  20707363.217 7 108817893.952 7                  84793193.082 7
G17  22893549.969 7                  22893555.893 7 120306422.016 7                  93745540.381 7
G32  23198601.491 7                  23198608.622 7 121909470.987 7                  94994418.436 7
R02  20749710.445 8  20749715.077 7 110724430.139 8  86118895.057 7
R03  19439472.124 8  19439477.472 7 104061017.513 8  80936557.033 7
R04  22396529.899 6  22396537.098 6 119932345.977 6  93280798.187 6
R17  21151912.202 6  21151919.290 6 113188155.865 6  88035090.580 6
R18  19196587.458 8  19196590.795 7 102472696.144 8  79701089.495 7
R19  21459398.505 7  21459401.333 5 114793323.823 7  89283718.930 5
> 2025 06 15 12 55 30.0000000  0 23
C06  39416334.089 6  39416330.906 6 205251187.340 6 158713231.579 6
C12  22459216.836 7  22459213.310 7 116951032.533 7  90545601.253 7
C16  39806499.370 6  39806501.689 6 207282889.415 6 160284284.527 6
C19  23580886.929 7                 122791864.969 7
C21  24977265.562 6                 130063188.367 6
C22  21629526.700 7                 112630625.103 7
E05  23010278.730 8  23010281.067 9 120919830.292 8  91475077.109 9
E06  26178481.202 7  26178485.276 8 137568846.899 7 104069951.223 8
E09  24933195.375 8  24933197.095 8 131024824.603 8  99119434.722 8
E15  26722743.686 6  26722747.074 7 140428966.131 6 106233616.988 7
E34  23539451.873 8  23539453.691 9 123700654.095 8  93578748.485 9
E36  24782352.565 8  24782355.502 8 130232141.438 8  98519779.457 8
G01  20241656.056 7                  20241660.302 8 106370622.321 7                  82886212.889 8
G02  21242260.689 8  21242261.582 6                 111628827.111 8  86983515.861 6
G03  20704503.656 7                  20704510.203 7 108802902.548 7                  84781511.488 7
G17  22890798.591 7                  22890802.939 7 120291957.553 7                  93734269.353 7
G32  23199925.978 7                  23199934.227 7 121916435.445 7                  94999845.288 7
R02  20751338.864 8  20751343.694 7 110733120.279 8  86125654.066 7
R03  19437208.895 8  19437215.133 7 104048903.441 8  80927134.973 7
R04  22391673.906 6  22391681.360 6 119906341.394 6  93260572.419 6
R17  21153989.124 6  21153995.954 6 113199267.763 6  88043733.132 6
R18  19195528.818 8  19195532.506 7 102467046.553 8  79696695.366 7
R19  21454996.391 7  21454998.698 5 114769772.349 7  89265401.093 5
> 2025 06 15 12 55 35.0000000  0 23
C06  39413861.864 6  39413858.527 6 205238314.305 6 158703277.339 6
C12  22456879.752 7  22456875.992 7 116938862.561 7  90536190.658 7
C16  39804172.847 6  39804174.593 6 207270774.683 6 160274916.637 6
C19  23581992.813 7                 122797624.202 7
C21  24973223.240 6                 130042144.592 6
C22  21627710.530 7                 112621170.798 7
E05  23007273.013 8  23007275.304 9 120904035.102 8  91463128.156 9
E06  26179336.538 7  26179340.264 8 137573339.709 7 104073349.988 8
E09  24932988.068 8  24932989.662 8 131023734.293 8  99118609.905 8
E15  26719179.810 6  26719184.365 7 140410243.504 6 106219453.454 7
E34  23537640.586 8  23537641.974 9 123691133.499 8  93571546.218 9
E36  24782952.630 8  24782955.574 8 130235294.838 8  98522164.981 8
G01  20240134.789 8                  20240138.963 8 106362628.625 8                  82879984.027 8
G02  21242525.425 8  21242526.743 6                 111630222.577 8  86984603.248 6
G03  20701653.421 7                  20701659.221 7 108787920.561 7                  84769837.226 7
G17  22888048.606 7                  22888052.536 7 120277505.179 7                  93723007.775 7
G32  23201253.030 7                  23201261.461 7 121923408.739 7                  95005279.032 7
R02  20752969.437 8  20752974.165 7 110741821.328 8  86132421.548 7
R03  19434950.116 7  19434955.035 8 104036807.626 7  80917727.128 8
R04  22386819.768 6  22386826.813 6 119880343.771 6  93240352.101 6
R17  21156068.730 6  21156074.384 6 113210390.761 6  88052384.304 6
R18  19194473.521 7  19194477.441 7 102461415.265 7  79692315.468 7
R19  21450595.300 7  21450597.744 5 114746228.472 7  89247089.239 5
> 2025 06 15 12 55 40.0000000  0 23
C06  39411390.465 6  39411387.127 6 205225445.322 6 158693326.228 6
C12  22454544.988 7  22454541.227 7 116926704.507 7  90526789.276 7
C16  39801847.529 6  39801848.769 6 207258664.148 6 160265552.012 6
C19  23583100.942 7                 122803390.455 7
C21  24969183.698 6                 130021106.099 6
C22  21625897.365 7                 112611728.317 7
E05  23004269.200 8  23004271.374 9 120888249.464 8  91451186.425 9
E06  26180192.897 7  26180196.763 8 137577840.646 7 104076754.914 8
E09  24932782.984 8  24932784.361 8 131022655.216 8  99117793.596 8
E15  26715618.449 6  26715621.947 7 140391522.474 6 106205291.137 7
E34  23535830.022 8  23535831.604 9 123681620.108 8  93564349.397 9
E36  24783554.329 8  24783556.858 8 130238454.532 8  98524555.267 8
G01  20238616.472 8                  20238620.206 8 106354647.476 8                  82873764.941 8
G02  21242793.362 8  21242794.118 6                 111631628.548 8  86985698.809 6
G03  20698803.660 7                  20698810.384 7 108772948.990 7                  84758171.076 7
G17  22885301.376 7                  22885304.941 6 120263065.926 7                  93711756.446 6
G32  23202582.144 7                  23202590.088 7 121930391.842 7                  95010720.401 7
R02  20754602.284 8  20754607.409 7 110750534.514 8  86139198.461 7
R03  19432693.913 7  19432699.320 8 104024730.541 7  80908333.851 8
R04  22381966.460 7  22381973.891 7 119854354.237 7  93220138.030 7
R17  21158150.579 6  21158156.115 6 113221525.844 6  88061044.922 6
R18  19193422.516 8  19193426.646 7 102455803.346 8  79687950.665 7
R19  21446195.632 7  21446198.219 5 114722693.135 7  89228783.986 5
> 2025 06 15 12 55 45.0000000  0 23
C06  39408920.667 6  39408916.640 6 205212580.046 6 158683377.971 6
C12  22452211.794 7  22452208.703 7 116914558.004 7  90517396.823 7
C16  39799522.104 6  39799523.922 6 207246557.531 6 160256190.405 6
C19  23584209.705 7                 122809163.383 7
C21  24965143.656 6                 130000072.689 6
C22  21624086.127 7                 112602297.335 7
E05  23001267.166 8  23001269.180 9 120872473.056 8  91439251.687 9
E06  26181050.362 7  26181054.747 8 137582349.363 7 104080165.712 8
E09  24932579.474 7  24932581.138 8 131021587.035 7  99116985.520 8
E15  26712055.619 6  26712059.673 7 140372802.755 6 106191129.794 7
E34  23534020.900 8  23534022.528 9 123672113.604 8  93557157.782 9
E36  24784156.595 8  24784159.280 8 130241620.158 8  98526950.039 8
G01  20237100.138 8                  20237104.040 8 106346678.553 8                  82867555.406 8
G02  21243062.794 7  21243063.418 6                 111633044.667 7  86986802.282 6
G03  20695956.920 7                  20695963.510 7 108757987.545 7                  84746512.803 7
G17  22882555.835 7                  22882559.993 7 120248639.484 7                  93700515.099 7
G32  23203912.482 7                  23203920.769 7 121937384.456 7                  95016169.189 7
R02  20756237.459 8  20756242.260 7 110759259.284 8  86145984.382 7
R03  19430441.890 8  19430446.852 7 104012671.940 8  80898954.938 7
R04  22377114.565 7  22377121.425 7 119828372.430 7  93199929.991 7
R17  21160232.089 6  21160238.658 6 113232672.786 6  88069714.742 6
R18  19192374.307 8  19192378.758 7 102450210.435 8  79683600.628 7
R19  21441797.628 7  21441800.162 6 114699166.066 7  89210485.163 6
> 2025 06 15 12 55 50.0000000  0 23
C06  39406450.171 6  39406446.844 6 205199718.409 6 158673432.559 6
C12  22449881.785 7  22449878.218 7 116902423.042 7  90508013.303 7
C16  39797198.099 6  39797200.063 6 207234454.729 6 160246831.775 6
C19  23585319.399 7                 122814942.908 7
C21  24961106.420 6                 129979044.167 6
C22  21622277.135 7                 112592877.809 7
E05  22998266.802 8  22998268.769 9 120856705.833 8  91427323.885 9
E06  26181910.378 7  26181914.190 8 137586865.782 7 104083582.343 8
E09  24932378.103 7  24932379.985 8 131020529.687 7  99116185.636 8
E15  26708493.260 6  26708497.738 7 140354084.281 6 106176969.429 7
E34  23532212.935 8  23532214.759 9 123662613.916 8  93549971.333 9
E36  24784760.049 8  24784762.849 8 130244791.662 8  98529349.250 8
G01  20235586.117 8                  20235589.759 8 106338721.789 8                  82861355.319 8
G02  21243334.261 8  21243334.603 6                 111634470.904 8  86987913.638 6
G03  20693112.005 7                  20693118.072 7 108743036.105 7                  84734862.330 7
G17  22879812.101 7                  22879817.034 7 120234225.789 7                  93689283.650 7
G32  23205245.233 7                  23205253.380 7 121944386.469 7                  95021625.304 7
R02  20757874.581 8  20757879.361 7 110767995.573 8  86152779.252 7
R03  19428192.341 8  19428197.475 7 104000631.978 8  80889590.524 7
R04  22372264.869 7  22372270.968 7 119802398.349 7  93179727.944 7
R17  21162316.212 6  21162324.000 6 113243831.369 6  88078393.639 6
R18  19191330.939 8  19191334.187 7 102444636.489 8  79679265.337 7
R19  21437401.739 7  21437403.591 6 114675647.181 7  89192192.688 6
> 2025 06 15 12 55 55.0000000  0 23
C06  39403981.717 6  39403977.939 6 205186860.864 6 158663490.293 6
C12  22447553.579 7  22447549.989 7 116890300.073 7  90498639.058 7
C16  39794875.047 6  39794876.451 6 207222356.239 6 160237476.463 6
C19  23586430.663 7                 122820729.471 7
C21  24957069.412 6                 129958021.104 6
C22  21620469.862 7                 112583470.117 7
E05  22995268.094 8  22995270.252 8 120840948.210 8  91415403.363 8
E06  26182770.918 7  26182775.183 8 137591390.375 7 104087005.165 8
E09  24932179.000 7  24932180.942 8 131019483.597 7  99115394.268 8
E15  26704931.960 6  26704936.284 7 140335367.468 6 106162810.291 7
E34  23530406.990 8  23530408.424 9 123653121.476 8  93542790.364 9
E36  24785365.255 8  24785367.593 8 130247969.494 8  98531753.259 8
G01  20234074.648 8                  20234078.210 8 106330777.647 8                  82855165.074 8
G02  21243607.654 8  21243608.044 6                 111635907.677 8  86989033.202 6
G03  20690268.567 7                  20690275.035 7 108728095.135 7                  84723219.993 7
G17  22877071.538 7                  22877076.464 7 120219825.262 7                  93678062.498 7
G32  23206579.584 7                  23206587.734 7 121951398.323 7                  95027089.070 7
R02  20759514.165 8  20759518.486 7 110776743.918 8  86159583.523 7
R03  19425947.041 8  19425952.165 7 103988610.955 8  80880240.833 7
R04  22367415.423 7  22367422.609 7 119776432.380 7  93159532.193 7
R17  21164402.140 5  21164411.755 6 113255002.081 5  88087081.996 6
R18  19190289.395 7  19190293.609 7 102439081.951 7  79674945.132 7
R19  21433006.718 7  21433008.539 6 114652136.988 7  89173906.986 6
> 2025 06 15 12 56  0.0000000  0 23
C06  39401513.031 6  39401509.776 6 205174007.883 6 158653551.554 6
C12  22445227.128 7  22445223.990 7 116878189.496 7  90489274.386 7
C16  39792552.545 6  39792554.041 6 207210262.398 6 160228124.735 6
C19  23587543.948 7                 122826523.466 7
C21  24953033.284 6                 129937003.849 6
C22  21618665.606 7                 112574074.721 7
E05  22992271.611 8  22992273.606 9 120825200.641 8  91403490.433 9
E06  26183634.255 7  26183637.788 8 137595923.543 7 104090434.461 8
E09  24931982.140 7  24931984.152 8 131018449.174 7  99114611.731 8
E15  26701370.138 6  26701374.964 7 140316652.718 6 106148652.712 7
E34  23528602.206 8  23528603.497 9 123643636.737 8  93535615.215 9
E36  24785970.790 8  24785973.633 8 130251154.063 8  98534162.354 8
G01  20232565.400 8                  20232569.089 8 106322846.500 8                  82848984.963 8
G02  21243882.999 7  21243883.691 6                 111637355.407 7  86990161.292 6
G03  20687427.006 7                  20687433.762 7 108713165.049 7                  84711586.157 7
G17  22874333.610 7                  22874339.144 7 120205438.424 7                  93666851.966 7
G32  23207916.019 7                  23207923.883 7 121958420.434 7                  95032560.824 7
R02  20761155.546 8  20761159.860 7 110785504.936 8  86166397.653 7
R03  19423703.819 7  19423709.815 8 103976609.294 7  80870906.228 8
R04  22362567.073 7  22362574.698 7 119750475.038 7  93139343.158 7
R17  21166492.473 6  21166501.687 6 113266185.368 6  88095780.099 6
R18  19189253.410 8  19189257.016 7 102433547.246 8  79670640.365 7
R19  21428613.238 7  21428615.884 6 114628635.840 7  89155628.331 6
> 2025 06 15 12 56  5.0000000  0 23
C06  39399045.980 6  39399041.749 6 205161158.043 6 158643615.248 6
C12  22442904.154 7  22442900.443 7 116866090.029 7  90479918.300 7
C16  39790229.995 6  39790232.171 6 207198171.978 6 160218775.651 6
C19  23588657.257 7                 122832323.606 7
C21  24948997.421 6                 129915991.142 6
C22  21616864.455 7                 112564690.283 7
E05  22989276.661 8  22989278.558 9 120809461.829 8  91391584.137 9
E06  26184498.621 7  26184501.860 8 137600463.931 7 104093869.212 8
E09  24931787.403 7  24931789.266 8 131017425.127 7  99113837.046 8
E15  26697810.359 6  26697813.867 7 140297938.849 6 106134495.804 7
E34  23526798.613 8  23526799.771 9 123634158.382 8  93528444.896 9
E36  24786578.266 8  24786580.694 8 130254344.074 8  98536575.569 8
G01  20231057.848 8                  20231061.788 8 106314927.094 8                  82842814.000 8
G02  21244160.614 7  21244161.084 6                 111638812.804 7  86991296.915 6
G03  20684588.038 7                  20684594.358 7 108698244.529 7                  84699959.787 7
G17  22871598.434 7                  22871604.109 7 120191063.906 7                  93655651.050 7
G32  23209253.558 7                  23209261.862 7 121965451.470 7                  95038039.559 7
R02  20762800.003 8  20762804.446 7 110794276.816 8  86173220.246 7
R03  19421465.175 7  19421471.317 8 103964625.781 7  80861585.706 8
R04  22357721.160 7  22357728.335 7 119724524.934 7  93119159.760 7
R17  21168583.859 5  21168593.053 6 113277379.974 5  88104486.964 6
R18  19188219.999 8  19188223.271 7 102428030.998 8  79666349.956 7
R19  21424221.260 7  21424224.284 6 114605142.555 7  89137355.787 6
> 2025 06 15 12 56 10.0000000  0 23
C06  39396578.787 6  39396574.714 6 205148311.050 6 158633681.140 6
C12  22440582.210 7  22440578.836 7 116854001.335 7  90470570.557 7
C16  39787909.295 6  39787911.138 6 207186084.594 6 160209428.933 6
C19  23589772.256 7                 122838129.496 7
C21  24944963.319 6                 129894982.603 6
C22  21615064.143 7                 112555316.481 7
E05  22986282.895 8  22986285.185 9 120793731.410 8  91379684.186 9
E06  26185364.214 6  26185367.118 8 137605011.172 6 104097309.178 8
E09  24931594.380 7  24931596.242 8 131016411.074 7  99113069.915 8
E15  26694249.117 6  26694252.855 7 140279225.342 6 106120339.169 7
E34  23524996.284 8  23524997.237 9 123624686.054 8  93521279.135 9
E36  24787186.013 8  24787188.720 8 130257539.160 8  98538992.624 8
G01  20229553.294 8                  20229557.019 8 106307019.048 8                  82836651.873 8
G02  21244439.752 7  21244440.411 6                 111640279.482 7  86992439.786 6
G03  20681750.172 7                  20681756.953 7 108683333.249 7                  84688340.606 7
G17  22868865.182 7                  22868870.945 7 120176701.313 7                  93644459.422 7
G32  23210593.599 7                  23210601.387 7 121972491.052 7                  95043524.946 7
R02  20764445.040 8  20764449.765 7 110803059.554 8  86180051.266 7
R03  19419229.643 7  19419235.906 8 103952659.724 7  80852278.757 8
R04  22352876.653 7  22352883.387 7 119698581.729 7  93098981.730 7
R17  21170680.019 5  21170687.114 7 113288585.324 5  88113202.182 7
R18  19187190.196 8  19187193.734 7 102422532.919 8  79662073.679 7
R19  21419831.371 7  21419832.793 6 114581656.682 7  89119089.031 6
> 2025 06 15 12 56 15.0000000  0 23
C06  39394112.070 6  39394108.273 6 205135467.183 6 158623749.460 6
C12  22438262.663 7  22438259.350 8 116841923.616 7  90461231.294 8
C16  39785588.949 6  39785590.464 6 207174000.477 6 160200084.729 6
C19  23590888.076 7                 122843941.409 7
C21  24940929.604 6                 129873978.475 6
C22  21613266.402 7                 112545953.544 7
E05  22983291.366 8  22983293.355 9 120778009.591 8  91367790.746 9
E06  26186230.793 6  26186233.745 8 137609565.529 6 104100754.521 8
E09  24931403.219 7  24931405.232 8 131015407.252 7  99112310.540 8
E15  26690687.412 6  26690691.967 7 140260512.522 6 106106183.058 7
E34  23523195.244 8  23523195.890 9 123615220.004 8  93514118.122 9
E36  24787795.260 8  24787797.777 8 130260739.542 8  98541413.683 8
G01  20228050.522 8                  20228054.420 8 106299122.627 8                  82830498.821 8
G02  21244720.931 8  21244721.440 6                 111641755.690 8  86993590.070 6
G03  20678914.346 7                  20678921.194 7 108668431.460 7                  84676728.810 7
G17  22866132.987 7                  22866140.013 7 120162350.919 7                  93633277.321 7
G32  23211934.294 7                  23211942.731 7 121979539.448 7                  95049017.207 7
R02  20766093.502 8  20766098.396 7 110811853.146 8  86186890.712 7
R03  19416999.071 7  19417004.299 8 103940711.936 7  80842986.018 8
R04  22348032.959 7  22348040.647 7 119672645.767 7  93078809.319 7
R17  21172775.210 5  21172783.427 7 113299801.796 5  88121926.092 7
R18  19186163.167 8  19186167.376 7 102417053.281 8  79657811.730 7
R19  21415441.288 7  21415444.254 6 114558178.549 7  89100828.281 6
> 2025 06 15 12 56 20.0000000  0 23
C06  39391646.246 6  39391641.913 6 205122626.625 6 158613820.335 6
C12  22435944.898 7  22435941.999 7 116829857.134 7  90451900.724 7
C16  39783269.192 6  39783270.854 6 207161919.879 6 160190743.238 6
C19  23592005.567 7                 122849759.539 7
C21  24936896.942 6                 129852979.022 6
C22  21611470.065 7                 112536601.703 7
E05  22980301.146 8  22980303.261 9 120762296.656 8  91355904.017 9
E06  26187099.275 7  26187101.789 7 137614127.214 7 104104205.405 7
E09  24931214.253 7  24931216.188 8 131014413.901 7  99111559.077 8
E15  26687126.748 6  26687131.219 7 140241800.610 6 106092027.631 7
E34  23521394.874 8  23521395.769 9 123605760.432 8  93506962.016 9
E36  24788404.976 8  24788407.866 8 130263945.468 8  98543838.938 8
G01  20226549.927 8                  20226553.878 8 106291238.053 8                  82824354.993 8
G02  21245003.648 8  21245004.602 6                 111643241.623 8  86994747.940 6
G03  20676080.637 7                  20676087.345 7 108653539.357 7                  84665124.575 7
G17  22863405.704 6                  22863411.589 7 120148012.997 6                  93622104.911 7
G32  23213277.639 7                  23213285.263 7 121986596.840 7                  95054516.476 7
R02  20767743.602 8  20767748.222 7 110820657.979 8  86193738.913 7
R03  19414770.078 7  19414775.223 8 103928782.140 7  80833707.300 8
R04  22343191.788 7  22343198.640 7 119646717.127 7  93058642.626 7
R17  21174873.841 5  21174882.452 6 113311029.572 5  88130658.818 6
R18  19185141.303 8  19185144.087 7 102411592.246 8  79653564.249 7
R19  21411054.336 7  21411056.954 6 114534708.391 7  89082573.694 6
> 2025 06 15 12 56 25.0000000  0 23
C06  39389180.318 6  39389176.680 6 205109789.875 6 158603894.146 6
C12  22433630.142 7  22433626.845 7 116817802.410 7  90442579.249 7
C16  39780950.331 7  39780951.617 6 207149843.335 7 160181404.881 6
C19  23593124.433 7                 122855584.387 7
C21  24932865.160 6                 129831984.759 6
C22  21609676.850 7                 112527261.479 7
E05  22977312.853 8  22977314.963 9 120746593.113 8  91344024.401 9
E06  26187968.500 6  26187971.318 7 137618696.747 6 104107662.225 7
E09  24931027.218 7  24931029.239 8 131013431.521 7  99110815.910 8
E15  26683566.252 6  26683570.718 7 140223090.163 6 106077873.309 7
E34  23519595.969 8  23519596.973 9 123596307.905 8  93499811.235 9
E36  24789015.992 8  24789019.131 8 130267157.449 8  98546268.776 8
G01  20225052.218 8                  20225055.906 8 106283365.854 8                  82818220.821 8
G02  21245288.056 8  21245289.595 6                 111644737.798 8  86995913.789 6
G03  20673249.057 7                  20673255.359 7 108638657.455 7                  84653528.290 7
G17  22860679.482 6                  22860685.861 7 120133688.043 6                  93610942.614 7
G32  23214622.344 7                  23214629.914 7 121993663.766 7                  95060023.173 7
R02  20769395.582 8  20769400.640 6 110829474.512 8  86200596.188 6
R03  19412545.163 7  19412550.219 7 103916871.070 7  80824443.157 7
R04  22338350.250 7  22338358.446 7 119620796.430 7  93038482.121 7
R17  21176975.354 6  21176982.989 6 113322269.132 6  88139400.670 6
R18  19184121.759 8  19184124.785 7 102406150.393 8  79649331.695 7
R19  21406668.081 7  21406670.921 6 114511246.722 7  89064325.741 6
> 2025 06 15 12 56 30.0000000  0 23
C06  39386716.174 6  39386712.682 6 205096957.214 6 158593971.108 6
C12  22431317.344 7  22431314.352 7 116805759.674 7  90433267.042 7
C16  39778631.542 7  39778633.149 6 207137770.984 7 160172069.783 6
C19  23594244.369 7                 122861416.145 7
C21  24928834.268 6                 129810995.866 6
C22  21607885.607 7                 112517933.031 7
E05  22974326.470 8  22974328.494 9 120730899.153 8  91332152.021 9
E06  26188839.547 6  26188842.347 7 137623274.337 6 104111125.130 7
E09  24930842.245 7  24930844.382 8 131012460.302 7  99110081.188 8
E15  26680006.234 6  26680010.554 8 140204381.320 6 106063720.199 8
E34  23517798.756 8  23517799.566 9 123586862.583 8  93492665.915 9
E36  24789628.160 8  24789631.580 8 130270375.685 8  98548703.348 8
G01  20223556.369 8                  20223560.615 8 106275506.223 8                  82812096.417 8
G02  21245574.916 7  21245576.797 6                 111646244.436 7  86997087.783 6
G03  20670418.892 7                  20670425.382 7 108623785.990 7                  84641940.164 7
G17  22857956.408 6                  22857962.413 7 120119376.302 6                  93599790.616 7
G32  23215968.492 7                  23215976.824 7 122000740.410 7                  95065537.424 7
R02  20771050.304 8  20771055.425 7 110838302.757 8  86207462.568 7
R03  19410324.293 7  19410328.660 7 103904978.901 7  80815193.685 7
R04  22333511.134 7  22333519.469 7 119594883.938 7  93018327.984 7
R17  21179079.642 6  21179084.732 6 113333520.823 6  88148151.925 6
R18  19183105.333 8  19183108.807 7 102400727.894 8  79645114.176 7
R19  21402285.027 7  21402286.746 6 114487793.775 7  89046084.580 6
> 2025 06 15 12 56 35.0000000  0 23
C06  39384252.981 6  39384249.021 6 205084128.525 6 158584051.155 6
C12  22429007.178 7  22429004.180 8 116793728.856 7  90423964.059 8
C16  39776314.343 7  39776315.602 6 207125702.813 7 160162737.919 6
C19  23595365.979 7                 122867254.794 7
C21  24924805.071 6                 129790012.339 6
C22  21606096.183 8                 112508616.376 8
E05  22971341.912 8  22971343.876 9 120715214.782 8  91320286.907 9
E06  26189712.081 7  26189714.960 8 137627859.903 7 104114594.085 8
E09  24930659.870 7  24930661.655 8 131011500.229 7  99109354.897 8
E15  26676446.264 6  26676450.623 7 140185674.127 6 106049568.327 7
E34  23516002.875 8  23516003.547 9 123577424.465 8  93485526.054 9
E36  24790241.755 8  24790245.181 8 130273600.150 8  98551142.630 8
G01  20222063.174 8                  20222067.335 8 106267659.147 8                  82805981.811 8
G02  21245863.466 7  21245865.918 6                 111647761.517 7  86998269.926 6
G03  20667590.914 7                  20667597.374 7 108608924.904 7                  84630360.137 7
G17  22855234.902 6                  22855241.825 7 120105077.729 6                  93588648.854 7
G32  23217316.778 7                  23217325.003 7 122007826.723 7                  95071059.208 7
R02  20772706.675 8  20772711.805 7 110847142.930 8  86214338.231 7
R03  19408105.677 7  19408110.208 7 103893105.823 7  80805959.065 7
R04  22328674.453 7  22328681.973 7 119568979.717 7  92998180.279 7
R17  21181185.978 6  21181189.604 6 113344784.475 6  88156912.502 6
R18  19182093.822 8  19182096.592 7 102395324.753 8  79640911.728 7
R19  21397902.065 7  21397904.839 6 114464349.475 7  89027850.123 6
> 2025 06 15 12 56 40.0000000  0 23
C06  39381789.954 6  39381785.522 6 205071303.710 6 158574134.212 6
C12  22426699.341 7  22426696.214 7 116781709.838 7  90414670.205 7
C16  39773998.631 7  39773998.779 6 207113638.716 7 160153409.189 6
C19  23596488.524 7                 122873100.179 7
C21  24920775.933 6                 129769034.002 6
C22  21604308.820 7                 112499311.345 7
E05  22968358.897 8  22968361.050 8 120699539.837 8  91308428.920 8
E06  26190585.978 7  26190589.036 7 137632453.332 7 104118068.979 7
E09  24930478.913 7  24930480.987 8 131010551.142 7  99108636.918 8
E15  26672886.219 6  26672891.035 8 140166968.385 6 106035417.573 8
E34  23514207.845 8  23514208.830 8 123567993.406 8  93478391.521 8
E36  24790856.413 8  24790859.953 8 130276830.692 8  98553586.500 8
G01  20220572.066 8                  20220576.158 8 106259824.470 8                  82799876.875 8
G02  21246154.121 8  21246156.781 6                 111649288.917 8  86999460.101 6
G03  20664765.060 7                  20664771.324 7 108594074.078 7                  84618788.096 7
G17  22852517.275 7                  22852522.942 7 120090792.193 7                  93577517.274 7
G32  23218667.347 7                  23218675.200 7 122014922.534 7                  95076588.391 7
R02  20774366.323 8  20774370.399 7 110855994.792 8  86221222.985 7
R03  19405891.683 8  19405895.733 7 103881251.211 8  80796738.793 7
R04  22323837.300 7  22323845.946 7 119543083.338 7  92978038.657 7
R17  21183293.270 6  21183296.184 6 113356059.935 6  88165682.265 6
R18  19181085.338 8  19181088.442 7 102389940.813 8  79636724.211 7
R19  21393521.161 7  21393523.005 6 114440913.715 7  89009622.342 6
> 2025 06 15 12 56 45.0000000  0 23
C06  39379327.100 6  39379323.397 6 205058481.302 6 158564219.125 6
C12  22424393.666 7  22424390.318 8 116769701.101 7  90405384.312 8
C16  39771681.978 7  39771682.996 6 207101577.169 7 160144082.446 6
C19  23597612.343 7                 122878950.775 7
C21  24916748.540 7                 129748059.418 7
C22  21602524.802 7                 112490016.448 7
E05  22965377.627 8  22965379.722 9 120683872.828 8  91296576.945 9
E06  26191460.839 7  26191464.317 8 137637053.095 7 104121548.664 8
E09  24930300.753 7  24930302.153 8 131009611.540 7  99107926.105 8
E15  26669326.821 6  26669331.504 7 140148262.598 6 106021266.794 7
E34  23512414.117 8  23512415.238 8 123558567.920 8  93471261.211 8
E36  24791472.046 8  24791475.585 8 130280065.824 8  98556033.854 8
G01  20219083.225 8                  20219087.557 8 106252000.721 8                  82793780.440 8
G02  21246446.148 7  21246449.231 6                 111650825.133 7  87000657.152 6
G03  20661940.705 7                  20661947.518 7 108579232.035 7                  84607222.873 7
G17  22849801.726 7                  22849806.707 7 120076518.149 7                  93566394.652 7
G32  23220019.353 7                  23220026.929 7 122022026.351 7                  95082123.813 7
R02  20776027.051 8  20776030.843 7 110864856.758 8  86228115.644 7
R03  19403680.994 8  19403684.230 7 103869413.957 8  80787532.038 7
R04  22319003.922 7  22319010.526 7 119517193.583 7  92957902.168 7
R17  21185400.468 5  21185405.381 6 113367345.593 5  88174459.992 6
R18  19180080.133 8  19180082.635 7 102384574.584 8  79632550.476 7
R19  21389140.600 7  21389143.522 6 114417485.093 7  88991400.081 6
> 2025 06 15 12 56 50.0000000  0 23
C06  39376864.927 6  39376861.568 6 205045662.110 6 158554306.517 6
C12  22422089.344 7  22422086.640 8 116757703.561 7  90396107.065 8
C16  39769366.895 7  39769367.376 6 207089519.038 7 160134758.342 6
C19  23598737.134 7                 122884807.451 7
C21  24912722.115 6                 129727089.394 6
C22  21600741.241 7                 112480732.560 7
E05  22962397.719 8  22962400.097 9 120668214.622 8  91284731.620 9
E06  26192337.334 7  26192340.881 7 137641660.052 7 104125033.794 7
E09  24930123.441 7  24930125.311 8 131008682.263 7  99107223.119 8
E15  26665767.020 6  26665772.078 8 140129557.685 6 106007116.651 8
E34  23510621.628 8  23510622.857 8 123549148.861 8  93464135.750 8
E36  24792088.673 8  24792092.225 8 130283306.383 8  98558485.306 8
G01  20217596.298 7                  20217600.704 8 106244188.716 7                  82787693.178 8
G02  21246740.344 7  21246743.249 6                 111652371.019 7  87001861.715 6
G03  20659118.487 7                  20659124.717 7 108564399.619 7                  84595665.130 7
G17  22847087.906 7                  22847092.993 7 120062256.519 7                  93555281.708 7
G32  23221371.923 7                  23221380.782 7 122029138.997 7                  95087666.142 7
R02  20777689.126 8  20777693.534 7 110873729.534 8  86235016.690 7
R03  19401471.654 7  19401476.273 7 103857594.717 7  80778339.325 7
R04  22314170.387 7  22314177.588 7 119491311.098 7  92937771.361 7
R17  21187510.698 5  21187516.385 6 113378642.455 5  88183246.449 6
R18  19179078.252 8  19179081.450 7 102379226.893 8  79628391.161 7
R19  21384762.047 7  21384765.700 6 114394064.420 7  88973184.021 6
> 2025 06 15 12 56 55.0000000  0 23
C06  39374404.028 6  39374400.367 6 205032846.633 6 158544396.780 6
C12  22419788.103 7  22419784.883 8 116745717.707 7  90386838.842 8
C16  39767052.283 7  39767052.093 6 207077464.822 7 160125437.261 6
C19  23599862.739 7                 122890670.685 7
C21  24908695.758 6                 129706124.478 6
C22  21598960.758 7                 112471460.140 7
E05  22959419.515 8  22959422.176 8 120652565.695 8  91272893.317 8
E06  26193214.890 7  26193219.018 8 137646274.677 7 104128524.738 8
E09  24929949.185 7  24929950.531 8 131007763.791 7  99106528.301 8
E15  26662207.972 6  26662212.869 7 140110854.104 6 105992967.528 7
E34  23508830.137 8  23508831.734 8 123539736.727 8  93457015.536 8
E36  24792706.540 8  24792710.017 8 130286552.885 8  98560941.245 8
G01  20216112.432 7                  20216116.652 8 106236389.018 7                  82781615.495 8
G02  21247036.471 8  21247039.225 6                 111653927.016 8  87003074.167 6
G03  20656297.626 7                  20656304.040 7 108549577.292 7                  84584115.277 7
G17  22844376.955 7                  22844381.119 7 120048007.829 7                  93544178.832 7
G32  23222728.112 7                  23222736.094 7 122036260.971 7                  95093215.728 7
R02  20779353.684 8  20779358.585 6 110882613.979 8  86241926.813 6
R03  19399266.962 7  19399272.488 7 103845794.205 7  80769161.189 7
R04  22309338.159 7  22309345.316 7 119465436.581 7  92917646.778 7
R17  21189625.763 5  21189629.935 6 113389950.981 5  88192041.903 6
R18  19178080.068 8  19178082.889 7 102373898.270 8  79624246.670 7
R19  21380385.467 7  21380389.188 6 114370652.121 7  88954974.447 6
> 2025 06 15 12 57  0.0000000  0 23
C06  39371943.781 6  39371939.793 6 205020034.500 6 158534489.635 6
C12  22417488.956 7  22417484.994 8 116733743.089 7  90377579.308 8
C16  39764737.777 7  39764738.159 6 207065414.086 7 160116118.873 6
C19  23600989.809 7                 122896540.037 7
C21  24904670.963 7                 129685164.198 7
C22  21597181.981 7                 112462198.762 7
E05  22956443.324 8  22956446.009 9 120636925.665 8  91261061.740 9
E06  26194094.713 7  26194098.498 8 137650896.538 7 104132021.149 8
E09  24929776.454 8  24929777.644 8 131006855.712 8  99105841.348 8
E15  26658648.727 6  26658653.949 8 140092151.379 6 105978819.054 8
E34  23507040.570 8  23507041.970 9 123530331.094 8  93449900.229 9
E36  24793325.037 7  24793328.816 8 130289804.874 7  98563401.342 8
G01  20214630.122 8                  20214634.782 8 106228601.151 8                  82775547.037 8
G02  21247334.061 7  21247337.053 6                 111655492.668 7  87004294.139 6
G03  20653479.332 7                  20653485.474 7 108534764.672 7                  84572572.987 7
G17  22841667.186 7                  22841672.230 7 120033771.593 7                  93533085.679 7
G32  23224085.990 7                  23224092.632 7 122043391.866 7                  95098772.253 7
R02  20781021.218 8  20781025.696 6 110891509.256 8  86248845.362 6
R03  19397066.495 8  19397071.184 7 103834011.590 8  80759996.927 7
R04  22304507.198 7  22304514.751 7 119439569.514 7  92897527.970 7
R17  21191740.918 5  21191745.895 6 113401270.607 5  88200846.058 6
R18  19177084.995 8  19177088.330 7 102368588.252 8  79620116.649 7
R19  21376009.525 7  21376013.742 6 114347248.048 7  88936771.261 6
> 2025 06 15 12 57  5.0000000  0 24
C06  39369484.266 6  39369480.005 6 205007226.144 6 158524585.402 6
C12  22415191.130 7  22415187.380 8 116721780.268 7  90368328.898 8
C16  39762423.773 7  39762425.076 6 207053367.386 7 160106803.600 6
C19  23602118.522 7                 122902416.037 7
C21  24900646.945 6                 129664209.142 6
C22  21595405.452 7                 112452948.967 7
E05  22953469.018 8  22953471.610 9 120621295.049 8  91249237.280 9
E06  26194976.229 7  26194979.569 8 137655526.184 7 104135523.448 8
E09  24929605.762 8  24929606.898 8 131005958.555 8  99105162.655 8
E15  26655089.325 6  26655095.245 8 140073450.167 6 105964671.719 8
E34  23505251.779 8  23505253.383 9 123520932.494 8  93442790.251 9
E36  24793945.869 8  24793948.779 8 130293062.895 8  98565866.006 8
G01  20213150.941 8                  20213155.282 8 106220825.661 8                  82769488.221 8
G02  21247633.966 7  21247636.684 6                 111657068.557 7  87005522.103 6
G03  20650662.026 7                  20650668.567 7 108519962.297 7                  84561038.639 7
G17  22838960.720 7                  22838965.570 7 120019548.359 7                  93522002.648 7
G28  23904199.527 5                                                                
G32  23225444.216 7                  23225451.285 7 122050532.184 7                  95104336.126 7
R02  20782689.661 8  20782694.614 6 110900416.097 8  86255772.867 6
R03  19394868.356 8  19394873.775 7 103822247.832 8  80750847.351 7
R04  22299679.419 7  22299685.866 7 119413710.492 7  92877415.412 7
R17  21193856.832 5  21193863.076 6 113412601.984 5  88209659.325 6
R18  19176093.936 8  19176097.271 7 102363297.412 8  79616001.550 7
R19  21371635.485 7  21371640.449 6 114323852.557 7  88918574.786 6
> 2025 06 15 12 57 10.0000000  0 24
C06  39367024.675 6  39367020.915 6 204994420.767 6 158514683.480 6
C12  22412895.676 7  22412891.978 8 116709828.414 7  90359086.961 8
C16  39760111.847 7  39760111.963 6 207041323.824 7 160097490.751 6
C19  23603247.833 7                 122908297.836 7
C21  24896623.753 7                 129643258.432 7
C22  21593630.997 7                 112443709.890 7
E05  22950496.370 8  22950498.870 9 120605672.981 8  91237419.293 9
E06  26195858.253 7  26195861.801 8 137660162.728 7 104139030.952 8
E09  24929437.221 8  24929438.034 8 131005071.472 8  99104491.569 8
E15  26651530.384 6  26651536.550 7 140054749.486 6 105950524.794 7
E34  23503464.556 8  23503466.036 9 123511540.081 8  93435684.958 9
E36  24794566.804 7  24794569.727 8 130296326.092 7  98568334.584 8
G01  20211673.270 7                  20211677.736 8 106213061.718 7                  82763438.397 8
G02  21247935.511 7  21247938.198 6                 111658653.842 7  87006757.391 6
G03  20647847.955 8                  20647853.493 7 108505169.287 8                  84549511.607 7
G17  22836256.579 7                  22836261.466 7 120005337.350 7                  93510929.123 7
G28  23901180.127 4                  23901182.601 5 125601597.71114                  97871342.26415
G32  23226804.776 7                  23226811.960 7 122057681.033 7                  95109906.644 7
R02  20784361.287 8  20784365.899 7 110909333.547 8  86262708.671 7
R03  19392674.730 8  19392679.639 7 103810501.835 8  80741711.564 7
R04  22294850.928 7  22294858.258 7 119387858.573 7  92857308.399 7
R17  21195976.076 6  21195982.968 6 113423944.162 6  88218481.017 6
R18  19175105.826 7  19175109.214 7 102358024.900 7  79611900.700 7
R19  21367265.002 7  21367267.337 6 114300464.854 7  88900384.400 6
> 2025 06 15 12 57 15.0000000  0 23
C06  39364565.945 6  39364562.576 6 204981618.654 6 158504784.075 6
C12  22410602.370 7  22410599.071 8 116697887.751 7  90349853.683 8
C16  39757799.968 7  39757799.845 6 207029283.674 7 160088180.560 6
C19  23604378.234 7                 122914185.637 7
C21  24892600.339 7                 129622312.342 7
C22  21591859.039 7                 112434481.784 7
E05  22947525.250 8  22947527.774 9 120590059.722 8  91225607.969 9
E06  26196742.197 7  26196745.466 8 137664806.409 7 104142543.874 8
E09  24929270.149 8  24929271.158 8 131004194.651 8  99103828.266 8
E15  26647972.496 6  26647978.030 8 140036049.703 6 105936378.531 8
E34  23501678.662 8  23501679.956 9 123502154.076 8  93428584.511 9
E36  24795188.968 7  24795191.744 8 130299594.688 7  98570807.258 8
G01  20210197.656 7                  20210202.475 8 106205309.533 7                  82757397.737 8
G02  21248239.360 7  21248241.703 6                 111660248.730 7  87008000.160 6
G03  20645034.096 8                  20645040.249 7 108490385.851 8                  84537992.064 7
G17  22833554.927 7                  22833559.752 7 119991138.758 7                  93499865.285 7
G32  23228166.956 7                  23228173.630 7 122064838.638 7                  95115483.990 7
R02  20786034.203 8  20786039.203 7 110918261.964 8  86269652.984 7
R03  19390483.769 8  19390488.478 8 103798773.950 8  80732589.859 8
R04  22290024.574 7  22290031.643 7 119362014.168 7  92837207.217 7
R17  21198097.811 6  21198104.390 6 113435297.406 6  88227311.316 6
R18  19174121.537 7  19174124.932 7 102352770.986 7  79607814.323 7
R19  21362895.907 7  21362897.698 5 114277085.160 7  88882200.204 5
> 2025 06 15 12 57 20.0000000  0 23
C06  39362108.665 6  39362104.781 6 204968820.350 6 158494887.615 6
C12  22408311.492 7  22408307.989 7 116685958.870 7  90340629.513 7
C16  39755487.801 7  39755488.413 6 207017247.562 7 160078873.475 6
C19  23605509.819 7                 122920080.051 7
C21  24888578.850 6                 129601371.434 6
C22  21590089.236 7                 112425265.222 7
E05  22944555.757 8  22944558.421 9 120574455.875 8  91213803.758 9
E06  26197627.185 7  26197630.577 8 137669457.831 7 104146062.638 8
E09  24929105.655 8  24929106.406 8 131003328.753 8  99103173.216 8
E15  26644414.953 6  26644419.772 8 140017351.322 6 105922233.342 8
E34  23499894.039 8  23499895.193 8 123492775.124 8  93421489.396 8
E36  24795812.319 8  24795814.857 8 130302869.308 8  98573284.476 8
G01  20208724.569 7                  20208729.814 8 106197569.761 7                  82751366.734 8
G02  21248544.593 7  21248547.031 6                 111661853.848 7  87009250.908 6
G03  20642222.453 7                  20642229.121 7 108475612.660 7                  84526480.485 7
G17  22830855.257 7                  22830859.926 7 119976953.168 7                  93488811.580 7
G32  23229529.713 7                  23229537.773 7 122072005.600 7                  95121068.649 7
R02  20787709.636 8  20787714.280 7 110927201.855 8  86276606.246 7
R03  19388296.500 7  19388301.210 8 103787064.620 7  80723482.604 8
R04  22285199.992 7  22285206.488 7 119336177.789 7  92817112.277 7
R17  21200221.745 6  21200228.586 5 113446662.256 6  88236150.629 5
R18  19173140.755 7  19173144.605 7 102347536.214 7  79603742.842 7
R19  21358527.217 7  21358528.452 6 114253714.024 7  88864022.685 6
> 2025 06 15 12 57 25.0000000  0 23
C06  39359651.136 6  39359647.745 6 204956025.670 6 158484993.961 6
C12  22406023.122 7  22406019.653 7 116674041.547 7  90331414.295 7
C16  39753177.257 7  39753178.187 6 207005215.182 7 160069569.267 6
C19  23606642.716 7                 122925980.849 7
C21  24884558.388 6                 129580435.466 6
C22  21588322.100 7                 112416059.983 7
E05  22941588.243 8  22941590.846 8 120558861.194 8  91202006.490 8
E06  26198513.957 7  26198517.219 8 137674116.699 7 104149587.054 8
E09  24928942.630 8  24928943.624 8 131002473.447 8  99102526.186 8
E15  26640856.715 6  26640861.861 8 139998654.135 6 105908089.068 8
E34  23498110.657 8  23498111.772 8 123483402.937 8  93414399.398 8
E36  24796436.262 8  24796439.098 8 130306149.669 8  98575766.053 8
G01  20207254.830 7                  20207259.087 8 106189842.125 7                  82745345.186 8
G02  21248852.006 7  21248854.691 6                 111663468.904 7  87010509.412 6
G03  20639413.590 8                  20639420.087 7 108460849.438 8                  84514976.685 7
G17  22828158.913 7                  22828162.921 7 119962780.378 7                  93477767.862 7
G32  23230897.020 7                  23230903.676 7 122079181.690 7                  95126660.387 7
R02  20789387.307 8  20789391.899 7 110936152.811 8  86283568.112 7
R03  19386113.153 8  19386117.066 8 103775373.855 8  80714389.788 8
R04  22280376.628 7  22280383.562 7 119310349.104 7  92797023.333 7
R17  21202348.698 6  21202354.512 6 113458038.574 6  88244998.831 6
R18  19172163.700 7  19172166.923 7 102342320.378 7  79599686.105 7
R19  21354158.414 7  21354160.641 6 114230351.437 7  88845851.848 6
> 2025 06 15 12 57 30.0000000  0 23
C06  39357195.039 6  39357191.109 6 204943234.623 6 158475103.111 6
C12  22403736.602 7  22403733.331 7 116662135.892 7  90322208.098 7
C16  39750867.090 7  39750868.438 6 206993186.675 7 160060268.075 6
C19  23607777.517 7                 122931888.059 7
C21  24880538.128 6                 129559504.622 6
C22  21586556.090 7                 112406866.188 7
E05  22938622.564 8  22938625.046 8 120543275.788 8  91190216.247 8
E06  26199401.375 7  26199405.191 8 137678783.153 7 104153117.189 8
E09  24928781.778 8  24928782.849 8 131001628.902 8  99101887.289 8
E15  26637299.544 6  26637304.218 8 139979958.325 6 105893945.795 8
E34  23496328.205 8  23496329.597 8 123474037.686 8  93407314.632 8
E36  24797061.553 8  24797064.449 8 130309435.927 8  98578252.073 8
G01  20205786.419 8                  20205790.765 8 106182126.724 8                  82739333.195 8
G02  21249161.978 7  21249164.050 6                 111665094.081 7  87011775.771 6
G03  20636605.929 7                  20636612.738 7 108446096.311 7                  84503480.737 7
G17  22825463.674 7                  22825468.728 7 119948620.537 7                  93466734.214 7
G32  23232264.244 7                  23232270.930 7 122086366.994 7                  95132259.317 7
R02  20791066.522 8  20791070.862 6 110945115.218 8  86290538.897 6
R03  19383931.965 8  19383936.768 7 103763701.673 8  80705311.423 7
R04  22275554.852 7  22275561.410 7 119284528.380 7  92776940.575 7
R17  21204476.339 6  21204482.236 5 113469426.478 6  88253856.107 5
R18  19171189.808 8  19171193.557 7 102337123.596 8  79595644.173 7
R19  21349792.909 7  21349794.312 6 114206997.387 7  88827687.567 6
> 2025 06 15 12 57 35.0000000  0 24
C06  39354738.973 6  39354735.085 6 204930447.073 6 158465214.948 6
C12  22401452.522 6  22401449.070 7 116650241.724 6  90313010.766 7
C16  39748557.659 7  39748558.974 6 206981161.837 7 160050969.701 6
C19  23608913.261 7                 122937801.526 7
C21  24876519.760 6                 129538578.580 6
C22  21584792.563 7                 112397683.606 7
E05  22935658.387 8  22935661.010 9 120527699.470 8  91178432.864 9
E06  26200291.438 7  26200294.659 8 137683456.974 7 104156652.903 8
E09  24928623.334 8  24928624.155 8 131000794.874 8  99101256.357 8
E15  26633741.627 6  26633746.611 8 139961263.560 6 105879803.348 8
E34  23494547.266 8  23494548.726 8 123464679.118 8  93400234.955 8
E36  24797688.031 8  24797690.879 8 130312727.843 8  98580742.382 8
G01  20204320.349 8                  20204324.884 8 106174423.378 8                  82733330.594 8
G02  21249472.869 8  21249475.314 6                 111666729.142 8  87013049.831 6
G03  20633800.331 7                  20633806.803 7 108431353.041 7                  84491992.501 7
G17  22822772.319 7                  22822776.202 7 119934473.389 7                  93455710.468 7
G28  23886120.919 5                                                                
G32  23233632.066 7                  23233640.018 7 122093561.270 7                  95137865.248 7
R02  20792748.013 8  20792752.552 6 110954088.682 8  86297518.242 6
R03  19381754.213 8  19381759.439 7 103752047.842 8  80696247.337 7
R04  22270733.443 7  22270740.948 7 119258715.433 7  92756863.876 7
R17  21206605.354 6  21206612.939 5 113480825.623 6  88262722.080 5
R18  19170219.389 8  19170223.757 7 102331945.685 8  79591616.918 7
R19  21345428.271 7  21345430.340 6 114183651.645 7  88809529.777 6
> 2025 06 15 12 57 40.0000000  0 24
C06  39352284.271 6  39352280.613 6 204917664.146 6 158455330.393 6
C12  22399171.650 7  22399167.158 8 116638360.111 7  90303823.143 8
C16  39746249.430 7  39746250.870 6 206969141.754 7 160041675.012 6
C19  23610049.700 7                 122943722.315 7
C21  24872502.496 6                 129517658.537 6
C22  21583032.201 7                 112388513.318 7
E05  22932696.332 8  22932698.843 9 120512133.313 8  91166657.188 9
E06  26201181.909 7  26201185.580 8 137688139.222 7 104160195.011 8
E09  24928466.876 8  24928467.636 8 130999972.478 8  99100634.222 8
E15  26630184.196 6  26630189.480 8 139942571.063 6 105865662.576 8
E34  23492767.918 8  23492769.339 9 123455328.337 8  93393161.148 9
E36  24798315.981 8  24798318.611 8 130316026.513 8  98583237.805 8
G01  20202856.889 8                  20202861.574 8 106166733.174 8                  82727338.229 8
G02  21249785.907 8  21249788.460 6                 111668375.110 8  87014332.400 6
G03  20630996.819 7                  20631003.786 7 108416620.776 7                  84480512.825 7
G17  22820081.978 7                  22820086.979 7 119920340.064 7                  93444697.491 7
G28  23883119.830 5                  23883122.698 6 125506640.74115                  97797397.52816
G32  23235003.160 7                  23235011.458 7 122100765.595 7                  95143479.021 7
R02  20794431.674 8  20794436.702 7 110963074.147 8  86304506.924 7
R03  19379580.295 8  19379586.626 7 103740413.619 8  80687198.508 7
R04  22265915.124 7  22265922.488 7 119232911.338 7  92736794.055 7
R17  21208738.569 6  21208744.462 5 113492237.121 6  88271597.707 5
R18  19169253.693 8  19169257.260 7 102326787.690 8  79587605.125 7
R19  21341064.438 7  21341067.625 6 114160315.230 7  88791379.266 6
> 2025 06 15 12 57 45.0000000  0 24
C06  39349830.689 6  39349826.267 6 204904884.729 6 158445448.543 6
C12  22396891.818 7  22396887.635 7 116626490.135 7  90294644.513 7
C16  39743941.203 7  39743943.315 6 206957125.463 7 160032383.255 6
C19  23611187.660 7                 122949649.437 7
C21  24868486.031 6                 129496743.503 6
C22  21581273.321 7                 112379354.371 7
E05  22929735.886 8  22929738.423 8 120496576.395 8  91154888.490 8
E06  26202074.378 7  26202078.016 8 137692829.015 7 104163742.770 8
E09  24928312.477 8  24928313.196 8 130999160.737 8  99100020.137 8
E15  26626627.580 6  26626632.499 8 139923879.814 6 105851522.775 8
E34  23490989.887 8  23490991.276 9 123445984.393 8  93386092.515 9
E36  24798944.333 8  24798947.461 8 130319330.987 8  98585737.613 8
G01  20201395.796 8                  20201400.473 8 106159055.159 8                  82721355.364 8
G02  21250101.865 8  21250103.689 6                 111670031.087 8  87015622.765 6
G03  20628195.220 7                  20628202.257 7 108401898.517 7                  84469040.936 7
G17  22817395.001 7                  22817399.822 7 119906219.580 7                  93433694.513 7
G28  23880114.489 6                  23880119.715 6 125490861.485 6                  97785102.031 6
G32  23236375.438 7                  23236383.980 7 122107979.017 7                  95149099.876 7
R02  20796117.629 8  20796122.404 6 110972070.932 8  86311504.412 6
R03  19377411.214 8  19377416.353 7 103728797.592 8  80678163.833 7
R04  22261099.163 7  22261105.153 7 119207115.138 7  92716730.351 7
R17  21210872.788 6  21210879.524 5 113503660.102 6  88280482.209 5
R18  19168291.220 8  19168294.693 7 102321648.696 8  79583608.127 7
R19  21336702.360 7  21336706.714 6 114136987.362 7  88773235.386 6
> 2025 06 15 12 57 50.0000000  0 24
C06  39347376.325 6  39347373.060 6 204892109.215 6 158435569.710 6
C12  22394615.098 7  22394610.260 7 116614631.972 7  90285475.031 7
C16  39741633.854 6  39741635.908 6 206945113.177 6 160023094.579 6
C19  23612327.268 7                 122955583.104 7
C21  24864469.858 6                 129475833.694 6
C22  21579515.948 8                 112370206.971 8
E05  22926777.710 8  22926779.851 9 120481028.898 8  91143126.920 9
E06  26202968.305 7  26202971.904 8 137697526.430 7 104167296.335 8
E09  24928160.075 8  24928160.738 8 130998359.816 8  99099414.243 8
E15  26623070.538 6  26623075.877 8 139905189.979 6 105837384.029 8
E34  23489213.055 8  23489214.459 8 123436647.488 8  93379029.203 8
E36  24799574.576 8  24799577.397 8 130322641.455 8  98588241.954 8
G01  20199937.278 7                  20199941.753 8 106151389.527 7                  82715382.147 8
G02  21250418.404 8  21250420.797 6                 111671697.263 8  87016921.076 6
G03  20625395.569 7                  20625402.647 7 108387186.458 7                  84457577.003 7
G17  22814709.705 6                  22814715.291 7 119892112.153 6                  93422701.711 7
G28  23877115.381 5                  23877118.072 5 125475094.206 5                  97772815.796 5
G32  23237750.034 7                  23237758.537 7 122115201.749 7                  95154727.976 7
R02  20797806.315 8  20797810.714 7 110981078.958 8  86318510.617 7
R03  19375244.815 8  19375249.983 7 103717200.311 8  80669143.719 7
R04  22256282.775 7  22256288.969 7 119181326.987 7  92696672.970 7
R17  21213010.251 6  21213015.321 5 113515094.629 6  88289375.754 5
R18  19167332.301 8  19167335.679 7 102316528.920 8  79579626.073 7
R19  21332343.079 6  21332347.002 6 114113668.232 6  88755098.278 6
> 2025 06 15 12 57 55.0000000  0 24
C06  39344924.771 6  39344920.106 6 204879337.516 6 158425693.813 6
C12  22392340.804 7  22392335.333 7 116602785.626 7  90276314.686 7
C16  39739328.469 6  39739329.867 6 206933104.893 6 160013809.013 6
C19  23613468.118 7                 122961523.319 7
C21  24860456.482 6                 129454929.096 6
C22  21577761.863 7                 112361071.119 7
E05  22923820.854 8  22923823.076 9 120465490.841 8  91131372.493 9
E06  26203863.546 7  26203867.285 8 137702231.528 7 104170855.705 8
E09  24928009.967 8  24928010.404 8 130997569.766 8  99098816.575 8
E15  26619514.892 6  26619519.580 8 139886501.648 6 105823246.417 8
E34  23487437.522 8  23487439.082 8 123427317.655 8  93371971.247 8
E36  24800205.571 8  24800208.462 8 130325957.932 8  98590750.845 8
G01  20198480.758 8                  20198485.185 8 106143736.323 8                  82709418.609 8
G02  21250737.489 8  21250739.655 6                 111673373.652 8  87018227.354 6
G03  20622598.213 7                  20622605.100 7 108372484.651 7                  84446121.065 7
G17  22812028.590 7                  22812033.126 7 119878017.875 7                  93411719.143 7
G28  23874113.696 5                  23874118.585 5 125459338.721 5                  97760538.902 5
G32  23239125.892 7                  23239134.387 7 122122433.775 7                  95160363.291 7
R02  20799496.247 8  20799500.693 7 110990098.467 8  86325525.792 7
R03  19373082.188 8  19373086.729 7 103705621.886 8  80660138.266 7
R04  22251468.880 7  22251475.534 7 119155547.000 7  92676621.864 7
R17  21215151.033 7  21215155.021 5 113526540.812 7  88298278.257 5
R18  19166376.789 8  19166380.118 7 102311428.288 8  79575658.909 7
R19  21327987.302 6  21327989.669 6 114090357.858 6  88736967.979 6
> 2025 06 15 12 58  0.0000000  0 24
C06  39342472.755 6  39342468.075 6 204866569.875 6 158415821.066 6
C12  22390068.000 7  22390062.977 7 116590951.393 7  90267163.719 7
C16  39737022.769 7  39737024.852 6 206921100.870 7 160004526.761 6
C19  23614610.601 7                 122967470.330 7
C21  24856441.943 6                 129434029.988 6
C22  21576010.193 8                 112351947.069 8
E05  22920865.547 8  22920868.123 9 120449962.485 8  91119625.401 9
E06  26204760.714 7  26204764.109 8 137706944.532 7 104174421.063 8
E09  24927861.931 8  24927862.125 8 130996790.801 8  99098227.293 8
E15  26615959.597 6  26615963.568 8 139867814.997 6 105809110.096 8
E34  23485663.118 8  23485665.053 9 123417995.109 8  93364918.801 9
E36  24800837.692 8  24800840.729 8 130329280.653 8  98593264.452 8
G01  20197026.809 7                  20197031.358 8 106136095.771 7                  82703464.921 8
G02  21251058.006 8  21251060.994 6                 111675060.487 8  87019541.745 6
G03  20619802.518 8                  20619809.275 7 108357793.342 8                  84434673.271 7
G17  22809348.550 7                  22809353.767 7 119863936.876 7                  93400746.942 7
G28  23871115.184 4                  23871121.941 5 125443595.351 4                  97748271.278 5
G32  23240503.285 7                  23240511.988 7 122129675.309 7                  95166006.035 7
R02  20801189.198 8  20801193.398 7 110999129.337 8  86332549.818 7
R03  19370922.483 8  19370927.211 7 103694062.319 8  80651147.492 7
R04  22246655.887 7  22246662.205 7 119129775.439 7  92656577.350 7
R17  21217290.378 6  21217295.069 5 113537998.704 6  88307189.952 5
R18  19165425.057 8  19165428.373 7 102306347.130 8  79571706.904 7
R19  21323631.578 6  21323634.131 5 114067056.499 6  88718844.730 5
> 2025 06 15 12 58  5.0000000  0 24
C06  39340021.600 6  39340017.212 6 204853806.677 6 158405951.762 6
C12  22387797.996 7  22387792.647 7 116579129.586 7  90258022.356 7
C16  39734718.614 7  39734720.720 6 206909101.428 7 159995248.032 6
C19  23615753.957 7                 122973424.452 7
C21  24852430.287 6                 129413136.707 6
C22  21574260.211 8                 112342835.142 8
E05  22917912.526 8  22917915.049 9 120434444.174 8  91107885.907 9
E06  26205659.645 7  26205662.552 8 137711665.819 7 104177992.674 8
E09  24927715.551 8  24927716.060 8 130996023.255 8  99097646.657 8
E15  26612404.010 7  26612407.984 8 139849130.423 7 105794975.352 8
E34  23483890.655 8  23483892.489 8 123408680.222 8  93357872.151 8
E36  24801471.450 8  24801474.299 8 130332609.968 8  98595783.051 8
G01  20195576.274 8                  20195579.727 8 106128468.234 8                  82697521.372 8
G02  21251381.625 8  21251384.251 6                 111676758.120 8  87020864.563 6
G03  20617008.595 7                  20617015.469 7 108343112.858 7                  84423233.933 7
G17  22806671.411 7                  22806677.032 7 119849869.566 7                  93389785.394 7
G28  23868121.818 4                  23868126.278 4 125427864.452 4                  97736013.593 4
G32  23241883.557 7                  23241892.134 7 122136926.718 7                  95171656.476 7
R02  20802884.123 8  20802888.178 7 111008172.239 8  86339583.166 7
R03  19368766.939 8  19368771.231 7 103682522.020 8  80642171.709 7
R04  22241844.986 7  22241851.389 7 119104012.570 7  92636539.592 7
R17  21219434.107 6  21219437.917 5 113549468.766 6  88316111.089 5
R18  19164476.651 8  19164480.193 7 102301285.808 8  79567770.317 7
R19  21319274.880 6  21319279.861 5 114043764.438 6  88700728.737 5
> 2025 06 15 12 58 10.0000000  0 24
C06  39337571.234 6  39337566.969 6 204841046.814 6 158396085.020 6
C12  22385529.884 7  22385524.499 7 116567319.134 7  90248889.778 7
C16  39732415.536 7  39732417.134 6 206897105.563 7 159985972.070 6
C19  23616898.576 7                 122979384.620 7
C21  24848417.859 6                 129392248.189 6
C22  21572512.762 8                 112333734.295 8
E05  22914961.426 8  22914963.716 9 120418934.850 8  91096153.209 9
E06  26206558.918 7  26206562.431 8 137716394.284 7 104181569.710 8
E09  24927571.145 8  24927572.022 8 130995266.079 8  99097073.862 8
E15  26608848.333 6  26608852.553 8 139830446.860 6 105780841.367 8
E34  23482119.442 8  23482121.184 8 123399371.941 8  93350830.502 8
E36  24802106.160 8  24802108.915 8 130335944.813 8  98598305.843 8
G01  20194126.975 8                  20194130.670 8 106120852.647 8                  82691587.151 8
G02  21251707.023 7  21251709.156 6                 111678465.431 7  87022194.929 6
G03  20614216.655 7                  20614223.645 7 108328442.143 7                  84411802.202 7
G17  22803997.043 7                  22804002.343 7 119835814.970 7                  93378833.757 7
G28  23865134.751 4                  23865132.665 3 125412145.055 4                  97723764.752 3
G32  23243264.869 7                  23243273.975 7 122144186.916 7                  95177313.764 7
R02  20804580.003 8  20804585.259 7 111017225.990 8  86346624.963 7
R03  19366614.016 8  19366619.121 7 103670999.886 8  80633210.052 7
R04  22237034.326 7  22237041.031 7 119078257.312 7  92616507.742 7
R17  21221579.374 7  21221584.114 5 113560949.986 7  88325040.927 5
R18  19163532.043 8  19163535.428 7 102296243.214 8  79563848.302 7
R19  21314921.168 6  21314925.994 6 114020480.741 6  88682619.232 6
> 2025 06 15 12 58 15.0000000  0 23
C06  39335121.288 6  39335117.368 6 204828291.054 6 158386221.461 6
C12  22383263.628 7  22383258.838 7 116555520.827 7  90239766.585 7
C16  39730112.153 7  39730114.337 6 206885113.971 7 159976699.410 6
C19  23618044.351 7                 122985351.584 7
C21  24844408.580 6                 129371365.206 6
C22  21570767.364 8                 112324645.264 8
E05  22912011.772 8  22912014.244 8 120403435.259 8  91084427.878 8
E06  26207460.551 7  26207463.774 8 137721130.670 7 104185152.754 8
E09  24927428.571 8  24927430.053 8 130994520.006 8  99096509.477 8
E15  26605293.393 6  26605297.552 8 139811765.073 6 105766708.726 8
E34  23480349.611 8  23480351.312 8 123390071.004 8  93343794.397 8
E36  24802741.504 8  24802744.701 8 130339285.952 8  98600833.379 8
G01  20192680.139 8                  20192683.718 8 106113249.721 8                  82685662.796 8
G02  21252033.211 8  21252035.873 6                 111680183.172 8  87023533.422 6
G03  20611427.285 7                  20611433.786 7 108313781.932 7                  84400378.674 7
G17  22801325.718 7                  22801330.347 7 119821773.735 7                  93367892.541 7
G32  23244648.610 7                  23244657.318 7 122151456.635 7                  95182978.482 7
R02  20806279.219 8  20806284.152 7 111026291.081 8  86353675.580 7
R03  19364465.693 8  19364469.689 7 103659496.777 8  80624263.190 7
R04  22232227.242 7  22232233.251 7 119052510.535 7  92596482.500 7
R17  21223728.364 7  21223732.119 5 113572443.063 7  88333979.951 5
R18  19162590.938 7  19162594.329 7 102291220.118 7  79559941.439 7
R19  21310570.589 6  21310575.731 6 113997206.192 6  88664516.823 6
> 2025 06 15 12 58 20.0000000  0 23
C06  39332671.716 6  39332668.232 6 204815538.948 6 158376360.718 6
C12  22380999.488 7  22380995.480 7 116543734.195 7  90230652.415 7
C16  39727809.892 6  39727811.848 6 206873126.188 6 159967429.688 6
C19  23619191.405 7                 122991324.839 7
C21  24840398.224 6                 129350487.233 6
C22  21569023.706 8                 112315567.570 8
E05  22909064.089 8  22909066.504 8 120387944.916 8  91072709.523 8
E06  26208363.555 7  26208366.547 8 137725874.469 7 104188741.390 8
E09  24927289.061 8  24927290.145 8 130993784.538 8  99095953.100 8
E15  26601738.508 7  26601742.714 8 139793084.516 7 105752577.008 8
E34  23478581.240 8  23478582.728 8 123380776.924 8  93336763.477 8
E36  24803378.471 8  24803381.587 8 130342632.865 8  98603365.287 8
G01  20191235.074 8                  20191239.364 8 106105659.012 8                  82679747.962 8
G02  21252362.100 8  21252364.402 6                 111681910.919 8  87024879.717 6
G03  20608639.577 7                  20608645.840 7 108299131.772 7                  84388962.947 7
G17  22798655.844 7                  22798660.713 7 119807745.382 7                  93356961.379 7
G32  23246033.957 7                  23246042.769 7 122158735.331 7                  95188650.202 7
R02  20807980.488 8  20807985.146 7 111035367.504 8  86360735.013 7
R03  19362319.960 8  19362324.538 7 103648012.007 8  80615330.605 7
R04  22227421.119 7  22227426.466 7 119026771.748 7  92576463.453 7
R17  21225877.666 7  21225881.809 5 113583947.381 7  88342927.774 5
R18  19161653.889 7  19161656.840 7 102286216.044 7  79556049.370 7
R19  21306221.686 6  21306226.474 6 113973940.321 6  88646421.134 6
> 2025 06 15 12 58 25.0000000  0 23
C06  39330223.532 6  39330219.829 6 204802791.590 6 158366503.648 6
C12  22378738.651 7  22378734.668 7 116531960.366 7  90221548.146 7
C16  39725509.158 7  39725511.046 6 206861143.342 7 159958163.799 6
C19  23620339.995 7                 122997305.522 7
C21  24836389.948 6                 129329615.494 6
C22  21567282.731 7                 112306502.350 7
E05  22906118.308 8  22906120.749 8 120372464.975 8  91060999.063 8
E06  26209267.342 7  26209270.865 8 137730626.821 7 104192336.508 8
E09  24927151.205 8  24927152.438 8 130993060.837 8  99095405.630 8
E15  26598184.362 6  26598188.317 8 139774406.409 6 105738447.167 8
E34  23476814.393 7  23476815.639 8 123371490.845 7  93329738.623 8
E36  24804017.149 8  24804019.787 8 130345986.718 8  98605902.448 8
G01  20189793.336 8                  20189797.361 8 106098081.685 8                  82673843.551 8
G02  21252693.138 7  21252695.115 6                 111683649.797 7  87026234.698 6
G03  20605853.463 7                  20605859.895 7 108284492.781 7                  84377555.960 7
G17  22795989.933 7                  22795993.917 7 119793731.081 7                  93346041.137 7
G32  23247421.238 7                  23247429.524 7 122166024.225 7                  95194329.853 7
R02  20809683.993 8  20809687.883 7 111044456.020 8  86367803.816 7
R03  19360178.383 7  19360183.051 7 103636546.975 7  80606413.378 7
R04  22222616.114 7  22222622.043 7 119001042.082 7  92556451.507 7
R17  21228029.962 7  21228034.951 5 113595464.289 7  88351885.381 5
R18  19160720.113 7  19160723.407 7 102281232.150 7  79552173.007 7
R19  21301875.294 6  21301879.256 6 113950684.207 6  88628333.051 6
> 2025 06 15 12 58 30.0000000  0 23
C06  39327777.124 6  39327773.072 6 204790048.022 6 158356649.527 6
C12  22376479.805 7  22376476.018 7 116520198.366 7  90212453.029 7
C16  39723207.884 6  39723210.740 6 206849164.479 6 159948900.979 6
C19  23621489.908 7                 123003292.650 7
C21  24832383.229 6                 129308748.977 6
C22  21565544.482 7                 112297448.634 7
E05  22903174.739 8  22903176.822 8 120356994.486 8  91049295.741 8
E06  26210173.052 7  26210176.765 8 137735386.767 7 104195937.390 8
E09  24927015.677 8  24927016.834 8 130992347.896 8  99094866.300 8
E15  26594630.804 7  26594634.223 8 139755729.748 7 105724318.406 8
E34  23475048.458 8  23475049.916 8 123362211.822 8  93322719.104 8
E36  24804656.124 8  24804659.089 8 130349346.527 8  98608444.117 8
G01  20188353.787 8                  20188358.022 8 106090516.763 8                  82667948.804 8
G02  21253025.444 7  21253027.866 6                 111685398.830 7  87027597.578 6
G03  20603069.837 7                  20603076.207 7 108269864.027 7                  84366156.938 7
G17  22793325.334 7                  22793329.572 7 119779729.833 7                  93335131.087 7
G32  23248810.252 7                  23248818.493 7 122173322.271 7                  95200016.648 7
R02  20811389.082 8  20811393.949 7 111053555.748 8  86374881.384 7
R03  19358039.729 8  19358044.419 7 103625100.808 8  80597510.797 7
R04  22217813.843 7  22217818.331 7 118975320.619 7  92536445.944 7
R17  21230183.801 7  21230191.144 4 113606992.591 7  88360851.815 4
R18  19159790.273 8  19159793.255 7 102276267.475 8  79548311.594 7
R19  21297528.051 6  21297533.347 6 113927436.865 6  88610251.747 6
> 2025 06 15 12 58 35.0000000  0 23
C06  39325331.052 6  39325326.134 6 204777308.286 6 158346798.358 6
C12  22374223.168 6  22374219.593 7 116508448.279 6  90203367.119 7
C16  39720908.591 6  39720910.961 6 206837189.625 6 159939641.260 6
C19  23622640.926 7                 123009286.261 7
C21  24828376.487 6                 129287887.706 6
C22  21563807.948 7                 112288406.452 7
E05  22900232.039 8  22900234.671 8 120341533.449 8  91037599.576 8
E06  26211081.018 7  26211083.968 8 137740154.344 7 104199544.011 8
E09  24926881.818 8  24926883.302 8 130991645.777 8  99094335.146 8
E15  26591076.436 6  26591080.429 8 139737054.583 6 105710190.778 8
E34  23473284.180 8  23473285.531 8 123352939.863 8  93315704.935 8
E36  24805296.731 8  24805299.547 8 130352712.324 8  98610990.317 8
G01  20186915.795 7                  20186920.734 8 106082964.253 7                  82662063.734 8
G02  21253360.285 8  21253362.221 6                 111687158.018 8  87028968.370 6
G03  20600287.428 7                  20600294.555 7 108255245.488 7                  84354765.864 7
G17  22790662.882 7                  22790667.643 7 119765741.758 7                  93324231.287 7
G32  23250200.131 7                  23250208.956 7 122180629.499 7                  95205710.585 7
R02  20813096.499 8  20813100.930 7 111062666.727 8  86381967.675 7
R03  19355905.014 8  19355910.086 7 103613673.174 8  80588622.638 7
R04  22213011.282 7  22213017.204 7 118949607.305 7  92516446.750 7
R17  21232341.418 7  21232345.954 4 113618532.375 7  88369827.192 4
R18  19158863.547 8  19158866.513 7 102271321.968 8  79544465.089 7
R19  21293184.880 6  21293188.406 6 113904198.397 6  88592177.398 6
> 2025 06 15 12 58 40.0000000  0 23
C06  39322884.423 6  39322880.559 6 204764572.438 6 158336950.191 6
C12  22371967.768 7  22371965.460 7 116496710.087 7  90194290.408 7
C16  39718609.643 6  39718611.969 6 206825218.809 6 159930384.674 6
C19  23623793.485 7                 123015286.350 7
C21  24824372.739 6                 129267031.697 6
C22  21562073.883 7                 112279375.824 7
E05  22897291.731 8  22897294.256 8 120326081.907 8  91025910.594 8
E06  26211989.858 7  26211992.656 8 137744929.510 7 104203156.406 8
E09  24926749.995 8  24926751.791 8 130990954.477 8  99093812.182 8
E15  26587523.445 6  26587526.987 8 139718380.940 6 105696064.299 8
E34  23471520.855 8  23471522.548 9 123343675.007 8  93308696.126 9
E36  24805938.098 8  24805941.170 8 130356084.128 8  98613541.057 8
G01  20185480.832 7                  20185486.209 8 106075424.209 7                  82656188.375 8
G02  21253697.202 8  21253698.992 6                 111688927.421 8  87030347.134 6
G03  20597507.969 7                  20597514.823 7 108240637.238 7                  84343382.815 7
G17  22788003.394 7                  22788008.768 7 119751766.835 7                  93313341.748 7
G32  23251592.746 7                  23251601.144 7 122187945.979 7                  95211411.716 7
R02  20814806.271 8  20814810.680 7 111071788.979 8  86389062.765 7
R03  19353774.593 8  19353778.917 7 103602264.305 8  80579749.078 7
R04  22208209.616 7  22208216.858 7 118923902.134 7  92496453.867 7
R17  21234499.334 7  21234504.098 3 113630083.667 7  88378811.635 3
R18  19157940.278 8  19157944.000 7 102266395.749 8  79540633.605 7
R19  21288842.051 5  21288846.412 6 113880968.903 5  88574110.011 6
> 2025 06 15 12 58 45.0000000  0 23
C06  39320439.676 6  39320435.751 6 204751840.860 6 158327105.333 6
C12  22369715.634 6  22369713.670 7 116484984.259 6  90185223.256 7
C16  39716311.771 7  39716313.658 6 206813252.455 7 159921131.524 6
C19  23624946.482 7                 123021293.359 7
C21  24820369.038 6                 129246181.424 6
C22  21560342.167 7                 112270357.185 7
E05  22894353.246 8  22894355.836 8 120310640.307 8  91014229.134 8
E06  26212899.139 7  26212902.853 8 137749712.740 7 104206774.866 8
E09  24926620.676 8  24926622.417 8 130990274.411 8  99093297.715 8
E15  26583969.027 6  26583973.780 7 139699709.247 6 105681939.285 7
E34  23469759.248 8  23469760.924 9 123334417.700 8  93301693.025 9
E36  24806581.146 8  24806583.982 8 130359462.378 8  98616096.677 8
G01  20184048.556 7                  20184053.541 8 106067897.054 7                  82650323.058 8
G02  21254035.682 8  21254037.664 6                 111690707.419 8  87031734.131 6
G03  20594730.246 7                  20594737.038 7 108226039.672 7                  84332008.089 7
G17  22785346.782 7                  22785351.896 7 119737805.503 7                  93302462.782 7
G32  23252987.711 7                  23252994.938 7 122195272.013 7                  95217120.315 7
R02  20816517.683 8  20816521.716 7 111080922.860 8  86396166.893 7
R03  19351646.044 8  19351651.826 7 103590874.492 8  80570890.357 7
R04  22203410.337 7  22203418.318 7 118898205.769 7  92476467.859 7
R17  21236659.060 7  21236662.609 3 113641647.024 7  88387805.079 3
R18  19157021.302 7  19157024.465 7 102261489.232 7  79536817.411 7
R19  21284501.909 6  21284505.072 6 113857748.643 6  88556049.830 6
> 2025 06 15 12 58 50.0000000  0 24
C06  39317995.723 6  39317991.293 6 204739113.091 6 158317263.426 6
C12  22367466.631 6  22367464.049 7 116473270.263 6  90176165.250 7
C16  39714014.129 7  39714016.238 6 206801290.143 7 159911881.490 6
C19  23626101.476 7                 123027306.822 7
C21  24816365.961 6                 129225336.433 6
C22  21558612.133 7                 112261350.073 7
E05  22891416.734 8  22891419.122 8 120295208.176 8  91002554.833 8
E06  26213811.065 7  26213814.567 8 137754503.549 7 104210399.077 8
E09  24926493.232 8  24926495.144 8 130989605.139 8  99092791.410 8
E15  26580417.165 6  26580421.044 8 139681039.037 6 105667815.426 8
E34  23467999.677 8  23468000.719 9 123325167.475 8  93294695.290 9
E36  24807225.088 8  24807228.032 8 130362846.604 8  98618656.816 8
G01  20182619.132 7                  20182623.694 8 106060382.342 7                  82644467.434 8
G02  21254376.434 8  21254378.325 6                 111692497.669 8  87033129.115 6
G03  20591954.960 8                  20591960.982 7 108211452.366 8                  84320641.372 7
G17  22782691.001 7                  22782697.745 7 119723857.328 7                  93291594.094 7
G28  23841284.929 5                                 125286807.36315                
G32  23254383.099 7                  23254390.595 7 122202607.244 7                  95222836.034 7
R02  20818231.334 8  20818235.434 7 111090067.649 8  86403279.521 7
R03  19349520.576 7  19349527.275 8 103579503.468 7  80562046.239 8
R04  22198614.322 7  22198621.167 7 118872517.721 7  92456488.284 7
R17  21238822.195 7                 113653221.772 7
R18  19156105.754 7  19156108.750 7 102256601.932 7  79533016.164 7
R19  21280164.782 6  21280166.095 6 113834537.325 6  88537996.557 6
> 2025 06 15 12 58 55.0000000  0 24
C06  39315551.754 6  39315547.981 6 204726389.351 6 158307424.623 6
C12  22365219.637 7  22365216.601 7 116461568.396 7  90167116.618 7
C16  39711719.515 7  39711719.904 6 206789332.007 7 159902634.727 6
C19  23627258.116 7                 123033326.900 7
C21  24812364.386 6                 129204496.902 6
C22  21556884.352 7                 112252354.688 7
E05  22888481.471 8  22888484.317 8 120279785.731 8  90990887.870 8
E06  26214724.431 7  26214727.666 8 137759302.129 7 104214029.167 8
E09  24926368.177 8  24926369.964 8 130988946.821 8  99092293.396 8
E15  26576864.533 6  26576868.516 8 139662370.527 6 105653692.828 8
E34  23466240.118 8  23466241.865 8 123315924.503 8  93287703.050 8
E36  24807870.218 8  24807873.226 8 130366236.990 8  98621221.628 8
G01  20181190.997 7                  20181196.190 8 106052880.273 7                  82638621.659 8
G02  21254719.012 8  21254721.168 6                 111694298.260 8  87034532.168 6
G03  20589180.514 7                  20589187.520 7 108196875.513 7                  84309282.783 7
G17  22780039.803 7                  22780045.735 7 119709922.560 7                  93280735.803 7
G28  23838313.028 5                  23838316.755 4 125271197.307 5                  97613922.02714
G32  23255780.238 7                  23255788.421 7 122209951.805 7                  95228559.065 7
R02  20819947.309 8  20819951.480 7 111099224.084 8  86410401.166 7
R03  19347399.637 7  19347406.784 8 103568151.214 7  80553216.720 8
R04  22193818.949 7  22193826.159 7 118846838.002 7  92436515.196 7
R17  21240987.352 7                 113664808.211 7
R18  19155193.868 7  19155197.060 7 102251734.099 7  79529230.076 7
R19  21275826.544 5  21275828.952 6 113811335.149 5  88519950.422 6
> 2025 06 15 12 59  0.0000000  0 24
C06  39313108.974 6  39313105.283 6 204713669.231 6 158297588.639 6
C12  22362974.867 7  22362971.277 7 116449878.189 7  90158077.016 7
C16  39709422.232 7  39709424.137 6 206777377.672 7 159893390.876 6
C19  23628415.320 7                 123039353.174 7
C21  24808362.922 7                 129183662.425 7
C22  21555158.791 7                 112243370.583 7
E05  22885548.684 8  22885551.252 8 120264372.555 8  90979227.919 8
E06  26215639.271 7  26215642.242 8 137764108.042 7 104217664.785 8
E09  24926245.010 8  24926246.772 8 130988299.039 8  99091803.349 8
E15  26573311.317 6  26573316.225 7 139643703.261 6 105639571.177 7
E34  23464482.626 8  23464484.356 9 123306688.408 8  93280716.000 9
E36  24808516.374 8  24808519.544 8 130369633.140 8  98623790.784 8
G01  20179765.590 7                  20179770.649 8 106045390.408 7                  82632785.392 8
G02  21255063.468 8  21255065.423 6                 111696108.799 8  87035942.985 6
G03  20586408.615 8                  20586415.370 7 108182308.673 8                  84297931.996 7
G17  22777390.525 7                  22777396.224 7 119696000.676 7                  93269887.588 7
G28  23835345.726 5                                 125255599.021 5                
G32  23257179.477 7                  23257187.605 7 122217305.268 7                  95234289.033 7
R02  20821665.415 8  20821669.966 7 111108391.352 8  86417531.252 7
R03  19345282.392 7  19345289.222 8 103556817.563 7  80544401.637 8
R04  22189023.874 7  22189031.797 7 118821166.324 7  92416548.378 7
R17  21243155.153 7                 113676405.714 7
R18  19154285.797 7  19154288.787 7 102246885.250 7  79525458.756 7
R19  21271490.764 6  21271493.179 6 113788141.690 6  88501911.096 6
> 2025 06 15 12 59  5.0000000  0 24
C06  39310667.183 6  39310663.354 6 204700953.047 6 158287755.657 6
C12  22360732.080 6  22360728.624 7 116438200.021 6  90149046.719 7
C16  39707127.504 7  39707129.274 6 206765427.441 7 159884150.191 6
C19  23629573.980 7                 123045385.967 7
C21  24804362.787 7                 129162833.323 7
C22  21553434.349 7                 112234398.123 7
E05  22882617.390 8  22882620.031 8 120248968.952 8  90967575.202 8
E06  26216554.793 7  26216558.246 8 137768921.604 7 104221306.207 8
E09  24926123.776 8  24926125.570 8 130987662.117 8  99091321.522 8
E15  26569759.120 6  26569764.276 7 139625037.691 6 105625450.788 7
E34  23462726.611 8  23462728.194 8 123297459.503 8  93273734.395 8
E36  24809164.151 8  24809166.986 8 130373035.341 8  98626364.529 8
G01  20178343.480 7                  20178347.779 8 106037913.104 7                  82626958.914 8
G02  21255409.932 7  21255411.720 6                 111697929.603 7  87037361.781 6
G03  20583638.308 8                  20583646.015 7 108167752.175 8                  84286589.292 7
G17  22774745.017 7                  22774749.012 7 119682092.153 7                  93259049.744 7
G28  23832377.526 5                                 125240012.807 5                
G32  23258580.479 7                  23258589.331 7 122224667.954 7                  95240026.180 7
R02  20823384.741 8  20823389.086 7 111117569.885 8  86424670.099 7
R03  19343169.460 7  19343175.749 8 103545502.398 7  80535600.942 8
R04  22184233.115 7  22184239.068 7 118795503.035 7  92396588.035 7
R17  21245324.421 7                 113688014.823 7
R18  19153381.045 7  19153384.158 7 102242055.708 7  79521702.466 7
R19  21267158.963 6  21267159.050 6 113764957.313 6  88483878.773 6
> 2025 06 15 12 59 10.0000000  0 24
C06  39308225.849 6  39308222.484 6 204688240.912 6 158277925.840 6
C12  22358492.052 7  22358488.058 7 116426533.981 7  90140025.800 7
C16  39704833.462 6  39704835.107 6 206753481.438 6 159874912.786 6
C19  23630733.761 7                 123051425.376 7
C21  24800363.948 7                 129142009.710 7
C22  21551713.421 7                 112225437.368 7
E05  22879688.349 8  22879690.655 8 120233575.056 8  90955929.823 8
E06  26217472.617 7  26217475.687 8 137773742.917 7 104224953.493 8
E09  24926004.968 8  24926006.495 8 130987036.176 8  99090847.999 8
E15  26566208.284 6  26566212.684 7 139606373.778 6 105611331.662 7
E34  23460971.807 8  23460973.412 9 123288237.907 8  93266758.310 9
E36  24809812.739 8  24809815.611 8 130376443.738 8  98628942.952 8
G01  20176922.876 8                  20176927.357 8 106030448.438 8                  82621142.301 8
G02  21255758.478 7  21255760.382 6                 111699760.771 7  87038788.661 6
G03  20580869.917 8                  20580877.960 8 108153206.152 8                  84275254.731 8
G17  22772099.876 7                  22772105.050 7 119668196.933 7                  93248222.297 7
G28  23829412.685 4                                 125224438.907 4                
G32  23259983.224 7                  23259992.346 7 122232039.963 7                  95245770.587 7
R02  20825106.776 8  20825111.577 7 111126759.490 8  86431817.552 7
R03  19341060.117 8  19341064.697 7 103534206.487 8  80526815.210 7
R04  22179442.177 7  22179448.112 7 118769848.196 7  92376634.293 7
R17  21247495.538 7  21247504.483 4 113699635.625 7  88433090.34614
R18  19152479.362 7  19152482.437 7 102237245.671 7  79517961.336 7
R19  21262826.960 6  21262827.198 6 113741782.054 6  88465853.550 6
> 2025 06 15 12 59 15.0000000  0 23
C06  39305785.679 6  39305781.940 6 204675532.760 6 158268099.095 6
C12  22356254.034 7  22356250.151 7 116414880.033 7  90131014.234 7
C16  39702539.821 6  39702541.443 6 206741539.598 6 159865678.598 6
C19  23631895.057 7                 123057471.371 7
C21  24796366.564 7                 129121191.596 7
C22  21549994.777 7                 112216488.303 7
E05  22876761.014 8  22876763.081 8 120218190.862 8  90944291.792 8
E06  26218391.639 7  26218394.583 8 137778571.956 7 104228606.629 8
E09  24925887.950 8  24925889.485 8 130986421.158 8  99090382.743 8
E15  26562656.961 6  26562661.327 7 139587711.572 6 105597213.848 7
E34  23459218.322 8  23459219.977 8 123279023.568 8  93259787.735 8
E36  24810462.609 8  24810465.387 8 130379858.291 8  98631526.038 8
G01  20175504.888 8                  20175509.050 8 106022996.408 8                  82615335.530 8
G02  21256108.523 7  21256110.432 6                 111701602.281 7  87040223.595 6
G03  20578104.552 7                  20578111.955 8 108138670.568 7                  84263928.308 8
G17  22769458.462 7                  22769463.075 7 119654315.103 7                  93237405.292 7
G32  23261387.968 7                  23261397.169 7 122239421.243 7                  95251522.240 7
R02  20826831.587 8  20826836.146 7 111135960.494 8  86438973.856 7
R03  19338953.350 8  19338958.170 7 103522929.045 8  80518043.862 7
R04  22174654.369 7  22174659.139 7 118744201.836 7  92356687.122 7
R17  21249669.256 7  21249678.634 5 113711267.966 7  88442137.701 5
R18  19151582.565 8  19151585.271 7 102232455.049 8  79514235.284 7
R19  21258497.099 6  21258496.803 6 113718615.872 6  88447835.429 6
> 2025 06 15 12 59 20.0000000  0 24
C06  39303345.827 6  39303342.330 6 204662827.810 6 158258274.820 6
C12  22354018.462 6  22354014.171 7 116403237.358 6  90122011.373 7
C16  39700246.861 7  39700249.234 6 206729601.140 7 159856447.026 6
C19  23633056.771 7                 123063523.118 7
C21  24792368.885 7                 129100378.094 7
C22  21548277.644 7                 112207550.116 7
E05  22873835.119 8  22873837.233 8 120202815.510 8  90932660.438 8
E06  26219311.679 7  26219314.832 8 137783407.868 7 104232264.955 8
E09  24925772.125 8  24925774.440 8 130985816.231 8  99089925.112 8
E15  26559105.887 6  26559110.198 7 139569050.183 6 105583096.627 7
E34  23457465.969 8  23457467.789 8 123269815.669 8  93252822.024 8
E36  24811113.189 8  24811116.209 8 130383278.138 8  98634113.130 8
G01  20174088.642 8                  20174093.522 8 106015556.163 8                  82609537.932 8
G02  21256461.255 7  21256462.631 6                 111703453.276 7  87041665.920 6
G03  20575340.340 8                  20575347.689 8 108124144.580 8                  84252609.356 8
G17  22766819.280 6                  22766823.840 7 119640445.780 6                  93226598.031 7
G28  23823494.795 5                                                                
G32  23262794.811 7                  23262803.224 7 122246810.928 7                  95257280.438 7
R02  20828558.501 8  20828562.187 7 111145171.802 8  86446138.215 7
R03  19336850.858 8  19336854.811 7 103511669.810 8  80509286.678 7
R04  22169865.823 7  22169871.006 7 118718563.115 7  92336745.921 7
R17  21251845.980 7  21251852.926 5 113722911.080 7  88451193.483 5
R18  19150687.904 8  19150691.426 7 102227683.001 8  79510523.674 7
R19  21254165.383 6  21254167.819 6 113695458.115 6  88429823.826 6
> 2025 06 15 12 59 25.0000000  0 24
C06  39300906.429 6  39300903.120 6 204650126.280 6 158248453.193 6
C12  22351785.017 7  22351780.599 7 116391606.207 7  90113017.422 7
C16  39697956.249 7  39697957.435 6 206717666.282 7 159847218.242 6
C19  23634219.936 7                 123069580.837 7
C21  24788372.157 7                 129079569.541 7
C22  21546563.699 7                 112198623.038 7
E05  22870910.690 8  22870913.142 8 120187449.254 8  90921035.975 8
E06  26220233.265 7  26220236.445 8 137788250.915 7 104235928.677 8
E09  24925658.853 8  24925661.334 8 130985221.637 8  99089475.316 8
E15  26555556.117 6  26555559.291 8 139550389.939 6 105568980.285 8
E34  23455714.901 8  23455716.854 8 123260614.483 8  93245861.388 8
E36  24811765.010 8  24811768.038 8 130386703.563 8  98636704.443 8
G01  20172675.283 7                  20172679.993 8 106008127.966 7                  82603749.734 8
G02  21256815.442 7  21256817.222 6                 111705314.046 7  87043115.860 6
G03  20572577.978 7                  20572584.804 7 108109628.472 7                  84241298.108 7
G17  22764183.004 7                  22764187.181 7 119626589.263 7                  93215800.748 7
G28  23820536.267 5                  23820552.380 5 125177782.38115                  97541178.88915
G32  23264202.868 7                  23264210.717 7 122254209.291 7                  95263045.394 7
R02  20830286.642 8  20830289.942 7 111154393.787 8  86453310.888 7
R03  19334750.327 8  19334755.053 7 103500428.934 8  80500543.771 7
R04  22165079.268 7  22165084.255 7 118692932.247 7  92316810.801 7
R17  21254024.015 7  21254030.587 5 113734565.096 7  88460257.723 5
R18  19149797.505 8  19149800.889 7 102222929.862 8  79506826.771 7
R19  21249839.236 6  21249840.448 6 113672309.122 6  88411819.035 6
> 2025 06 15 12 59 30.0000000  0 24
C06  39298468.008 6  39298464.424 6 204637428.699 6 158238634.613 6
C12  22349553.858 7  22349549.483 7 116379987.085 7  90104032.790 7
C16  39695664.553 7  39695665.998 6 206705735.505 7 159837992.614 6
C19  23635384.575 7                 123075645.012 7
C21  24784378.237 7                 129058766.330 7
C22  21544851.182 7                 112189707.509 7
E05  22867988.484 8  22867990.883 8 120172092.588 8  90909418.766 8
E06  26221156.650 7  26221159.514 8 137793101.529 7 104239598.120 8
E09  24925548.067 8  24925550.233 8 130984637.854 8  99089033.676 8
E15  26552004.380 6  26552008.698 8 139531731.309 6 105554865.167 8
E34  23453965.346 8  23453967.329 9 123251420.469 8  93238906.172 9
E36  24812418.039 8  24812421.006 8 130390135.009 8  98639300.315 8
G01  20171264.308 7                  20171269.094 8 106000712.302 7                  82597971.313 8
G02  21257171.461 7  21257173.062 6                 111707185.022 7  87044573.765 6
G03  20569817.055 7                  20569824.737 7 108095122.683 7                  84229994.879 7
G17  22761549.383 7                  22761552.934 7 119612746.000 7                  93205013.785 7
G28  23817584.202 5                  23817595.460 5 125162255.913 5                  97529080.267 5
G32  23265612.204 7                  23265620.658 7 122261616.794 7                  95268817.457 7
R02  20832016.706 8  20832019.954 7 111163626.866 8  86460492.182 7
R03  19332654.511 8  19332658.763 7 103489206.604 8  80491815.302 7
R04  22160295.438 7  22160299.482 7 118667309.870 7  92296882.293 7
R17  21256203.810 7  21256208.826 5 113746230.496 7  88469330.807 5
R18  19148911.342 8  19148914.586 7 102218196.045 8  79503144.912 7
R19  21245514.905 6  21245514.720 6 113649169.097 6  88393821.274 6
> 2025 06 15 12 59 35.0000000  0 24
C06  39296029.933 6  39296026.638 6 204624735.244 6 158228819.229 6
C12  22347324.737 7  22347320.604 7 116368380.238 7  90095057.643 7
C16  39693374.003 6  39693375.964 6 206693809.109 6 159828770.369 6
C19  23636550.199 7                 123081715.862 7
C21  24780383.128 7                 129037968.772 7
C22  21543141.818 7                 112180803.839 7
E05  22865068.118 8  22865070.480 8 120156745.759 8  90897808.993 8
E06  26222081.070 7  26222084.012 8 137797960.004 7 104243273.522 8
E09  24925438.775 8  24925441.220 8 130984065.122 8  99088600.400 8
E15  26548455.025 6  26548458.362 8 139513074.476 6 105540751.406 8
E34  23452217.464 8  23452219.212 9 123242233.891 8  93231956.584 9
E36  24813072.323 8  24813075.227 8 130393572.759 8  98641900.948 8
G01  20169855.637 7                  20169860.092 8 105993309.438 7                  82592202.840 8
G02  21257529.202 7  21257531.216 6                 111709066.482 7  87046039.834 6
G03  20567059.444 7                  20567066.127 7 108080627.480 7                  84218699.918 7
G17  22758917.494 7                  22758921.452 7 119598916.277 7                  93194237.379 7
G28  23814633.206 6                  23814641.709 5 125146741.883 6                  97516991.390 5
G32  23267023.716 7                  23267031.968 7 122269033.688 7                  95274596.822 7
R02  20833748.393 8  20833752.290 7 111172871.314 8  86467682.311 7
R03  19330561.992 8  19330565.161 7 103478003.430 8  80483101.734 7
R04  22155510.754 7  22155515.764 7 118641696.009 7  92276960.424 7
R17  21258386.722 7  21258390.467 5 113757907.645 7  88478413.074 5
R18  19148028.473 8  19148030.975 7 102213481.770 8  79499478.258 7
R19  21241190.486 7  21241190.300 6 113626038.416 7  88375830.773 6
> 2025 06 15 12 59 40.0000000  0 24
C06  39293593.429 6  39293590.149 6 204612046.262 6 158219007.301 6
C12  22345098.032 7  22345094.362 7 116356785.934 7  90086092.199 7
C16  39691084.841 7  39691086.497 6 206681887.296 7 159819551.664 6
C19  23637717.842 7                 123087793.683 7
C21  24776390.667 7                 129017177.110 7
C22  21541434.286 7                 112171912.270 7
E05  22862149.934 8  22862152.060 8 120141409.076 8  90886206.889 8
E06  26223007.792 7  26223010.045 8 137802826.558 7 104246955.032 8
E09  24925332.407 8  24925334.367 8 130983503.729 8  99088175.708 8
E15  26544904.625 6  26544908.450 8 139494419.829 6 105526639.305 8
E34  23450470.497 8  23450472.528 9 123233055.039 8  93225012.847 9
E36  24813727.273 8  24813730.637 8 130397017.094 8  98644506.558 8
G01  20168449.662 7                  20168453.905 8 105985919.673 7                  82586444.580 8
G02  21257889.152 7  21257891.456 6                 111710958.687 7  87047514.285 6
G03  20564302.982 7                  20564309.759 7 108066143.156 7                  84207413.437 7
G17  22756288.443 7                  22756292.521 7 119585100.397 7                  93183471.771 7
G28  23811684.179 6                  23811689.246 5 125131240.575 6                  97504912.452 5
G32  23268436.879 7                  23268445.541 7 122276460.237 7                  95280383.728 7
R02  20835482.457 7  20835486.876 7 111182127.281 7  86474881.389 7
R03  19328472.278 8  19328476.064 7 103466819.618 8  80474403.247 7
R04  22150729.790 8  22150734.672 7 118616091.111 8  92257045.521 7
R17  21260570.906 7  21260577.299 5 113769596.745 7  88487504.628 5
R18  19147149.138 8  19147151.723 7 102208787.402 8  79495827.071 7
R19  21236868.895 6  21236869.241 7 113602917.435 6  88357847.824 7
> 2025 06 15 12 59 45.0000000  0 24
C06  39291158.135 6  39291153.734 6 204599361.384 6 158209198.534 6
C12  22342873.836 7  22342870.345 7 116345203.836 7  90077136.185 7
C16  39688796.469 7  39688797.732 6 206669969.761 7 159810336.261 6
C19  23638886.747 7                 123093878.119 7
C21  24772398.271 7                 128996391.033 7
C22  21539728.997 7                 112163032.466 7
E05  22859233.247 8  22859235.446 8 120126082.155 8  90874612.182 8
E06  26223934.008 7  26223937.641 8 137807700.872 7 104250642.409 8
E09  24925227.898 8  24925229.577 8 130982953.302 8  99087759.313 8
E15  26541354.795 6  26541358.929 8 139475766.950 6 105512528.537 8
E34  23448725.363 8  23448727.245 8 123223883.559 8  93218074.678 8
E36  24814384.381 8  24814387.274 8 130400467.630 8  98647116.861 8
G01  20167045.615 7                  20167050.382 8 105978542.632 7                  82580696.236 8
G02  21258251.091 7  21258253.545 6                 111712861.307 7  87048996.852 6
G03  20561548.487 7                  20561555.477 7 108051669.337 7                  84196135.144 7
G17  22753661.282 7                  22753666.200 7 119571298.023 7                  93172716.688 7
G28  23808737.961 6                  23808740.942 5 125115751.608 6                  97492843.129 5
G32  23269851.472 7                  23269860.867 7 122283896.063 7                  95286177.875 7
R02  20837218.865 7  20837223.746 6 111191394.670 7  86482089.333 6
R03  19326386.584 8  19326390.510 7 103455654.565 8  80465719.318 7
R04  22145948.994 7  22145954.867 7 118590494.895 7  92237137.379 7
R17  21262756.642 7  21262762.835 4 113781297.488 7  88496605.188 4
R18  19146273.471 8  19146276.281 7 102204112.575 8  79492191.084 7
R19  21232546.851 6  21232548.815 7 113579805.769 6  88339872.090 7
> 2025 06 15 12 59 50.0000000  0 24
C06  39288722.175 6  39288718.635 6 204586680.729 6 158199393.052 6
C12  22340651.863 7  22340648.630 8 116333634.092 7  90068189.725 8
C16  39686509.258 7  39686510.045 6 206658056.642 7 159801124.283 6
C19  23640056.503 7                 123099969.265 7
C21  24768407.681 7                 128975610.654 7
C22  21538026.333 7                 112154164.537 7
E05  22856318.731 8  22856320.751 8 120110765.158 8  90863024.978 8
E06  26224862.914 7  26224866.659 8 137812583.049 7 104254335.755 8
E09  24925125.442 8  24925126.916 8 130982413.988 8  99087351.318 8
E15  26537806.113 6  26537809.734 8 139457115.993 6 105498419.223 8
E34  23446981.539 8  23446983.419 9 123214719.575 8  93211142.179 9
E36  24815042.231 8  24815045.116 8 130403924.535 8  98649731.982 8
G01  20165644.466 8                  20165648.983 8 105971178.436 8                  82574957.900 8
G02  21258615.347 7  21258617.637 6                 111714774.460 7  87050487.620 6
G03  20558796.416 8                  20558802.800 7 108037206.202 8                  84184865.150 7
G17  22751037.801 7                  22751041.611 7 119557509.276 7                  93161972.221 7
G28  23805791.971 6                  23805796.077 5 125100275.130 6                  97480783.600 5
G32  23271268.008 7                  23271277.565 7 122291341.284 7                  95291979.339 7
R02  20838958.315 7  20838963.026 7 111200673.376 7  86489306.076 7
R03  19324303.132 8  19324308.315 7 103444508.672 8  80457050.283 7
R04  22141171.016 7  22141176.355 7 118564907.364 7  92217235.989 7
R17  21264944.482 7  21264950.317 4 113793009.828 7  88505714.756 4
R18  19145401.602 8  19145404.302 7 102199457.394 8  79488570.386 7
R19  21228225.108 6  21228230.348 7 113556703.659 6  88321903.790 7
> 2025 06 15 12 59 55.0000000  0 24
C06  39286288.653 6  39286284.662 6 204574005.001 6 158189591.383 6
C12  22338432.816 7  22338429.483 7 116322077.426 7  90059253.384 7
C16  39684221.786 7  39684223.396 6 206646148.634 7 159791916.268 6
C19  23641227.252 7                 123106067.857 7
C21  24764416.970 6                 128954836.729 6
C22  21536326.366 7                 112145309.230 7
E05  22853405.858 8  22853408.066 8 120095458.815 8  90851445.827 8
E06  26225793.402 7  26225797.336 8 137817473.822 7 104258035.597 8
E09  24925024.820 8  24925026.521 8 130981886.486 8  99086952.271 8
E15  26534257.535 7  26534261.081 8 139438467.682 7 105484311.905 8
E34  23445239.313 8  23445241.155 8 123205563.830 8  93204215.919 8
E36  24815700.841 8  24815704.374 8 130407388.507 8  98652352.456 8
G01  20164245.583 8                  20164250.483 8 105963827.831 8                  82569230.158 8
G02  21258981.604 7  21258983.624 6                 111716698.864 7  87051987.173 6
G03  20556046.747 8                  20556053.007 7 108022754.460 8                  84173604.060 7
G17  22748415.884 7                  22748421.004 7 119543734.867 7                  93151238.937 7
G28  23802850.715 6                  23802853.888 5 125084811.953 6                  97468734.356 5
G32  23272686.642 7                  23272696.585 7 122298796.624 7                  95297788.708 7
R02  20840699.092 8  20840704.309 7 111209964.159 8  86496532.236 7
R03  19322224.951 8  19322229.821 7 103433382.582 8  80448396.656 7
R04  22136394.895 7  22136399.900 7 118539329.489 7  92197342.092 7
R17  21267136.961 7  21267139.766 4 113804734.703 7  88514834.077 4
R18  19144533.106 8  19144535.893 7 102194822.642 8  79484965.581 7
R19  21223907.546 6  21223912.638 6 113533611.833 6  88303943.483 6
> 2025 06 15 13 00  0.0000000  0 24
C06  39283854.771 6  39283850.827 6 204561332.686 6 158179792.346 6
C12  22336215.588 7  22336212.060 8 116310532.268 7  90050325.936 8
C16  39681934.945 7  39681936.830 6 206634244.152 7 159782710.975 6
C19  23642399.765 7                 123112172.303 7
C21  24760428.136 6                 128934067.657 6
C22  21534628.171 7                 112136464.943 7
E05  22850495.273 8  22850497.106 8 120080161.533 8  90839873.534 8
E06  26226725.801 7  26226729.359 8 137822371.599 7 104261740.730 8
E09  24924926.471 8  24924928.125 8 130981369.210 8  99086560.954 8
E15  26530708.857 7  26530712.586 8 139419820.442 7 105470205.405 8
E34  23443498.346 8  23443500.148 9 123196414.741 8  93197294.690 9
E36  24816360.996 8  24816364.587 8 130410857.975 8  98654977.068 8
G01  20162848.740 8                  20162853.822 8 105956489.220 8                  82563511.767 8
G02  21259349.673 7  21259351.538 6                 111718632.918 7  87053494.229 6
G03  20553298.421 8                  20553304.698 7 108008312.484 8                  84162350.577 7
G17  22745798.162 7                  22745802.454 7 119529973.230 7                  93140515.613 7
G28  23799909.930 6                  23799913.530 5 125069360.404 6                  97456694.239 5
G32  23274107.749 7                  23274116.464 7 122306260.488 7                  95303604.699 7
R02  20842443.638 8  20842446.666 7 111219265.307 8  86503766.452 7
R03  19320149.193 8  19320154.719 7 103422274.653 8  80439757.155 7
R04  22131619.933 7  22131625.315 7 118513759.365 7  92177454.229 7
R17  21269329.260 7  21269332.413 4 113816470.399 7  88523961.794 4
R18  19143667.872 8  19143671.042 7 102190206.672 8  79481375.383 7
R19  21219591.595 6  21219597.851 6 113510528.628 6  88285989.877 6
> 2025 06 15 13 00  5.0000000  0 24
C06  39281421.050 6  39281417.781 6 204548664.092 6 158169996.167 6
C12  22333999.997 7  22333997.217 7 116298999.011 7  90041407.683 7
C16  39679649.679 7  39679651.620 6 206622343.603 7 159773508.720 6
C19  23643573.680 7                 123118282.950 7
C21  24756440.523 6                 128913303.801 6
C22  21532932.284 7                 112127632.062 7
E05  22847586.239 8  22847587.917 8 120064873.674 8  90828308.374 8
E06  26227659.883 7  26227662.784 8 137827276.700 7 104265451.405 8
E09  24924830.426 8  24924831.736 8 130980862.520 8  99086177.643 8
E15  26527160.704 7  26527164.418 8 139401174.647 7 105456099.986 8
E34  23441758.782 8  23441760.449 8 123187272.652 8  93190378.754 8
E36  24817022.229 8  24817025.936 8 130414333.271 8  98657606.103 8
G01  20161454.661 8                  20161459.690 8 105949162.993 8                  82557803.031 8
G02  21259719.000 7  21259721.434 6                 111720576.986 7  87055009.084 6
G03  20550552.500 8                  20550558.341 7 107993880.688 8                  84151105.021 7
G17  22743179.797 7                  22743185.991 7 119516224.712 7                  93129802.497 7
G28  23796971.972 6                  23796975.298 5 125053920.877 6                  97444663.503 5
G32  23275529.370 7                  23275538.324 7 122313733.211 7                  95309427.584 7
R02  20844187.753 8  20844191.503 6 111228577.242 8  86511009.085 6
R03  19318078.578 8  19318083.615 7 103411185.430 8  80431132.213 7
R04  22126846.273 7  22126851.873 7 118488197.592 7  92157572.883 7
R17  21271523.501 7  21271528.648 5 113828217.160 7  88533098.140 5
R18  19142806.082 8  19142810.174 7 102185609.881 8  79477800.105 7
R19  21215281.497 6  21215284.101 6 113487454.414 6  88268043.252 6
> 2025 06 15 13 00 10.0000000  0 24
C06  39278989.539 6  39278985.935 6 204535999.407 6 158160203.032 6
C12  22331787.603 7  22331784.762 7 116287477.801 7  90032498.758 7
C16  39677364.923 7  39677367.099 6 206610447.132 7 159764309.619 6
C19  23644748.143 7                 123124399.986 7
C21  24752453.412 6                 128892545.323 6
C22  21531238.189 7                 112118810.746 7
E05  22844678.887 8  22844680.589 8 120049595.437 8  90816750.488 8
E06  26228594.726 7  26228597.634 8 137832189.333 7 104269167.778 8
E09  24924735.717 8  24924737.357 8 130980366.585 8  99085802.479 8
E15  26523612.832 7  26523616.541 8 139382530.457 7 105441995.784 8
E34  23440020.332 8  23440022.126 9 123178137.779 8  93183468.286 9
E36  24817684.800 8  24817688.449 8 130417814.612 8  98660239.701 8
G01  20160062.682 8                  20160068.086 8 105941849.327 8                  82552104.070 8
G02  21260091.182 7  21260093.317 6                 111722531.298 7  87056531.914 6
G03  20547808.052 8                  20547814.110 7 107979459.254 8                  84139867.535 7
G17  22740566.160 6                  22740572.337 7 119502489.545 6                  93119099.766 7
G28  23794037.157 6                  23794039.392 6 125038493.643 6                  97432642.386 6
G32  23276953.143 7                  23276961.846 7 122321214.983 7                  95315257.534 7
R02  20845934.483 8  20845939.138 7 111237900.249 8  86518260.311 7
R03  19316010.296 7  19316015.478 7 103400114.964 7  80422521.872 7
R04  22122074.963 7  22122080.352 7 118462644.224 7  92137698.068 7
R17  21273720.558 7  21273726.988 5 113839975.313 7  88542243.374 5
R18  19141949.531 8  19141952.575 7 102181032.425 8  79474239.855 7
R19  21210970.011 6  21210972.484 6 113464389.492 6  88250103.875 6
> 2025 06 15 13 00 15.0000000  0 24
C06  39276557.753 6  39276554.533 6 204523338.207 6 158150412.593 6
C12  22329577.014 7  22329574.312 8 116275968.231 7  90023598.823 8
C16  39675081.522 7  39675083.301 6 206598554.344 7 159755113.361 6
C19  23645923.894 7                 123130522.958 7
C21  24748468.871 6                 128871791.853 6
C22  21529546.074 7                 112110000.560 7
E05  22841773.010 8  22841774.964 8 120034326.391 8  90805199.562 8
E06  26229531.305 7  26229533.830 8 137837109.082 7 104272889.534 8
E09  24924643.381 8  24924644.952 8 130979880.987 8  99085435.132 8
E15  26520064.846 7  26520068.901 8 139363887.472 7 105427892.497 8
E34  23438283.216 8  23438285.107 9 123169009.666 8  93176562.938 9
E36  24818348.394 8  24818352.000 8 130421301.531 8  98662877.520 8
G01  20158673.372 8                  20158678.457 8 105934547.799 8                  82546414.571 8
G02  21260464.945 7  21260466.811 6                 111724495.354 7  87058062.334 6
G03  20545065.870 8                  20545072.039 7 107965047.714 8                  84128637.774 7
G17  22737955.343 6                  22737961.137 7 119488767.312 6                  93108407.113 7
G28  23791107.694 5                  23791106.199 6 125023078.188 5                  97420630.429 6
G32  23278378.619 7                  23278387.015 7 122328705.336 7                  95321094.164 7
R02  20847684.135 8  20847688.416 7 111247233.643 8  86525519.618 7
R03  19313946.745 8  19313951.067 7 103389062.553 8  80413925.549 7
R04  22117303.988 7  22117309.555 7 118437098.924 7  92117829.530 7
R17  21275919.799 7  21275927.703 5 113851744.481 7  88551397.161 5
R18  19141094.476 7  19141098.575 7 102176473.920 7  79470694.354 7
R19  21206659.016 6  21206662.323 6 113441333.212 6  88232171.242 6
> 2025 06 15 13 00 20.0000000  0 24
C06  39274127.406 6  39274123.700 6 204510681.611 6 158140625.707 6
C12  22327369.672 7  22327366.587 7 116264471.418 7  90014708.758 7
C16  39672798.425 6  39672800.298 6 206586666.348 6 159745920.814 6
C19  23647100.650 7                 123136652.995 7
C21  24744485.123 7                 128851044.499 7
C22  21527856.755 7                 112101202.651 7
E05  22838869.387 8  22838871.359 8 120019067.662 8  90793656.442 8
E06  26230468.731 7  26230471.613 8 137842037.013 7 104276617.473 8
E09  24924553.041 8  24924554.729 8 130979406.818 8  99085076.430 8
E15  26516517.415 7  26516521.667 8 139345246.826 7 105413790.977 8
E34  23436547.671 8  23436549.592 9 123159889.478 8  93169663.571 9
E36  24819013.160 8  24819016.803 8 130424795.191 8  98665520.438 8
G01  20157286.852 8                  20157291.337 8 105927259.532 8                  82540735.408 8
G02  21260840.510 7  21260842.474 6                 111726470.313 7  87059601.249 6
G03  20542325.117 8                  20542331.496 7 107950647.261 8                  84117416.635 7
G17  22735346.388 6                  22735352.323 7 119475059.088 6                  93097725.383 7
G28  23788168.703 5                  23788175.507 6 125007675.768 5                  97408628.519 6
G32  23279805.498 7                  23279814.120 7 122336205.441 7                  95326938.397 7
R02  20849435.381 8  20849439.349 7 111256578.837 8  86532788.099 7
R03  19311885.234 8  19311889.757 7 103378029.840 8  80405344.541 7
R04  22112535.008 7  22112540.393 7 118411562.758 7  92097968.088 7
R17  21278122.778 7  21278129.271 5 113863525.626 7  88560560.254 5
R18  19140244.371 7  19140248.554 7 102171935.463 7  79467164.433 7
R19  21202349.645 6  21202353.912 6 113418286.962 6  88214246.372 6
> 2025 06 15 13 00 25.0000000  0 24
C06  39271698.148 6  39271693.935 6 204498029.062 6 158130841.957 6
C12  22325164.099 7  22325160.976 7 116252986.786 7  90005828.114 7
C16  39670515.941 6  39670518.170 6 206574782.526 6 159736731.503 6
C19  23648279.187 7                 123142789.500 7
C21  24740501.990 7                 128830302.672 7
C22  21526169.732 7                 112092416.418 7
E05  22835967.462 8  22835969.607 9 120003818.685 8  90782120.693 9
E06  26231408.304 7  26231410.833 8 137846972.572 7 104280351.184 8
E09  24924465.041 8  24924466.575 8 130978943.513 8  99084725.949 8
E15  26512970.593 7  26512974.854 8 139326607.903 7 105399690.761 8
E34  23434814.080 8  23434815.471 9 123150776.603 8  93162769.748 9
E36  24819679.535 8  24819682.795 8 130428294.963 8  98668167.992 8
G01  20155902.249 7                  20155906.927 8 105919983.968 7                  82535066.130 8
G02  21261218.434 7  21261220.529 6                 111728455.581 7  87061148.202 6
G03  20539586.758 8                  20539593.249 7 107936257.254 8                  84106203.653 7
G17  22732740.420 7                  22732746.189 7 119461364.309 7                  93087054.148 7
G28  23785234.405 4                  23785246.683 6 124992285.775 4                  97396636.306 6
G32  23281234.651 7                  23281243.466 7 122343714.663 7                  95332789.732 7
R02  20851188.773 8  20851192.902 7 111265934.940 8  86540065.058 7
R03  19309827.792 8  19309832.060 7 103367015.813 8  80396778.058 7
R04  22107768.349 7  22107772.894 7 118386035.175 7  92078113.317 7
R17  21280326.672 7  21280333.778 5 113875318.185 7  88569732.229 5
R18  19139398.226 7  19139402.197 7 102167416.513 7  79463649.688 7
R19  21198041.849 6  21198047.730 6 113395250.137 6  88196328.862 6
> 2025 06 15 13 00 30.0000000  0 24
C06  39269267.729 6  39269264.877 6 204485380.841 6 158121061.554 6
C12  22322961.135 7  22322957.972 7 116241514.644 7  89996957.122 7
C16  39668235.131 7  39668237.331 6 206562903.227 7 159727545.685 6
C19  23649459.100 7                 123148932.722 7
C21  24736520.252 7                 128809566.641 7
C22  21524484.345 7                 112083642.116 7
E05  22833067.539 8  22833069.772 8 119988579.730 8  90770592.534 8
E06  26232348.791 7  26232351.521 8 137851916.012 7 104284090.858 8
E09  24924378.559 8  24924380.554 8 130978491.346 8  99084383.889 8
E15  26509424.263 7  26509428.355 8 139307971.033 7 105385592.100 8
E34  23433081.206 8  23433082.765 8 123141671.355 8  93155881.670 8
E36  24820346.814 8  24820349.969 8 130431801.166 8  98670820.399 8
G01  20154520.047 8                  20154524.774 8 105912721.354 8                  82529406.955 8
G02  21261598.386 7  21261600.292 6                 111730451.422 7  87062703.396 6
G03  20536850.432 8                  20536856.796 7 107921878.006 8                  84094999.069 7
G17  22730136.709 6                  22730143.127 7 119447683.272 6                  93076393.607 7
G28  23782308.109 4                  23782319.957 6 124976908.561 4                  97384653.931 6
G32  23282665.407 7                  23282674.575 7 122351233.257 7                  95338648.383 7
R02  20852944.137 8  20852949.219 7 111275302.315 8  86547350.793 7
R03  19307773.728 8  19307778.432 7 103356020.917 8  80388226.464 7
R04  22103003.557 7  22103007.341 7 118360516.750 7  92058265.671 7
R17  21282533.138 7  21282538.858 5 113887122.419 7  88578913.256 5
R18  19138555.483 8  19138559.510 7 102162917.313 8  79460150.317 7
R19  21193736.546 6  21193742.593 6 113372223.056 6  88178418.916 6
> 2025 06 15 13 00 35.0000000  0 24
C06  39266840.200 6  39266836.918 6 204472736.480 6 158111284.132 6
C12  22320759.978 7  22320757.040 7 116230054.554 7  89988095.446 7
C16  39665953.557 6  39665956.370 6 206551028.002 6 159718363.024 6
C19  23650639.601 7                 123155082.303 7
C21  24732539.232 7                 128788836.061 7
C22  21522801.679 8                 112074879.382 8
E05  22830169.630 8  22830171.737 8 119973350.420 8  90759071.656 8
E06  26233291.356 7  26233293.649 8 137856866.927 7 104287836.192 8
E09  24924294.570 8  24924296.565 8 130978049.900 8  99084049.938 8
E15  26505878.050 7  26505882.216 8 139289335.768 7 105371494.653 8
E34  23431349.881 8  23431351.447 9 123132573.306 8  93148999.053 9
E36  24821015.437 8  24821018.332 8 130435313.366 8  98673477.348 8
G01  20153140.841 8                  20153145.082 8 105905471.316 8                  82523757.571 8
G02  21261980.367 7  21261982.067 6                 111732457.471 7  87064266.540 6
G03  20534116.037 8                  20534122.813 7 107907509.076 8                  84083802.523 7
G17  22727535.221 6                  22727542.272 7 119434015.645 6                  93065743.509 7
G28  23779385.964 5                  23779395.088 5 124961543.551 5                  97372681.115 5
G32  23284097.969 7                  23284107.012 7 122358760.844 7                  95344514.037 7
R02  20854701.828 8  20854706.315 7 111284680.650 8  86554645.045 7
R03  19305723.486 8  19305727.722 7 103345044.977 8  80379689.625 7
R04  22098239.568 7  22098243.576 7 118335006.766 7  92038424.599 7
R17  21284740.840 7  21284747.530 6 113898937.909 7  88588103.051 6
R18  19137716.224 8  19137720.166 7 102158437.456 8  79456665.986 7
R19  21189433.510 6  21189439.552 6 113349205.214 6  88160516.167 6
> 2025 06 15 13 00 40.0000000  0 24
C06  39264413.193 6  39264409.633 6 204460096.424 6 158101510.053 6
C12  22318561.264 7  22318558.647 7 116218606.901 7  89979243.397 7
C16  39663674.358 6  39663676.954 6 206539157.217 6 159709183.785 6
C19  23651822.132 7                 123161238.544 7
C21  24728559.539 7                 128768111.248 7
C22  21521121.142 7                 112066128.547 7
E05  22827273.477 8  22827275.525 9 119958131.076 8  90747558.333 9
E06  26234234.979 7  26234237.293 8 137861825.659 7 104291587.431 8
E09  24924213.050 8  24924214.662 8 130977619.541 8  99083724.372 8
E15  26502332.612 7  26502336.495 8 139270702.513 7 105357398.713 8
E34  23429619.870 8  23429621.553 9 123123482.817 8  93142122.157 9
E36  24821685.297 8  24821687.901 8 130438831.943 8  98676139.123 8
G01  20151763.272 8                  20151767.881 8 105898234.198 8                  82518118.261 8
G02  21262364.385 7  21262365.831 6                 111734474.062 7  87065837.894 6
G03  20531383.664 7                  20531390.536 7 107893150.891 7                  84072614.338 7
G17  22724937.330 6                  22724943.609 7 119420361.706 6                  93055104.079 7
G28  23776468.087 5                  23776473.031 4 124946191.120 5                  97360718.209 4
G32  23285532.458 7                  23285541.273 7 122366297.741 7                  95350386.933 7
R02  20856462.059 8  20856466.151 7 111294070.079 8  86561947.916 7
R03  19303676.969 8  19303681.147 7 103334088.098 8  80371167.627 7
R04  22093477.172 7  22093481.574 7 118309505.648 7  92018590.439 7
R17  21286952.163 7  21286957.463 6 113910765.045 7  88597301.936 6
R18  19136881.029 8  19136884.559 7 102153977.337 8  79453197.012 7
R19  21185133.287 6  21185138.397 7 113326196.991 6  88142620.838 7
> 2025 06 15 13 00 45.0000000  0 24
C06  39261986.317 6  39261983.036 6 204447460.793 6 158091739.372 6
C12  22316365.822 7  22316362.670 7 116207171.809 7  89970401.075 7
C16  39661395.297 6  39661398.145 6 206527291.015 6 159700008.092 6
C19  23653005.704 7                 123167401.596 7
C21  24724580.245 7                 128747392.381 7
C22  21519442.588 7                 112057389.751 7
E05  22824379.027 8  22824381.327 8 119942921.867 8  90736052.673 8
E06  26235179.713 7  26235182.429 8 137866792.361 7 104295344.695 8
E09  24924132.701 8  24924134.930 8 130977200.380 8  99083407.281 8
E15  26498787.009 7  26498791.114 8 139252071.397 7 105343304.406 8
E34  23427891.666 8  23427893.152 8 123114400.058 8  93135251.101 8
E36  24822355.907 8  24822358.673 8 130442357.010 8  98678805.802 8
G01  20150388.708 8                  20150393.160 8 105891010.155 8                  82512489.135 8
G02  21262750.168 7  21262752.065 6                 111736501.284 7  87067417.540 6
G03  20528653.492 7                  20528660.164 7 107878803.538 7                  84061434.594 7
G17  22722342.164 6                  22722348.186 7 119406721.636 6                  93044475.458 7
G28  23773549.866 6                  23773553.226 4 124930851.497 6                  97348765.231 4
G32  23286968.223 7                  23286977.307 7 122373844.089 7                  95356267.220 7
R02  20858223.261 8  20858227.555 7 111303470.982 8  86569259.729 7
R03  19301633.705 8  19301637.964 7 103323150.553 8  80362660.659 7
R04  22088716.654 7  22088721.356 7 118284013.501 7  91998763.259 7
R17  21289164.004 7  21289170.479 6 113922604.021 7  88606510.008 6
R18  19136049.818 8  19136052.730 7 102149537.103 8  79449743.499 7
R19  21180835.854 6  21180839.201 7 113303198.551 6  88124733.140 7
> 2025 06 15 13 00 50.0000000  0 24
C06  39259560.192 6  39259557.382 6 204434829.396 6 158081971.983 6
C12  22314172.146 7  22314169.396 7 116195749.211 7  89961568.413 7
C16  39659117.598 6  39659120.384 6 206515429.255 6 159690835.833 6
C19  23654189.933 7                 123173571.277 7
C21  24720602.823 7                 128726679.272 7
C22  21517767.105 7                 112048662.833 7
E05  22821486.979 8  22821488.994 9 119927722.656 8  90724554.586 9
E06  26236126.396 7  26236129.073 8 137871766.848 7 104299107.858 8
E09  24924054.895 8  24924057.265 8 130976792.287 8  99083098.563 8
E15  26495242.143 7  26495246.106 8 139233442.262 7 105329211.579 8
E34  23426164.469 7  23426166.159 9 123105324.849 7  93128385.769 9
E36  24823028.291 8  24823030.688 8 130445888.440 8  98681477.301 8
G01  20149017.020 8                  20149020.830 8 105883799.054 8                  82506870.088 8
G02  21263137.606 7  21263139.785 6                 111738539.050 7  87069005.412 6
G03  20525924.878 7                  20525931.721 7 107864466.914 7                  84050263.193 7
G17  22719748.471 6                  22719754.943 7 119393095.260 6                  93033857.519 7
G28  23770633.935 6                  23770636.021 3 124915524.560 6                  97336822.132 3
G32  23288405.867 7                  23288415.237 7 122381399.742 7                  95362154.727 7
R02  20859987.055 8  20859991.914 7 111312883.091 8  86576580.266 7
R03  19299594.276 8  19299598.363 7 103312232.032 8  80354168.476 7
R04  22083956.900 7  22083962.860 7 118258530.338 7  91978943.056 7
R17  21291377.647 6  21291384.780 6 113934454.479 6  88615727.007 6
R18  19135221.147 8  19135224.922 7 102145116.565 8  79446305.315 7
R19  21176539.395 6  21176541.955 6 113280209.914 6  88106853.069 6
> 2025 06 15 13 00 55.0000000  0 24
C06  39257135.553 6  39257132.330 6 204422201.552 6 158072207.337 6
C12  22311979.990 7  22311978.342 7 116184338.310 7  89952744.782 7
C16  39656840.299 6  39656843.150 6 206503571.212 6 159681666.451 6
C19  23655375.989 7                 123179746.895 7
C21  24716626.011 7                 128705971.256 7
C22  21516093.341 7                 112039947.104 7
E05  22818596.124 8  22818598.393 9 119912532.713 8  90713063.509 9
E06  26237074.092 7  26237077.033 8 137876748.415 7 104302876.380 8
E09  24923978.866 8  24923981.580 8 130976394.520 8  99082797.654 8
E15  26491697.474 7  26491701.306 8 139214814.403 7 105315119.737 8
E34  23424438.696 8  23424440.473 9 123096256.509 8  93121525.630 9
E36  24823700.863 8  24823703.761 8 130449425.498 8  98684153.065 8
G01  20147646.589 8                  20147651.109 8 105876600.143 8                  82501260.543 8
G02  21263527.320 7  21263529.428 6                 111740586.642 7  87070600.936 6
G03  20523198.778 8                  20523205.528 7 107850140.260 8                  84039099.572 7
G17  22717158.417 6                  22717164.491 7 119379481.932 6                  93023249.731 7
G28  23767717.718 6                                 124900209.550 6                
G32  23289845.357 7                  23289854.597 7 122388963.941 7                  95368048.924 7
R02  20861752.645 8  20861757.529 7 111322305.578 8  86583908.872 7
R03  19297557.854 8  19297561.893 7 103301331.869 8  80345690.564 7
R04  22079198.822 7  22079205.453 7 118233055.274 7  91959129.176 7
R17  21293594.397 6  21293601.904 6 113946315.916 6  88624952.602 6
R18  19134396.635 8  19134399.877 7 102140715.052 8  79442881.910 7
R19  21172242.305 6  21172245.336 6 113257230.153 6  88088979.959 6
> 2025 06 15 13 01  0.0000000  0 24
C06  39254711.460 6  39254708.471 6 204409578.417 6 158062446.328 6
C12  22309791.262 7  22309789.152 7 116172940.338 7  89943931.143 7
C16  39654563.606 6  39654566.676 6 206491718.031 6 159672500.817 6
C19  23656563.497 7                 123185929.581 7
C21  24712650.188 7                 128685269.482 7
C22  21514422.233 7                 112031243.702 7
E05  22815707.543 8  22815709.816 9 119897353.201 8  90701580.322 9
E06  26238023.213 7  26238026.568 8 137881738.215 7 104306651.129 8
E09  24923905.766 8  24923908.049 8 130976008.243 8  99082505.431 8
E15  26488153.408 7  26488156.999 8 139196188.979 7 105301029.728 8
E34  23422714.453 8  23422716.295 9 123087196.166 8  93114671.549 9
E36  24824375.230 8  24824378.110 8 130452969.364 8  98686833.968 8
G01  20146279.119 8                  20146283.473 8 105869414.612 8                  82495661.420 8
G02  21263919.176 7  21263921.408 6                 111742645.202 7  87072205.006 6
G03  20520474.427 7                  20520481.489 7 107835824.766 7                  84027944.639 7
G17  22714570.758 6                  22714576.832 7 119365882.785 6                  93012652.997 7
G28  23764804.769 6                                 124884907.687 6                
G32  23291287.147 7                  23291295.734 7 122396537.890 7                  95373950.683 7
R02  20863520.446 8  20863525.115 7 111331739.695 8  86591246.501 7
R03  19295524.626 8  19295528.818 7 103290451.100 8  80337227.732 7
R04  22074443.999 7  22074450.456 7 118207589.603 7  91939322.571 7
R17  21295813.354 6  21295820.681 6 113958189.381 6  88634187.511 6
R18  19133576.507 8  19133578.785 7 102136333.779 8  79439474.236 7
R19  21167949.688 6  21167952.063 6 113234260.606 6  88071114.761 6
> 2025 06 15 13 01  5.0000000  0 24
C06  39252288.045 6  39252284.808 6 204396958.979 6 158052688.188 6
C12  22307604.659 7  22307602.818 7 116161554.205 7  89935126.676 7
C16  39652287.939 6  39652291.089 6 206479868.728 6 159663338.192 6
C19  23657751.720 7                 123192118.312 7
C21  24708675.545 7                 128664572.925 7
C22  21512752.747 7                 112022551.593 7
E05  22812820.669 8  22812823.016 9 119882183.108 8  90690104.259 9
E06  26238974.560 7  26238977.451 8 137886735.196 7 104310431.302 8
E09  24923833.914 8  24923836.492 8 130975632.419 8  99082221.119 8
E15  26484609.155 7  26484612.916 8 139177564.955 7 105286940.798 8
E34  23420991.758 8  23420993.483 9 123078142.808 8  93107822.745 9
E36  24825050.496 8  24825053.561 8 130456518.978 8  98689519.217 8
G01  20144914.296 7                  20144918.400 8 105862241.435 7                  82490071.901 8
G02  21264312.947 7  21264314.991 6                 111744713.658 7  87073816.787 6
G03  20517752.764 7                  20517759.236 7 107821519.412 7                  84016797.595 7
G17  22711986.262 6                  22711991.337 7 119352296.818 6                  93002066.533 7
G28  23761894.490 5                  23761901.031 5 124869617.931 5                  97301007.16715
G32  23292730.840 7                  23292738.691 7 122404120.483 7                  95379859.189 7
R02  20865290.930 8  20865295.436 7 111341184.378 8  86598592.340 7
R03  19293495.672 8  19293499.897 7 103279588.909 8  80328779.369 7
R04  22069690.475 7  22069696.327 7 118182132.315 7  91919522.475 7
R17  21298033.964 6  21298042.385 6 113970073.693 6  88643430.869 6
R18  19132758.676 8  19132761.920 7 102131971.602 8  79436081.422 7
R19  21163657.645 7  21163659.465 6 113211300.238 7  88053256.692 6
> 2025 06 15 13 01 10.0000000  0 24
C06  39249865.624 6  39249862.121 6 204384343.495 6 158042933.093 6
C12  22305420.818 7  22305418.374 7 116150180.254 7  89926331.612 7
C16  39650013.867 6  39650016.478 6 206468023.537 6 159654178.741 6
C19  23658941.154 7                 123198313.352 7
C21  24704701.871 7                 128643881.854 7
C22  21511086.021 7                 112013871.085 7
E05  22809935.533 8  22809938.036 9 119867022.723 8  90678635.528 9
E06  26239926.658 7  26239929.796 8 137891739.658 7 104314217.130 8
E09  24923764.078 7  24923767.000 8 130975267.319 7  99081944.922 8
E15  26481065.231 7  26481069.238 8 139158942.617 7 105272853.135 8
E34  23419269.927 8  23419272.028 9 123069096.740 8  93100979.459 9
E36  24825726.994 8  24825730.142 8 130460074.655 8  98692209.052 8
G01  20143551.873 8                  20143555.602 8 105855080.870 8                  82484492.238 8
G02  21264708.135 7  21264710.272 6                 111746792.357 7  87075436.549 6
G03  20515032.086 7                  20515038.900 8 107807224.452 7                  84005658.657 8
G17  22709403.426 6                  22709408.429 7 119338724.293 6                  92991490.533 7
G28  23758982.215 4                  23758995.176 5 124854340.629 4                  97289102.736 5
G32  23294175.276 7                  23294183.158 7 122411712.030 7                  95385774.649 7
R02  20867062.453 8  20867066.763 7 111350639.730 8  86605946.502 7
R03  19291469.254 8  19291474.394 7 103268745.596 8  80320345.688 7
R04  22064938.391 7  22064944.282 7 118156683.612 7  91899729.039 7
R17  21300256.800 6  21300264.366 6 113981969.374 6  88652683.049 6
R18  19131945.886 8  19131948.214 7 102127628.828 8  79432703.703 7
R19  21159366.744 7  21159369.525 6 113188349.273 7  88035405.979 6
> 2025 06 15 13 01 15.0000000  0 24
C06  39247444.139 6  39247440.621 6 204371732.072 6 158033181.143 6
C12  22303239.608 7  22303236.595 7 116138818.539 7  89917546.021 7
C16  39647739.710 6  39647742.392 6 206456182.586 6 159645022.569 6
C19  23660132.222 7                 123204514.780 7
C21  24700729.191 7                 128623196.367 7
C22  21509421.242 7                 112005202.229 7
E05  22807052.359 8  22807054.937 9 119851872.120 8  90667174.209 9
E06  26240880.604 7  26240883.590 8 137896751.651 7 104318008.657 8
E09  24923697.142 7  24923699.563 8 130974913.025 7  99081676.896 8
E15  26477521.942 7  26477525.844 8 139140322.058 7 105258766.820 8
E34  23417550.143 7  23417551.956 9 123060058.023 7  93094141.731 9
E36  24826404.523 8  24826407.917 8 130463636.446 8  98694903.510 8
G01  20142192.027 7                  20142195.529 8 105847933.025 7                  82478922.486 8
G02  21265105.890 7  21265107.441 6                 111748881.345 7  87077064.331 6
G03  20512314.186 7                  20512320.343 7 107792939.983 7                  83994527.900 7
G17  22706823.959 7                  22706828.759 7 119325165.322 7                  92980925.101 7
G28  23756078.219 4                                                                
G32  23295621.615 7                  23295629.581 7 122419312.592 7                  95391697.155 7
R02  20868837.384 8  20868841.023 7 111360106.057 8  86613309.202 7
R03  19289447.264 7  19289452.153 7 103257920.935 7  80311926.532 7
R04  22060188.470 7  22060193.355 7 118131243.693 7  91879942.443 7
R17  21302483.435 6  21302488.967 6 113993876.225 6  88661943.923 6
R18  19131135.357 8  19131138.180 7 102123305.544 8  79429341.160 7
R19  21155078.250 7  21155080.676 6 113165407.972 7  88017562.759 6
> 2025 06 15 13 01 20.0000000  0 24
C06  39245021.933 6  39245019.300 6 204359124.057 6 158023431.831 6
C12  22301059.388 7  22301056.938 7 116127468.493 7  89908769.444 7
C16  39645465.655 6  39645469.035 6 206444345.257 6 159635869.207 6
C19  23661324.356 7                 123210722.006 7
C21  24696758.023 7                 128602515.868 7
C22  21507757.935 7                 111996544.451 7
E05  22804171.329 8  22804173.617 8 119836730.727 8  90655719.842 8
E06  26241835.214 7  26241838.646 8 137901770.582 7 104321805.446 8
E09  24923631.501 7  24923634.076 8 130974568.938 7  99081416.588 8
E15  26473978.658 7  26473982.697 8 139121702.714 7 105244681.423 8
E34  23415831.084 7  23415833.226 9 123051026.072 7  93087309.123 9
E36  24827083.386 8  24827086.762 8 130467203.773 8  98697602.159 8
G01  20140833.937 7                  20140837.526 8 105840797.323 7                  82473362.203 8
G02  21265505.369 8  21265506.984 6                 111750980.004 8  87078699.657 6
G03  20509598.559 8                  20509603.796 7 107778665.408 8                  83983404.862 7
G17  22704245.907 7                  22704250.628 7 119311619.296 7                  92970369.749 7
G28  23753182.106 5                  23753190.137 5 124823823.08015                  97265322.69915
G32  23297069.128 7                  23297077.386 7 122426921.543 7                  95397626.188 7
R02  20870612.640 8  20870616.911 7 111369582.665 8  86620679.896 7
R03  19287428.775 8  19287433.374 7 103247114.757 8  80303521.725 7
R04  22055439.554 7  22055443.692 7 118105811.874 7  91860162.153 7
R17  21304710.112 6  21304716.155 6 114005793.796 6  88671213.128 6
R18  19130328.692 8  19130331.807 7 102119001.184 8  79425993.337 7
R19  21150790.415 7  21150793.574 6 113142475.499 7  87999726.418 6
> 2025 06 15 13 01 25.0000000  0 24
C06  39242602.329 6  39242598.811 6 204346520.717 6 158013686.124 6
C12  22298883.011 7  22298879.366 7 116116131.298 7  89900002.807 7
C16  39643193.906 6  39643196.840 6 206432512.693 6 159626719.517 6
C19  23662517.763 7                 123216936.146 7
C21  24692787.926 7                 128581841.513 7
C22  21506097.830 7                 111987898.872 7
E05  22801291.578 8  22801294.251 9 119821599.665 8  90644273.303 9
E06  26242792.280 6  26242795.272 8 137906797.614 6 104325608.358 8
E09  24923568.387 7  24923570.756 8 130974236.207 7  99081164.868 8
E15  26470435.681 7  26470439.943 8 139103085.724 7 105230597.806 8
E34  23414113.973 8  23414115.983 9 123042002.063 8  93080482.519 9
E36  24827763.847 8  24827766.861 8 130470777.775 8  98700305.855 8
G01  20139478.639 8                  20139482.155 8 105833674.893 8                  82467812.249 8
G02  21265907.364 8  21265908.344 6                 111753089.504 8  87080343.416 6
G03  20506883.683 7                  20506889.807 7 107764401.882 7                  83972290.445 7
G17  22701671.363 7                  22701675.805 7 119298087.389 7                  92959825.419 7
G28  23750280.609 5                  23750288.528 5 124808583.247 5                  97253447.523 5
G32  23298518.827 7                  23298527.002 7 122434540.053 7                  95403562.667 7
R02  20872390.821 8  20872394.785 7 111379070.590 8  86628059.382 7
R03  19285413.708 8  19285418.469 7 103236327.944 8  80295131.975 7
R04  22050691.301 7  22050695.517 7 118080389.336 7  91840389.101 7
R17  21306939.376 6  21306945.309 5 114017723.206 6  88680491.555 5
R18  19129526.006 8  19129529.094 7 102114716.976 8  79422661.158 7
R19  21146505.541 7  21146508.414 6 113119553.270 7  87981898.062 6
> 2025 06 15 13 01 30.0000000  0 24
C06  39240182.045 6  39240179.200 6 204333921.854 6 158003943.889 6
C12  22296707.382 7  22296704.354 7 116104806.781 7  89891245.973 7
C16  39640921.780 6  39640925.586 6 206420684.837 6 159617573.488 6
C19  23663712.687 7                 123223157.126 7
C21  24688818.704 7                 128561173.223 7
C22  21504440.065 7                 111979265.435 7
E05  22798414.301 8  22798416.864 8 119806478.899 8  90632834.538 8
E06  26243750.576 6  26243753.418 8 137911832.594 6 104329417.277 8
E09  24923507.205 7  24923509.541 8 130973914.730 7  99080921.670 8
E15  26466893.711 7  26466897.653 8 139084471.022 7 105216515.909 8
E34  23412398.427 8  23412400.247 9 123032985.903 8  93073661.846 9
E36  24828445.064 8  24828448.224 8 130474358.371 8  98703014.549 8
G01  20138125.272 8                  20138129.491 8 105826565.656 8                  82462272.581 8
G02  21266310.267 8  21266312.003 6                 111755209.769 8  87081995.564 6
G03  20504171.904 8                  20504177.576 7 107750149.339 8                  83961184.566 7
G17  22699098.637 7                  22699103.793 7 119284569.510 7                  92949292.017 7
G28  23747383.281 5                  23747391.207 5 124793356.415 5                  97241582.488 5
G32  23299970.452 7                  23299978.606 7 122442168.021 7                  95409506.519 7
R02  20874170.588 8  20874175.111 7 111388569.848 8  86635447.683 7
R03  19283402.774 8  19283407.240 7 103225560.584 8  80286757.365 7
R04  22045945.404 7  22045950.293 7 118054976.024 7  91820623.229 7
R17  21309171.298 6  21309176.283 6 114029664.501 6  88689779.184 6
R18  19128728.131 8  19128730.442 7 102110452.730 8  79419344.511 7
R19  21142222.314 7  21142226.460 6 113096641.063 7  87964077.485 6
> 2025 06 15 13 01 35.0000000  0 24
C06  39237763.223 6  39237760.457 6 204321327.063 6 157994204.800 6
C12  22294535.611 7  22294531.785 7 116093494.586 7  89882498.658 7
C16  39638651.153 6  39638654.906 6 206408861.208 6 159608430.713 6
C19  23664908.827 7                 123229384.482 7
C21  24684850.402 7                 128540510.575 7
C22  21502783.721 7                 111970643.676 7
E05  22795539.081 8  22795541.349 9 119791367.957 8  90621403.216 9
E06  26244710.455 6  26244713.006 8 137916875.147 6 104333231.931 8
E09  24923448.112 7  24923450.400 8 130973604.072 7  99080686.654 8
E15  26463352.228 7  26463355.717 8 139065858.107 7 105202435.361 8
E34  23410683.993 8  23410685.905 9 123023977.147 8  93066846.775 9
E36  24829127.842 7  24829130.743 8 130477945.123 7  98705727.897 8
G01  20136775.133 8                  20136779.063 8 105819469.190 8                  82456742.869 8
G02  21266716.156 8  21266717.579 6                 111757340.309 8  87083655.722 6
G03  20501461.583 8                  20501467.301 7 107735907.322 8                  83950086.891 7
G17  22696528.638 7                  22696533.764 7 119271065.262 7                  92938769.233 7
G28  23744488.423 5                  23744495.488 5 124778142.189 5                  97229727.307 5
G32  23301423.834 7                  23301432.182 7 122449804.979 7                  95415457.389 7
R02  20875953.140 8  20875957.234 7 111398079.887 8  86642844.379 7
R03  19281395.234 8  19281399.249 7 103214811.850 8  80278397.246 7
R04  22041200.109 7  22041205.768 7 118029571.673 7  91800864.305 7
R17  21311404.762 6  21311410.262 5 114041617.053 6  88699075.575 5
R18  19127932.763 8  19127935.480 7 102106208.007 8  79416043.055 7
R19  21137939.336 7  21137944.008 6 113073738.459 7  87946264.396 6
> 2025 06 15 13 01 40.0000000  0 24
C06  39235344.962 6  39235342.297 6 204308736.539 6 157984469.003 6
C12  22292365.373 7  22292361.857 7 116082194.887 7  89873761.007 7
C16  39636381.566 6  39636385.272 6 206397041.978 6 159599291.365 6
C19  23666105.721 7                 123235618.363 7
C21  24680884.148 7                 128519853.709 7
C22  21501130.384 7                 111962033.745 7
E05  22792665.520 8  22792667.806 8 119776267.001 8  90609979.449 8
E06  26245671.139 6  26245674.064 8 137921925.342 6 104337052.365 8
E09  24923391.015 7  24923393.361 8 130973304.356 7  99080459.929 8
E15  26459810.849 7  26459814.194 8 139047247.174 7 105188356.326 8
E34  23408971.175 8  23408972.970 9 123014975.943 8  93060037.420 9
E36  24829811.565 7  24829814.491 8 130481538.153 7  98708446.004 8
G01  20135426.676 7                  20135431.197 8 105812385.628 7                  82451223.229 8
G02  21267123.400 8  21267125.224 6                 111759481.295 8  87085324.030 6
G03  20498754.075 8                  20498759.417 7 107721675.990 8                  83938997.536 7
G17  22693961.096 7                  22693966.543 7 119257574.792 7                  92928257.183 7
G28  23741596.662 5                  23741602.890 6 124762940.753 5                  97217881.993 6
G32  23302878.899 7                  23302887.206 7 122457451.067 7                  95421415.374 7
R02  20877736.553 8  20877741.580 7 111407600.900 8  86650249.622 7
R03  19279390.601 8  19279394.656 7 103204082.436 8  80270052.155 7
R04  22036457.331 7  22036463.711 7 118004176.235 7  91781112.308 7
R17  21313641.932 6  21313644.350 6 114053581.034 6  88708380.878 6
R18  19127141.263 8  19127143.714 7 102101983.008 8  79412756.947 7
R19  21133659.578 7  21133663.360 6 113050845.684 7  87928458.938 6
> 2025 06 15 13 01 45.0000000  0 24
C06  39232927.589 6  39232925.479 6 204296149.539 6 157974735.939 6
C12  22290197.405 7  22290193.983 7 116070906.971 7  89865032.474 7
C16  39634112.587 6  39634116.168 6 206385226.482 6 159590154.877 6
C19  23667303.821 7                 123241858.084 7
C21  24676917.863 7                 128499201.932 7
C22  21499478.613 7                 111953434.978 7
E05  22789793.648 8  22789795.997 9 119761175.336 8  90598562.705 9
E06  26246634.000 6  26246636.414 8 137926982.540 6 104340878.092 8
E09  24923336.020 7  24923338.255 8 130973014.902 7  99080240.955 8
E15  26456269.513 7  26456272.876 8 139028637.532 7 105174278.262 8
E34  23407259.634 8  23407261.420 9 123005981.610 8  93053233.262 9
E36  24830496.397 7  24830499.251 8 130485136.803 7  98711168.356 8
G01  20134081.221 8                  20134085.429 8 105805314.308 8                  82445713.110 8
G02  21267532.294 8  21267534.679 6                 111761632.057 8  87086999.945 6
G03  20496047.797 8                  20496052.818 7 107707454.650 8                  83927915.969 7
G17  22691395.836 7                  22691401.787 7 119244097.341 7                  92917755.286 7
G28  23738705.738 5                  23738712.617 6 124747751.305 5                  97206046.071 6
G32  23304335.583 7                  23304343.390 7 122465105.583 7                  95427379.900 7
R02  20879524.009 8  20879527.018 7 111417132.271 8  86657662.904 7
R03  19277390.449 8  19277393.800 7 103193371.200 8  80261721.189 7
R04  22031716.157 7  22031721.991 7 117978789.097 7  91761366.758 7
R17  21315878.595 5  21315882.623 5 114065555.678 5  88717694.466 5
R18  19126352.843 8  19126355.778 7 102097777.035 8  79409485.636 7
R19  21129382.580 7  21129386.090 6 113027961.990 7  87910660.481 6
> 2025 06 15 13 01 50.0000000  0 24
C06  39230510.930 6  39230508.900 6 204283566.051 6 157965005.598 6
C12  22288032.161 7  22288028.614 7 116059630.759 7  89856312.989 7
C16  39631844.931 6  39631848.066 6 206373414.664 6 159581021.258 6
C19  23668503.196 7                 123248103.580 7
C21  24672953.370 7                 128478555.254 7
C22  21497829.390 7                 111944847.288 7
E05  22786923.065 8  22786925.941 8 119746092.951 8  90587152.989 8
E06  26247597.650 6  26247600.087 8 137932046.680 6 104344709.078 8
E09  24923283.287 7  24923285.094 8 130972735.652 7  99080029.712 8
E15  26452728.217 7  26452731.849 8 139010029.169 7 105160201.170 8
E34  23405550.041 8  23405551.123 8 122996994.106 8  93046434.272 8
E36  24831182.064 7  24831185.123 8 130488740.995 7  98713894.908 8
G01  20132737.333 8                  20132742.034 8 105798255.168 8                  82440212.484 8
G02  21267943.441 8  21267946.100 6                 111763792.571 8  87088683.461 6
G03  20493343.391 8                  20493348.757 7 107693243.271 8                  83916842.172 7
G17  22688834.556 7                  22688839.586 7 119230633.003 7                  92907263.597 7
G28  23735817.227 5                  23735823.982 6 124732573.926 5                  97194219.578 6
G32  23305793.859 6                  23305801.613 7 122472768.468 6                  95433350.984 7
R02  20881310.955 8  20881315.464 7 111426673.677 8  86665083.994 7
R03  19275392.572 8  19275396.501 7 103182678.502 8  80253404.642 7
R04  22026976.274 7  22026983.186 6 117953410.082 7  91741627.559 6
R17  21318116.843 5  21318122.207 6 114077541.065 5  88727016.465 6
R18  19125567.833 8  19125571.574 7 102093590.022 8  79406229.070 7
R19  21125106.541 6  21125109.520 6 113005087.355 6  87892869.066 6
> 2025 06 15 13 01 55.0000000  0 24
C06  39228096.072 6  39228093.279 6 204270986.656 6 157955278.419 6
C12  22285868.724 7  22285865.388 7 116048366.880 7  89847603.046 7
C16  39629577.078 6  39629580.042 6 206361607.067 6 159571890.879 6
C19  23669703.532 7                 123254355.431 7
C21  24668989.642 7                 128457914.226 7
C22  21496182.185 7                 111936271.280 7
E05  22784055.370 7  22784057.756 9 119731020.401 7  90575750.714 9
E06  26248562.135 7  26248565.202 8 137937118.324 7 104348545.734 8
E09  24923232.540 7  24923233.940 8 130972467.213 7  99079826.634 8
E15  26449187.196 7  26449191.165 8 138991422.618 7 105146125.443 8
E34  23403841.298 8  23403842.261 8 122988014.026 8  93039640.891 8
E36  24831869.060 8  24831872.135 8 130492351.349 8  98716626.120 8
G01  20131396.988 7                  20131401.330 8 105791208.815 7                  82434721.820 8
G02  21268356.581 7  21268359.396 6                 111765963.389 7  87090375.008 6
G03  20490640.748 8                  20490646.531 7 107679042.427 8                  83905776.593 7
G17  22686275.489 7                  22686280.009 7 119217182.220 7                  92896782.460 7
G28  23732931.788 6                  23732937.795 6 124717409.157 6                  97182402.916 6
G32  23307253.281 6                  23307261.393 7 122480440.328 6                  95439329.052 7
R02  20883102.276 8  20883105.700 7 111436225.960 8  86672513.556 7
R03  19273398.352 8  19273402.172 7 103172004.581 8  80245102.706 7
R04  22022239.125 7  22022245.322 7 117928040.105 7  91721895.365 7
R17  21320357.686 5  21320364.341 6 114089537.663 5  88736347.157 6
R18  19124786.764 8  19124791.192 7 102089422.584 8  79402987.728 7
R19  21120833.834 7  21120834.774 6 112982222.520 7  87875085.273 6
> 2025 06 15 13 02  0.0000000  0 23
C06  39225681.210 6  39225678.176 6 204258411.592 6 157945554.588 6
C12  22283707.527 7  22283704.606 7 116037115.565 7  89838902.820 7
C16  39627310.345 6  39627313.380 6 206349804.002 6 159562764.002 6
C19  23670905.543 7                 123260613.883 7
C21  24665026.231 7                 128437279.083 7
C22  21494538.064 7                 111927707.189 7
E05  22781188.903 7  22781191.462 9 119715957.961 7  90564356.081 9
E06  26249529.472 6  26249531.771 8 137942197.694 6 104352388.232 8
E09  24923183.688 7  24923184.891 8 130972209.793 7  99079631.894 8
E15  26445647.054 7  26445650.862 8 138972818.184 7 105132051.318 8
E34  23402134.105 8  23402134.825 8 122979041.601 8  93032853.306 8
E36  24832557.583 8  24832560.378 8 130495968.084 8  98719362.161 8
G01  20130058.291 7                  20130062.902 8 105784175.478 7                  82429241.311 8
G02  21268771.456 7  21268774.275 6                 111768144.764 7  87092074.766 6
G03  20487939.741 8                  20487946.266 7 107664852.356 8                  83894719.396 7
G17  22683717.871 7                  22683722.794 7 119203745.258 7                  92886312.117 7
G28  23730048.591 6                  23730055.740 6 124702257.241 6                  97170596.264 6
G32  23308714.833 6                  23308722.948 7 122488121.370 6                  95445314.291 7
R02  20884893.966 8  20884897.782 7 111445789.308 8  86679951.686 7
R03  19271408.507 8  19271412.090 7 103161349.981 8  80236815.788 7
R04  22017503.750 7  22017508.598 7 117902679.166 7  91702170.201 7
R18  19124009.684 7  19124013.891 7 102085274.977 7  79399761.804 7
R19  21116561.659 7  21116561.908 6 112959367.630 7  87857309.236 6
> 2025 06 15 13 02  5.0000000  0 24
C06  39223266.619 6  39223263.670 6 204245840.300 6 157935833.662 6
C12  22281549.537 7  22281546.110 7 116025876.312 7  89830211.922 7
C16  39625044.864 6  39625047.378 6 206338004.892 6 159553640.188 6
C19  23672108.202 7                 123266878.355 7
C21  24661064.562 7                 128416649.307 7
C22  21492895.648 7                 111919154.494 7
E05  22778324.363 8  22778326.972 9 119700905.071 8  90552968.678 9
E06  26250497.181 7  26250499.682 8 137947284.268 7 104356236.190 8
E09  24923136.094 8  24923137.868 8 130971962.848 8  99079445.084 8
E15  26442106.747 7  26442110.842 8 138954215.305 7 105117978.355 8
E34  23400427.644 8  23400428.771 8 122970076.305 8  93026071.122 8
E36  24833246.303 8  24833249.715 8 130499590.657 8  98722102.614 8
G01  20128722.329 7                  20128726.972 8 105777154.619 7                  82423770.518 8
G02  21269187.914 7  21269191.583 6                 111770336.139 7  87093782.324 6
G03  20485241.423 8                  20485247.905 7 107650672.516 8                  83883670.186 7
G17  22681162.838 7                  22681168.415 7 119190321.627 7                  92875852.170 7
G28  23727166.586 6                  23727176.510 6 124687117.701 6                  97158799.230 6
G32  23310178.193 6                  23310185.978 7 122495811.048 6                  95451306.240 7
R02  20886688.040 8  20886692.029 7 111455362.997 8  86687397.861 7
R03  19269420.770 8  19269425.209 7 103150713.650 8  80228543.103 7
R04  22012769.967 7  22012774.181 7 117877326.708 7  91682451.621 7
R17  21324847.421 5                 114113563.60015
R18  19123236.687 7  19123240.423 7 102081146.661 7  79396550.882 7
R19  21112290.588 7  21112291.422 6 112936522.121 7  87839540.502 6
> 2025 06 15 13 02 10.0000000  0 24
C06  39220853.234 6  39220850.279 6 204233273.617 6 157926116.313 6
C12  22279393.149 7  22279390.361 7 116014649.872 7  89821530.924 7
C16  39622780.061 6  39622781.996 6 206326210.493 6 159544520.038 6
C19  23673312.744 7                 123273149.626 7
C21  24657104.103 7                 128396025.671 7
C22  21491255.782 7                 111910613.938 7
E05  22775462.331 8  22775464.462 9 119685862.567 8  90541589.119 9
E06  26251465.168 6  26251469.174 8 137952378.838 6 104360090.184 8
E09  24923091.584 7  24923093.004 8 130971727.180 7  99079266.790 8
E15  26438566.575 7  26438571.292 8 138935614.735 7 105103907.166 8
E34  23398723.570 8  23398724.285 8 122961118.914 8  93019294.919 8
E36  24833936.778 8  24833940.315 8 130503219.867 8  98724848.086 8
G01  20127388.201 7                  20127393.620 8 105770147.055 7                  82418310.087 8
G02  21269607.171 7  21269610.715 6                 111772538.278 7  87095498.278 6
G03  20482544.885 7                  20482551.579 7 107636503.717 7                  83872629.566 7
G17  22678611.817 7                  22678617.143 7 119176912.188 7                  92865403.252 7
G28  23724287.738 6                  23724297.719 6 124671991.266 6                  97147012.404 6
G32  23311643.037 6                  23311651.188 6 122503510.126 6                  95457305.521 6
R02  20888485.202 7  20888488.714 7 111464948.078 7  86694852.889 7
R03  19267438.040 8  19267442.115 7 103140096.889 8  80220285.638 7
R04  22008038.062 7  22008042.337 7 117851983.767 7  91662740.470 7
R17  21327095.788 5  21327103.584 6 114125594.563 5
R18  19122468.046 8  19122470.805 7 102077038.395 8  79393355.559 7
R19  21108020.431 7  21108023.074 6 112913686.848 7  87821779.723 6
> 2025 06 15 13 02 15.0000000  0 24
C06  39218440.508 6  39218437.943 6 204220711.220 6 157916402.271 6
C12  22277240.123 7  22277236.977 7 116003436.020 7  89812859.665 7
C16  39620516.386 6  39620518.123 6 206314420.620 6 159535403.354 6
C19  23674518.757 7                 123279427.457 7
C21  24653145.125 7                 128375407.913 7
C22  21489617.615 8                 111902085.279 8
E05  22772601.646 8  22772603.811 9 119670830.102 8  90530217.164 9
E06  26252436.162 7  26252440.088 8 137957481.072 7 104363949.988 8
E09  24923048.796 8  24923050.176 8 130971502.491 8  99079096.813 8
E15  26435027.365 6  26435032.177 8 138917016.230 6 105089837.549 8
E34  23397020.427 8  23397021.236 9 122952169.163 8  93012524.495 9
E36  24834628.470 8  24834632.091 8 130506855.428 8  98727598.360 8
G01  20126058.087 7                  20126062.528 8 105763152.497 7                  82412859.774 8
G02  21270027.934 7  21270031.587 6                 111774750.924 7  87097222.415 6
G03  20479850.573 7                  20479857.519 7 107622345.669 7                  83861597.329 7
G17  22676062.950 7                  22676067.737 7 119163516.608 7                  92854965.141 7
G28  23721410.970 6                  23721420.694 6 124656877.649 6                  97135235.629 6
G32  23313109.968 6                  23313117.738 6 122511218.329 6                  95463311.915 6
R02  20890282.625 7  20890286.520 7 111474543.851 7  86702316.269 7
R03  19265457.240 8  19265462.605 7 103129499.074 8  80212042.896 7
R04  22003306.074 7  22003311.089 7 117826649.789 7  91643036.287 7
R17  21329347.374 5  21329354.021 6 114137636.694 5  88773751.40216
R18  19121702.373 8  19121705.028 7 102072949.925 8  79390175.630 7
R19  21103754.250 7  21103755.911 6 112890861.604 7  87804026.761 6
> 2025 06 15 13 02 20.0000000  0 24
C06  39216029.405 6  39216026.337 6 204208153.291 6 157906691.701 6
C12  22275089.189 7  22275085.495 7 115992234.931 7  89804198.269 7
C16  39618252.158 6  39618254.484 6 206302635.362 6 159526290.254 6
C19  23675725.901 7                 123285711.945 7
C21  24649186.224 7                 128354796.255 7
C22  21487981.728 7                 111893568.699 7
E05  22769743.233 8  22769745.150 9 119655807.932 8  90518852.999 9
E06  26253408.820 7  26253412.555 8 137962591.192 7 104367815.748 8
E09  24923007.966 8  24923009.495 8 130971288.958 8  99078935.274 8
E15  26431488.668 7  26431493.377 8 138898420.006 7 105075769.652 8
E34  23395318.830 8  23395319.624 8 122943227.252 8  93005760.000 8
E36  24835321.585 8  24835325.151 8 130510497.528 8  98730353.582 8
G01  20124729.395 7                  20124734.124 8 105756171.120 7                  82407419.737 8
G02  21270451.432 7  21270454.777 6                 111776974.246 7  87098954.857 6
G03  20477158.831 7                  20477165.460 7 107608198.581 7                  83850573.638 7
G17  22673516.252 7                  22673521.471 7 119150135.017 7                  92844537.934 7
G28  23718537.323 6                  23718546.179 6 124641777.231 6                  97123469.098 6
G32  23314578.817 7                  23314586.330 7 122518935.827 7                  95469325.553 7
R02  20892082.584 7  20892086.908 7 111484150.858 7  86709788.387 7
R03  19263480.240 8  19263486.328 7 103118920.683 8  80203815.271 7
R04  21998577.360 7  21998581.768 7 117801325.146 7  91623339.354 7
R17  21331600.275 5  21331606.636 6 114149690.499 5  88783126.531 6
R18  19120939.945 8  19120943.096 7 102068881.369 8  79387011.212 7
R19  21099488.736 7  21099491.736 5 112868046.486 7  87786281.718 5
> 2025 06 15 13 02 25.0000000  0 24
C06  39213618.894 6  39213615.524 6 204195599.620 6 157896984.418 6
C12  22272940.477 7  22272936.888 7 115981046.353 7  89795546.561 7
C16  39615990.589 6  39615991.973 6 206290854.544 6 159517180.595 6
C19  23676934.168 7                 123292002.938 7
C21  24645228.627 7                 128334190.406 7
C22  21486348.787 8                 111885063.919 8
E05  22766886.317 8  22766888.416 9 119640795.801 8  90507496.430 9
E06  26254382.299 6  26254386.442 8 137967708.915 6 104371687.277 8
E09  24922969.481 8  24922970.929 8 130971086.346 8  99078781.992 8
E15  26427950.318 6  26427955.033 8 138879825.809 6 105061703.255 8
E34  23393618.870 8  23393619.539 9 122934292.961 8  92999001.264 9
E36  24836016.081 8  24836019.423 8 130514145.936 8  98733113.561 8
G01  20123403.647 8                  20123408.077 8 105749202.707 8                  82401989.795 8
G02  21270876.695 7  21270879.629 6                 111779208.029 7  87100695.452 6
G03  20474469.029 7                  20474475.660 7 107594062.222 7                  83839558.298 7
G17  22670971.959 7                  22670977.328 7 119136767.292 7                  92834121.533 7
G28  23715667.427 6                  23715674.865 6 124626689.622 6                  97111712.506 6
G32  23316049.289 7                  23316057.164 7 122526662.390 7                  95475346.230 7
R02  20893884.707 7  20893889.259 7 111493768.626 7  86717268.844 7
R03  19261507.312 8  19261513.642 7 103108361.156 8  80195602.308 7
R04  21993850.336 7  21993854.301 7 117776009.638 7  91603649.557 7
R17  21333857.220 5  21333861.503 6 114161755.746 5  88792510.548 6
R18  19120181.335 8  19120184.625 7 102064832.608 8  79383862.202 7
R19  21095224.698 7  21095229.651 5 112845241.358 7  87768544.425 5
> 2025 06 15 13 02 30.0000000  0 24
C06  39211209.368 6  39211205.436 6 204183049.374 6 157887279.772 6
C12  22270794.012 7  22270790.680 7 115969869.469 7  89786903.884 7
C16  39613729.010 6  39613730.029 6 206279077.341 6 159508073.723 6
C19  23678142.995 7                 123298299.570 7
C21  24641272.544 6                 128313589.598 6
C22  21484717.599 8                 111876570.183 8
E05  22764031.031 8  22764033.405 9 119625792.900 8  90496146.838 9
E06  26255358.329 7  26255361.638 8 137972833.468 7 104375563.944 8
E09  24922933.050 8  24922934.273 8 130970893.831 8  99078636.363 8
E15  26424412.387 7  26424416.917 8 138861232.867 7 105047637.830 8
E34  23391919.756 8  23391920.729 8 122925365.452 8  92992247.657 8
E36  24836711.301 8  24836714.727 8 130517799.835 8  98735877.700 8
G01  20122080.272 8                  20122084.664 8 105742246.432 8                  82396569.330 8
G02  21271303.543 7  21271306.293 6                 111781451.460 7  87102443.563 6
G03  20471780.471 7                  20471787.264 7 107579935.765 7                  83828550.662 7
G17  22668431.175 7                  22668435.980 7 119123412.553 7                  92823715.232 7
G28  23712797.794 6                  23712807.145 6 124611614.074 6                  97099965.321 6
G32  23317520.771 7                  23317529.190 6 122534397.170 7                  95481373.323 6
R02  20895688.294 7  20895693.135 7 111503396.331 7  86724757.056 7
R03  19259538.099 8  19259544.838 7 103097820.183 8  80187403.784 7
R04  21989122.992 7  21989128.581 7 117750702.413 7  91583966.190 7
R17  21336115.365 5  21336117.853 6 114173831.383 5  88801902.649 6
R18  19119426.641 8  19119429.746 7 102060802.790 8  79380727.910 7
R19  21090965.036 7  21090966.852 6 112822445.426 7  87750814.238 6
> 2025 06 15 13 02 35.0000000  0 24
C06  39208798.656 6  39208796.006 6 204170503.649 6 157877578.627 6
C12  22268650.885 7  22268646.670 7 115958705.335 7  89778271.066 7
C16  39611468.099 6  39611469.487 6 206267304.753 6 159498970.418 6
C19  23679353.383 7                 123304602.826 7
C21  24637317.528 7                 128292994.833 7
C22  21483088.756 7                 111868088.447 7
E05  22761178.116 8  22761180.366 9 119610800.233 8  90484804.988 9
E06  26256335.152 6  26256338.294 8 137977965.807 6 104379446.513 8
E09  24922898.354 8  24922899.750 8 130970712.406 8  99078499.118 8
E15  26420873.964 7  26420879.240 8 138842642.105 7 105033574.054 8
E34  23390222.305 8  23390223.380 8 122916445.737 8  92985499.955 8
E36  24837408.016 8  24837411.266 8 130521460.234 8  98738646.754 8
G01  20120759.137 8                  20120763.269 8 105735303.328 8                  82391159.109 8
G02  21271732.666 7  21271735.025 6                 111783705.530 7  87104199.981 6
G03  20469094.150 7                  20469101.081 7 107565820.200 7                  83817551.543 7
G17  22665893.559 7                  22665897.702 7 119110071.872 7                  92813319.907 7
G28  23709929.956 5                  23709940.772 6 124596551.573 5                  97088228.354 6
G32  23318994.016 6                  23319002.183 6 122542141.178 6                  95487407.606 6
R02  20897495.283 7  20897498.933 7 111513035.228 7  86732253.963 7
R03  19257572.858 8  19257578.621 7 103087298.254 8  80179220.030 7
R04  21984398.876 7  21984404.705 7 117725404.524 7  91564290.078 7
R17  21338373.849 5  21338377.198 6 114185918.655 5  88811303.810 6
R18  19118674.321 8  19118679.010 7 102056792.901 8  79377609.100 7
R19  21086705.915 7  21086706.158 6 112799659.699 7  87733092.031 6
> 2025 06 15 13 02 40.0000000  0 24
C06  39206390.986 6  39206387.367 6 204157962.090 6 157867880.693 6
C12  22266509.198 7  22266504.899 7 115947553.696 7  89769647.924 7
C16  39609207.689 6  39609209.159 6 206255536.526 6 159489870.490 6
C19  23680565.571 7                 123310912.482 7
C21  24633363.114 6                 128272405.887 6
C22  21481462.082 7                 111859618.500 7
E05  22758327.190 8  22758329.232 9 119595817.576 8  90473470.717 9
E06  26257312.904 6  26257316.394 8 137983105.694 6 104383334.792 8
E09  24922866.241 8  24922867.294 8 130970541.849 8  99078370.095 8
E15  26417337.271 7  26417341.961 8 138824053.374 7 105019511.798 8
E34  23388526.449 8  23388527.502 9 122907533.586 8  92978757.976 9
E36  24838105.973 8  24838108.977 8 130525126.873 8  98741420.527 8
G01  20119440.379 8                  20119444.518 8 105728373.129 8                  82385758.947 8
G02  21272163.610 7  21272165.842 6                 111785969.995 7  87105964.485 6
G03  20466410.668 7                  20466417.201 7 107551715.327 7                  83806560.738 7
G17  22663356.592 7                  22663361.225 7 119096744.984 7                  92802935.343 7
G28  23707066.823 6                  23707076.900 6 124581501.931 6                  97076501.371 6
G32  23320469.814 6                  23320477.505 6 122549894.170 6                  95493448.900 6
R02  20899304.629 7  20899307.277 7 111522684.778 7  86739759.163 7
R03  19255611.844 8  19255616.259 7 103076795.441 8  80171051.159 7
R04  21979675.430 7  21979681.769 7 117700115.622 7  91544620.973 7
R17  21340636.096 5  21340638.689 6 114198017.164 5  88820713.702 6
R18  19117927.119 8  19117931.626 7 102052802.704 8  79374505.604 7
R19  21082446.752 7  21082449.222 6 112776883.823 7  87715377.462 6
> 2025 06 15 13 02 45.0000000  0 24
C06  39203982.576 6  39203979.847 6 204145424.281 6 157858185.666 6
C12  22264369.943 7  22264365.600 7 115936414.077 7  89761034.071 7
C16  39606948.245 6  39606949.773 6 206243772.228 6 159480773.574 6
C19  23681778.409 7                 123317228.048 7
C21  24629410.361 6                 128251822.255 6
C22  21479837.607 7                 111851159.841 7
E05  22755477.856 8  22755479.947 8 119580844.426 8  90462143.637 8
E06  26258291.998 6  26258295.800 8 137988252.671 6 104387228.444 8
E09  24922835.796 8  24922836.834 8 130970381.652 8  99078248.911 8
E15  26413799.570 7  26413804.945 8 138805466.120 7 105005450.682 8
E34  23386831.679 8  23386832.941 9 122898628.534 8  92972021.353 9
E36  24838804.543 7  24838807.840 8 130528799.279 7  98744198.662 8
G01  20118123.983 8                  20118128.202 8 105721455.381 8                  82380368.501 8
G02  21272596.205 7  21272598.435 6                 111788244.362 7  87107736.715 6
G03  20463728.653 8                  20463734.810 7 107537620.669 8                  83795577.883 7
G17  22660823.085 7                  22660827.712 7 119083431.441 7                  92792561.161 7
G28  23704203.921 5                  23704215.469 6 124566464.627 5                  97064783.970 6
G32  23321946.803 6                  23321954.942 6 122557655.593 6                  95499496.772 6
R02  20901113.576 7  20901117.867 7 111532344.589 7  86747272.356 7
R03  19253653.560 8  19253657.490 7 103066311.045 8  80162896.627 7
R04  21974955.055 7  21974961.171 7 117674835.386 7  91524958.578 7
R17  21342901.774 5  21342901.520 6 114210126.424 5  88830132.001 6
R18  19117182.876 8  19117187.623 7 102048831.801 8  79371417.115 7
R19  21078190.769 7  21078193.389 6 112754117.521 7  87697670.344 6
> 2025 06 15 13 02 50.0000000  0 24
C06  39201575.657 6  39201572.877 6 204132890.619 6 157848493.858 6
C12  22262233.805 7  22262228.752 8 115925286.904 7  89752429.838 8
C16  39604690.888 6  39604691.388 6 206232012.249 6 159471680.024 6
C19  23682992.531 7                 123323549.934 7
C21  24625458.909 7                 128231244.381 7
C22  21478215.620 7                 111842712.915 7
E05  22752630.039 8  22752632.529 9 119565881.264 8  90450824.103 9
E06  26259272.970 6  26259276.714 8 137993407.098 6 104391127.724 8
E09  24922807.487 8  24922808.445 8 130970232.270 8  99078135.896 8
E15  26410263.349 7  26410268.302 8 138786880.856 7 104991391.050 8
E34  23385138.778 8  23385139.819 9 122889731.004 8  92965290.422 9
E36  24839504.927 8  24839507.861 8 130532477.893 8  98746981.496 8
G01  20116809.906 8                  20116814.110 8 105714550.514 8                  82374988.091 8
G02  21273031.096 7  21273033.053 6                 111790529.076 7  87109517.013 6
G03  20461048.026 8                  20461055.106 7 107523536.591 8                  83784603.276 7
G17  22658292.705 7                  22658296.926 7 119070131.697 7                  92782197.725 7
G28  23701346.305 5                  23701356.420 6 124551440.243 5                  97053076.581 6
G32  23323425.658 6                  23323434.263 6 122565425.919 6                  95505551.593 6
R02  20902925.993 7  20902930.064 6 111542015.285 7  86754794.007 6
R03  19251698.104 8  19251702.655 7 103055845.592 8  80154756.814 7
R04  21970236.173 7  21970242.135 7 117649564.064 7  91505303.150 7
R17  21345162.122 5  21345167.491 6 114222246.794 5  88839558.979 6
R18  19116443.442 7  19116447.197 7 102044880.526 7  79368343.900 7
R19  21073937.313 6  21073938.919 6 112731361.181 6  87679970.973 6
> 2025 06 15 13 02 55.0000000  0 24
C06  39199169.658 6  39199166.546 6 204120361.302 6 157838805.408 6
C12  22260099.821 7  22260094.368 8 115914172.368 7  89743835.372 8
C16  39602432.721 6  39602433.677 6 206220256.756 6 159462589.944 6
C19  23684207.277 7                 123329878.324 7
C21  24621508.553 7                 128210672.456 7
C22  21476596.195 7                 111834277.866 7
E05  22749784.812 8  22749787.062 9 119550928.227 8  90439512.234 9
E06  26260255.783 6  26260259.024 8 137998569.191 6 104395032.799 8
E09  24922780.722 8  24922782.126 8 130970093.839 8  99078031.177 8
E15  26406726.782 7  26406732.036 8 138768297.714 7 104977333.038 8
E34  23383446.978 8  23383448.159 8 122880841.155 8  92958565.307 8
E36  24840206.008 8  24840209.096 8 130536162.841 8  98749769.123 8
G01  20115498.342 8                  20115502.576 8 105707658.692 8                  82369617.835 8
G02  21273467.964 8  21273469.842 6                 111792824.297 8  87111305.491 6
G03  20458369.712 8                  20458377.017 7 107509463.354 8                  83773637.110 7
G17  22655764.607 7                  22655768.775 7 119056845.878 7                  92771845.146 7
G28  23698490.305 5                  23698499.160 6 124536428.782 5                  97041379.296 6
G32  23324905.795 7                  23324914.096 6 122573205.325 7                  95511613.439 6
R02  20904739.407 7  20904744.124 6 111551696.471 7  86762323.839 6
R03  19249747.509 8  19249751.296 7 103045399.560 8  80146632.127 7
R04  21965518.375 7  21965524.694 7 117624302.016 7  91485654.944 7
R17  21347427.470 5  21347434.619 6 114234378.451 5  88848994.741 6
R18  19115706.977 8  19115709.909 7 102040949.055 8  79365286.080 7
R19  21069685.062 6  21069687.320 6 112708614.838 6  87662279.389 6
> 2025 06 15 13 03  0.0000000  0 24
C06  39196764.069 6  39196761.278 6 204107836.313 6 157829120.297 6
C12  22257967.246 7  22257962.333 8 115903070.419 7  89735250.645 8
C16  39600176.329 6  39600176.991 6 206208505.747 6 159453503.332 6
C19  23685424.022 7                 123336213.179 7
C21  24617559.480 7                 128190106.438 7
C22  21474978.628 7                 111825854.686 7
E05  22746941.420 8  22746943.546 9 119535985.316 8  90428208.024 9
E06  26261239.412 6  26261242.839 8 138003738.893 6 104398943.640 8
E09  24922756.610 8  24922757.903 8 130969966.346 8  99077934.725 8
E15  26403190.989 7  26403196.174 8 138749716.628 7 104963276.571 8
E34  23381756.650 8  23381757.956 9 122871958.993 8  92951846.009 9
E36  24840908.854 7  24840911.534 8 130539854.142 7  98752561.563 8
G01  20114189.448 8                  20114193.573 8 105700779.917 8                  82364257.749 8
G02  21273906.884 7  21273908.340 6                 111795130.060 7  87113102.188 6
G03  20455694.148 7                  20455700.963 7 107495400.867 7                  83762679.342 7
G17  22653238.565 7                  22653243.259 7 119043573.983 7                  92761503.420 7
G28  23695639.807 6                  23695644.129 5 124521430.345 6                  97029692.133 5
G32  23326388.688 7                  23326396.404 6 122580993.749 7                  95517682.346 6
R02  20906556.146 7  20906559.804 6 111561388.521 7  86769862.081 6
R03  19247799.343 8  19247803.582 7 103034972.505 8  80138522.190 7
R04  21960802.613 7  21960809.430 7 117599049.158 7  91466013.857 7
R17  21349694.471 4  21349702.951 6 114246521.465 4  88858439.381 6
R18  19114973.984 8  19114977.354 7 102037037.418 8  79362243.698 7
R19  21065434.590 6  21065436.961 6 112685878.764 6  87644595.791 6
> 2025 06 15 13 03  5.0000000  0 24
C06  39194359.372 6  39194356.794 6 204095315.646 6 157819438.532 6
C12  22255837.955 7  22255832.725 8 115891981.140 7  89726675.720 8
C16  39597919.852 6  39597921.643 6 206196759.260 6 159444420.219 6
C19  23686641.857 7                 123342554.478 7
C21  24613610.872 6                 128169546.388 6
C22  21473363.690 7                 111817443.412 7
E05  22744099.611 8  22744101.958 9 119521052.540 8  90416911.482 9
E06  26262224.846 6  26262228.028 8 138008916.274 6 104402860.284 8
E09  24922734.260 8  24922735.755 8 130969849.802 8  99077846.553 8
E15  26399655.465 7  26399660.737 8 138731137.733 7 104949221.766 8
E34  23380067.620 8  23380069.208 9 122863084.521 8  92945132.527 9
E36  24841612.824 7  24841615.205 8 130543551.809 7  98755358.814 8
G01  20112882.841 8                  20112886.815 8 105693914.181 8                  82358907.819 8
G02  21274347.707 7  21274349.309 6                 111797446.313 7  87114907.051 6
G03  20453019.831 7                  20453027.122 7 107481349.206 7                  83751729.992 7
G17  22650715.562 7                  22650720.260 7 119030316.047 7                  92751172.579 7
G28  23692786.218 6                  23692791.394 5 124506444.814 6                  97018015.106 5
G32  23327871.458 7                  23327879.732 6 122588791.222 7                  95523758.276 6
R02  20908375.253 7  20908378.208 6 111571091.498 7  86777408.840 6
R03  19245855.146 8  19245859.533 7 103024564.354 8  80130426.962 7
R04  21956088.775 7  21956095.241 7 117573805.556 7  91446379.948 7
R17  21351967.791 5  21351974.517 6 114258675.879 5  88867892.834 6
R18  19114244.916 8  19114248.474 7 102033145.642 8  79359216.764 7
R19  21061186.746 6  21061188.355 6 112663152.821 6  87626920.040 6
> 2025 06 15 13 03 10.0000000  0 24
C06  39191955.966 6  39191953.126 6 204082799.465 6 157809760.238 6
C12  22253710.343 7  22253705.856 8 115880904.668 7  89718110.691 8
C16  39595665.401 6  39595666.603 6 206185017.382 6 159435340.670 6
C19  23687861.306 7                 123348902.396 7
C21  24609663.637 6                 128148992.425 6
C22  21471750.522 7                 111809044.156 7
E05  22741259.865 8  22741262.330 9 119506130.064 8  90405622.733 9
E06  26263211.546 6  26263214.772 8 138014101.419 6 104406782.801 8
E09  24922714.138 8  24922715.718 8 130969744.348 8  99077766.775 8
E15  26396121.121 7  26396125.701 8 138712561.097 7 104935168.673 8
E34  23378380.648 8  23378381.955 9 122854217.900 8  92938424.991 9
E36  24842317.689 7  24842320.100 8 130547255.977 7  98758160.992 8
G01  20111578.897 8                  20111582.793 8 105687061.662 8                  82353568.192 8
G02  21274790.537 8  21274792.028 6                 111799773.191 8  87116720.199 6
G03  20450348.449 7                  20450355.365 8 107467308.498 7                  83740789.181 8
G17  22648195.687 7                  22648200.262 7 119017072.211 7                  92740852.713 7
G28  23689936.893 6                  23689939.106 4 124491472.458 6                  97006348.388 4
G32  23329357.658 7                  23329365.634 6 122596597.848 7                  95529841.357 6
R02  20910195.897 7  20910199.055 6 111580805.259 7  86784963.988 6
R03  19243913.932 8  19243918.996 8 103014175.475 8  80122346.746 8
R04  21951376.655 7  21951383.468 7 117548571.319 7  91426753.332 7
R17  21354237.390 5  21354247.519 6 114270841.740 5  88877355.156 6
R18  19113519.589 8  19113523.238 7 102029273.840 8  79356205.352 7
R19  21056939.845 6  21056941.891 5 112640437.190 6  87609252.326 5
> 2025 06 15 13 03 15.0000000  0 24
C06  39189553.591 6  39189550.385 6 204070287.104 6 157800084.895 6
C12  22251585.007 7  22251581.466 8 115869840.374 7  89709555.081 8
C16  39593411.651 6  39593412.660 6 206173279.560 6 159426264.253 6
C19  23689081.878 7                 123355256.282 7
C21  24605717.253 6                 128128443.947 6
C22  21470139.740 7                 111800656.313 7
E05  22738422.108 8  22738424.534 9 119491217.263 8  90394341.294 9
E06  26264198.652 6  26264202.814 8 138019293.661 6 104410710.691 8
E09  24922696.087 8  24922697.644 8 130969649.324 8  99077694.891 8
E15  26392586.004 7  26392590.976 8 138693986.107 7 104921116.820 8
E34  23376694.628 8  23376696.068 9 122845358.505 8  92931722.916 9
E36  24843023.683 7  24843026.110 8 130550966.004 7  98760967.601 8
G01  20110277.153 8                  20110280.979 8 105680221.734 8                  82348238.380 8
G02  21275235.658 8  21275236.749 6                 111802110.104 8  87118541.162 6
G03  20447678.780 7                  20447685.533 8 107453278.102 7                  83729856.408 8
G17  22645678.031 7                  22645682.440 7 119003841.839 7                  92730543.322 7
G28  23687088.173 6                  23687090.178 5 124476512.678 6                  96994691.462 5
G32  23330844.011 6                  23330852.458 6 122604412.997 6                  95535931.095 6
R02  20912017.332 7  20912021.726 6 111590529.330 7  86792527.161 6
R03  19241976.280 8  19241981.878 8 103003805.292 8  80114281.054 8
R04  21946666.212 7  21946671.499 7 117523345.902 7  91407133.585 7
R17  21356514.746 5  21356523.006 6 114283018.428 5  88886825.935 6
R18  19112797.938 8  19112801.042 7 102025421.412 8  79353209.021 7
R19  21052695.567 6  21052697.189 6 112617731.245 6  87591592.169 6
> 2025 06 15 13 03 20.0000000  0 24
C06  39187151.788 6  39187148.592 6 204057779.148 6 157790412.957 6
C12  22249462.490 6  22249458.945 7 115858788.768 6  89701009.292 7
C16  39591157.900 6  39591159.342 6 206161546.253 6 159417191.328 6
C19  23690303.001 7                 123361616.654 7
C21  24601772.525 6                 128107901.456 6
C22  21468530.967 7                 111792280.393 7
E05  22735586.491 8  22735588.700 9 119476314.639 8  90383067.565 9
E06  26265188.104 6  26265192.346 8 138024493.559 6 104414644.384 8
E09  24922679.999 8  24922681.689 8 130969565.275 8  99077631.310 8
E15  26389052.561 7  26389056.692 8 138675413.307 7 104907066.626 8
E34  23375010.018 8  23375011.647 9 122836506.846 8  92925026.698 9
E36  24843730.589 8  24843733.313 8 130554682.421 8  98763779.048 8
G01  20108978.012 8                  20108982.031 8 105673394.905 8                  82342918.766 8
G02  21275682.493 8  21275683.866 6                 111804457.538 8  87120370.336 6
G03  20445010.740 7                  20445017.751 8 107439258.522 7                  83718932.063 8
G17  22643163.168 7                  22643167.565 7 118990625.486 7                  92720244.850 7
G28  23684244.045 6                  23684246.917 5 124461565.988 6                  96983044.785 5
G32  23332333.388 6                  23332341.537 6 122612237.177 6                  95542027.854 6
R02  20913842.044 7  20913846.259 7 111600264.130 7  86800098.678 7
R03  19240043.373 8  19240047.778 8 102993454.106 8  80106230.143 8
R04  21941956.850 7  21941963.017 7 117498129.865 7  91387521.133 7
R17  21358791.401 5  21358801.154 6 114295206.494 5  88896305.515 6
R18  19112080.305 8  19112083.091 7 102021588.885 8  79350228.180 7
R19  21048452.281 6  21048454.586 5 112595035.575 6  87573940.028 5
> 2025 06 15 13 03 25.0000000  0 24
C06  39184750.971 6  39184747.422 6 204045275.186 6 157780744.125 6
C12  22247342.745 6  22247339.264 7 115847749.478 6  89692473.021 7
C16  39588906.042 6  39588906.424 6 206149817.104 6 159408121.617 6
C19  23691526.104 7                 123367983.114 7
C21  24597828.956 6                 128087364.589 6
C22  21466924.471 7                 111783916.004 7
E05  22732752.897 8  22732754.670 9 119461421.830 8  90371801.256 9
E06  26266179.552 6  26266183.228 8 138029700.737 6 104418583.568 8
E09  24922666.025 8  24922667.700 8 130969491.799 8  99077575.728 8
E15  26385518.868 7  26385522.758 8 138656842.310 7 104893017.796 8
E34  23373326.999 8  23373328.630 9 122827662.563 8  92918336.064 9
E36  24844438.695 8  24844441.678 8 130558404.857 8  98766595.051 8
G01  20107681.037 8                  20107685.242 8 105666580.816 8                  82337609.076 8
G02  21276131.032 8  21276132.632 6                 111806815.119 8  87122207.415 6
G03  20442345.629 8                  20442351.926 7 107425249.412 8                  83708015.892 7
G17  22640650.408 7                  22640655.510 7 118977422.771 7                  92709957.028 7
G28  23681402.729 6                  23681407.635 5 124446631.977 6                  96971407.906 5
G32  23333823.838 6                  23333832.042 6 122620069.999 6                  95548131.353 6
R02  20915668.245 7  20915671.864 7 111610009.257 7  86807678.212 7
R03  19238112.454 8  19238117.546 7 102983121.842 8  80098193.938 7
R04  21937248.854 7  21937255.447 7 117472922.606 7  91367915.505 7
R17  21361073.315 5  21361081.025 6 114307405.352 5  88905793.532 6
R18  19111365.834 8  19111368.941 7 102017775.868 8  79347262.501 7
R19  21044211.499 6  21044213.594 5 112572349.709 6  87556295.501 5
> 2025 06 15 13 03 30.0000000  0 24
C06  39182349.825 6  39182347.142 6 204032775.896 6 157771078.878 6
C12  22245224.764 6  22245221.731 7 115836723.156 6  89683946.780 7
C16  39586654.214 7  39586654.786 6 206138092.791 7 159399055.642 6
C19  23692749.633 7                 123374356.343 7
C21  24593885.656 6                 128066834.004 6
C22  21465320.986 7                 111775563.836 7
E05  22729920.655 8  22729922.692 9 119446539.525 8  90360542.885 9
E06  26267171.881 6  26267175.630 8 138034915.831 6 104422528.732 8
E09  24922653.925 8  24922655.906 8 130969429.569 8  99077528.654 8
E15  26381985.488 7  26381989.272 8 138638273.779 7 104878970.836 8
E34  23371645.456 8  23371647.149 9 122818826.323 8  92911651.506 9
E36  24845148.119 8  24845151.312 8 130562133.973 8  98769416.102 8
G01  20106387.113 8                  20106391.327 8 105659780.094 8                  82332309.817 8
G02  21276581.730 8  21276583.464 6                 111809183.513 8  87124052.921 6
G03  20439680.895 7                  20439688.154 7 107411251.478 7                  83697108.414 7
G17  22638140.844 7                  22638145.856 7 118964234.351 7                  92699680.354 7
G28  23678563.974 6                  23678569.548 6 124431711.386 6                  96959781.487 6
G32  23335315.988 6                  23335324.744 6 122627912.122 6                  95554242.052 6
R02  20917496.752 7  20917500.781 7 111619765.522 7  86815266.396 7
R03  19236185.854 8  19236190.861 7 102972808.980 8  80090172.823 7
R04  21932544.181 7  21932549.841 7 117447725.033 7  91348317.411 7
R17  21363354.752 5  21363362.682 6 114319615.954 5  88915290.672 6
R18  19110654.343 8  19110658.622 7 102013983.008 8  79344312.502 7
R19  21039972.544 6  21039974.071 6 112549674.446 6  87538659.199 6
> 2025 06 15 13 03 35.0000000  0 24
C06  39179950.871 6  39179947.877 6 204020282.161 6 157761417.937 6
C12  22243110.256 7  22243107.053 7 115825710.733 7  89675431.283 7
C16  39584402.793 6  39584404.313 6 206126374.177 6 159389994.077 6
C19  23693974.296 7                 123380737.186 7
C21  24589945.008 7                 128046310.598 7
C22  21463718.906 7                 111767224.720 7
E05  22727090.839 8  22727092.837 9 119431668.577 8  90349293.108 9
E06  26268166.095 6  26268169.747 8 138040139.721 6 104426480.560 8
E09  24922644.658 8  24922646.427 8 130969379.473 8  99077490.755 8
E15  26378452.397 7  26378456.440 8 138619708.616 7 104864926.416 8
E34  23369965.916 8  23369967.367 9 122809999.008 8  92904973.698 9
E36  24845859.407 7  24845862.373 8 130565870.663 7  98772242.882 8
G01  20105095.943 8                  20105099.893 8 105652993.677 8                  82327021.705 8
G02  21277034.496 8  21277036.338 6                 111811563.595 8  87125907.523 6
G03  20437019.745 8                  20437026.575 7 107397265.561 8                  83686210.302 7
G17  22635633.288 7                  22635638.923 7 118951061.162 7                  92689415.553 7
G28  23675727.694 6                  23675733.408 5 124416805.075 6                  96948166.241 5
G32  23336810.688 6                  23336818.944 6 122635764.442 6                  95560360.746 6
R02  20919328.229 7  20919331.468 7 111629533.672 7  86822863.812 7
R03  19234262.631 8  19234267.891 7 102962516.409 8  80082167.507 7
R04  21927840.533 7  21927846.208 7 117422537.922 7  91328727.465 7
R17  21365639.983 5  21365646.894 5 114331839.043 5  88924797.474 5
R18  19109948.508 8  19109952.042 7 102010211.210 8  79341378.868 7
R19  21035736.518 7  21035737.820 6 112527010.724 7  87521031.862 6
> 2025 06 15 13 03 40.0000000  0 24
C06  39177553.323 6  39177549.442 6 204007792.661 6 157751760.274 6
C12  22240997.804 6  22240994.782 7 115814710.882 6  89666925.508 7
C16  39582153.608 6  39582155.058 6 206114660.005 6 159380935.938 6
C19  23695201.039 7                 123387124.346 7
C21  24586004.289 6                 128025793.086 6
C22  21462119.947 7                 111758897.384 7
E05  22724262.505 8  22724264.891 9 119416807.719 8  90338050.983 9
E06  26269161.808 6  26269165.232 8 138045371.075 6 104430438.041 8
E09  24922636.970 8  24922638.928 8 130969340.183 8  99077461.037 8
E15  26374919.734 7  26374924.010 8 138601145.500 7 104850883.562 8
E34  23368287.501 7  23368289.030 9 122801179.331 7  92898301.671 9
E36  24846571.044 7  24846574.604 8 130569613.588 7  98775074.378 8
G01  20103806.398 8                  20103811.013 8 105646220.230 8                  82321743.703 8
G02  21277489.464 8  21277491.469 6                 111813954.056 8  87127770.217 6
G03  20434360.846 8                  20434367.062 7 107383290.365 8                  83675320.521 7
G17  22633129.863 7                  22633134.560 7 118937901.878 7                  92679161.595 7
G28  23672893.543 6                  23672899.599 6 124401911.717 6                  96936561.053 6
G32  23338306.322 7                  23338314.348 6 122643625.611 7                  95566486.317 6
R02  20921159.982 7  20921163.950 7 111639312.468 7  86830469.520 7
R03  19232343.857 8  19232348.756 7 102952243.054 8  80074177.109 7
R04  21923138.265 7  21923144.898 7 117397360.039 7  91309144.688 7
R17  21367926.567 5  21367932.835 5 114344073.346 5  88934312.965 5
R18  19109245.662 8  19109248.982 7 102006459.201 8  79338460.627 7
R19  21031500.606 7  21031503.824 6 112504357.089 7  87503412.347 6
> 2025 06 15 13 03 45.0000000  0 24
C06  39175154.694 6  39175151.583 6 203995307.495 6 157742105.941 6
C12  22238888.298 7  22238884.469 7 115803723.733 7  89658429.536 7
C16  39579905.214 6  39579906.101 6 206102950.280 6 159371881.235 6
C19  23696428.885 7                 123393517.899 7
C21  24582065.919 7                 128005281.506 7
C22  21460523.250 7                 111750581.902 7
E05  22721436.659 8  22721438.938 9 119401957.017 8  90326816.535 9
E06  26270158.609 6  26270162.213 8 138050610.000 6 104434401.254 8
E09  24922631.420 8  24922633.588 8 130969311.794 8  99077439.561 8
E15  26371387.763 7  26371391.944 8 138582584.535 7 104836842.339 8
E34  23366610.851 7  23366612.144 9 122792367.363 7  92891635.471 9
E36  24847284.515 8  24847288.042 8 130573362.858 8  98777910.674 8
G01  20102520.067 8                  20102524.590 8 105639459.861 8                  82316475.886 8
G02  21277946.100 8  21277948.179 6                 111816355.006 8  87129641.070 6
G03  20431703.362 8                  20431709.843 7 107369325.974 8                  83664439.172 7
G17  22630627.856 7                  22630633.675 7 118924756.574 7                  92668918.521 7
G28  23670062.064 6                  23670068.325 5 124387031.457 6                  96924966.112 5
G32  23339804.060 7                  23339812.601 6 122651495.704 7                  95572618.854 6
R02  20922994.330 7  20922998.440 7 111649101.984 7  86838083.594 7
R03  19230428.557 8  19230433.190 7 102941988.711 8  80066201.510 7
R04  21918437.867 7  21918445.140 7 117372191.589 7  91289569.257 7
R17  21370214.000 5  21370221.488 5 114356318.796 5  88943837.143 5
R18  19108546.603 8  19108549.791 7 102002727.039 8  79335557.837 7
R19  21027268.158 7  21027269.749 6 112481713.759 7  87485800.856 6
> 2025 06 15 13 03 50.0000000  0 24
C06  39172757.342 6  39172754.743 6 203982826.660 6 157732454.984 6
C12  22236780.557 7  22236776.811 7 115792749.270 7  89649943.374 7
C16  39577657.263 6  39577658.310 6 206091245.095 6 159362830.058 6
C19  23697658.572 7                 123399917.864 7
C21  24578128.411 6                 127984775.952 6
C22  21458929.178 7                 111742278.304 7
E05  22718612.170 8  22718614.864 9 119387116.484 8  90315589.775 9
E06  26271156.584 6  26271160.586 8 138055856.486 6 104438370.188 8
E09  24922628.215 8  24922630.280 8 130969294.297 8  99077426.314 8
E15  26367855.303 7  26367860.325 8 138564025.726 7 104822802.740 8
E34  23364935.298 7  23364936.739 9 122783563.135 7  92884975.127 9
E36  24847999.053 7  24848002.714 8 130577118.483 7  98780751.781 8
G01  20101236.611 7                  20101240.727 8 105632712.582 7                  82311218.269 8
G02  21278405.145 8  21278407.052 6                 111818766.441 8  87131520.110 6
G03  20429048.512 8                  20429054.690 7 107355372.386 8                  83653566.251 7
G17  22628128.885 7                  22628134.352 7 118911625.295 7                  92658686.356 7
G28  23667233.143 6                  23667239.006 6 124372164.307 6                  96913381.324 6
G32  23341304.083 7                  23341311.808 6 122659374.720 7                  95578758.336 6
R02  20924829.983 7  20924834.723 7 111658901.926 7  86845705.790 7
R03  19228516.313 7  19228521.251 7 102931753.576 7  80058240.853 7
R04  21913739.676 7  21913746.856 7 117347032.320 7  91270000.972 7
R17  21372505.753 5  21372511.754 5 114368575.530 5  88953370.147 5
R18  19107852.068 8  19107854.381 7 101999014.766 8  79332670.515 7
R19  21023036.030 7  21023038.766 6 112459080.785 7  87468197.420 6
> 2025 06 15 13 03 55.0000000  0 24
C06  39170362.205 6  39170358.913 6 203970350.121 6 157722807.341 6
C12  22234675.315 7  22234671.732 7 115781787.414 7  89641466.969 7
C16  39575410.059 6  39575411.011 6 206079544.370 6 159353782.314 6
C19  23698888.644 7                 123406324.109 7
C21  24574191.700 6                 127964276.304 6
C22  21457336.591 7                 111733986.507 7
E05  22715789.621 8  22715792.710 9 119372286.064 8  90304370.677 9
E06  26272156.564 6  26272160.382 8 138061110.474 6 104442344.775 8
E09  24922627.014 7  24922629.015 8 130969287.616 7  99077421.256 8
E15  26364324.058 7  26364329.083 8 138545469.031 7 104808764.734 8
E34  23363261.238 7  23363262.783 9 122774766.548 7  92878320.572 9
E36  24848715.401 7  24848718.568 8 130580880.371 7  98783597.620 8
G01  20099954.862 7                  20099959.352 8 105625978.304 7                  82305970.769 8
G02  21278865.641 7  21278867.710 6                 111821188.255 7  87133407.228 6
G03  20426395.116 8                  20426401.163 7 107341429.556 8                  83642701.719 7
G17  22625632.908 7                  22625638.294 7 118898507.948 7                  92648465.064 7
G28  23664407.099 7                  23664413.200 6 124357310.184 7                  96901806.698 6
G32  23342804.758 7                  23342812.672 6 122667262.590 7                  95584904.731 6
R02  20926668.713 7  20926673.867 7 111668712.528 7  86853336.264 7
R03  19226607.598 7  19226612.547 7 102921537.457 7  80050294.994 7
R04  21909043.321 7  21909050.190 7 117321882.425 7  91250439.946 7
R17  21374800.286 5  21374803.708 5 114380843.422 5  88962911.836 5
R18  19107159.249 8  19107162.642 7 101995322.246 8  79329798.563 7
R19  21018807.442 7  21018809.350 5 112436457.975 7  87450601.963 5
> 2025 06 15 13 04  0.0000000  0 24
C06  39167967.221 6  39167963.566 6 203957877.996 6 157713163.120 6
C12  22232571.959 7  22232569.359 7 115770838.348 7  89633000.452 7
C16  39573164.172 6  39573164.973 6 206067848.189 6 159344738.101 6
C19  23700120.321 7                 123412736.837 7
C21  24570256.565 6                 127943782.745 6
C22  21455746.639 7                 111725706.640 7
E05  22712969.254 8  22712972.550 9 119357465.926 8  90293159.347 9
E06  26273157.712 6  26273161.625 8 138066372.078 6 104446325.146 8
E09  24922627.986 7  24922629.876 8 130969291.902 7  99077424.492 8
E15  26360793.460 7  26360798.304 8 138526914.591 7 104794728.442 8
E34  23361589.269 7  23361590.336 9 122765977.786 7  92871671.930 9
E36  24849432.768 7  24849435.654 8 130584648.681 7  98786448.324 8
G01  20098675.956 7                  20098680.360 8 105619257.198 7                  82300733.544 8
G02  21279328.047 7  21279330.265 6                 111823620.676 7  87135302.593 6
G03  20423743.848 8                  20423749.793 7 107327497.626 8                  83631845.665 7
G17  22623139.075 7                  22623144.718 7 118885404.696 7                  92638254.737 7
G28  23661582.412 7                  23661589.018 6 124342469.311 7                  96890242.403 6
G32  23344308.519 7                  23344315.773 6 122675159.442 7                  95591058.111 6
R02  20928509.491 7  20928513.978 7 111678533.732 7  86860974.963 7
R03  19224702.836 7  19224708.186 7 102911340.446 7  80042363.994 7
R04  21904347.882 7  21904355.742 7 117296741.906 7  91230886.240 7
R17  21377095.516 5  21377097.231 5 114393122.526 5  88972462.203 5
R18  19106471.376 8  19106474.291 7 101991649.707 8  79326942.140 7
R19  21014579.406 7  21014582.406 5 112413845.557 7  87433014.554 5
> 2025 06 15 13 04  5.0000000  0 24
C06  39165573.160 6  39165569.395 6 203945410.027 6 157703522.094 6
C12  22230471.381 7  22230468.712 7 115759901.796 7  89624543.621 7
C16  39570918.830 6  39570919.530 6 206056156.347 6 159335697.232 6
C19  23701352.997 7                 123419155.744 7
C21  24566321.844 6                 127923294.963 6
C22  21454158.533 7                 111717438.461 7
E05  22710151.178 7  22710154.264 9 119342655.769 7  90281955.564 9
E06  26274160.747 7  26274164.279 8 138071641.050 7 104450311.067 8
E09  24922631.362 7  24922632.736 8 130969306.890 7  99077435.831 8
E15  26357263.286 7  26357267.873 8 138508362.125 7 104780693.629 8
E34  23359918.367 7  23359919.296 8 122757196.565 7  92865028.998 8
E36  24850151.198 7  24850153.936 8 130588423.155 7  98789303.689 8
G01  20097399.400 7                  20097403.951 8 105612549.012 7                  82295506.384 8
G02  21279793.008 7  21279794.772 6                 111826063.366 7  87137205.981 6
G03  20421094.059 8                  20421100.981 7 107313576.336 8                  83620997.912 7
G17  22620648.033 7                  22620653.551 7 118872315.289 7                  92628055.198 7
G28  23658761.158 7                  23658767.017 6 124327641.347 7                  96878688.125 6
G32  23345812.361 7                  23345819.625 6 122683065.020 7                  95597218.275 6
R02  20930351.519 7  20930356.594 7 111688365.398 7  86868621.791 7
R03  19222801.428 8  19222806.917 7 102901162.518 8  80034447.825 7
R04  21899655.344 7  21899662.109 7 117271610.612 7  91211339.672 7
R17  21379393.117 6  21379393.472 5 114405412.686 6  88982021.182 5
R18  19105787.902 8  19105790.574 7 101987996.856 8  79324101.030 7
R19  21010353.541 7  21010356.882 6 112391243.287 7  87415435.033 6
> 2025 06 15 13 04 10.0000000  0 24
C06  39163179.245 6  39163176.110 6 203932946.318 6 157693884.384 6
C12  22228373.834 7  22228371.125 8 115748977.895 7  89616096.563 8
C16  39568674.606 7  39568675.439 6 206044468.942 7 159326659.791 6
C19  23702586.367 7                 123425580.952 7
C21  24562388.612 7                 127902813.144 7
C22  21452572.420 7                 111709182.083 7
E05  22707334.712 7  22707337.917 9 119327855.752 7  90270759.460 9
E06  26275164.723 7  26275168.327 8 138076917.430 7 104454302.622 8
E09  24922636.419 7  24922637.629 8 130969332.647 7  99077455.313 8
E15  26353733.382 7  26353737.815 8 138489811.780 7 104766660.422 8
E34  23358248.886 7  23358249.752 8 122748423.015 7  92858391.862 8
E36  24850870.529 7  24850873.392 8 130592203.878 7  98792163.780 8
G01  20096125.059 8                  20096129.705 8 105605853.827 8                  82290289.357 8
G02  21280259.981 7  21280261.383 6                 111828516.464 7  87139117.477 6
G03  20418447.110 8                  20418453.826 7 107299665.789 8                  83610158.540 7
G17  22618160.600 7                  22618165.198 7 118859239.842 7                  92617866.545 7
G28  23655941.750 6                  23655946.972 6 124312826.484 6                  96867144.095 6
G32  23347318.409 7                  23347325.781 6 122690979.399 7                  95603385.286 6
R02  20932196.676 7  20932201.121 7 111698207.547 7  86876276.776 7
R03  19220903.577 8  19220909.009 7 102891003.341 8  80026546.230 7
R04  21894963.632 7  21894970.781 7 117246488.670 7  91191800.392 7
R17  21381694.181 6  21381692.554 5 114417713.938 6  88991588.831 5
R18  19105106.926 8  19105109.425 7 101984363.722 8  79321275.252 7
R19  21006130.173 7  21006133.201 6 112368651.410 7  87397863.567 6
> 2025 06 15 13 04 15.0000000  0 24
C06  39160786.747 6  39160783.726 6 203920487.180 6 157684250.205 6
C12  22226279.140 7  22226275.805 7 115738066.898 7  89607659.514 7
C16  39566430.661 6  39566431.583 6 206032786.248 6 159317626.003 6
C19  23703821.565 7                 123432012.712 7
C21  24558455.620 6                 127882337.539 6
C22  21450989.038 7                 111700937.769 7
E05  22704520.872 7  22704523.618 9 119313066.131 7  90259571.214 9
E06  26276170.089 7  26276173.875 8 138082201.607 7 104458300.047 8
E09  24922643.090 7  24922644.642 8 130969369.511 7  99077483.195 8
E15  26350204.280 7  26350208.264 8 138471263.800 7 104752629.012 8
E34  23356580.489 7  23356581.660 9 122739657.418 7  92851760.747 9
E36  24851591.390 7  24851594.143 8 130595991.168 7  98795028.839 8
G01  20094853.776 8                  20094858.321 8 105599171.956 8                  82285082.709 8
G02  21280728.856 7  21280730.208 6                 111830980.254 7  87141037.302 6
G03  20415802.077 8                  20415808.487 7 107285766.292 8                  83599327.760 7
G17  22615674.833 7                  22615679.422 7 118846178.648 7                  92607688.985 7
G28  23653123.762 6                  23653130.288 6 124298025.044 6                  96855610.499 6
G32  23348825.699 7                  23348833.553 6 122698902.887 7                  95609559.394 6
R02  20934043.387 7  20934048.139 7 111708060.579 7  86883940.219 7
R03  19219010.487 8  19219015.177 8 102880863.754 8  80018659.888 8
R04  21890274.941 7  21890280.701 7 117221376.259 7  91172268.519 7
R17  21383996.399 6  21383993.873 5 114430026.629 6  89001165.306 5
R18  19104429.679 8  19104432.579 7 101980750.701 8  79318465.134 7
R19  21001909.460 7  21001912.406 5 112346070.219 7  87380300.408 5
> 2025 06 15 13 04 20.0000000  0 24
C06  39158394.656 6  39158391.419 6 203908031.952 6 157674619.044 6
C12  22224185.575 7  22224182.702 7 115727168.166 7  89599231.926 7
C16  39564187.432 6  39564188.529 6 206021107.607 6 159308595.351 6
C19  23705058.096 7                 123438450.351 7
C21  24554524.413 6                 127861867.486 6
C22  21449408.142 7                 111692704.856 7
E05  22701708.774 7  22701711.105 9 119298286.282 7  90248390.350 9
E06  26277177.163 7  26277180.767 8 138087492.792 7 104462302.785 8
E09  24922652.087 8  24922653.608 8 130969416.749 8  99077518.932 8
E15  26346675.136 7  26346678.995 8 138452717.575 7 104738598.912 8
E34  23354913.816 7  23354915.018 9 122730899.114 7  92845135.146 9
E36  24852312.871 7  24852316.005 8 130599784.341 7  98797898.341 8
G01  20093584.008 7                  20093589.421 8 105592502.729 7                  82279885.911 8
G02  21281199.782 7  21281201.013 6                 111833454.043 7  87142964.913 6
G03  20413158.874 7                  20413165.363 7 107271877.151 7                  83588505.056 7
G17  22613191.888 7                  22613197.070 7 118833131.054 7                  92597522.027 7
G28  23650309.033 6                  23650316.622 6 124283236.255 6                  96844086.802 6
G32  23350334.871 7                  23350342.600 6 122706834.746 7                  95615740.062 6
R02  20935890.286 7  20935896.128 7 111717923.530 7  86891611.388 7
R03  19217119.434 8  19217124.414 8 102870742.680 8  80010787.946 8
R04  21885586.427 7  21885592.235 7 117196272.824 7  91152743.633 7
R17  21386299.349 5  21386294.736 4 114442349.846 5  89010749.959 4
R18  19103756.345 8  19103759.497 7 101977157.106 8  79315670.124 7
R19  20997690.418 7  20997692.261 5 112323498.891 7  87362744.924 5
> 2025 06 15 13 04 25.0000000  0 24
C06  39156003.402 6  39156001.096 6 203895581.163 6 157664991.310 6
C12  22222095.558 7  22222092.147 8 115716282.253 7  89590814.257 8
C16  39561945.652 6  39561946.948 6 206009433.585 6 159299568.267 6
C19  23706295.346 7                 123444894.419 7
C21  24550594.088 7                 127841403.531 7
C22  21447829.106 7                 111684483.869 7
E05  22698897.887 7  22698900.539 9 119283516.695 7  90237217.257 9
E06  26278185.814 7  26278189.092 8 138092791.565 7 104466311.278 8
E09  24922662.830 8  24922664.719 8 130969474.924 8  99077562.945 8
E15  26343146.225 7  26343150.155 8 138434173.639 7 104724570.549 8
E34  23353248.477 8  23353249.845 9 122722148.644 8  92838515.479 9
E36  24853036.094 8  24853039.101 8 130603583.916 8  98800772.689 8
G01  20092317.687 7                  20092322.766 8 105585846.689 7                  82274699.395 8
G02  21281672.775 7  21281673.948 6                 111835938.366 7  87144900.734 6
G03  20410518.265 7                  20410524.443 7 107257998.933 7                  83577690.867 7
G17  22610711.867 7                  22610716.893 7 118820097.596 7                  92587366.087 7
G28  23647496.728 5                  23647504.905 6 124268460.735 5                  96832573.387 6
G32  23351846.087 7                  23351853.822 6 122714775.546 7                  95621927.688 6
R02  20937741.892 7  20937746.414 7 111727797.134 7  86899290.826 7
R03  19215233.131 8  19215237.142 8 102860640.807 8  80002930.929 8
R04  21880901.849 7  21880906.527 7 117171178.754 7  91133226.033 7
R17  21388612.010 5  21388598.368 4 114454684.352 5  89020343.308 4
R18  19103086.753 8  19103089.803 7 101973583.487 8  79312890.643 7
R19  20993471.481 7  20993475.636 5 112300937.987 7  87345197.583 5
> 2025 06 15 13 04 30.0000000  0 23
C06  39153613.651 6  39153610.985 6 203883134.988 6 157655367.168 6
C12  22220007.302 7  22220003.992 7 115705409.378 7  89582406.654 7
C16  39559704.727 6  39559705.868 6 205997764.334 6 159290544.870 6
C19  23707534.598 7                 123451345.088 7
C21  24546665.314 7                 127820945.862 7
C22  21446253.369 7                 111676275.013 7
E05  22696089.237 7  22696091.969 9 119268757.590 7  90226052.098 9
E06  26279196.020 7  26279198.921 8 138098098.141 7 104470325.662 8
E09  24922676.321 8  24922677.907 8 130969544.220 8  99077615.373 8
E15  26339617.872 7  26339621.833 8 138415632.139 7 104710544.025 8
E34  23351584.549 8  23351586.222 9 122713406.200 8  92831901.882 9
E36  24853760.338 8  24853763.463 8 130607390.135 8  98803652.071 8
G01  20091053.909 7                  20091058.472 8 105579204.054 7                  82269523.315 8
G02  21282147.779 8  21282148.934 6                 111838433.418 8  87146844.924 6
G03  20407879.040 7                  20407885.725 7 107244131.846 7                  83566885.344 7
G17  22608234.248 7                  22608239.485 7 118807078.480 7                  92577221.320 7
G28  23644689.330 5                  23644695.745 6 124253698.810 5                  96821070.569 6
G32  23353359.406 7                  23353366.576 6 122722725.461 7                  95628122.419 6
R02  20939594.006 7  20939598.788 7 111737681.579 7  86906978.736 7
R03  19213349.426 8  19213353.819 7 102850558.229 8  79995088.924 7
R04  21876217.884 7  21876222.093 7 117146094.578 7  91113716.117 7
R18  19102420.598 7  19102424.891 7 101970030.012 7  79310126.828 7
R19  20989256.738 7  20989260.381 5 112278387.983 7  87327658.707 5
> 2025 06 15 13 04 35.0000000  0 23
C06  39151223.994 6  39151221.724 6 203870693.044 6 157645746.287 6
C12  22217921.694 7  22217917.975 7 115694549.109 7  89574008.796 7
C16  39557464.564 6  39557465.433 6 205986099.462 6 159281524.858 6
C19  23708774.122 7                 123457801.972 7
C21  24542738.098 7                 127800494.069 7
C22  21444679.092 7                 111668077.868 7
E05  22693282.866 7  22693285.281 9 119254008.574 7  90214894.574 9
E06  26280207.525 7  26280210.096 8 138103412.075 7 104474345.608 8
E09  24922691.619 8  24922693.118 8 130969624.240 8  99077675.904 8
E15  26336089.680 7  26336093.824 8 138397092.723 7 104696519.089 8
E34  23349922.329 8  23349924.043 9 122704671.381 8  92825294.055 9
E36  24854485.877 8  24854488.975 8 130611202.537 8  98806536.116 8
G01  20089792.952 7                  20089796.898 8 105572574.396 7                  82264357.349 8
G02  21282624.731 8  21282625.918 6                 111840938.796 8  87148797.166 6
G03  20405243.001 8                  20405248.757 7 107230275.428 8                  83556088.135 7
G17  22605759.645 7                  22605764.537 7 118794073.288 7                  92567087.400 7
G28  23641883.533 6                  23641889.764 6 124238949.893 6                  96809577.859 6
G32  23354873.231 6                  23354881.029 6 122730684.074 6                  95634323.915 6
R02  20941447.948 7  20941453.089 7 111747576.232 7  86914674.581 7
R03  19211469.154 8  19211473.962 8 102840494.698 8  79987261.739 8
R04  21871533.609 7  21871539.287 7 117121019.538 7  91094213.338 7
R18  19101758.599 7  19101762.843 7 101966496.298 7  79307378.375 7
R19  20985045.263 7  20985045.855 6 112255848.149 7  87310127.742 6
> 2025 06 15 13 04 40.0000000  0 24
C06  39148835.272 6  39148833.401 6 203858255.398 6 157636128.717 6
C12  22215839.331 7  22215834.627 7 115683701.509 7  89565620.739 7
C16  39555225.538 6  39555226.246 6 205974439.046 6 159272508.294 6
C19  23710015.116 7                 123464265.091 7
C21  24538811.725 7                 127780048.252 7
C22  21443107.385 7                 111659892.519 7
E05  22690477.716 7  22690480.523 8 119239269.712 7  90203744.725 8
E06  26281219.985 7  26281222.756 8 138108733.405 7 104478371.152 8
E09  24922708.526 8  24922710.409 8 130969715.020 8  99077744.583 8
E15  26332562.180 7  26332566.275 8 138378555.418 7 104682495.762 8
E34  23348261.511 8  23348263.344 9 122695944.259 8  92818692.049 9
E36  24855211.935 8  24855215.697 8 130615021.198 8  98809424.909 8
G01  20088533.618 7                  20088537.595 8 105565957.784 7                  82259201.543 8
G02  21283103.442 8  21283104.806 6                 111843454.517 8  87150757.462 6
G03  20402607.898 8                  20402614.044 7 107216429.798 8                  83545299.331 7
G17  22603287.144 7                  22603292.535 7 118781082.095 7                  92556964.390 7
G28  23639079.259 6                  23639085.345 6 124224214.073 6                  96798095.416 6
G32  23356389.543 6                  23356397.334 6 122738651.443 6                  95640532.259 6
R02  20943304.083 7  20943309.646 7 111757481.554 7  86922378.718 7
R03  19209592.949 8  19209597.574 7 102830450.394 8  79979449.515 7
R04  21866851.554 7  21866858.625 7 117095953.869 7  91074717.830 7
R17  21395536.302 5                                
R18  19101101.692 7  19101104.932 7 101962982.387 7  79304645.318 7
R19  20980832.770 7  20980835.215 6 112233318.709 7  87292604.847 6
> 2025 06 15 13 04 45.0000000  0 24
C06  39146447.602 6  39146445.452 6 203845822.543 6 157626514.848 6
C12  22213759.162 7  22213754.215 7 115672867.080 7  89557242.869 7
C16  39552987.110 6  39552987.576 6 205962783.575 6 159263495.545 6
C19  23711257.941 7                 123470734.935 7
C21  24534887.000 7                 127759608.896 7
C22  21441538.054 7                 111651719.462 7
E05  22687675.281 7  22687677.786 8 119224541.506 7  90192602.941 8
E06  26282233.464 7  26282236.866 8 138114062.682 7 104482402.709 8
E09  24922728.096 8  24922729.821 8 130969817.082 8  99077821.784 8
E15  26329035.196 7  26329039.236 8 138360020.787 7 104668474.432 8
E34  23346602.543 8  23346604.206 9 122687225.336 8  92812096.249 9
E36  24855940.501 8  24855943.689 8 130618846.636 8  98812318.814 8
G01  20087277.083 8                  20087281.192 8 105559354.727 8                  82254056.303 8
G02  21283584.257 8  21283585.584 6                 111845981.136 8  87152726.260 6
G03  20399975.417 8                  20399981.258 7 107202595.441 8                  83534519.312 7
G17  22600818.269 7                  22600822.915 7 118768105.440 7                  92546852.698 7
G28  23636277.178 6                  23636283.710 6 124209491.911 6                  96786623.634 6
G32  23357906.171 6                  23357915.604 6 122746628.030 6                  95646747.784 6
R02  20945162.417 7  20945167.777 7 111767397.604 7  86930091.200 7
R03  19207719.806 8  19207724.291 7 102820425.316 8  79971652.237 7
R04  21862173.523 7  21862179.222 7 117070898.039 7  91055229.974 7
R17  21397859.639 5  21397843.613 5 114504135.20515
R18  19100446.717 8  19100450.709 7 101959488.755 8  79301928.058 7
R19  20976622.844 7  20976625.394 6 112210800.117 7  87275090.399 6
> 2025 06 15 13 04 50.0000000  0 24
C06  39144060.740 6  39144058.543 6 203833394.011 6 157616904.324 6
C12  22211680.493 7  22211676.047 7 115662045.389 7  89548874.856 7
C16  39550749.595 6  39550749.930 6 205951132.612 6 159254486.289 6
C19  23712501.458 7                 123477211.066 7
C21  24530962.882 7                 127739175.554 7
C22  21439970.918 7                 111643558.199 7
E05  22684874.652 8  22684876.996 8 119209823.483 8  90181468.866 8
E06  26283249.311 7  26283252.423 8 138119399.394 7 104486439.890 8
E09  24922749.496 8  24922751.344 8 130969929.949 8  99077907.160 8
E15  26325508.835 7  26325512.597 8 138341488.324 7 104654454.756 8
E34  23344944.642 8  23344946.510 8 122678514.160 8  92805506.306 8
E36  24856669.472 8  24856672.893 8 130622678.390 8  98815217.504 8
G01  20086023.242 8                  20086027.030 8 105552764.766 8                  82248921.263 8
G02  21284067.079 8  21284068.748 6                 111848518.181 8  87154703.172 6
G03  20397344.468 8                  20397350.947 7 107188771.926 8                  83523747.732 7
G17  22598351.502 7                  22598356.162 7 118755142.862 7                  92536751.983 7
G28  23633477.503 6                  23633484.588 6 124194782.930 6                  96775162.146 6
G32  23359426.628 6                  23359435.225 6 122754613.403 6                  95652970.156 6
R02  20947022.644 7  20947027.875 7 111777324.212 7  86937811.915 7
R03  19205851.060 8  19205855.339 7 102810419.435 8  79963869.873 7
R04  21857494.952 7  21857502.136 7 117045851.784 7  91035749.589 7
R17  21400178.380 6  21400158.871 5 114516525.739 6  89068446.59115
R18  19099795.850 8  19099799.718 7 101956015.050 8  79299226.292 7
R19  20972415.017 7  20972418.069 6 112188292.037 7  87257584.126 6
> 2025 06 15 13 04 55.0000000  0 24
C06  39141674.434 6  39141672.826 6 203820970.126 6 157607297.399 6
C12  22209604.196 7  22209600.400 7 115651236.818 7  89540516.990 7
C16  39548512.840 7  39548513.208 6 205939486.465 7 159245480.755 6
C19  23713746.743 7                 123483693.803 7
C21  24527040.235 7                 127718748.570 7
C22  21438405.957 7                 111635409.118 7
E05  22682075.462 7  22682078.222 9 119195116.020 7  90170342.777 9
E06  26284266.834 7  26284269.473 8 138124743.884 7 104490482.947 8
E09  24922772.755 8  24922774.953 8 130970053.942 8  99078000.954 8
E15  26321982.534 7  26321986.438 8 138322958.389 7 104640436.987 8
E34  23343288.647 8  23343290.383 9 122669811.063 8  92798922.476 9
E36  24857399.766 8  24857403.350 8 130626516.769 8  98818121.207 8
G01  20084771.909 8                  20084775.650 8 105546188.225 8                  82243796.690 8
G02  21284551.447 8  21284553.610 6                 111851066.013 8  87156688.502 6
G03  20394716.199 7                  20394722.645 7 107174959.540 7                  83512984.826 7
G17  22595887.951 7                  22595892.336 7 118742194.682 7                  92526662.513 7
G28  23630681.483 6                  23630687.496 6 124180087.526 6                  96763711.211 6
G32  23360947.559 6                  23360956.646 7 122762607.877 6                  95659199.606 7
R02  20948884.834 7  20948890.059 7 111787261.511 7  86945540.930 7
R03  19203985.448 8  19203989.910 7 102800432.914 8  79956102.563 7
R04  21852820.489 7  21852827.089 7 117020815.307 7  91016276.783 7
R17  21402492.943 6  21402477.570 6 114528927.695 6  89078092.503 6
R18  19099148.666 8  19099152.861 7 101952561.502 8  79296540.194 7
R19  20968208.731 7  20968212.371 6 112165794.798 7  87240086.280 6
> 2025 06 15 13 05  0.0000000  0 24
C06  39139289.545 6  39139287.883 6 203808551.302 6 157597694.379 6
C12  22207531.338 7  22207527.520 7 115640441.685 7  89532169.511 7
C16  39546277.280 7  39546277.347 6 205927845.522 7 159236479.253 6
C19  23714993.214 7                 123490183.487 7
C21  24523118.021 7                 127698328.318 7
C22  21436843.609 7                 111627272.547 7
E05  22679278.904 7  22679281.494 9 119180419.475 7  90159224.944 9
E06  26285285.428 7  26285288.074 8 138130096.513 7 104494532.171 8
E09  24922798.915 7  24922800.720 8 130970189.443 7  99078103.450 8
E15  26318456.489 7  26318460.835 8 138304431.358 7 104626421.426 8
E34  23341634.114 8  23341635.850 8 122661116.438 8  92792345.047 8
E36  24858131.638 8  24858135.133 8 130630362.170 8  98821030.216 8
G01  20083522.919 8                  20083526.965 8 105539625.520 8                  82238682.892 8
G02  21285038.372 8  21285040.862 6                 111853624.982 8  87158682.504 6
G03  20392090.299 8                  20392096.418 7 107161158.704 8                  83502230.929 7
G17  22593426.858 7                  22593431.434 7 118729261.302 7                  92516584.574 7
G28  23627887.314 6                  23627893.864 6 124165406.123 6                  96752271.146 6
G32  23362471.152 6                  23362480.126 7 122770611.828 6                  95665436.435 7
R02  20950748.756 7  20950754.602 7 111797209.882 7  86953278.535 7
R03  19202123.510 8  19202127.909 7 102790466.194 8  79948350.665 7
R04  21848146.121 7  21848153.331 7 116995788.926 7  90996811.853 7
R17  21404808.284 6  21404797.724 6 114541341.511 6  89087747.661 6
R18  19098505.471 8  19098509.838 7 101949128.587 8  79293870.147 7
R19  20964005.766 7  20964009.120 6 112143308.721 7  87222597.121 6
> 2025 06 15 13 05  5.0000000  0 24
C06  39136906.311 6  39136904.003 6 203796136.664 6 157588094.601 6
C12  22205461.203 7  22205457.325 8 115629659.184 7  89523831.808 8
C16  39544043.298 7  39544042.677 6 205916208.927 7 159227481.102 6
C19  23716241.196 7                 123496679.330 7
C21  24519198.052 7                 127677913.977 7
C22  21435283.197 7                 111619147.682 7
E05  22676484.212 7  22676486.688 9 119165733.023 7  90148114.749 9
E06  26286305.709 7  26286308.025 8 138135456.442 7 104498586.913 8
E09  24922827.003 8  24922828.516 8 130970335.606 8  99078214.013 8
E15  26314931.231 7  26314935.602 8 138285906.412 7 104612407.432 8
E34  23339981.268 8  23339982.808 9 122652429.438 8  92785773.390 9
E36  24858864.584 8  24858868.094 8 130634213.744 8  98823943.904 8
G01  20082276.493 8                  20082280.750 8 105533075.792 8                  82233579.211 8
G02  21285527.619 8  21285529.979 6                 111856194.273 8  87160684.555 6
G03  20389466.308 8                  20389472.384 7 107147368.552 8                  83491485.375 7
G17  22590968.675 7                  22590972.964 7 118716341.902 7                  92506517.515 7
G28  23625096.248 6                  23625102.559 6 124150737.820 6                  96740841.252 6
G32  23363995.279 6                  23364005.086 7 122778624.413 6                  95671679.995 7
R02  20952614.973 7  20952620.978 7 111807168.744 7  86961024.299 7
R03  19200265.338 8  19200269.199 7 102780518.456 8  79940613.541 7
R04  21843474.965 7  21843481.930 7 116970772.045 7  90977354.298 7
R17  21407128.834 6  21407120.182 6 114553766.096 6  89097411.203 6
R18  19097866.992 8  19097870.046 7 101945715.376 8  79291215.430 7
R19  20959804.650 7  20959807.435 6 112120833.156 7  87205116.136 6
> 2025 06 15 13 05 10.0000000  0 24
C06  39134522.943 6  39134520.584 6 203783726.370 6 157578498.188 6
C12  22203392.827 7  22203389.160 8 115618889.421 7  89515503.944 8
C16  39541808.770 7  39541809.130 6 205904576.857 7 159218486.464 6
C19  23717489.245 7                 123503181.386 7
C21  24515278.135 7                 127657505.641 7
C22  21433724.873 7                 111611034.623 7
E05  22673691.712 7  22673693.809 9 119151056.777 7  90137012.279 9
E06  26287326.916 7  26287329.386 8 138140823.783 7 104502647.264 8
E09  24922857.027 8  24922858.352 8 130970492.524 8  99078332.714 8
E15  26311406.440 7  26311410.753 8 138267383.638 7 104598395.090 8
E34  23338329.694 8  23338331.229 9 122643750.198 8  92779207.605 9
E36  24859598.547 8  24859602.238 8 130638071.608 8  98826862.356 8
G01  20081032.606 8                  20081036.683 8 105526539.163 8                  82228485.730 8
G02  21286018.103 8  21286021.026 6                 111858773.957 8  87162694.704 6
G03  20386844.174 8                  20386850.073 7 107133589.226 8                  83480748.248 7
G17  22588512.893 7                  22588517.182 7 118703436.601 7                  92496461.435 7
G28  23622307.529 6                  23622313.286 6 124136082.759 6                  96729421.691 6
G32  23365521.456 6                  23365531.500 7 122786645.676 6                  95677930.342 7
R02  20954483.197 7  20954489.090 7 111817137.573 7  86968777.818 7
R03  19198410.902 8  19198414.599 7 102770589.760 8  79932891.252 7
R04  21838804.724 7  21838811.990 7 116945764.493 7  90957904.000 7
R17  21409447.035 5  21409443.785 5 114566201.651 5  89107083.287 5
R18  19097230.490 8  19097234.246 7 101942322.023 8  79288576.148 7
R19  20955603.674 7  20955607.402 6 112098368.163 7  87187643.353 6
> 2025 06 15 13 05 15.0000000  0 24
C06  39132140.166 6  39132138.363 6 203771320.374 6 157568905.092 6
C12  22201326.734 7  22201323.284 7 115608132.317 7  89507185.865 7
C16  39539576.250 7  39539576.625 6 205892949.180 7 159209495.203 6
C19  23718739.341 7                 123509689.577 7
C21  24511358.829 7                 127637103.253 7
C22  21432168.696 7                 111602933.279 7
E05  22670900.438 7  22670902.897 9 119136390.669 7  90125917.476 9
E06  26288349.299 7  26288352.146 8 138146198.450 7 104506713.146 8
E09  24922889.017 7  24922890.262 8 130970660.142 7  99078459.506 8
E15  26307882.291 7  26307886.340 8 138248862.999 7 104584384.354 8
E34  23336679.509 8  23336681.106 9 122635078.620 8  92772647.613 9
E36  24860333.925 8  24860337.544 8 130641935.674 8  98829785.492 8
G01  20079791.089 8                  20079795.281 8 105520015.565 8                  82223402.397 8
G02  21286511.418 8  21286513.701 6                 111861363.966 8  87164712.891 6
G03  20384223.965 8                  20384230.466 7 107119820.635 8                  83470019.474 7
G17  22586059.254 7                  22586064.069 7 118690545.307 7                  92486416.252 7
G28  23619521.579 6                  23619527.000 6 124121440.851 6                  96718012.413 6
G32  23367049.214 6                  23367059.654 7 122794675.576 6                  95684187.399 7
R02  20956353.424 7  20956359.129 7 111827116.797 7  86976539.467 7
R03  19196558.455 8  19196563.163 7 102760680.035 8  79925183.701 7
R04  21834136.956 7  21834143.852 7 116920766.298 7  90938460.982 7
R17  21411764.699 5  21411769.583 5 114578648.131 5  89116763.883 5
R18  19096598.652 8  19096602.407 7 101938948.438 8  79285952.247 7
R19  20951406.177 7  20951410.030 6 112075913.550 7  87170178.653 6
> 2025 06 15 13 05 20.0000000  0 24
C06  39129758.519 6  39129756.702 6 203758919.000 6 157559315.572 6
C12  22199263.401 7  22199259.977 8 115597388.324 7  89498877.939 8
C16  39537344.094 7  39537344.509 6 205881326.328 7 159200507.681 6
C19  23719990.644 7                 123516204.345 7
C21  24507442.375 7                 127616707.257 7
C22  21430615.774 8                 111594844.079 8
E05  22668111.890 7  22668113.976 9 119121735.105 7  90114830.646 9
E06  26289373.433 7  26289376.380 8 138151580.844 7 104510784.884 8
E09  24922923.266 8  24922924.230 8 130970838.845 8  99078594.700 8
E15  26304358.808 7  26304362.458 8 138230344.916 7 104570375.542 8
E34  23335030.808 8  23335032.539 9 122626415.131 8  92766093.746 9
E36  24861070.668 7  24861074.124 8 130645806.380 7  98832713.662 8
G01  20078552.055 8                  20078556.474 8 105513505.423 8                  82218329.562 8
G02  21287005.801 8  21287008.572 6                 111863964.757 8  87166739.468 6
G03  20381605.659 8                  20381612.395 7 107106063.229 8                  83459299.424 7
G17  22583608.788 7                  22583613.933 7 118677668.473 7                  92476382.362 7
G28  23616738.381 7                  23616742.937 6 124106812.540 7                  96706613.740 6
G32  23368578.257 6                  23368589.437 7 122802714.529 6                  95690451.507 7
R02  20958226.200 7  20958231.183 7 111837106.787 7  86984309.445 7
R03  19194710.528 8  19194715.266 7 102750789.730 8  79917491.239 7
R04  21829469.945 7  21829477.317 7 116895777.974 7  90919025.645 7
R17  21414090.844 6  21414098.120 5 114591105.960 6  89126453.247 5
R18  19095970.584 8  19095973.926 7 101935595.102 8  79283344.100 7
R19  20947211.454 7  20947214.575 6 112053469.888 7  87152722.448 6
> 2025 06 15 13 05 25.0000000  0 24
C06  39127379.168 6  39127375.915 6 203746522.302 6 157549729.665 6
C12  22197201.965 7  22197199.143 7 115586657.389 7  89490580.099 7
C16  39535113.715 7  39535113.148 6 205869708.255 7 159191523.856 6
C19  23721242.454 7                 123522725.612 7
C21  24503526.479 6                 127596317.582 6
C22  21429064.626 8                 111586766.964 8
E05  22665325.154 7  22665327.077 9 119107090.097 7  90103751.794 9
E06  26290399.707 7  26290402.060 8 138156970.915 7 104514862.437 8
E09  24922959.627 8  24922960.331 8 130971028.609 8  99078738.246 8
E15  26300835.682 7  26300839.027 8 138211829.329 7 104556368.621 8
E34  23333383.874 8  23333385.471 9 122617759.737 8  92759545.990 9
E36  24861808.280 8  24861811.956 8 130649683.670 8  98835646.809 8
G01  20077315.853 8                  20077320.214 8 105507008.685 8                  82213267.157 8
G02  21287502.285 7  21287505.593 6                 111866576.262 7  87168774.396 6
G03  20378989.930 8                  20378996.308 7 107092316.908 8                  83448588.009 7
G17  22581161.754 7                  22581166.216 7 118664806.019 7                  92466359.658 7
G28  23613957.104 7                  23613961.830 6 124092197.819 7                  96695225.666 6
G32  23370110.321 6                  23370121.076 7 122810762.457 6                  95696722.609 7
R02  20960099.938 7  20960105.470 7 111847107.327 7  86992087.656 7
R03  19192867.121 8  19192871.827 7 102740918.860 8  79909813.893 7
R04  21824805.805 7  21824813.060 7 116870799.536 7  90899598.010 7
R17  21416421.616 6  21416427.251 5 114603575.046 6  89136151.396 5
R18  19095346.213 8  19095349.352 7 101932261.957 8  79280751.656 7
R19  20943018.342 6  20943020.460 6 112031036.978 6  87135274.617 6
> 2025 06 15 13 05 30.0000000  0 24
C06  39124999.073 6  39124995.750 6 203734129.868 6 157540147.079 6
C12  22195143.794 7  22195140.628 7 115575939.216 7  89482292.127 7
C16  39532883.531 7  39532882.810 6 205858094.692 7 159182543.524 6
C19  23722495.736 7                 123529253.082 7
C21  24499611.959 7                 127575933.935 7
C22  21427515.361 8                 111578701.650 8
E05  22662539.959 8  22662542.126 9 119092455.276 8  90092680.654 9
E06  26291426.491 7  26291429.148 8 138162368.344 7 104518945.552 8
E09  24922998.020 8  24922998.476 8 130971229.096 8  99078889.920 8
E15  26297312.301 7  26297316.054 8 138193315.933 7 104542363.361 8
E34  23331738.347 8  23331739.937 8 122609112.064 8  92753004.085 8
E36  24862547.495 7  24862550.960 8 130653567.240 7  98838584.706 8
G01  20076081.644 7                  20076086.366 8 105500525.052 7                  82208214.981 8
G02  21288001.529 7  21288004.467 6                 111869198.123 7  87170817.395 6
G03  20376376.172 8                  20376382.677 7 107078581.435 8                  83437885.050 7
G17  22578717.440 7                  22578721.482 7 118651957.613 7                  92456347.924 7
G28  23611178.405 7                  23611183.448 5 124077596.397 7                  96683847.986 5
G32  23371643.954 6                  23371654.784 7 122818819.046 6                  95703000.456 7
R02  20961976.142 8  20961981.216 7 111857118.067 8  86999873.765 7
R03  19191027.085 8  19191031.267 7 102731067.080 8  79902151.394 7
R04  21820141.855 7  21820150.313 7 116845830.614 7  90880177.768 7
R17  21418756.910 6  21418757.708 5 114616055.082 6  89145858.016 5
R18  19094725.139 8  19094728.482 7 101928948.627 8  79278174.620 7
R19  20938827.290 7  20938829.876 6 112008614.662 7  87117835.035 6
> 2025 06 15 13 05 35.0000000  0 24
C06  39122619.586 6  39122616.978 6 203721742.425 6 157530568.340 6
C12  22193087.984 7  22193084.964 7 115565234.480 7  89474014.538 7
C16  39530653.976 7  39530653.550 6 205846486.237 7 159173567.156 6
C19  23723750.555 7                 123535787.377 7
C21  24495699.620 6                 127555556.968 6
C22  21425968.894 7                 111570648.750 7
E05  22659756.781 8  22659759.260 9 119077831.342 8  90081617.740 9
E06  26292455.738 7  26292457.773 8 138167773.787 7 104523034.716 8
E09  24923037.783 8  24923038.758 8 130971440.964 8  99079050.211 8
E15  26293790.081 7  26293793.601 8 138174805.391 7 104528360.264 8
E34  23330094.150 8  23330095.950 8 122600472.819 8  92746468.551 8
E36  24863287.942 8  24863291.283 8 130657457.743 8  98841527.850 8
G01  20074850.711 7                  20074854.995 8 105494055.181 7                  82203173.521 8
G02  21288502.656 7  21288505.195 6                 111871830.988 7  87172868.976 6
G03  20373764.549 8                  20373771.116 7 107064857.430 8                  83427191.018 7
G17  22576274.545 7                  22576279.475 7 118639123.974 7                  92446347.703 7
G28  23608402.843 7                  23608407.828 6 124063008.913 7                  96672481.165 6
G32  23373178.709 6                  23373189.701 7 122826884.934 6                  95709285.588 7
R02  20963853.888 8  20963859.079 7 111867139.834 8  87007668.471 7
R03  19189189.980 7  19189194.635 7 102721234.966 7  79894504.179 7
R04  21815481.716 7  21815489.363 7 116820871.849 7  90860765.402 7
R17  21421093.606 6  21421091.780 5 114628546.713 6  89155573.702 5
R18  19094108.420 8  19094111.130 7 101925655.829 8  79275613.555 7
R19  20934637.565 7  20934641.398 5 111986203.672 7  87100404.318 5
> 2025 06 15 13 05 40.0000000  0 24
C06  39120242.832 6  39120238.823 6 203709359.250 6 157520992.902 6
C12  22191035.758 7  22191031.229 7 115554542.428 7  89465746.759 7
C16  39528425.328 7  39528425.132 6 205834882.222 7 159164594.180 6
C19  23725006.013 7                 123542327.804 7
C21  24491788.220 7                 127535185.986 7
C22  21424425.146 7                 111562607.612 7
E05  22656976.161 8  22656978.330 9 119063217.567 8  90070562.522 9
E06  26293485.679 7  26293487.815 8 138173186.533 7 104527129.421 8
E09  24923079.987 8  24923081.092 8 130971663.489 8  99079218.566 8
E15  26290267.924 7  26290271.572 8 138156297.029 7 104514358.817 8
E34  23328451.613 8  23328453.460 9 122591841.268 8  92739938.838 9
E36  24864029.196 7  24864032.777 8 130661354.456 7  98844475.677 8
G01  20073622.088 7                  20073626.349 8 105487598.354 7                  82198142.230 8
G02  21289005.117 7  21289008.342 6                 111874474.188 7  87174928.604 6
G03  20371155.055 7                  20371161.846 7 107051144.196 7                  83416505.374 7
G17  22573834.590 7                  22573839.469 7 118626304.390 7                  92436358.430 7
G28  23605629.586 7                  23605634.713 6 124048434.652 7                  96661124.637 6
G32  23374715.241 6                  23374726.634 7 122834959.426 6                  95715577.407 7
R02  20965735.152 8  20965739.319 7 111877171.695 8  87015471.030 7
R03  19187357.382 7  19187361.555 7 102711421.788 7  79886871.715 7
R04  21810822.652 7  21810830.543 7 116795922.396 7  90841360.278 7
R17  21423429.387 6  21423428.528 5 114641049.168 6  89165297.793 5
R18  19093495.398 8  19093497.895 7 101922382.893 8  79273067.929 7
R19  20930450.598 7  20930454.471 5 111963803.298 7  87082981.842 5
> 2025 06 15 13 05 45.0000000  0 24
C06  39117864.214 6  39117861.449 6 203696979.511 6 157511420.109 6
C12  22188984.872 7  22188980.524 7 115543862.279 7  89457488.193 7
C16  39526197.185 7  39526197.322 6 205823281.812 7 159155624.024 6
C19  23726263.530 7                 123548873.505 7
C21  24487877.551 7                 127514820.150 7
C22  21422883.570 7                 111554577.332 7
E05  22654196.733 8  22654199.160 9 119048613.132 8  90059514.366 9
E06  26294516.471 7  26294518.986 8 138178605.724 7 104531228.987 8
E09  24923123.906 8  24923125.262 8 130971895.844 8  99079394.347 8
E15  26286746.081 7  26286749.786 8 138137789.949 7 104500358.341 8
E34  23326810.985 8  23326812.252 8 122583216.591 8  92733414.317 8
E36  24864771.906 7  24864775.305 8 130665256.560 7  98847427.585 8
G01  20072395.847 7                  20072400.121 8 105481153.755 7                  82193120.453 8
G02  21289510.071 7  21289513.140 6                 111877126.879 7  87176995.637 6
G03  20368547.373 8                  20368553.954 7 107037440.858 8                  83405827.450 7
G17  22571397.662 7                  22571402.691 7 118613497.998 7                  92426379.434 7
G28  23602858.969 7                  23602863.346 6 124033872.827 7                  96649777.760 6
G32  23376252.738 6                  23376264.159 7 122843041.652 6                  95721875.235 7
R02  20967616.917 8  20967620.859 7 111887212.945 8  87023280.898 7
R03  19185527.812 8  19185532.022 7 102701626.744 8  79879253.338 7
R04  21806166.433 7  21806173.477 7 116770981.777 7  90821962.006 7
R17  21425765.359 6  21425766.831 4 114653561.631 6  89175029.723 4
R18  19092886.753 8  19092888.277 7 101919128.896 8  79270537.029 7
R19  20926264.968 7  20926267.409 6 111941412.580 7  87065566.860 6
> 2025 06 15 13 05 50.0000000  0 24
C06  39115487.762 6  39115485.236 6 203684603.968 6 157501850.573 6
C12  22186936.136 7  22186931.922 7 115533194.744 7  89449239.386 7
C16  39523970.982 7  39523970.697 6 205811685.726 7 159146657.226 6
C19  23727521.234 7                 123555425.219 7
C21  24483968.115 6                 127494460.253 6
C22  21421343.864 7                 111546558.704 7
E05  22651419.866 8  22651421.960 9 119034018.752 8  90048473.820 9
E06  26295548.908 7  26295551.559 8 138184032.118 7 104535334.004 8
E09  24923170.148 8  24923171.429 8 130972138.764 8  99079578.126 8
E15  26283224.562 7  26283228.439 8 138119284.937 7 104486359.423 8
E34  23325171.203 8  23325172.464 8 122574599.521 8  92726895.566 8
E36  24865515.544 8  24865519.084 8 130669164.773 8  98850384.125 8
G01  20071172.009 8                  20071175.925 8 105474722.119 8                  82188108.794 8
G02  21290017.017 7  21290019.825 6                 111879789.786 7  87179070.621 6
G03  20365941.071 8                  20365948.160 7 107023748.220 8                  83395157.862 7
G17  22568963.243 7                  22568968.315 7 118600705.614 7                  92416411.357 7
G28  23600089.749 7                  23600094.535 6 124019324.171 7                  96638441.154 6
G32  23377792.332 6                  23377804.218 7 122851132.356 6                  95728179.664 7
R02  20969499.422 8  20969504.992 7 111897264.231 8  87031098.575 7
R03  19183700.951 8  19183705.071 7 102691850.551 8  79871649.618 7
R04  21801510.906 7  21801516.810 7 116746050.431 7  90802570.959 7
R17  21428105.168 6  21428107.111 5 114666084.935 6  89184770.012 5
R18  19092280.595 8  19092282.580 7 101915894.602 8  79268021.467 7
R19  20922080.471 7  20922082.891 6 111919032.272 7  87048159.964 6
> 2025 06 15 13 05 55.0000000  0 24
C06  39113111.309 6  39113109.317 6 203672232.856 6 157492284.456 6
C12  22184889.846 7  22184886.094 7 115522540.108 7  89441000.550 7
C16  39521745.108 7  39521744.793 6 205800094.203 7 159137693.933 6
C19  23728780.836 7                 123561983.162 7
C21  24480059.647 7                 127474106.448 7
C22  21419806.393 7                 111538551.952 7
E05  22648644.305 8  22648646.705 9 119019434.722 8  90037441.104 9
E06  26296583.492 7  26296585.564 8 138189465.898 7 104539444.618 8
E09  24923217.939 8  24923219.729 8 130972392.494 8  99079770.078 8
E15  26279703.885 7  26279707.416 8 138100782.218 7 104472362.256 8
E34  23323532.839 8  23323534.223 8 122565990.312 8  92720382.749 8
E36  24866260.699 8  24866264.017 8 130673079.359 8  98853345.471 8
G01  20069950.809 7                  20069954.732 8 105468303.680 7                  82183107.411 8
G02  21290525.528 7  21290528.657 6                 111882463.183 7  87181153.784 6
G03  20363338.235 8                  20363344.377 7 107010066.488 8                  83384496.770 7
G17  22566531.882 7                  22566536.409 7 118587927.495 7                  92406454.357 7
G28  23597324.453 7                  23597329.093 6 124004788.910 7                  96627114.991 6
G32  23379333.972 6                  23379345.518 7 122859231.757 6                  95734490.870 7
R02  20971384.697 7  20971390.552 7 111907325.717 7  87038924.157 7
R03  19181879.718 8  19181882.985 7 102682093.527 8  79864060.814 7
R04  21796857.165 7  21796862.952 7 116721128.730 7  90783187.446 7
R17  21430446.467 6  21430448.341 4 114678619.175 6  89194518.839 4
R18  19091677.208 8  19091680.140 7 101912680.228 8  79265521.404 7
R19  20917898.728 7  20917902.117 6 111896662.684 7  87030761.396 6
> 2025 06 15 13 06  0.0000000  0 24
C06  39110736.270 6  39110733.994 6 203659865.567 6 157482721.275 6
C12  22182846.306 7  22182842.628 7 115511897.803 7  89432771.259 7
C16  39519519.058 7  39519519.734 6 205788506.729 7 159128733.755 6
C19  23730041.421 7                 123568546.786 7
C21  24476151.848 7                 127453758.285 7
C22  21418270.754 7                 111530556.496 7
E05  22645871.135 8  22645873.284 8 119004860.466 8  90026415.771 8
E06  26297618.091 7  26297620.918 7 138194906.530 7 104543560.410 7
E09  24923267.974 8  24923269.975 8 130972656.459 8  99079969.764 8
E15  26276182.937 7  26276186.712 8 138082281.278 7 104458366.421 8
E34  23321895.797 8  23321897.399 9 122557388.415 8  92713875.470 9
E36  24867006.404 8  24867010.002 8 130676999.747 8  98856311.216 8
G01  20068731.152 7                  20068735.834 8 105461897.911 7                  82178115.906 8
G02  21291036.047 7  21291039.172 6                 111885146.512 7  87183244.676 6
G03  20360736.652 8                  20360742.803 7 106996395.120 8                  83373843.759 7
G17  22564103.298 7                  22564107.042 7 118575163.023 7                  92396508.007 7
G28  23594559.544 7                  23594565.408 6 123990266.524 7                  96615798.864 6
G32  23380876.953 6                  23380887.272 6 122867339.277 6                  95740808.416 6
R02  20973272.611 8  20973277.283 7 111917396.985 8  87046757.354 7
R03  19180058.986 8  19180063.785 7 102672355.034 8  79856486.435 7
R04  21792205.012 7  21792210.921 7 116696216.157 7  90763810.993 7
R17  21432791.003 5  21432793.058 5 114691163.964 5  89204275.838 5
R18  19091079.370 8  19091081.845 7 101909485.262 8  79263036.443 7
R19  20913718.469 7  20913721.295 6 111874303.289 7  87013370.757 6
> 2025 06 15 13 06  5.0000000  0 24
C06  39108362.839 6  39108359.521 6 203647502.666 6 157473161.514 6
C12  22180804.480 7  22180801.271 7 115501268.326 7  89424551.876 7
C16  39517294.738 7  39517295.205 6 205776923.745 7 159119777.063 6
C19  23731303.004 7                 123575116.549 7
C21  24472244.427 6                 127433416.162 6
C22  21416737.630 8                 111522572.833 8
E05  22643099.830 8  22643101.876 9 118990296.462 8  90015398.190 9
E06  26298654.948 7  26298657.586 7 138200354.512 7 104547681.768 7
E09  24923319.892 8  24923322.251 8 130972931.134 8  99080177.552 8
E15  26272662.906 7  26272666.558 8 138063782.566 7 104444372.278 8
E34  23320260.287 8  23320262.056 9 122548794.286 8  92707374.076 9
E36  24867753.256 7  24867757.209 8 130680926.412 7  98859281.692 8
G01  20067514.812 8                  20067519.472 8 105455505.266 8                  82173134.630 8
G02  21291549.294 7  21291551.786 6                 111887840.233 7  87185343.680 6
G03  20358137.272 7                  20358143.594 7 106982734.586 7                  83363199.184 7
G17  22561677.133 7                  22561681.073 7 118562412.661 7                  92386572.664 7
G28  23591797.646 6                  23591804.906 6 123975757.498 6                  96604493.119 6
G32  23382421.604 6                  23382432.404 6 122875455.444 6                  95747132.657 6
R02  20975161.726 7  20975166.636 7 111927478.416 7  87054598.447 7
R03  19178243.311 8  19178248.300 8 102662635.502 8  79848926.808 8
R04  21787553.998 7  21787559.867 7 116671313.202 7  90744442.056 7
R17  21435142.328 5  21435140.242 5 114703719.410 5  89214041.089 5
R18  19090484.434 8  19090487.367 7 101906310.158 8  79260566.941 7
R19  20909542.239 7  20909543.488 6 111851954.750 7  86995988.528 6
> 2025 06 15 13 06 10.0000000  0 24
C06  39105990.326 6  39105986.678 6 203635144.950 6 157463605.768 6
C12  22178765.677 7  22178762.593 7 115490652.478 7  89416343.028 7
C16  39515071.143 6  39515071.623 6 205765346.082 6 159110824.501 6
C19  23732566.358 7                 123581693.294 7
C21  24468339.123 6                 127413080.991 6
C22  21415206.742 7                 111514601.791 7
E05  22640330.643 8  22640332.579 8 118975743.545 8  90004389.003 8
E06  26299693.878 7  26299695.832 7 138205810.635 7 104551809.271 7
E09  24923374.164 7  24923376.702 8 130973217.364 7  99080394.076 8
E15  26269143.490 7  26269146.917 8 138045286.926 7 104430380.452 8
E34  23318626.583 8  23318628.314 9 122540208.789 8  92700879.207 9
E36  24868501.593 7  24868505.824 8 130684860.180 7  98862257.551 8
G01  20066301.123 8                  20066305.635 8 105449126.590 8                  82168164.233 8
G02  21292064.125 7  21292066.432 6                 111890545.197 7  87187451.423 6
G03  20355540.213 8                  20355546.358 7 106969085.720 8                  83352563.713 7
G17  22559254.112 7                  22559257.393 7 118549677.302 7                  92376649.027 7
G28  23589038.827 6                  23589047.152 6 123961262.721 6                  96593198.498 6
G32  23383967.926 6                  23383978.243 6 122883580.970 6                  95753464.239 6
R02  20977052.721 7  20977057.507 7 111937570.837 7  87062448.109 7
R03  19176431.471 8  19176436.346 8 102652935.991 8  79841382.760 8
R04  21782905.864 7  21782911.433 7 116646420.687 7  90725081.231 7
R17  21437483.218 4  21437488.912 5 114716286.583 4  89223815.612 5
R18  19089893.281 8  19089896.361 7 101903155.798 8  79258113.543 7
R19  20905366.790 7  20905367.849 6 111829617.743 7  86978615.293 6
> 2025 06 15 13 06 15.0000000  0 24
C06  39103617.747 6  39103614.224 6 203622791.609 6 157454053.382 6
C12  22176729.610 7  22176726.471 7 115480049.489 7  89408144.122 7
C16  39512849.149 6  39512849.125 6 205753772.971 6 159101875.454 6
C19  23733829.895 7                 123588276.237 7
C21  24464435.609 6                 127392751.930 6
C22  21413677.756 7                 111506642.604 7
E05  22637563.648 8  22637565.216 9 118961200.960 8  89993387.628 9
E06  26300732.973 7  26300735.457 7 138211274.111 7 104555942.351 7
E09  24923430.730 8  24923433.188 8 130973514.330 8  99080618.725 8
E15  26265623.916 7  26265627.719 8 138026793.616 7 104416390.385 8
E34  23316994.395 8  23316996.024 8 122531631.170 8  92694390.293 8
E36  24869251.565 7  24869255.606 8 130688800.281 7  98865238.203 8
G01  20065089.724 8                  20065094.509 8 105442761.137 8                  82163204.141 8
G02  21292580.966 8  21292582.658 6                 111893260.601 8  87189567.295 6
G03  20352944.852 8                  20352950.786 7 106955447.783 8                  83341936.750 7
G17  22556833.228 7                  22556836.977 7 118536956.207 7                  92366736.485 7
G28  23586283.439 6                  23586291.334 6 123946781.332 6                  96581914.333 6
G32  23385515.802 6                  23385526.442 6 122891715.152 6                  95759802.547 6
R02  20978947.034 8  20978951.220 7 111947673.501 8  87070305.714 7
R03  19174622.691 8  19174628.077 7 102643255.585 8  79833853.569 7
R04  21778259.151 7  21778264.597 7 116621537.751 7  90705727.844 7
R17  21439833.327 5  21439839.936 5 114728864.661 5  89233598.503 5
R18  19089306.006 8  19089309.763 7 101900021.383 8  79255675.656 7
R19  20901193.042 7  20901194.686 6 111807291.548 7  86961250.470 6
> 2025 06 15 13 06 20.0000000  0 23
C06  39101246.534 6  39101242.676 6 203610442.291 6 157444504.111 6
C12  22174695.759 7  22174692.240 7 115469459.021 7  89399954.910 7
C16  39510627.455 6  39510627.876 6 205742204.026 6 159092929.613 6
C19  23735095.246 7                 123594864.929 7
C21  24460533.194 7                 127372428.592 7
C22  21412150.906 7                 111498694.823 7
E05  22634798.113 8  22634799.785 9 118946668.261 8  89982393.744 9
E06  26301774.235 7  26301776.445 7 138216744.502 7 104560080.664 7
E09  24923489.661 7  24923491.648 8 130973821.635 7  99080851.190 8
E15  26262105.307 7  26262108.931 8 138008302.177 7 104402401.733 8
E34  23315363.462 8  23315365.161 9 122523060.969 8  92687906.992 9
E36  24870003.064 7  24870006.548 8 130692746.317 7  98868223.343 8
G01  20063880.974 8                  20063885.449 8 105436408.456 8                  82158254.009 8
G02  21293099.962 8  21293101.573 6                 111895986.011 8  87191690.983 6
G03  20350351.670 8                  20350357.730 7 106941820.314 8                  83331317.946 7
G17  22554414.742 7                  22554418.945 7 118524248.948 7                  92356834.727 7
G28  23583529.248 6                  23583538.130 6 123932313.012 6                  96570640.357 6
G32  23387065.504 6                  23387075.434 6 122899857.538 6                  95766147.265 6
R02  20980841.742 8  20980845.992 7 111957785.859 8  87078170.888 7
R03  19172818.315 8  19172822.652 7 102633593.815 8  79826338.853 7
R04  21773613.253 7  21773618.955 7 116596664.116 7  90686381.707 7
R18  19088722.909 8  19088726.163 7 101896906.521 8  79253252.973 7
R19  20897021.608 7  20897024.204 7 111784975.642 7  86943893.648 7
> 2025 06 15 13 06 25.0000000  0 23
C06  39098875.003 6  39098872.106 6 203598097.176 6 157434958.081 6
C12  22172664.695 7  22172660.570 7 115458881.230 7  89391775.477 7
C16  39508405.839 6  39508407.344 6 205730639.438 6 159083987.159 6
C19  23736361.753 7                 123601459.592 7
C21  24456630.733 7                 127352111.232 7
C22  21410626.911 7                 111490758.696 7
E05  22632034.193 8  22632036.259 9 118932145.696 8  89971407.529 9
E06  26302816.460 7  26302818.811 8 138222222.087 7 104564224.425 8
E09  24923550.322 7  24923552.104 8 130974139.508 7  99081091.648 8
E15  26258586.948 7  26258590.550 8 137989812.866 7 104388414.698 8
E34  23313734.020 8  23313735.735 9 122514498.439 8  92681429.493 9
E36  24870755.001 7  24870758.673 8 130696698.471 7  98871213.124 8
G01  20062674.615 8                  20062679.068 8 105430068.790 8                  82153314.017 8
G02  21293620.483 8  21293622.047 6                 111898721.657 8  87193822.651 6
G03  20347760.267 8                  20347766.506 7 106928203.553 8                  83320707.479 7
G17  22551999.049 7                  22552003.583 7 118511555.710 7                  92346943.903 7
G28  23580778.890 6                  23580787.860 7 123917858.017 6                  96559376.704 7
G32  23388616.558 6                  23388626.831 6 122908008.340 6                  95772498.536 6
R02  20982739.027 8  20982743.136 7 111967908.135 8  87086043.766 7
R03  19171016.643 8  19171021.293 7 102623951.084 8  79818838.947 7
R04  21768969.324 7  21768975.874 7 116571800.017 7  90667042.981 7
R18  19088142.825 8  19088146.220 7 101893811.369 8  79250845.631 7
R19  20892850.601 7  20892854.745 6 111762670.420 7  86926545.149 6
> 2025 06 15 13 06 30.0000000  0 23
C06  39096505.762 6  39096501.961 7 203585756.537 6 157425415.529 7
C12  22170634.610 7  22170631.294 7 115448316.433 7  89383606.089 7
C16  39506186.269 6  39506186.929 6 205719079.479 6 159075048.261 6
C19  23737629.595 7                 123608060.521 7
C21  24452730.638 7                 127331800.100 7
C22  21409105.395 8                 111482834.459 8
E05  22629272.804 8  22629274.713 9 118917633.555 8  89960429.188 9
E06  26303859.931 7  26303862.538 7 138227707.085 7 104568373.782 7
E09  24923612.834 7  24923614.614 8 130974468.174 7  99081340.277 8
E15  26255069.143 7  26255072.649 8 137971325.941 7 104374429.480 8
E34  23312106.223 8  23312107.829 9 122505943.860 8  92674958.012 9
E36  24871508.328 7  24871512.033 8 130700657.026 7  98874207.750 8
G01  20061471.018 8                  20061475.209 8 105423742.409 8                  82148384.381 8
G02  21294143.084 8  21294144.352 6                 111901467.778 8  87195962.492 6
G03  20345171.567 8                  20345177.480 7 106914597.787 8                  83310105.596 7
G17  22549586.290 7                  22549590.940 7 118498876.783 7                  92337064.216 7
G28  23578031.344 6                  23578039.307 7 123903416.485 6                  96548123.564 7
G32  23390169.604 6                  23390179.402 6 122916167.848 6                  95778856.565 6
R02  20984638.603 8  20984641.675 7 111978040.840 8  87093924.771 7
R03  19169218.943 8  19169223.832 7 102614327.270 8  79811353.744 7
R04  21764328.320 7  21764335.179 7 116546945.602 7  90647711.789 7
R18  19087566.608 8  19087570.697 7 101890736.233 8  79248453.856 7
R19  20888682.438 7  20888685.373 6 111740375.987 7  86909205.039 6
> 2025 06 15 13 06 35.0000000  0 24
C06  39094136.611 6  39094133.035 7 203573420.928 6 157415876.876 7
C12  22168609.488 7  22168605.492 7 115437765.154 7  89375447.201 7
C16  39503967.760 6  39503967.992 6 205707524.762 6 159066113.430 6
C19  23738898.484 7                 123614668.244 7
C21  24448830.930 7                 127311495.778 7
C22  21407585.624 7                 111474922.730 7
E05  22626513.496 8  22626515.322 9 118903132.390 8  89949459.159 9
E06  26304904.419 7  26304907.865 7 138233200.095 7 104572529.189 7
E09  24923677.044 7  24923679.292 8 130974808.227 7  99081597.522 8
E15  26251552.400 7  26251555.234 8 137952842.007 7 104360446.500 8
E34  23310480.194 8  23310481.558 9 122497397.784 8  92668492.962 9
E36  24872262.960 7  24872266.724 8 130704622.561 7  98877207.642 8
G01  20060269.716 8                  20060274.277 8 105417429.896 8                  82143465.550 8
G02  21294667.493 8  21294668.868 6                 111904225.001 8  87198110.967 6
G03  20342584.585 8                  20342590.686 7 106901003.601 8                  83299512.720 7
G17  22547176.079 7                  22547181.180 7 118486212.721 7                  92327196.140 7
G28  23575285.978 6                  23575294.298 7 123888989.165 6                  96536881.455 7
G32  23391723.877 6                  23391734.080 6 122924336.590 6                  95785221.817 6
R02  20986539.577 8  20986542.461 7 111988184.342 8  87101814.160 7
R03  19167425.004 8  19167429.588 7 102604723.418 8  79803884.085 7
R04  21759690.002 7  21759695.313 7 116522101.679 7  90628388.733 7
R17  21449251.912 4                 114779285.40014
R18  19086994.993 8  19086998.624 7 101887681.742 8  79246078.122 7
R19  20884517.082 7  20884519.755 6 111718093.221 7  86891873.981 6
> 2025 06 15 13 06 40.0000000  0 24
C06  39091768.604 6  39091765.001 6 203561089.319 6 157406341.313 6
C12  22166586.158 7  22166581.396 7 115427226.334 7  89367297.919 7
C16  39501749.539 6  39501749.469 6 205695974.145 6 159057181.771 6
C19  23740169.452 7                 123621281.668 7
C21  24444932.097 7                 127291197.192 7
C22  21406069.596 7                 111467022.353 7
E05  22623755.940 8  22623757.814 9 118888641.128 8  89938496.621 9
E06  26305951.295 7  26305954.475 7 138238699.945 7 104576689.789 7
E09  24923744.535 7  24923745.928 8 130975158.584 7  99081862.550 8
E15  26248035.019 7  26248038.308 8 137934359.932 7 104346464.940 8
E34  23308855.226 8  23308856.700 9 122488859.139 8  92662033.535 9
E36  24873018.666 8  24873022.487 8 130708593.984 8  98880212.006 8
G01  20059070.565 8                  20059075.499 8 105411130.157 8                  82138556.657 8
G02  21295193.968 8  21295195.576 6                 111906992.180 8  87200267.207 6
G03  20339999.231 8                  20340005.739 7 106887419.853 8                  83288927.987 7
G17  22544768.872 7                  22544773.837 7 118473562.475 7                  92317338.791 7
G28  23572544.971 6                  23572551.124 7 123874574.892 6                  96525649.541 7
G32  23393280.288 5                  23393289.268 6 122932513.452 5                  95791593.380 6
R02  20988441.636 8  20988444.814 7 111998337.387 8  87109710.962 7
R03  19165634.986 8  19165638.789 7 102595138.468 8  79796429.124 7
R04  21755052.569 7  21755057.332 7 116497266.889 7  90609072.813 7
R17  21451616.115 5  21451626.337 5 114791917.579 5  89282665.00715
R18  19086426.567 8  19086429.683 7 101884646.738 8  79243717.563 7
R19  20880354.139 7  20880357.001 6 111695820.856 7  86874551.038 6
> 2025 06 15 13 06 45.0000000  0 24
C06  39089400.621 6  39089397.690 6 203548762.517 6 157396809.446 6
C12  22164564.347 7  22164560.315 7 115416700.879 7  89359158.980 7
C16  39499531.765 6  39499532.481 6 205684428.543 6 159048253.968 6
C19  23741441.389 7                 123627901.682 7
C21  24441035.862 7                 127270905.177 7
C22  21404554.430 7                 111459134.273 7
E05  22620999.958 8  22621002.320 9 118874160.645 8  89927542.242 9
E06  26306999.187 6  26307002.512 7 138244207.603 6 104580856.281 7
E09  24923813.317 7  24923814.725 8 130975520.080 7  99082136.015 8
E15  26244518.114 7  26244521.743 8 137915880.607 7 104332485.469 8
E34  23307231.497 8  23307233.441 9 122480328.809 8  92655580.399 9
E36  24873776.301 8  24873779.503 8 130712572.185 8  98883221.479 8
G01  20057874.552 7                  20057879.379 8 105404844.083 7                  82133658.426 8
G02  21295722.311 8  21295724.020 6                 111909770.241 8  87202431.926 6
G03  20337416.610 8                  20337423.253 7 106873847.474 8                  83278352.113 7
G17  22542364.050 7                  22542368.821 7 118460926.896 7                  92307492.925 7
G28  23569804.431 6                  23569810.841 7 123860174.528 6                  96514428.476 7
G32  23394837.523 5                  23394846.893 6 122940699.320 5                  95797971.943 6
R02  20990346.235 8  20990349.597 7 112008501.109 8  87117616.063 7
R03  19163848.231 8  19163851.479 7 102585572.783 8  79788989.144 7
R04  21750414.872 7  21750422.249 7 116472442.271 7  90589764.829 7
R17  21453979.403 6  21453987.765 5 114804560.957 6  89292498.741 5
R18  19085861.602 8  19085865.056 7 101881632.127 8  79241372.874 7
R19  20876190.754 7  20876194.474 6 111673559.749 7  86857236.871 6
> 2025 06 15 13 06 50.0000000  0 24
C06  39087034.306 6  39087031.150 6 203536440.289 6 157387281.127 6
C12  22162545.940 7  22162541.973 7 115406188.510 7  89351030.161 7
C16  39497315.284 6  39497316.005 6 205672887.641 6 159039329.828 6
C19  23742713.024 7                 123634527.976 7
C21  24437140.332 7                 127250619.480 7
C22  21403042.013 7                 111451258.152 7
E05  22618246.123 8  22618248.823 9 118859690.661 8  89916595.803 9
E06  26308048.682 7  26308052.042 7 138249722.690 7 104585028.394 7
E09  24923884.978 7  24923885.565 8 130975892.432 7  99082417.694 8
E15  26241001.506 7  26241005.686 8 137897403.787 7 104318507.888 8
E34  23305610.067 8  23305611.659 9 122471806.493 8  92649133.320 9
E36  24874534.510 8  24874537.764 8 130716556.845 8  98886235.840 8
G01  20056681.272 7                  20056685.869 8 105398571.385 7                  82128770.597 8
G02  21296253.470 8  21296254.473 6                 111912558.876 8  87204604.876 6
G03  20334835.771 8                  20334842.570 7 106860286.181 8                  83267784.875 7
G17  22539962.882 7                  22539966.720 7 118448305.758 7                  92297658.256 7
G28  23567066.675 6                  23567073.919 7 123845787.811 6                  96503218.072 7
G32  23396396.017 5                  23396405.593 6 122948893.861 5                  95804357.313 6
R02  20992252.573 8  20992256.825 7 112018675.031 8  87125529.108 7
R03  19162064.696 8  19162068.182 7 102576026.343 8  79781564.150 7
R04  21745781.723 7  21745788.131 7 116447627.703 7  90570464.573 7
R17  21456344.131 6  21456353.687 5 114817215.387 6  89302341.072 5
R18  19085301.158 8  19085304.152 7 101878637.686 8  79239043.868 7
R19  20872032.261 7  20872035.650 6 111651309.767 7  86839931.354 6
> 2025 06 15 13 06 55.0000000  0 24
C06  39084668.968 6  39084665.711 6 203524122.338 6 157377756.107 6
C12  22160529.309 7  22160525.419 7 115395688.889 7  89342911.182 7
C16  39495100.382 6  39495101.066 6 205661351.135 6 159030409.079 6
C19  23743987.458 7                 123641160.220 7
C21  24433246.161 7                 127230339.802 7
C22  21401532.256 7                 111443393.685 7
E05  22615494.445 8  22615497.160 9 118845230.866 8  89905657.062 9
E06  26309099.310 7  26309102.888 7 138255244.932 7 104589205.929 7
E09  24923957.149 7  24923958.461 8 130976275.348 7  99082707.360 8
E15  26237485.288 7  26237490.082 8 137878929.140 7 104304531.954 8
E34  23303990.068 8  23303991.326 8 122463291.905 8  92642692.098 8
E36  24875293.405 8  24875297.165 8 130720547.654 8  98889254.854 8
G01  20055490.118 8                  20055494.320 8 105392311.747 8                  82123892.938 8
G02  21296785.853 8  21296787.225 6                 111915357.756 8  87206785.829 6
G03  20332257.222 8                  20332264.006 7 106846735.610 8                  83257225.989 7
G17  22537563.580 7                  22537567.553 6 118435698.739 7                  92287834.645 6
G28  23564330.297 6                  23564338.377 7 123831414.456 6                  96492018.085 7
G32  23397958.479 5                  23397966.943 6 122957096.855 5                  95810749.180 6
R02  20994161.264 8  20994165.239 7 112028858.960 8  87133449.930 7
R03  19160284.570 8  19160288.440 7 102566498.820 8  79774153.862 7
R04  21741150.611 7  21741155.871 7 116422822.702 7  90551171.832 7
R17  21458713.171 6  21458721.502 4 114829880.476 6  89312191.667 4
R18  19084744.045 8  19084746.710 7 101875663.026 8  79236730.242 7
R19  20867872.891 7  20867878.820 6 111629070.557 7  86822634.227 6
> 2025 06 15 13 07  0.0000000  0 24
C06  39082304.569 6  39082301.240 7 203511809.033 6 157368234.700 7
C12  22158515.510 7  22158511.714 7 115385202.467 7  89334802.418 7
C16  39492885.418 7  39492886.225 6 205649819.434 7 159021492.025 6
C19  23745261.944 7                 123647798.796 7
C21  24429352.869 7                 127210066.529 7
C22  21400023.919 7                 111435541.292 7
E05  22612745.005 8  22612747.519 9 118830781.639 8  89894726.322 9
E06  26310152.244 7  26310155.246 8 138260774.687 7 104593389.132 8
E09  24924031.106 7  24924033.393 8 130976669.164 7  99083005.278 8
E15  26233970.651 7  26233974.947 8 137860457.051 7 104290557.949 8
E34  23302371.159 8  23302372.637 9 122454785.422 8  92636257.005 9
E36  24876054.101 8  24876057.830 8 130724545.018 8  98892278.834 8
G01  20054301.592 8                  20054305.795 8 105386065.549 8                  82119025.774 8
G02  21297319.804 8  21297321.457 6                 111918167.259 8  87208975.052 6
G03  20329680.489 8                  20329687.545 7 106833196.222 8                  83246675.813 7
G17  22535166.492 7                  22535171.543 7 118423106.186 7                  92278022.266 7
G28  23561597.363 6                  23561605.275 7 123817054.844 6                  96480828.822 7
G32  23399521.975 6                  23399530.720 6 122965308.607 6                  95817147.979 6
R02  20996071.104 8  20996075.645 7 112039053.110 8  87141378.695 7
R03  19158508.006 8  19158512.036 7 102556990.656 8  79766758.641 7
R04  21736520.618 7  21736525.623 7 116398027.713 7  90531886.847 7
R17  21461080.633 6  21461091.342 5 114842556.560 6  89322050.858 5
R18  19084190.726 8  19084193.447 7 101872708.500 8  79234432.278 7
R19  20863717.835 7  20863723.578 6 111606842.434 7  86805345.689 6
> 2025 06 15 13 07  5.0000000  0 24
C06  39079940.255 6  39079937.755 7 203499500.844 6 157358717.236 7
C12  22156504.297 7  22156500.499 7 115374729.676 7  89326704.184 7
C16  39490671.939 7  39490672.584 6 205638293.022 7 159012579.086 6
C19  23746537.824 7                 123654444.224 7
C21  24425460.894 7                 127189800.157 7
C22  21398518.233 7                 111427701.441 7
E05  22609997.443 8  22609999.968 9 118816343.514 8  89883803.986 9
E06  26311205.868 7  26311209.144 7 138266312.463 7 104597578.425 7
E09  24924108.633 7  24924110.562 8 130977074.439 7  99083311.868 8
E15  26230456.865 7  26230460.457 8 137841988.038 7 104276586.257 8
E34  23300754.553 8  23300755.537 9 122446287.554 8  92629828.418 9
E36  24876816.532 7  24876819.875 8 130728549.446 7  98895308.144 8
G01  20053115.669 8                  20053119.894 8 105379833.313 8                  82114169.484 8
G02  21297856.433 7  21297858.732 6                 111920987.961 7  87211172.992 6
G03  20327106.638 8                  20327113.011 7 106819668.450 8                  83236134.711 7
G17  22532772.900 7                  22532778.269 7 118410528.720 7                  92268221.632 7
G28  23558867.820 6                  23558875.173 7 123802709.559 6                  96469650.695 7
G32  23401085.071 6                  23401094.154 6 122973529.630 6                  95823553.944 6
R02  20997983.071 7  20997988.009 7 112049258.027 7  87149315.812 7
R03  19156735.681 8  19156739.933 7 102547502.303 8  79759378.820 7
R04  21731892.283 7  21731896.727 7 116373243.104 7  90512609.939 7
R17  21463452.241 6  21463463.425 4 114855244.253 6  89331919.090 4
R18  19083640.811 8  19083643.340 7 101869774.685 8  79232150.437 7
R19  20859566.344 7  20859569.376 6 111584626.104 7  86788066.287 6
> 2025 06 15 13 07 10.0000000  0 24
C06  39077577.762 6  39077574.929 6 203487197.546 6 157349203.555 6
C12  22154495.495 7  22154491.982 7 115364270.295 7  89318616.340 7
C16  39488459.606 6  39488460.329 6 205626771.642 6 159003670.054 6
C19  23747815.236 7                 123661096.249 7
C21  24421570.181 7                 127169540.438 7
C22  21397014.350 7                 111419873.867 7
E05  22607251.830 8  22607254.558 9 118801916.206 8  89872889.824 9
E06  26312260.948 7  26312264.355 7 138271857.971 7 104601773.559 7
E09  24924187.809 7  24924189.857 8 130977490.879 7  99083626.882 8
E15  26226942.374 7  26226946.478 8 137823521.849 7 104262616.723 8
E34  23299138.502 8  23299139.997 9 122437798.065 8  92623406.185 9
E36  24877579.474 8  24877583.154 8 130732560.663 8  98898342.608 8
G01  20051931.977 8                  20051936.602 8 105373614.781 8                  82109323.877 8
G02  21298395.829 7  21298397.603 6                 111923819.511 7  87213379.388 6
G03  20324534.120 8                  20324541.198 7 106806152.078 8                  83225602.476 7
G17  22530383.277 7                  22530387.621 7 118397965.989 7                  92258432.488 7
G28  23556139.586 6                  23556147.776 7 123788378.340 6                  96458483.486 7
G32  23402651.862 6                  23402659.892 6 122981759.520 6                  95829966.821 6
R02  20999897.869 8  20999902.437 7 112059473.545 8  87157261.205 7
R03  19154966.411 8  19154971.343 7 102538033.604 8  79752014.279 7
R04  21727265.802 7  21727270.858 7 116348468.799 7  90493341.079 7
R17  21465826.009 5                 114867943.126 5
R18  19083094.206 8  19083097.432 7 101866861.291 8  79229884.470 7
R19  20855415.001 7  20855418.152 6 111562421.183 7  86770795.803 6
> 2025 06 15 13 07 15.0000000  0 24
C06  39075215.259 6  39075212.620 6 203474897.850 6 157339692.647 6
C12  22152489.506 7  22152485.582 7 115353823.078 7  89310537.872 7
C16  39486247.398 7  39486248.761 6 205615254.047 7 158994763.918 6
C19  23749093.232 7                 123667753.549 7
C21  24417681.000 7                 127149286.133 7
C22  21395513.823 7                 111412057.300 7
E05  22604508.695 8  22604510.932 9 118787498.474 8  89861982.904 9
E06  26313317.759 7  26313320.865 7 138277409.990 7 104605973.609 7
E09  24924269.361 7  24924271.028 8 130977917.179 7  99083949.380 8
E15  26223427.956 7  26223432.752 8 137805057.194 7 104248648.352 8
E34  23297524.087 8  23297525.776 9 122429315.652 8  92616989.291 9
E36  24878344.346 8  24878347.430 8 130736577.383 8  98901381.221 8
G01  20050750.757 7                  20050755.468 8 105367408.696 7                  82104487.970 8
G02  21298936.054 7  21298939.091 6                 111926660.672 7  87215593.267 6
G03  20321964.467 8                  20321971.027 7 106792645.830 8                  83215078.122 7
G17  22527994.917 7                  22527999.720 7 118385416.719 7                  92248653.826 7
G28  23553415.860 6                  23553422.267 6 123774059.893 6                  96447326.243 6
G32  23404219.745 6                  23404227.269 6 122989997.194 6                  95836385.770 6
R02  21001814.391 8  21001818.455 7 112069698.095 8  87165213.618 7
R03  19153201.460 8  19153205.953 7 102528583.296 8  79744664.032 7
R04  21722640.866 7  21722646.015 7 116323703.480 7  90474079.192 7
R17  21468200.027 5                 114880651.951 5
R18  19082552.272 8  19082554.847 7 101863967.073 8  79227633.404 7
R19  20851266.303 7  20851269.066 6 111540226.438 7  86753533.202 6
> 2025 06 15 13 07 20.0000000  0 24
C06  39072855.371 6  39072851.002 6 203462601.646 6 157330184.459 6
C12  22150485.265 7  22150481.610 7 115343387.813 7  89302468.674 7
C16  39484037.013 7  39484037.842 6 205603740.050 7 158985860.580 6
C19  23750372.302 7                 123674415.997 7
C21  24413791.850 7                 127129037.075 7
C22  21394014.408 7                 111404251.610 7
E05  22601766.569 8  22601769.049 9 118773090.144 8  89851083.100 9
E06  26314376.205 7  26314378.615 7 138282968.304 7 104610178.436 7
E09  24924352.215 7  24924353.984 8 130978353.195 7  99084279.228 8
E15  26219915.009 7  26219919.361 8 137786593.946 7 104234681.029 8
E34  23295911.529 8  23295912.954 9 122420840.166 8  92610577.647 9
E36  24879109.195 8  24879112.754 8 130740599.441 8  98904423.878 8
G01  20049572.337 8                  20049576.975 8 105361214.868 8                  82099661.599 8
G02  21299479.104 7  21299481.063 6                 111929511.259 7  87217814.505 6
G03  20319395.858 8                  20319402.386 7 106779149.544 8                  83204561.533 7
G17  22525609.180 7                  22525613.895 7 118372880.816 7                  92238885.582 7
G28  23550694.413 6                  23550699.634 6 123759753.991 6                  96436178.767 6
G32  23405789.813 6                  23405796.578 6 122998242.338 6                  95842810.577 6
R02  21003732.538 8  21003736.209 7 112079931.778 8  87173173.140 7
R03  19151439.564 8  19151443.582 7 102519150.813 8  79737327.661 7
R04  21718018.078 7  21718022.748 7 116298946.990 7  90454824.198 7
R17  21470574.251 6                 114893370.534 6
R18  19082013.332 8  19082016.624 7 101861091.888 8  79225397.172 7
R19  20847118.874 7  20847122.651 6 111518041.745 7  86736278.401 6
> 2025 06 15 13 07 25.0000000  0 24
C06  39070493.763 6  39070490.740 6 203450308.895 6 157320678.931 6
C12  22148483.985 7  22148480.160 7 115332964.630 7  89294408.815 7
C16  39481826.959 7  39481827.388 6 205592229.725 7 158976960.061 6
C19  23751653.754 7                 123681083.605 7
C21  24409903.971 7                 127108793.333 7
C22  21392517.330 7                 111396456.828 7
E05  22599026.915 8  22599029.076 9 118758691.275 8  89840190.455 9
E06  26315434.967 7  26315437.475 7 138288532.957 7 104614388.043 7
E09  24924437.286 7  24924438.873 8 130978798.973 7  99084616.447 8
E15  26216401.937 7  26216406.227 8 137768132.139 7 104220714.790 8
E34  23294299.862 8  23294301.468 9 122412371.663 8  92604171.281 9
E36  24879875.982 8  24879879.155 8 130744626.920 8  98907470.626 8
G01  20048396.235 8                  20048400.421 8 105355033.386 8                  82094844.862 8
G02  21300023.366 8  21300025.826 6                 111932371.331 8  87220043.105 6
G03  20316829.625 8                  20316836.212 7 106765663.285 8                  83194052.774 7
G17  22523226.748 7                  22523231.317 7 118360358.342 7                  92229127.820 7
G28  23547973.808 7                  23547979.970 6 123745460.813 7                  96425041.234 6
G32  23407357.715 6                  23407367.078 6 123006495.060 6                  95849241.257 6
R02  21005650.989 8  21005655.843 7 112090174.507 8  87181139.716 7
R03  19149681.281 8  19149685.187 8 102509736.494 8  79730005.402 8
R04  21713395.238 7  21713401.860 7 116274199.420 7  90435576.117 7
R17  21472956.885 6  21472958.521 4 114906098.960 6  89371433.69214
R18  19081479.091 8  19081481.496 7 101858235.694 8  79223175.670 7
R19  20842973.217 7  20842978.037 6 111495867.154 7  86719031.514 6
> 2025 06 15 13 07 30.0000000  0 24
C06  39068133.089 6  39068130.482 6 203438020.760 6 157311176.978 6
C12  22146484.514 7  22146481.040 7 115322554.565 7  89286359.063 7
C16  39479616.716 6  39479618.070 6 205580724.153 6 158968063.234 6
C19  23752934.156 7                 123687757.423 7
C21  24406018.204 6                 127088555.911 6
C22  21391022.705 7                 111388674.003 7
E05  22596289.216 8  22596291.098 9 118744302.933 8  89829305.775 9
E06  26316494.741 7  26316497.884 7 138294105.021 7 104618603.250 7
E09  24924524.568 7  24924525.769 8 130979255.590 7  99084961.861 8
E15  26212889.299 7  26212893.513 8 137749672.855 7 104206750.472 8
E34  23292689.717 8  23292691.511 9 122403911.236 8  92597771.026 9
E36  24880643.329 8  24880646.721 8 130748660.876 8  98910522.290 8
G01  20047222.244 8                  20047226.551 8 105348865.294 8                  82090038.572 8
G02  21300569.487 8  21300572.098 6                 111935241.958 8  87222279.966 6
G03  20314265.271 8                  20314272.500 7 106752188.130 8                  83183552.658 7
G17  22520846.299 7                  22520850.632 7 118347850.352 7                  92219381.328 7
G28  23545257.278 6                  23545262.940 6 123731181.368 6                  96413914.396 6
G32  23408930.671 6                  23408939.014 6 123014756.441 6                  95855678.679 6
R02  21007573.293 8  21007576.568 7 112100427.240 8  87189114.063 7
R03  19147925.233 8  19147929.582 7 102500341.415 8  79722698.114 7
R04  21708774.088 7  21708781.577 7 116249461.867 7  90416335.828 7
R17  21475336.315 6  21475341.355 3 114918838.290 6  89381342.214 3
R18  19080947.404 8  19080950.506 7 101855399.638 8  79220969.826 7
R19  20838830.478 7  20838833.990 6 111473703.829 7  86701793.357 6
> 2025 06 15 13 07 35.0000000  0 24
C06  39065774.603 6  39065771.396 6 203425737.147 6 157301678.512 6
C12  22144488.288 7  22144483.709 7 115312157.498 7  89278319.404 7
C16  39477408.380 6  39477409.814 6 205569223.180 6 158959169.963 6
C19  23754217.714 7                 123694437.381 7
C21  24402132.352 6                 127068324.802 6
C22  21389530.442 7                 111380903.070 7
E05  22593552.958 8  22593555.068 8 118729925.031 8  89818428.991 8
E06  26317556.203 7  26317559.662 7 138299684.436 7 104622823.997 7
E09  24924613.768 7  24924614.745 8 130979722.903 7  99085315.388 8
E15  26209376.821 7  26209381.364 8 137731216.010 7 104192787.994 8
E34  23291081.135 8  23291083.014 8 122395458.780 8  92591376.795 8
E36  24881412.246 8  24881415.512 8 130752701.192 8  98913578.758 8
G01  20046051.647 8                  20046055.069 8 105342710.521 8                  82085242.637 8
G02  21301117.216 8  21301120.522 6                 111938123.041 8  87224524.965 6
G03  20311702.863 8                  20311709.485 7 106738723.941 8                  83173061.095 7
G17  22518469.153 7                  22518473.098 7 118335356.725 7                  92209646.043 7
G28  23542542.348 6                  23542547.878 6 123716915.585 6                  96402798.205 6
G32  23410503.402 6                  23410511.602 6 123023026.333 6                  95862122.772 6
R02  21009496.244 8  21009499.735 7 112110690.189 8  87197096.376 7
R03  19146174.596 8  19146178.537 8 102490965.520 8  79715405.774 8
R04  21704156.582 7  21704163.920 7 116224734.203 7  90397103.223 7
R17  21477719.518 6                 114931588.492 6
R18  19080418.887 8  19080422.928 7 101852583.592 8  79218779.571 7
R19  20834688.869 7  20834692.624 6 111451551.479 7  86684563.755 6
> 2025 06 15 13 07 40.0000000  0 24
C06  39063416.022 6  39063413.060 6 203413456.860 6 157292182.625 6
C12  22142493.566 7  22142489.389 7 115301772.367 7  89270288.947 7
C16  39475200.722 7  39475201.834 6 205557725.700 7 158950279.403 6
C19  23755501.355 7                 123701122.330 7
C21  24398248.258 7                 127048098.813 7
C22  21388040.307 7                 111373142.814 7
E05  22590818.791 8  22590820.732 9 118715556.436 8  89807559.252 9
E06  26318620.766 7  26318622.609 8 138305269.924 7 104627049.388 8
E09  24924704.051 7  24924705.582 8 130980199.809 7  99085676.162 8
E15  26205864.953 7  26205869.349 8 137712760.445 7 104178826.485 8
E34  23289473.995 8  23289475.775 9 122387013.118 8  92584987.719 9
E36  24882181.998 8  24882185.280 8 130756746.716 8  98916639.174 8
G01  20044881.985 8                  20044886.511 8 105336567.888 8                  82080456.181 8
G02  21301667.362 7  21301670.432 6                 111941013.420 7  87226777.205 6
G03  20309142.748 8                  20309149.428 7 106725269.624 8                  83162577.191 7
G17  22516095.034 7                  22516098.206 7 118322876.334 7                  92199921.064 7
G28  23539830.069 6                  23539835.395 6 123702662.341 6                  96391691.779 6
G32  23412079.117 5                  23412087.444 5 123031303.608 5                  95868572.540 5
R02  21011421.346 8  21011424.475 7 112120961.856 8  87205085.407 7
R03  19144426.168 8  19144430.255 7 102481607.593 8  79708127.378 7
R04  21699540.946 7  21699548.025 7 116200015.339 7  90377877.434 7
R17  21480103.531 6                 114944348.166 6
R18  19079895.268 8  19079898.975 7 101849786.478 8  79216604.047 7
R19  20830549.676 7  20830553.270 6 111429409.127 7  86667341.938 6
> 2025 06 15 13 07 45.0000000  0 24
C06  39061059.225 6  39061056.057 6 203401180.371 6 157282689.687 6
C12  22140499.636 6  22140497.558 7 115291399.622 6  89262268.072 7
C16  39472993.396 7  39472994.458 6 205546232.222 7 158941391.907 6
C19  23756786.302 7                 123707812.691 7
C21  24394366.114 7                 127027878.429 7
C22  21386552.272 7                 111365393.778 7
E05  22588086.315 8  22588088.329 9 118701197.624 8  89796696.918 9
E06  26319683.630 6  26319686.817 7 138310862.046 6 104631279.790 7
E09  24924796.448 7  24924798.262 8 130980686.713 7  99086044.507 8
E15  26202353.467 7  26202357.645 8 137694306.643 7 104164866.303 8
E34  23287868.048 8  23287870.046 9 122378574.795 8  92578604.177 9
E36  24882953.072 8  24882956.165 8 130760797.957 8  98919703.907 8
G01  20043715.228 8                  20043719.813 8 105330437.933 8                  82075679.580 8
G02  21302220.087 8  21302222.103 6                 111943913.576 8  87229037.067 6
G03  20306584.793 8                  20306591.177 7 106711825.634 8                  83152101.357 7
G17  22513721.066 7                  22513726.564 7 118310409.670 7                  92190206.775 7
G28  23537121.736 7                  23537126.007 6 123688422.112 7                  96380595.496 6
G32  23413657.643 6                  23413663.570 6 123039588.593 6                  95875028.368 6
R02  21013348.441 8  21013351.164 7 112131242.702 8  87213081.622 7
R03  19142681.614 8  19142686.013 7 102472268.189 8  79700863.396 7
R04  21694928.731 7  21694933.649 7 116175305.587 7  90358658.754 7
R17  21482492.455 6  21482492.726 3 114957118.067 6  89411115.00313
R18  19079375.468 8  19079378.521 7 101847008.660 8  79214443.501 7
R19  20826412.347 7  20826416.136 6 111407277.206 7  86650128.288 6
> 2025 06 15 13 07 50.0000000  0 24
C06  39058702.230 6  39058698.991 6 203388908.227 6 157273200.080 6
C12  22138511.536 7  22138507.250 7 115281039.741 7  89254257.166 7
C16  39470787.231 7  39470788.002 6 205534743.249 7 158932507.896 6
C19  23758072.343 7                 123714509.036 7
C21  24390483.845 7                 127007664.185 7
C22  21385065.617 7                 111357656.484 7
E05  22585355.794 8  22585357.818 8 118686849.134 8  89785842.388 8
E06  26320749.732 6  26320752.452 7 138316461.288 6 104635515.589 7
E09  24924891.491 7  24924893.032 8 130981184.235 7  99086420.884 8
E15  26198841.759 7  26198846.548 8 137675855.161 7 104150907.885 8
E34  23286264.124 8  23286265.715 8 122370144.311 8  92572226.567 8
E36  24883725.132 8  24883728.145 8 130764855.409 8  98922773.330 8
G01  20042551.640 8                  20042555.784 8 105324321.145 8                  82070913.269 8
G02  21302773.336 8  21302775.561 6                 111946824.042 8  87231304.953 6
G03  20304028.193 8                  20304035.258 7 106698392.499 8                  83141633.986 7
G17  22511351.608 7                  22511356.222 7 118297957.264 7                  92180503.593 7
G28  23534412.404 7                  23534418.554 6 123674195.438 7                  96369509.793 6
G32  23415234.196 6                  23415242.380 6 123047881.977 6                  95881490.772 6
R02  21015276.539 8  21015279.948 7 112141533.404 8  87221085.497 7
R03  19140940.523 8  19140945.024 7 102462947.743 8  79693614.159 7
R04  21690315.623 7  21690321.518 7 116150605.698 7  90339447.732 7
R17  21484881.413 5  21484881.021 3 114969898.395 5  89421055.036 3
R18  19078858.850 8  19078861.590 7 101844250.755 8  79212298.458 7
R19  20822277.019 6  20822281.305 6 111385156.282 6  86632923.146 6
> 2025 06 15 13 07 55.0000000  0 24
C06  39056346.336 6  39056343.004 6 203376640.589 6 157263713.968 6
C12  22136524.469 7  22136520.148 7 115270692.926 7  89246256.338 7
C16  39468580.828 6  39468582.602 6 205523258.893 6 158923627.478 6
C19  23759358.738 7                 123721211.502 7
C21  24386602.660 7                 126987456.273 7
C22  21383581.833 7                 111349931.052 7
E05  22582627.889 8  22582629.369 9 118672511.107 8  89774995.772 9
E06  26321816.552 6  26321819.439 7 138322067.875 6 104639756.916 7
E09  24924987.489 7  24924989.765 8 130981692.445 7  99086805.344 8
E15  26195331.237 7  26195335.768 8 137657406.133 7 104136951.315 8
E34  23284661.280 8  23284662.935 9 122361721.805 8  92565855.000 9
E36  24884498.153 7  24884501.378 8 130768919.261 7  98925847.615 8
G01  20041389.529 8                  20041394.468 8 105318217.700 8                  82066157.329 8
G02  21303329.694 8  21303331.562 6                 111949744.971 8  87233581.014 6
G03  20301474.249 8                  20301481.301 7 106684970.361 8                  83131175.191 7
G17  22508984.883 7                  22508989.794 6 118285519.299 7                  92170811.709 6
G28  23531708.787 7                  23531714.168 7 123659982.497 7                  96358434.793 7
G32  23416814.102 6                  23416821.830 6 123056183.864 6                  95887959.733 6
R02  21017206.475 8  21017210.144 7 112151834.165 8  87229097.209 7
R03  19139202.911 8  19139207.027 8 102453646.340 8  79686379.723 8
R04  21685705.317 7  21685710.446 7 116125915.757 7  90320244.438 7
R17  21487272.737 5  21487270.442 3 114982689.462 5  89431003.752 3
R18  19078346.020 8  19078348.932 7 101841512.896 8  79210169.016 7
R19  20818145.114 7  20818147.605 6 111363046.609 7  86615726.705 6
> 2025 06 15 13 08  0.0000000  0 23
C06  39053991.673 6  39053988.191 6 203364377.816 6 157254231.640 6
C12  22134539.139 7  22134535.717 7 115260359.515 7  89238265.889 7
C16  39466376.450 6  39466378.470 6 205511779.508 6 158914750.901 6
C19  23760648.235 7                 123727920.349 7
C21  24382724.148 7                 126967254.962 7
C22  21382100.523 7                 111342217.808 7
E05  22579901.908 8  22579903.074 9 118658183.883 8  89764157.316 9
E06  26322885.670 6  26322887.717 8 138327681.981 6 104644003.966 8
E09  24925086.169 7  24925088.490 8 130982211.669 7  99087198.127 8
E15  26191821.206 7  26191825.540 8 137638959.896 7 104122996.879 8
E34  23283060.679 8  23283061.723 9 122353307.635 8  92559489.729 9
E36  24885273.561 8  24885276.090 8 130772989.789 8  98928926.940 8
G01  20040230.576 7                  20040235.748 8 105312127.936 7                  82061412.051 8
G02  21303887.395 8  21303889.155 6                 111952676.693 8  87235865.447 6
G03  20298921.789 8                  20298928.922 7 106671559.601 8                  83120725.255 7
G17  22506620.565 7                  22506626.016 7 118273096.082 7                  92161131.280 7
G28  23529007.342 7                  23529012.784 6 123645783.639 7                  96347370.741 6
G32  23418396.492 6                  23418402.961 6 123064494.617 6                  95894435.607 6
R02  21019139.002 8  21019142.391 7 112162145.290 8  87237116.945 7
R03  19137469.688 8  19137473.636 8 102444364.581 8  79679160.563 8
R04  21681095.507 7  21681101.282 7 116101236.037 7  90301049.159 7
R18  19077836.947 8  19077839.848 7 101838795.430 8  79208055.421 7
R19  20814012.292 6  20814017.039 7 111340948.409 6  86598539.273 7
> 2025 06 15 13 08  5.0000000  0 23
C06  39051637.544 6  39051633.100 6 203352118.069 6 157244751.622 6
C12  22132557.420 7  22132553.738 7 115250037.741 7  89230284.465 7
C16  39464172.814 6  39464174.766 6 205500303.374 6 158905876.838 6
C19  23761937.593 7                 123734633.849 7
C21  24378844.879 7                 126947058.536 7
C22  21380621.823 7                 111334514.980 7
E05  22577176.641 8  22577178.356 9 118643865.670 8  89753325.691 9
E06  26323954.721 6  26323957.319 7 138333301.979 6 104648255.440 7
E09  24925187.022 7  24925189.062 8 130982740.181 7  99087597.938 8
E15  26188310.619 7  26188315.599 8 137620514.672 7 104109043.178 8
E34  23281460.488 8  23281461.784 8 122344900.010 8  92553129.427 8
E36  24886048.553 8  24886051.671 8 130777065.274 8  98932010.028 8
G01  20039074.325 8                  20039079.161 8 105306050.032 8                  82056676.020 8
G02  21304447.076 8  21304448.943 6                 111955617.387 8  87238156.885 6
G03  20296371.714 7                  20296378.561 7 106658158.414 7                  83110282.754 7
G17  22504259.492 7                  22504264.348 7 118260685.849 7                  92151460.997 7
G28  23526307.678 7                  23526312.847 6 123631597.100 7                  96336316.294 6
G32  23419978.782 6                  23419986.581 6 123072812.277 6                  95900916.939 6
R02  21021072.635 8  21021076.535 7 112172464.737 8  87245143.192 7
R03  19135738.291 8  19135742.703 8 102435100.414 8  79671955.114 8
R04  21676487.751 7  21676494.275 7 116076564.811 7  90281860.452 7
R18  19077331.915 8  19077334.560 7 101836096.493 8  79205956.253 7
R19  20809882.457 6  20809887.421 6 111318859.918 6  86581359.366 6
> 2025 06 15 13 08 10.0000000  0 23
C06  39049283.699 6  39049279.649 6 203339862.568 6 157235274.903 6
C12  22130578.948 7  22130573.778 7 115239728.729 7  89222312.896 7
C16  39461969.442 6  39461971.202 6 205488831.550 6 158897006.106 6
C19  23763227.442 7                 123741353.155 7
C21  24374967.555 7                 126926868.132 7
C22  21379144.998 7                 111326823.746 7
E05  22574453.880 8  22574455.635 9 118629557.668 8  89742501.786 9
E06  26325025.109 6  26325027.970 7 138338928.915 6 104652512.174 7
E09  24925289.189 7  24925291.649 8 130983279.080 7  99088005.607 8
E15  26184801.349 7  26184805.954 8 137602071.608 7 104095091.152 8
E34  23279862.021 8  23279863.291 8 122336500.088 8  92546774.932 8
E36  24886825.098 8  24886828.410 8 130781146.826 8  98935097.691 8
G01  20037920.142 8                  20037925.495 8 105299985.167 8                  82051950.159 8
G02  21305008.808 8  21305010.356 6                 111958568.243 8  87240456.258 6
G03  20293823.884 8                  20293830.547 7 106644767.955 8                  83099848.613 7
G17  22501900.033 7                  22501906.002 7 118248289.765 7                  92141801.723 7
G28  23523611.288 7                  23523615.715 6 123617423.983 7                  96325272.311 6
G32  23421563.612 6                  23421572.055 5 123081138.190 6                  95907404.615 5
R02  21023008.312 8  21023012.362 7 112182793.795 8  87253176.914 7
R03  19134011.779 8  19134015.527 7 102425854.957 8  79664764.202 7
R04  21671884.648 8  21671888.503 7 116051903.227 8  90262679.203 7
R18  19076829.457 8  19076832.573 7 101833417.337 8  79203872.476 7
R19  20805755.718 6  20805760.096 7 111296782.476 6  86564188.020 7
> 2025 06 15 13 08 15.0000000  0 24
C06  39046932.039 6  39046927.030 6 203327611.486 6 157225801.599 6
C12  22128601.194 7  22128597.247 7 115229432.769 7  89214351.428 7
C16  39459767.833 6  39459769.367 6 205477364.385 6 158888138.972 6
C19  23764519.015 7                 123748078.472 7
C21  24371090.786 7                 126906683.991 7
C22  21377669.992 7                 111319144.307 7
E05  22571733.374 8  22571734.856 9 118615260.084 8  89731685.756 9
E06  26326097.679 6  26326100.032 7 138344563.053 6 104656774.361 7
E09  24925393.985 7  24925396.221 8 130983828.596 7  99088421.323 8
E15  26181292.112 7  26181296.841 8 137583630.980 7 104081140.930 8
E34  23278264.787 8  23278266.379 9 122328108.130 8  92540426.474 9
E36  24887603.011 7  24887606.360 8 130785234.702 7  98938190.137 8
G01  20036769.031 8                  20036773.638 8 105293933.615 8                  82047234.652 8
G02  21305572.133 8  21305573.819 6                 111961529.517 8  87242763.706 6
G03  20291278.072 8                  20291284.656 7 106631388.436 8                  83089423.010 7
G17  22499545.133 7                  22499549.500 7 118235908.072 7                  92132153.617 7
G28  23520914.984 7                  23520920.978 6 123603264.584 7                  96314239.025 6
G32  23423149.708 6                  23423157.691 6 123089472.402 6                  95913898.811 6
R02  21024945.806 8  21024950.104 7 112193132.718 8  87261218.287 7
R03  19132288.649 8  19132292.051 7 102416628.859 8  79657588.338 7
R04  21667280.355 7  21667284.345 7 116027251.633 7  90243505.746 7
R17  21496844.046 4                 115033959.26814
R18  19076331.897 8  19076334.842 7 101830758.162 8  79201804.230 7
R19  20801632.442 7  20801635.353 6 111274716.075 7  86547025.271 6
> 2025 06 15 13 08 20.0000000  0 24
C06  39044579.942 6  39044575.149 6 203315364.189 6 157216331.236 6
C12  22126626.044 7  22126622.144 7 115219149.149 7  89206399.481 7
C16  39457565.747 7  39457567.666 6 205465901.127 7 158879274.832 6
C19  23765811.771 7                 123754809.094 7
C21  24367215.140 7                 126886505.416 7
C22  21376197.996 7                 111311475.982 7
E05  22569013.911 8  22569016.000 9 118600972.208 8  89720877.089 9
E06  26327170.308 6  26327173.383 7 138350203.697 6 104661041.452 7
E09  24925500.024 7  24925502.671 8 130984388.051 7  99088844.538 8
E15  26177783.311 7  26177788.091 8 137565192.105 7 104067192.057 8
E34  23276669.337 8  23276670.804 8 122319723.406 8  92534083.487 8
E36  24888381.210 7  24888385.386 8 130789328.189 7  98941286.826 8
G01  20035619.481 8                  20035624.716 8 105287894.663 8                  82042528.981 8
G02  21306137.150 8  21306139.098 6                 111964500.467 8  87245078.748 6
G03  20288734.571 8                  20288740.470 7 106618019.167 8                  83079005.409 7
G17  22497191.091 7                  22497195.904 7 118223540.039 7                  92122516.198 7
G28  23518224.289 6                  23518229.258 6 123589118.191 6                  96303215.893 6
G32  23424736.423 7                  23424744.956 6 123097814.340 7                  95920398.970 6
R02  21026884.772 8  21026889.935 7 112203480.871 8  87269266.842 7
R03  19130568.162 8  19130572.076 7 102407420.838 8  79650426.564 7
R04  21662678.348 8  21662682.690 7 116002609.182 8  90224339.398 7
R17  21499245.439 5                 115046801.70215
R18  19075837.037 8  19075840.352 7 101828118.272 8  79199750.966 7
R19  20797507.630 7  20797511.719 6 111252660.263 7  86529870.809 6
> 2025 06 15 13 08 25.0000000  0 24
C06  39042228.494 6  39042223.896 6 203303120.193 6 157206863.400 6
C12  22124654.060 7  22124649.787 7 115208877.461 7  89198456.765 7
C16  39455364.641 7  39455367.140 6 205454441.340 7 158870413.404 6
C19  23767105.448 7                 123761544.632 7
C21  24363340.598 6                 126866332.018 6
C22  21374727.172 7                 111303818.358 7
E05  22566296.870 8  22566298.866 9 118586693.688 8  89710075.488 9
E06  26328244.118 6  26328247.956 7 138355850.384 6 104665313.125 7
E09  24925608.174 7  24925610.995 8 130984957.000 7  99089274.952 8
E15  26174274.766 7  26174279.410 8 137546754.496 7 104053244.146 8
E34  23275075.381 8  23275076.590 9 122311345.552 8  92527745.693 9
E36  24889161.827 7  24889165.346 8 130793426.868 7  98944387.449 8
G01  20034472.996 8                  20034477.729 8 105281867.869 8                  82037832.773 8
G02  21306704.454 8  21306706.191 6                 111967480.687 8  87247400.995 6
G03  20286192.632 8                  20286198.406 7 106604659.793 8                  83068595.506 7
G17  22494840.198 7                  22494845.266 7 118211185.317 7                  92112889.160 7
G28  23515532.199 6                  23515539.377 6 123574984.463 6                  96292202.621 6
G32  23426325.365 7                  23426333.550 6 123106163.547 7                  95926904.829 6
R02  21028825.094 8  21028830.255 7 112213837.430 8  87277321.969 7
R03  19128850.344 8  19128854.832 7 102398230.831 8  79643278.791 7
R04  21658077.950 7  21658083.018 7 115977975.597 7  90205179.974 7
R17  21501648.149 5  21501657.529 4 115059653.612 5  89490884.38114
R18  19075345.166 8  19075349.131 7 101825497.263 8  79197712.406 7
R19  20793385.598 7  20793390.490 6 111230614.605 7  86512724.176 6
> 2025 06 15 13 08 30.0000000  0 24
C06  39039878.677 6  39039872.859 6 203290879.974 6 157197398.507 6
C12  22122684.023 7  22122679.474 7 115198618.106 7  89190523.573 7
C16  39453164.340 7  39453166.724 6 205442985.426 7 158861554.972 6
C19  23768399.468 7                 123768285.453 7
C21  24359468.145 7                 126846164.167 7
C22  21373259.501 8                 111296171.820 8
E05  22563581.393 8  22563583.571 9 118572424.869 8  89699281.229 9
E06  26329320.803 6  26329323.728 7 138361503.596 6 104669589.716 7
E09  24925718.523 7  24925721.252 8 130985535.864 7  99089712.860 8
E15  26170766.587 7  26170771.146 8 137528318.602 7 104039297.517 8
E34  23273482.294 8  23273483.707 8 122302974.933 8  92521413.376 8
E36  24889942.531 7  24889946.423 8 130797531.181 7  98947492.325 8
G01  20033328.452 8                  20033333.234 8 105275853.661 8                  82033146.386 8
G02  21307273.341 8  21307274.998 6                 111970470.576 8  87249730.772 6
G03  20283652.356 8                  20283658.406 7 106591310.634 8                  83058193.573 7
G17  22492491.283 7                  22492496.317 7 118198844.315 7                  92103272.781 7
G28  23512846.230 6                  23512852.883 6 123560863.772 6                  96281199.448 6
G32  23427916.415 6                  23427922.630 6 123114520.345 6                  95933416.582 6
R02  21030768.615 8  21030773.111 7 112224203.257 8  87285384.277 7
R03  19127136.393 8  19127141.211 7 102389059.050 8  79636145.196 7
R04  21653480.173 8  21653484.708 7 115953351.362 8  90186027.818 7
R17  21504050.618 5  21504061.422 4 115072515.271 5  89500887.900 4
R18  19074858.548 8  19074861.811 7 101822895.532 8  79195688.845 7
R19  20789267.089 6  20789271.703 6 111208579.430 6  86495585.687 6
> 2025 06 15 13 08 35.0000000  0 24
C06  39037528.860 6  39037523.801 6 203278644.873 6 157187937.563 6
C12  22120715.538 7  22120712.270 7 115188372.487 7  89182601.009 7
C16  39450965.108 6  39450967.695 6 205431534.827 6 158852700.646 6
C19  23769695.641 7                 123775032.935 7
C21  24355596.267 7                 126826003.300 7
C22  21371793.672 7                 111288537.769 7
E05  22560868.294 8  22560870.467 8 118558167.190 8  89688495.396 8
E06  26330398.028 6  26330400.991 7 138367164.617 6 104673872.236 7
E09  24925830.631 7  24925833.543 8 130986126.019 7  99090159.297 8
E15  26167258.162 7  26167263.452 8 137509885.851 7 104025353.276 8
E34  23271891.353 8  23271892.500 8 122294612.964 8  92515087.598 8
E36  24890725.215 7  24890728.817 8 130801642.448 7  98950602.468 8
G01  20032186.206 8                  20032191.451 8 105269853.421 8                  82028470.881 8
G02  21307844.207 8  21307846.108 6                 111973471.523 8  87252069.179 6
G03  20281114.356 8                  20281120.152 7 106577973.149 8                  83047800.745 7
G17  22490145.361 7                  22490150.251 7 118186518.383 7                  92093668.143 7
G28  23510161.959 6                  23510168.593 6 123546757.507 6                  96270207.570 6
G32  23429508.492 7                  23429515.313 6 123122886.188 7                  95939935.439 6
R02  21032712.332 8  21032717.707 7 112234579.686 8  87293454.812 7
R03  19125426.613 8  19125431.343 7 102379907.136 8  79629027.061 7
R04  21648883.657 7  21648888.094 7 115928737.730 7  90166883.897 7
R17  21506455.736 5  21506468.713 4 115085388.467 5  89510900.328 4
R18  19074375.469 8  19074378.201 7 101820314.449 8  79193681.333 7
R19  20785150.989 7  20785154.360 6 111186556.094 7  86478456.458 6
