     3.04           OBSERVATION DATA    Mixed(MIXED)        RINEX VERSION / TYPE
cnvtToRINEX 3.14.0  convertToRINEX OPR  20250615 162737 UTC PGM / RUN BY / DATE 
----------------------------------------------------------- COMMENT             
43K                                                         MARKER NAME         
43K                                                         MARKER NUMBER       
GEODETIC                                                    MARKER TYPE         
GNSS Observer       Trimble                                 OBSERVER / AGENCY   
6203S17886          Geo Explorer 3      5.53                REC # / TYPE / VERS 
                    UNKNOWN EXT     NONE                    ANT # / TYPE        
  3912505.3451  1190593.2175  4879099.8355                  APPROX POSITION XYZ 
        1.2100        0.0000        0.0000                  ANTENNA: DELTA H/E/N
G    6 C1C C2W C2X L1C L2W L2X                              SYS / # / OBS TYPES 
C    4 C2I C7I L2I L7I                                      SYS / # / OBS TYPES 
R    4 C1C C2C L1C L2C                                      SYS / # / OBS TYPES 
E    4 C1X C8X L1X L8X                                      SYS / # / OBS TYPES 
     5.000                                                  INTERVAL            
  2025     6    15    13    50   35.0000000     GPS         TIME OF FIRST OBS   
  2025     6    15    14    30   45.0000000     GPS         TIME OF LAST OBS    
     0                                                      RCV CLOCK OFFS APPL 
  8 R02 -4 R03  5 R04  6 R05  1 R12 -1 R18 -3 R19  3 R20  2 GLONASS SLOT / FRQ #
G L2X -0.25000                                              SYS / PHASE SHIFT   
R L2C -0.25000                                              SYS / PHASE SHIFT   
    18                                                      LEAP SECONDS        
    26                                                      # OF SATELLITES     
   C11   483   483   483   483                              PRN / # OF OBS      
   C12   483   483   483   483                              PRN / # OF OBS      
   C21   483     0   483     0                              PRN / # OF OBS      
   C22   483     0   483     0                              PRN / # OF OBS      
   E03   483   483   483   483                              PRN / # OF OBS      
   E05   483   483   483   483                              PRN / # OF OBS      
   E09   225   219   223   219                              PRN / # OF OBS      
   E15   483   483   483   483                              PRN / # OF OBS      
   E34   483   483   483   483                              PRN / # OF OBS      
   E36   369   352   361   352                              PRN / # OF OBS      
   G01   483     0   483   483     0   483                  PRN / # OF OBS      
   G02   483   483     0   483   483     0                  PRN / # OF OBS      
   G03   483     0   483   483     0   483                  PRN / # OF OBS      
   G04   483     0   483   483     0   483                  PRN / # OF OBS      
   G06   301     0   301   301     0   301                  PRN / # OF OBS      
   G09   390     0   390   390     0   390                  PRN / # OF OBS      
   G17   483     0   483   483     0   483                  PRN / # OF OBS      
   G19   483   483     0   483   483     0                  PRN / # OF OBS      
   G28    54     0    41    51     0    41                  PRN / # OF OBS      
   G31   356     5   302   345     5   301                  PRN / # OF OBS      
   R03   483   483   483   483                              PRN / # OF OBS      
   R04   483   483   483   483                              PRN / # OF OBS      
   R05   224   221   224   219                              PRN / # OF OBS      
   R18   483   483   483   483                              PRN / # OF OBS      
   R19   483   483   483   483                              PRN / # OF OBS      
   R20   262   262   262   262                              PRN / # OF OBS      
DBHZ                                                        SIGNAL STRENGTH UNIT
                                                            END OF HEADER       
>                              2  1
              *** Start of Kinematic Data ***               COMMENT             
> 2025 06 15 13 50 35.0000000  0 21
C11  24409724.716 6  24409722.557 7 127107861.04716  98287843.81617
C12  22062583.571 7  22062579.454 7 114885828.31417  88836866.71517
C21  23171716.811 7                 120661262.65217
C22  21506828.376 7                 111991674.21517
E03  25873510.174 7  25873513.647 8 135966120.38617 102857571.35618
E05  22055338.771 8  22055340.216 8 115901543.74718  87678802.97118
E09  25810740.530 5                 135636243.39615
E15  25074990.552 7  25074992.835 8 131770065.76017  99683132.30118
E34  23273541.149 8  23273542.535 9 122303262.86918  92521642.58319
E36  26028525.566 7  26028530.242 7 136780811.57617 103473821.78217
G01  20383711.565 8                  20383715.914 8 107117068.38318                  83467914.51918
G02  22430667.140 7  22430669.875 5                 117873855.33517  91849840.07215
G03  19871066.542 7                  19871072.917 7 104423151.59517                  81368737.38217
G04  21909684.876 7                  21909691.970 7 115136235.33917                  89716543.27417
G17  22272293.863 7                  22272298.261 7 117041726.60817                  91201334.88417
G19  22580178.234 7  22580181.649 5                 118659539.88017  92462079.54915
G31  22746088.929 5                                                                
R03  19296744.333 8  19296748.907 7 103296991.95418  80342089.81217
R04  20204767.185 8  20204772.251 7 108195646.15418  84152235.85217
R18  19897669.042 7  19897673.640 7 106215098.85517  82611772.92817
R19  19640541.645 8  19640542.560 7 105063638.16218  81716147.31817
> 2025 06 15 13 50 40.0000000  0 21
C11  24406227.498 6  24406225.594 7 127089651.941 6  98273763.402 7
C12  22061966.529 7  22061962.209 7 114882614.236 7  88834381.387 7
C21  23168542.333 7                 120644732.350 7
C22  21506424.530 7                 111989570.468 7
E03  25869693.760 7  25869696.801 8 135946063.144 7 102842398.207 8
E05  22053683.403 8  22053684.975 8 115892845.513 8  87672222.818 8
E09  25811708.108 5  25811707.621 4 135641329.737 5 102611866.39414
E15  25071829.094 7  25071831.471 8 131753452.678 7  99670564.613 8
E34  23272785.779 8  23272787.510 9 122299295.056 8  92518640.963 9
E36  26029864.426 7  26029869.048 7 136787847.047 7 103479144.041 7
G01  20383876.401 8                  20383880.789 8 107117934.850 8                  83468589.685 8
G02  22432139.726 7  22432143.606 5                 117881596.660 7  91855872.257 5
G03  19869608.863 7                  19869615.010 7 104415491.277 7                  81362768.296 7
G04  21905698.787 7                  21905705.351 7 115115286.122 7                  89700219.216 7
G17  22271419.064 7                  22271422.970 7 117037126.391 7                  91197750.297 7
G19  22577393.453 7  22577395.669 5                 118644901.401 7  92450672.962 5
G31  22743132.664 4                  22743137.395 5 119516042.837 4                  93129350.07215
R03  19296704.643 8  19296709.407 7 103296779.911 8  80341924.897 7
R04  20201321.644 8  20201326.484 7 108177195.772 8  84137885.560 7
R18  19899004.469 8  19899009.953 7 106222229.458 8  82617318.933 7
R19  19637864.549 8  19637866.424 7 105049322.603 8  81705012.990 7
>                              3  5
              *** Start of Occupation ***                   COMMENT             
43K                                                         MARKER NAME         
43K                                                         MARKER NUMBER       
  3912505.3451  1190593.2175  4879099.8355                  APPROX POSITION XYZ 
        1.2100        0.0000        0.0000                  ANTENNA: DELTA H/E/N
> 2025 06 15 13 50 45.0000000  0 21
C11  24402733.455 6  24402730.120 7 127071451.158 6  98259689.428 7
C12  22061352.329 7  22061347.687 7 114879414.026 7  88831906.775 7
C21  23165369.212 7                 120628209.565 7
C22  21506021.828 7                 111987476.178 7
E03  25865877.338 7  25865880.925 8 135926010.831 7 102827228.760 8
E05  22052030.254 8  22052031.851 8 115884158.071 8  87665650.834 8
E09  25812677.668 4  25812676.886 3 135646422.67714 102615719.17513
E15  25068668.736 7  25068671.010 8 131736844.063 7  99658000.328 8
E34  23272032.546 8  23272034.145 9 122295336.134 8  92515646.065 9
E36  26031203.666 7  26031208.772 7 136794887.221 7 103484469.887 7
G01  20384043.978 8                  20384048.061 8 107118814.361 8                  83469275.021 8
G02  22433614.650 7  22433618.414 5                 117889345.673 7  91861910.454 5
G03  19868153.090 7                  19868159.354 7 104407841.874 7                  81356807.724 7
G04  21901714.363 7                  21901720.141 7 115094345.742 7                  89683902.046 7
G17  22270545.979 7                  22270550.712 7 117032541.253 7                  91194177.458 7
G19  22574609.773 7  22574612.974 5                 118630278.524 7  92439278.516 5
G31  22740180.071 5                  22740185.430 5 119500534.573 5                  93117265.759 5
R03  19296667.671 8  19296672.458 7 103296583.125 8  80341771.841 7
R04  20197878.668 8  20197883.341 7 108158758.920 8  84123545.803 7
R18  19900344.596 7  19900348.533 7 106229377.062 7  82622878.145 7
R19  19635192.237 8  19635193.222 7 105035025.613 8  81693893.112 7
> 2025 06 15 13 50 50.0000000  0 21
C11  24399239.448 6  24399236.597 7 127053259.796 6  98245622.710 7
C12  22060740.605 7  22060736.127 7 114876228.820 7  88829443.771 7
C21  23162197.630 7                 120611695.403 7
C22  21505621.911 7                 111985392.441 7
E03  25862062.885 7  25862066.189 8 135905964.475 7 102812063.845 8
E05  22050379.548 8  22050381.004 8 115875482.568 8  87659087.871 8
E09  25813646.920 5                 135651523.475 5
E15  25065509.641 7  25065511.511 8 131720241.060 7  99645440.272 8
E34  23271280.990 8  23271282.698 9 122291387.211 8  92512658.730 9
E36  26032544.384 7  26032549.655 7 136801933.236 7 103489800.124 7
G01  20384214.040 7                  20384218.272 8 107119708.046 7                  83469971.399 8
G02  22435090.966 7  22435094.511 5                 117897103.480 7  91867955.497 5
G03  19866699.891 7                  19866705.976 7 104400204.521 7                  81350856.541 7
G04  21897731.164 7                  21897737.089 7 115073415.367 7                  89667592.658 7
G17  22269677.519 7                  22269681.109 7 117027972.334 7                  91190617.250 7
G19  22571830.026 7  22571833.345 5                 118615672.336 7  92427897.070 5
G31  22737235.349 5                  22737237.683 5 119485041.483 5                  93105193.272 5
R03  19296633.393 8  19296638.438 7 103296402.727 8  80341631.530 7
R04  20194438.310 8  20194443.374 7 108140336.754 8  84109217.454 7
R18  19901687.357 8  19901691.362 7 106236542.892 8  82628451.560 7
R19  19632523.543 8  19632524.624 7 105020748.311 8  81682788.554 7
> 2025 06 15 13 50 55.0000000  0 21
C11  24395746.743 6  24395745.266 7 127035078.259 6  98231563.622 7
C12  22060131.975 7  22060127.381 7 114873058.955 7  88826992.635 7
C21  23159027.191 7                 120595190.245 7
C22  21505223.378 7                 111983319.660 7
E03  25858249.248 7  25858252.616 8 135885924.540 7 102796903.771 8
E05  22048731.080 8  22048732.481 9 115866819.360 8  87652534.207 9
E09  25814618.699 5  25814616.273 4 135656632.305 5 102623428.48814
E15  25062350.731 7  25062353.268 8 131703644.039 7  99632884.746 8
E34  23270531.325 8  23270533.237 9 122287448.684 8  92509679.262 9
E36  26033886.095 7  26033891.590 7 136808985.454 7 103495135.069 7
G01  20384386.570 8                  20384391.107 8 107120616.258 8                  83470679.096 8
G02  22436568.913 7  22436572.982 5                 117904870.473 7  91874007.699 5
G03  19865248.991 7                  19865255.267 7 104392579.580 7                  81344915.042 7
G04  21893750.389 7                  21893755.406 7 115052495.350 7                  89651291.339 7
G17  22268810.440 7                  22268815.106 7 117023419.990 7                  91187069.964 7
G19  22569054.305 7  22569057.231 5                 118601083.234 7  92416528.965 5
G31  22734289.310 5                  22734293.550 5 119469563.882 5                  93093132.809 5
R03  19296602.679 8  19296608.364 7 103296239.149 8  80341504.302 7
R04  20191000.703 8  20191005.360 7 108121929.779 8  84094900.914 7
R18  19903033.630 8  19903036.986 7 106243727.259 8  82634039.368 7
R19  19629857.504 8  19629859.135 7 105006491.229 8  81671699.725 7
> 2025 06 15 13 51  0.0000000  0 21
C11  24392257.646 6  24392255.159 7 127016904.737 6  98217510.722 7
C12  22059526.270 7  22059521.291 7 114869902.696 7  88824552.004 7
C21  23155859.775 7                 120578692.287 7
C22  21504826.711 8                 111981256.021 8
E03  25854436.471 7  25854439.913 8 135865889.163 7 102781747.152 8
E05  22047084.447 8  22047085.918 8 115858166.653 8  87645988.494 8
E09  25815590.598 5  25815589.806 4 135661747.512 5 102627298.144 4
E15  25059192.806 7  25059195.805 8 131687051.247 7  99620332.411 8
E34  23269783.539 8  23269785.427 9 122283518.754 8  92506706.295 9
E36  26035229.693 7  26035234.372 7 136816042.086 7 103500473.352 7
G01  20384561.698 7                  20384566.311 8 107121537.218 7                  83471396.722 8
G02  22438047.816 7  22438052.061 5                 117912644.828 7  91880065.628 5
G03  19863800.586 7                  19863806.196 7 104384965.291 7                  81338981.822 7
G04  21889771.622 7                  21889775.936 7 115031583.915 7                  89634996.715 7
G17  22267947.191 7                  22267951.342 7 117018882.435 7                  91183534.207 7
G19  22566280.591 7  22566284.016 5                 118586509.531 7  92405172.823 5
G31  22731345.963 5                  22731350.580 5 119454100.021 5                  93081083.084 5
R03  19296574.940 8  19296580.329 7 103296090.493 8  80341388.685 7
R04  20187566.057 8  20187571.274 7 108103535.983 8  84080594.618 7
R18  19904382.387 8  19904386.124 7 106250928.312 8  82639640.178 7
R19  19627195.946 8  19627196.896 7 104992252.391 8  81660625.071 7
> 2025 06 15 13 51  5.0000000  0 21
C11  24388768.636 6  24388766.754 7 126998739.272 6  98203464.047 7
C12  22058921.913 7  22058917.691 7 114866760.042 7  88822121.903 7
C21  23152693.278 7                 120562201.593 7
C22  21504432.383 7                 111979201.555 7
E03  25850624.986 7  25850628.135 8 135845858.445 7 102766594.059 8
E05  22045440.147 8  22045441.361 8 115849524.486 8  87639450.752 8
E09  25816566.201 5  25816564.542 3 135666869.082 5 102631172.520 3
E15  25056036.115 7  25056039.132 8 131670462.683 7  99607783.280 8
E34  23269037.055 8  23269039.242 9 122279597.433 8  92503739.849 9
E36  26036573.497 7  26036578.062 7 136823103.123 7 103505814.964 7
G01  20384739.513 7                  20384744.156 8 107122470.941 7                  83472124.296 8
G02  22439529.328 7  22439532.835 5                 117920426.611 7  91886129.341 5
G03  19862353.531 8                  19862359.501 7 104377361.621 8                  81333056.888 7
G04  21885793.826 7                  21885798.185 7 115010681.110 7                  89618708.809 7
G17  22267085.937 7                  22267090.906 7 117014359.677 7                  91180009.972 7
G19  22563510.456 7  22563513.739 5                 118571951.142 7  92393828.620 5
G31  22728406.142 5                  22728409.266 4 119438649.847 5                  93069044.048 4
R03  19296550.959 8  19296554.964 7 103295956.560 8  80341284.508 7
R04  20184133.855 7  20184138.872 7 108085155.606 7  84066298.783 7
R18  19905734.408 8  19905737.845 7 106258146.115 8  82645254.011 7
R19  19624536.463 7  19624538.525 7 104978031.929 7  81649564.718 7
> 2025 06 15 13 51 10.0000000  0 22
C11  24385283.083 6  24385280.338 7 126980583.588 6  98189424.940 7
C12  22058321.912 7  22058317.273 7 114863632.627 7  88819703.576 7
C21  23149529.009 7                 120545719.777 7
C22  21504039.647 7                 111977157.896 7
E03  25846814.687 7  25846817.550 8 135825833.994 7 102751445.707 8
E05  22043797.535 8  22043799.156 8 115840894.472 8  87632922.203 8
E09  25817539.003 5  25817540.722 4 135671998.638 5 102635053.038 4
E15  25052881.309 7  25052883.609 8 131653880.002 7  99595238.596 8
E34  23268293.217 8  23268294.996 9 122275686.400 8  92500781.174 9
E36  26037918.451 7  26037922.917 7 136830170.250 7 103511161.177 7
G01  20384920.039 7                  20384924.712 8 107123419.081 7                  83472863.098 8
G02  22441011.587 7  22441015.207 5                 117928217.455 7  91892200.110 5
G03  19860909.506 8                  19860915.062 8 104369770.261 8                  81327141.541 8
G04  21881817.397 7                  21881822.625 7 114989788.570 7                  89602428.918 7
G17  22266229.152 7                  22266233.590 7 117009853.422 7                  91176498.605 7
G19  22560743.129 7  22560746.849 5                 118557409.766 7  92382497.677 5
G28  23114079.266 5                                 121465276.06815                
G31  22725469.082 6                  22725471.010 4 119423215.036 6                  93057017.018 4
R03  19296528.727 8  19296533.307 7 103295839.475 8  80341193.459 7
R04  20180704.199 7  20180709.254 7 108066790.079 7  84052014.481 7
R18  19907090.252 8  19907094.151 7 106265382.367 8  82650882.179 7
R19  19621882.079 8  19621883.956 7 104963831.592 8  81638520.024 7
> 2025 06 15 13 51 15.0000000  0 22
C11  24381798.145 6  24381795.010 7 126962437.011 6  98175392.854 7
C12  22057724.384 7  22057719.501 7 114860519.883 7  88817296.596 7
C21  23146365.580 7                 120529246.321 7
C22  21503648.969 7                 111975124.514 7
E03  25843004.967 7  25843008.028 8 135805815.302 7 102736301.705 8
E05  22042157.527 8  22042159.149 8 115832276.132 8  87626402.491 8
E09  25818517.739 5  25818518.415 3 135677135.608 5 102638939.106 3
E15  25049726.593 7  25049729.036 8 131637302.681 7  99582697.968 8
E34  23267550.525 8  23267552.664 9 122271785.089 8  92497829.857 9
E36  26039264.159 7  26039268.756 7 136837242.896 7 103516511.582 7
G01  20385103.162 7                  20385107.769 8 107124381.070 7                  83473612.718 8
G02  22442496.492 7  22442499.321 5                 117936016.742 7  91898277.468 5
G03  19859466.927 7                  19859472.706 7 104362190.647 7                  81321235.367 7
G04  21877843.114 7                  21877848.736 7 114968905.791 7                  89586156.635 7
G17  22265374.471 7                  22265379.066 7 117005363.109 7                  91172999.663 7
G19  22557979.756 7  22557982.890 5                 118542884.898 7  92371179.598 5
G28  23112921.475 5                  23112935.889 5 121459195.160 5                  94643611.03915
G31  22722535.375 6                  22722537.509 4 119407795.104 6                  93045001.560 4
R03  19296509.890 8  19296514.292 7 103295738.094 8  80341114.614 7
R04  20177277.220 7  20177282.021 7 108048439.141 7  84037741.542 7
R18  19908448.267 8  19908452.941 7 106272636.507 8  82656524.295 7
R19  19619231.272 8  19619233.012 7 104949650.728 8  81627490.479 7
> 2025 06 15 13 51 20.0000000  0 22
C11  24378315.036 6  24378312.042 7 126944300.238 6  98161368.355 7
C12  22057128.898 7  22057124.644 7 114857422.450 7  88814901.451 7
C21  23143204.640 7                 120512781.758 7
C22  21503261.133 7                 111973101.897 7
E03  25839196.793 7  25839199.848 8 135785802.927 7 102721162.478 8
E05  22040519.785 8  22040521.415 8 115823669.944 8  87619891.967 8
E09  25819497.879 5  25819515.809 4 135682280.575 5 102642831.75214
E15  25046573.520 7  25046575.627 8 131620731.280 7  99570161.812 8
E34  23266810.402 8  23266812.212 9 122267894.071 8  92494886.325 9
E36  26040611.861 7  26040615.766 7 136844321.628 7 103521866.576 7
G01  20385288.700 8                  20385294.119 8 107125357.471 8                  83474373.551 8
G02  22443981.760 7  22443985.173 5                 117943825.080 7  91904361.881 5
G03  19858027.068 7                  19858032.545 7 104354623.358 7                  81315338.788 7
G04  21873871.843 7                  21873877.622 7 114948033.294 7                  89569892.355 7
G17  22264523.804 7                  22264527.596 7 117000889.294 7                  91169513.582 7
G19  22555218.316 7  22555222.118 5                 118528377.046 7  92359874.795 5
G28  23111767.200 5                  23111782.564 5 121453132.111 5                  94638886.606 5
G31  22719603.168 6                  22719607.091 4 119392390.600 6                  93032998.051 4
R03  19296493.629 8  19296498.822 7 103295653.560 8  80341048.873 7
R04  20173853.308 7  20173857.925 7 108030103.199 7  84023480.271 7
R18  19909811.818 8  19909814.933 7 106279909.021 8  82662180.679 7
R19  19616584.067 8  19616585.798 7 104935489.924 8  81616476.514 7
> 2025 06 15 13 51 25.0000000  0 22
C11  24374833.161 6  24374830.568 7 126926172.255 6  98147350.655 7
C12  22056536.598 7  22056532.642 7 114854339.243 7  88812517.325 7
C21  23140043.785 7                 120496325.161 7
C22  21502874.704 7                 111971089.130 7
E03  25835389.815 7  25835392.588 8 135765795.887 7 102706027.283 8
E05  22038884.176 8  22038885.852 9 115815075.007 8  87613389.950 9
E09  25820477.559 5  25820505.556 4 135687432.602 5 102646728.96914
E15  25043420.737 7  25043423.155 8 131604164.851 7  99557629.412 8
E34  23266071.718 8  23266073.559 9 122264012.385 8  92491949.854 9
E36  26041960.206 7  26041963.824 7 136851405.463 7 103527225.431 7
G01  20385477.047 8                  20385482.373 8 107126347.326 8                  83475144.867 8
G02  22445469.872 7  22445472.269 5                 117951641.507 7  91910452.570 5
G03  19856589.391 8                  19856595.064 7 104347067.409 8                  81309451.040 7
G04  21869901.259 7                  21869907.602 7 114927170.158 7                  89553635.403 7
G17  22263674.855 7                  22263679.393 7 116996430.994 7                  91166039.596 7
G19  22552460.812 6  22552464.168 5                 118513885.319 6  92348582.537 5
G28  23110617.637 5                  23110632.207 4 121447085.947 5                  94634175.322 4
G31  22716673.167 6                  22716680.696 5 119377000.569 6                  93021005.869 5
R03  19296480.399 8  19296485.343 7 103295584.365 8  80340995.063 7
R04  20170431.856 8  20170436.196 7 108011781.229 8  84009229.868 7
R18  19911176.830 8  19911180.253 7 106287198.924 8  82667850.615 7
R19  19613940.958 8  19613942.291 7 104921348.399 8  81605477.551 7
> 2025 06 15 13 51 30.0000000  0 22
C11  24371353.674 6  24371350.891 7 126908053.203 6  98133339.848 7
C12  22055947.168 7  22055943.253 7 114851270.499 7  88810144.382 7
C21  23136885.181 7                 120479876.627 7
C22  21502490.650 7                 111969086.332 7
E03  25831583.283 7  25831586.444 8 135745794.315 7 102690896.244 8
E05  22037250.936 8  22037252.433 8 115806491.408 8  87606896.517 8
E09  25821459.187 5  25821487.536 4 135692591.794 5 102650631.95414
E15  25040268.999 7  25040271.617 8 131587603.466 7  99545100.847 8
E34  23265334.676 8  23265336.729 9 122260140.147 8  92489020.534 9
E36  26043308.771 7  26043312.798 7 136858494.521 7 103532588.233 7
G01  20385668.128 7                  20385673.232 8 107127350.764 7                  83475926.755 8
G02  22446957.964 7  22446961.108 5                 117959466.123 7  91916549.659 5
G03  19855153.452 8                  19855159.453 7 104339522.940 8                  81303572.230 7
G04  21865933.229 7                  21865939.584 7 114906316.498 7                  89537385.817 7
G17  22262829.147 7                  22262833.885 7 116991988.285 7                  91162577.767 7
G19  22549706.034 7  22549709.310 4                 118499409.810 7  92337302.908 4
G28  23109470.238 5                  23109483.990 4 121441056.732 5                  94629477.180 4
G31  22713748.833 6                  22713755.958 4 119361625.167 6                  93009025.045 4
R03  19296470.474 8  19296475.913 7 103295531.027 8  80340953.588 7
R04  20167012.069 7  20167017.440 7 107993473.570 7  83994990.576 7
R18  19912545.741 8  19912549.032 7 106294506.351 8  82673534.170 7
R19  19611301.002 8  19611302.454 7 104907225.994 8  81594493.469 7
> 2025 06 15 13 51 35.0000000  0 22
C11  24367875.607 6  24367872.677 7 126889942.930 6  98119335.842 7
C12  22055361.339 7  22055356.627 7 114848215.983 7  88807782.438 7
C21  23133727.769 7                 120463436.013 7
C22  21502107.665 7                 111967093.331 7
E03  25827778.210 7  25827781.289 8 135725798.071 7 102675769.229 8
E05  22035619.673 8  22035621.133 8 115797918.981 8  87600411.541 8
E09  25822442.850 5  25822470.675 4 135697757.938 5 102654540.10914
E15  25037118.069 7  25037121.111 8 131571047.023 7  99532576.018 8
E34  23264599.564 8  23264601.642 9 122256277.193 8  92486098.240 9
E36  26044658.348 7  26044662.802 7 136865588.647 7 103537954.888 7
G01  20385861.976 8                  20385866.775 8 107128367.598 8                  83476719.089 8
G02  22448449.205 7  22448451.389 5                 117967298.707 7  91922652.973 5
G03  19853719.949 8                  19853725.515 7 104331989.745 8                  81297702.220 7
G04  21861966.888 7                  21861973.135 7 114885472.171 7                  89521143.487 7
G17  22261985.989 7                  22261991.223 7 116987561.036 7                  91159127.972 7
G19  22546954.783 6  22546957.755 5                 118484950.284 6  92326035.754 5
G28  23108326.389 5                  23108338.087 4 121435044.333 5                  94624792.126 4
G31  22710824.709 5                  22710832.311 4 119346264.253 5                  92997055.469 4
R03  19296463.593 8  19296468.846 7 103295493.147 8  80340924.131 7
R04  20163596.458 7  20163601.153 7 107975179.866 7  83980762.153 7
R18  19913917.894 8  19913921.774 7 106301831.122 8  82679231.227 7
R19  19608664.802 8  19608665.724 7 104893122.685 8  81583524.229 7
> 2025 06 15 13 51 40.0000000  0 22
C11  24364398.974 6  24364396.665 7 126871841.876 6  98105338.973 7
C12  22054776.279 7  22054772.783 7 114845176.139 7  88805431.824 7
C21  23130571.506 7                 120447003.732 7
C22  21501727.039 7                 111965110.538 7
E03  25823974.777 7  25823977.183 8 135705807.571 7 102660646.541 8
E05  22033990.785 8  22033992.018 8 115789358.174 8  87593935.343 8
E09  25823428.997 5  25823454.994 4 135702931.388 5 102658453.82314
E15  25033968.365 7  25033971.528 8 131554495.916 7  99520055.227 8
E34  23263866.251 8  23263868.368 9 122252423.934 8  92483183.273 9
E36  26046009.311 7  26046013.883 7 136872688.249 7 103543325.663 7
G01  20386057.552 8                  20386062.416 8 107129398.268 8                  83477522.189 8
G02  22449941.201 7  22449943.324 5                 117975139.730 7  91928762.837 5
G03  19852288.486 8                  19852294.513 7 104324468.301 8                  81291841.354 7
G04  21858002.048 7                  21858008.684 7 114864637.573 7                  89504908.762 7
G17  22261146.383 7                  22261151.790 7 116983149.698 7                  91155690.573 7
G19  22544206.595 7  22544209.419 5                 118470507.311 7  92314781.486 5
G28  23107184.935 4                  23107195.379 3 121429049.153 4                  94620120.449 3
G31  22707904.513 5                  22707910.889 5 119330918.231 5                  92985097.503 5
R03  19296458.140 8  19296464.733 7 103295470.982 8  80340906.880 7
R04  20160182.780 7  20160187.711 7 107956900.572 7  83966544.931 7
R18  19915293.693 8  19915296.972 7 106309173.642 8  82684942.081 7
R19  19606032.438 8  19606033.229 7 104879038.972 8  81572570.240 7
> 2025 06 15 13 51 45.0000000  0 21
C11  24360925.212 6  24360922.116 7 126853749.912 6  98091349.128 7
C12  22054195.781 7  22054192.045 7 114842150.850 7  88803092.491 7
C21  23127416.683 7                 120430579.647 7
C22  21501348.342 7                 111963137.788 7
E03  25820171.624 7  25820174.188 8 135685822.688 7 102645528.116 8
E05  22032363.789 8  22032365.163 9 115780808.827 8  87587467.816 9
E09  25824414.831 5  25824440.932 4 135708112.147 5 102662373.04214
E15  25030819.824 7  25030822.912 8 131537950.059 7  99507538.404 8
E34  23263134.961 8  23263136.953 9 122248580.282 8  92480275.575 9
E36  26047361.767 7  26047365.883 7 136879793.237 7 103548700.529 7
G01  20386256.738 8                  20386261.329 8 107130442.618 8                  83478335.967 8
G02  22451434.811 7  22451437.248 5                 117982989.076 7  91934879.216 5
G03  19850859.604 8                  19850865.491 7 104316958.448 8                  81285989.523 7
G04  21854040.044 7                  21854046.200 7 114843812.627 7                  89488681.548 7
G17  22260310.240 7                  22260314.870 7 116978754.092 7                  91152265.410 7
G19  22541461.253 7  22541464.648 5                 118456080.689 7  92303539.936 5
G31  22704986.923 5                  22704992.954 5 119315587.051 5                  92973151.063 5
R03  19296457.755 7  19296464.066 7 103295464.866 7  80340902.116 7
R04  20156772.085 8  20156776.041 7 107938635.576 8  83952338.831 7
R18  19916672.837 8  19916675.861 7 106316533.774 8  82690666.608 7
R19  19603402.282 8  19603403.833 7 104864974.590 8  81561631.285 7
> 2025 06 15 13 51 50.0000000  0 21
C11  24357452.409 6  24357449.751 7 126835667.335 6  98077366.535 7
C12  22053618.087 7  22053613.503 7 114839140.406 7  88800764.610 7
C21  23124264.180 7                 120414164.104 7
C22  21500971.249 7                 111961175.469 7
E03  25816369.768 7  25816372.390 8 135665843.758 7 102630414.198 8
E05  22030739.158 8  22030740.484 8 115772271.295 8  87581009.223 8
E09  25825399.749 5  25825419.456 5 135713300.48915 102666297.88315
E15  25027672.130 7  25027675.415 8 131521409.757 7  99495025.780 8
E34  23262405.055 8  23262407.366 9 122244746.527 8  92477375.363 9
E36  26048714.176 7  26048719.032 7 136886903.850 7 103554079.649 7
G01  20386457.577 7                  20386462.680 8 107131500.988 7                  83479160.658 8
G02  22452930.404 7  22452932.489 5                 117990847.034 7  91941002.268 5
G03  19849432.170 8                  19849438.368 7 104309460.517 8                  81280146.977 7
G04  21850078.354 7                  21850085.420 8 114822997.669 7                  89472462.112 8
G17  22259477.254 7                  22259481.433 7 116974374.506 7                  91148852.755 7
G19  22538719.022 6  22538722.402 5                 118441670.783 6  92292311.439 5
G31  22702074.291 5                  22702079.066 4 119300270.888 5                  92961216.395 4
R03  19296460.093 7  19296465.862 7 103295474.788 7  80340909.823 7
R04  20153363.590 7  20153367.991 7 107920385.331 7  83938144.197 7
R18  19918054.690 8  19918058.338 7 106323911.868 8  82696405.118 7
R19  19600776.924 8  19600778.710 7 104850930.029 8  81550707.740 7
> 2025 06 15 13 51 55.0000000  0 21
C11  24353980.878 6  24353979.167 7 126817593.823 6  98063390.958 7
C12  22053042.250 7  22053037.898 7 114836144.476 7  88798447.957 7
C21  23121112.883 7                 120397756.750 7
C22  21500596.810 7                 111959223.185 7
E03  25812569.580 7  25812571.591 8 135645870.434 7 102615304.499 8
E05  22029116.838 8  22029117.962 8 115763745.208 8  87574559.296 8
E09  25826391.359 5  25826408.594 5 135718496.040 5 102670227.897 5
E15  25024525.646 7  25024529.028 8 131504874.668 7  99482517.104 8
E34  23261677.434 8  23261679.650 9 122240922.359 8  92474482.402 9
E36  26050067.467 7  26050073.195 7 136894019.794 7 103559462.807 7
G01  20386662.241 7                  20386666.686 8 107132573.017 7                  83479995.997 8
G02  22454426.922 7  22454429.346 5                 117998713.256 7  91947131.772 5
G03  19848007.686 8                  19848014.098 7 104301974.147 8                  81274313.452 7
G04  21846119.101 7                  21846126.005 8 114802192.308 7                  89456250.156 8
G17  22258647.364 7                  22258651.184 7 116970010.652 7                  91145452.351 7
G19  22535979.823 7  22535983.308 5                 118427277.223 7  92281095.692 5
G31  22699159.955 5                  22699167.525 5 119284969.494 5                  92949293.255 5
R03  19296465.797 8  19296470.762 7 103295500.553 8  80340929.834 7
R04  20149959.117 7  20149963.423 7 107902149.386 7  83923960.680 7
R18  19919439.838 8  19919443.605 7 106331307.548 8  82702157.324 7
R19  19598154.719 8  19598156.547 7 104836904.878 8  81539799.304 7
> 2025 06 15 13 52  0.0000000  0 21
C11  24350513.013 6  24350510.071 7 126799529.760 6  98049422.690 7
C12  22052469.549 7  22052465.448 7 114833163.370 7  88796142.778 7
C21  23117964.244 7                 120381357.870 7
C22  21500223.495 7                 111957281.229 7
E03  25808769.322 7  25808771.944 8 135625903.023 7 102600199.291 8
E05  22027496.592 8  22027497.684 8 115755230.879 8  87568118.263 8
E09  25827381.344 5  25827398.828 5 135723699.061 5 102674163.946 5
E15  25021380.396 7  25021383.544 9 131488345.119 7  99470012.610 9
E34  23260951.963 8  23260953.782 9 122237108.058 8  92471596.907 9
E36  26051422.973 7  26051428.501 7 136901141.382 7 103564850.221 7
G01  20386868.871 8                  20386873.065 8 107133659.029 8                  83480842.236 8
G02  22455925.474 7  22455927.970 5                 118006588.039 7  91953267.972 5
G03  19846585.473 7                  19846591.760 7 104294499.671 7                  81268489.184 7
G04  21842162.287 7                  21842168.662 8 114781396.894 7                  89440045.943 8
G17  22257819.400 7                  22257823.737 7 116965662.832 7                  91142064.414 7
G19  22533244.234 7  22533247.345 5                 118412900.371 7  92269892.955 5
G31  22696251.195 5                  22696258.403 5 119269683.201 5                  92937381.846 5
R03  19296474.147 8  19296478.685 7 103295542.328 8  80340962.300 7
R04  20146557.227 8  20146560.257 7 107883928.026 8  83909788.531 7
R18  19920828.533 8  19920832.610 7 106338721.124 8  82707923.426 7
R19  19595536.600 8  19595538.194 7 104822899.418 8  81528906.165 7
> 2025 06 15 13 52  5.0000000  0 21
C11  24347045.465 6  24347042.778 7 126781474.752 6  98035461.431 7
C12  22051899.797 7  22051895.819 7 114830196.726 7  88793848.773 7
C21  23114816.164 7                 120364967.146 7
C22  21499853.363 7                 111955349.257 7
E03  25804970.705 7  25804973.304 8 135605941.193 7 102585098.300 8
E05  22025878.607 8  22025879.574 8 115746727.941 8  87561685.845 8
E09  25828372.903 5  25828390.372 5 135728909.205 5 102678105.419 5
E15  25018235.794 7  25018239.055 8 131471820.736 7  99457512.038 8
E34  23260228.156 8  23260229.739 9 122233303.273 8  92468718.609 9
E36  26052779.540 7  26052784.659 7 136908268.222 7 103570241.617 7
G01  20387078.092 8                  20387082.387 8 107134758.654 8                  83481699.085 8
G02  22457426.198 7  22457427.840 5                 118014471.028 7  91959410.554 5
G03  19845165.116 8                  19845171.584 7 104287036.713 8                  81262673.897 7
G04  21838207.287 7                  21838212.968 7 114760611.092 7                  89423849.225 7
G17  22256995.591 7                  22256999.239 7 116961330.689 7                  91138688.711 7
G19  22530511.406 7  22530514.869 5                 118398539.837 7  92258702.933 5
G31  22693344.750 5                  22693351.880 5 119254411.702 5                  92925481.977 5
R03  19296483.649 7  19296489.272 7 103295599.839 7  80341007.028 7
R04  20143156.648 8  20143160.640 7 107865720.929 8  83895627.456 7
R18  19922220.036 8  19922224.612 7 106346152.147 8  82713703.108 7
R19  19592922.021 8  19592923.919 7 104808913.350 8  81518028.110 7
> 2025 06 15 13 52 10.0000000  0 21
C11  24343580.410 6  24343577.358 7 126763429.353 6  98021507.592 7
C12  22051332.239 7  22051329.111 7 114827245.129 7  88791566.402 7
C21  23111670.874 7                 120348585.134 7
C22  21499483.588 7                 111953427.854 7
E03  25801173.130 7  25801175.918 8 135585985.503 7 102570001.953 8
E05  22024262.932 8  22024263.815 8 115738236.978 8  87555262.492 8
E09  25829366.128 5  25829383.137 5 135734127.120 5 102682052.709 5
E15  25015092.682 7  25015095.701 9 131455302.136 7  99445015.825 9
E34  23259506.175 8  23259507.640 9 122229508.582 8  92465847.948 9
E36  26054136.870 7  26054141.968 7 136915400.913 7 103575637.435 7
G01  20387290.105 7                  20387294.543 8 107135872.465 7                  83482566.998 8
G02  22458927.614 7  22458929.899 5                 118022362.790 7  91965559.954 5
G03  19843747.121 7                  19843753.932 7 104279585.877 7                  81256868.047 7
G04  21834252.857 7                  21834259.565 7 114739835.473 7                  89407660.441 7
G17  22256173.891 7                  22256177.895 7 116957014.805 7                  91135325.671 7
G19  22527781.900 7  22527785.363 5                 118384196.230 7  92247526.092 5
G31  22690441.027 5                  22690448.494 5 119239155.492 5                  92913593.994 5
R03  19296498.141 7  19296503.459 7 103295673.316 7  80341064.179 7
R04  20139759.758 8  20139763.196 7 107847528.725 8  83881477.973 7
R18  19923616.010 8  19923620.098 7 106353601.322 8  82719496.896 7
R19  19590310.239 8  19590312.886 7 104794947.260 8  81507165.594 7
> 2025 06 15 13 52 15.0000000  0 21
C11  24340116.590 6  24340113.679 7 126745392.899 6  98007560.665 7
C12  22050768.752 7  22050765.075 7 114824307.854 7  88789295.106 7
C21  23108526.697 7                 120332211.158 7
C22  21499116.844 7                 111951516.289 7
E03  25797377.258 7  25797379.568 8 135566035.311 7 102554909.755 8
E05  22022649.114 8  22022650.153 8 115729757.293 8  87548847.665 8
E09  25830359.858 5  25830377.327 5 135739351.995 5 102686005.293 5
E15  25011949.845 7  25011953.235 9 131438788.590 7  99432523.451 9
E34  23258785.717 8  23258787.283 9 122225723.288 8  92462984.396 9
E36  26055495.033 7  26055500.297 7 136922538.725 7 103581037.116 7
G01  20387504.254 7                  20387508.911 8 107136999.754 7                  83483445.408 8
G02  22460430.242 7  22460433.303 5                 118030262.599 7  91971715.632 5
G03  19842331.270 7                  19842338.166 7 104272146.432 7                  81251071.073 7
G04  21830301.695 7                  21830308.261 7 114719069.310 7                  89391479.040 7
G17  22255354.844 7                  22255359.454 7 116952714.461 7                  91131974.771 7
G19  22525054.290 6  22525059.325 5                 118369868.823 6  92236361.885 5
G31  22687540.938 5                  22687547.678 5 119223913.939 5                  92901717.458 5
R03  19296515.087 7  19296519.937 7 103295762.609 7  80341133.629 7
R04  20136364.796 8  20136368.538 7 107829350.699 8  83867339.502 7
R18  19925014.174 8  19925018.808 7 106361067.818 8  82725304.169 7
R19  19587703.494 8  19587705.804 7 104781000.547 8  81496318.147 7
> 2025 06 15 13 52 20.0000000  0 21
C11  24336653.993 6  24336651.772 7 126727365.261 6  97993620.558 7
C12  22050207.548 7  22050203.646 7 114821384.782 7  88787034.810 7
C21  23105383.340 7                 120315845.067 7
C22  21498751.440 7                 111949614.433 7
E03  25793581.749 7  25793584.108 8 135546090.394 7 102539821.563 8
E05  22021037.641 8  22021038.579 8 115721288.740 8  87542441.264 8
E09  25831356.045 5  25831372.779 5 135744583.793 5 102689963.077 5
E15  25008808.195 7  25008811.783 9 131422279.970 7  99420034.797 9
E34  23258066.863 8  23258068.735 9 122221947.248 8  92460127.848 9
E36  26056854.398 7  26056859.566 7 136929681.541 7 103586440.600 7
G01  20387720.908 7                  20387726.287 8 107138140.372 7                  83484334.213 8
G02  22461936.019 7  22461938.697 5                 118038170.300 7  91977877.470 5
G03  19840918.315 7                  19840924.522 7 104264718.224 7                  81245282.856 7
G04  21826352.053 7                  21826357.699 7 114698312.529 7                  89375304.936 7
G17  22254539.562 7                  22254544.204 7 116948429.511 7                  91128635.851 7
G19  22522332.102 7  22522335.895 5                 118355557.552 7  92225210.247 5
G31  22684644.023 5                  22684649.161 4 119208686.936 5                  92889852.229 4
R03  19296534.570 8  19296539.296 7 103295867.074 8  80341214.882 7
R04  20132972.432 8  20132976.734 7 107811186.546 8  83853211.849 7
R18  19926416.338 8  19926420.622 7 106368551.540 8  82731124.813 7
R19  19585100.422 8  19585102.502 7 104767073.024 8  81485485.616 7
> 2025 06 15 13 52 25.0000000  0 21
C11  24333193.623 6  24333191.674 7 126709347.790 6  97979688.304 7
C12  22049648.808 7  22049645.629 7 114818477.269 7  88784786.523 7
C21  23102242.711 7                 120299488.226 7
C22  21498387.860 7                 111947723.616 7
E03  25789786.748 7  25789790.068 8 135526152.163 7 102524738.427 8
E05  22019428.546 8  22019429.452 8 115712832.681 8  87536044.309 8
E09  25832353.234 5  25832369.927 5 135749823.684 5 102693926.985 5
E15  25005668.014 7  25005671.516 8 131405777.674 7  99407550.917 8
E34  23257350.314 8  23257352.224 9 122218181.838 8  92457279.338 9
E36  26058214.629 6  26058219.962 7 136936830.710 6 103591848.874 7
G01  20387940.928 7                  20387945.688 8 107139295.683 7                  83485234.446 8
G02  22463442.031 7  22463445.714 5                 118046087.318 7  91984046.566 5
G03  19839507.664 8                  19839513.511 8 104257302.659 8                  81239504.490 8
G04  21822403.428 7                  21822409.577 7 114677566.467 7                  89359139.188 7
G17  22253727.806 7                  22253732.228 7 116944161.320 7                  91125309.983 7
G19  22519611.914 7  22519615.773 5                 118341263.772 7  92214072.252 5
G31  22681748.579 5                  22681753.460 4 119193475.792 5                  92877999.390 4
R03  19296557.313 8  19296561.590 7 103295988.313 8  80341309.166 7
R04  20129583.258 8  20129587.240 7 107793037.967 8  83839096.289 7
R18  19927821.939 8  19927826.027 7 106376053.815 8  82736959.915 7
R19  19582500.136 8  19582502.146 7 104753166.048 8  81474669.078 7
> 2025 06 15 13 52 30.0000000  0 21
C11  24329735.324 6  24329733.322 7 126691340.417 6  97965763.867 7
C12  22049093.731 7  22049090.441 7 114815585.211 7  88782550.194 7
C21  23099102.161 7                 120283140.538 7
C22  21498026.530 7                 111945843.781 7
E03  25785994.075 7  25785997.241 8 135506220.551 7 102509660.294 8
E05  22017821.538 8  22017822.663 8 115704389.027 8  87529656.741 8
E09  25833352.324 5  25833368.455 5 135755071.722 5 102697897.091 5
E15  25002528.628 7  25002532.373 8 131389281.570 7  99395071.724 8
E34  23256635.596 8  23256637.703 9 122214426.957 8  92454438.797 9
E36  26059576.813 6  26059581.609 7 136943986.118 6 103597261.872 7
G01  20388163.783 7                  20388168.534 8 107140465.604 7                  83486146.071 8
G02  22464951.211 7  22464954.140 5                 118054013.472 7  91990222.775 5
G03  19838098.403 7                  19838104.548 8 104249899.611 7                  81233735.884 8
G04  21818457.783 7                  21818463.818 7 114656831.060 7                  89342981.739 7
G17  22252918.503 7                  22252922.681 7 116939909.762 7                  91121997.071 7
G19  22516895.218 7  22516899.109 5                 118326987.353 7  92202947.773 5
G31  22678857.121 5                  22678860.921 4 119178280.505 5                  92866158.927 4
R03  19296583.371 8  19296587.545 7 103296126.298 8  80341416.481 7
R04  20126196.478 7  20126200.977 7 107774904.629 7  83824992.590 7
R18  19929230.895 8  19929234.996 7 106383574.544 8  82742809.357 7
R19  19579904.284 8  19579906.426 7 104739279.492 8  81463868.452 7
> 2025 06 15 13 52 35.0000000  0 21
C11  24326279.703 6  24326276.932 7 126673342.671 6  97951846.888 7
C12  22048541.255 7  22048537.767 7 114812708.122 7  88780325.436 7
C21  23095965.257 7                 120266801.499 7
C22  21497667.723 7                 111943974.363 7
E03  25782201.762 7  25782205.605 8 135486295.015 7 102494586.775 8
E05  22016216.916 8  22016218.174 8 115695957.258 8  87523278.160 8
E09  25834352.667 5  25834368.660 5 135760327.369 5 102701872.965 5
E15  24999390.551 7  24999394.345 8 131372791.191 7  99382596.866 8
E34  23255923.188 8  23255925.042 9 122210682.115 8  92451605.843 9
E36  26060939.861 6  26060944.385 7 136951147.305 6 103602679.235 7
G01  20388388.943 7                  20388393.907 8 107141649.607 7                  83487068.680 8
G02  22466460.233 7  22466464.150 5                 118061948.322 7  91996405.758 5
G03  19836692.279 7                  19836698.053 8 104242508.573 7                  81227976.620 8
G04  21814513.518 7                  21814520.021 7 114636105.821 7                  89326832.198 7
G17  22252112.631 7                  22252116.928 7 116935674.339 7                  91118696.754 7
G19  22514181.187 7  22514185.385 5                 118312727.819 7  92191836.454 5
G31  22675969.371 5                  22675971.738 5 119163100.515 5                  92854330.348 5
R03  19296611.484 8  19296615.859 7 103296280.176 8  80341536.157 7
R04  20122813.291 8  20122816.919 7 107756786.187 8  83810900.484 7
R18  19930643.749 8  19930647.542 7 106391113.245 8  82748672.779 7
R19  19577313.023 8  19577314.482 7 104725412.934 8  81453083.339 7
> 2025 06 15 13 52 40.0000000  0 21
C11  24322824.961 6  24322822.631 7 126655354.062 6  97937936.968 7
C12  22047991.832 7  22047987.757 7 114809845.504 7  88778111.874 7
C21  23092829.033 7                 120250470.644 7
C22  21497310.571 7                 111942114.944 7
E03  25778411.472 7  25778414.954 8 135466375.139 7 102479517.546 8
E05  22014614.434 8  22014615.819 8 115687536.938 8  87516908.251 8
E09  25835353.898 4  25835370.269 5 135765590.189 4 102705854.235 5
E15  24996253.540 7  24996257.340 8 131356306.088 7  99370125.987 8
E34  23255212.280 8  23255214.222 9 122206946.845 8  92448780.139 9
E36  26062304.244 6  26062308.169 8 136958313.733 6 103608100.572 8
G01  20388616.850 8                  20388621.615 8 107142847.268 8                  83488001.904 8
G02  22467972.198 7  22467975.172 5                 118069891.372 7  92002595.125 5
G03  19835287.871 8                  19835294.036 8 104235129.137 8                  81222226.410 8
G04  21810571.473 7                  21810577.220 7 114615390.232 7                  89310690.189 7
G17  22251310.239 7                  22251314.381 7 116931454.624 7                  91115408.667 7
G19  22511471.494 7  22511474.977 5                 118298484.714 7  92180737.948 5
G31  22673084.042 6                  22673087.090 5 119147935.420 6                  92842513.334 5
R03  19296642.952 8  19296648.407 8 103296449.967 8  80341668.224 8
R04  20119432.123 8  20119436.141 7 107738682.108 8  83796819.532 7
R18  19932058.783 8  19932062.898 7 106398669.462 8  82754549.842 7
R19  19574724.393 8  19574725.859 7 104711565.926 8  81442313.439 7
> 2025 06 15 13 52 45.0000000  0 21
C11  24319372.869 6  24319370.205 7 126637375.875 6  97924035.102 7
C12  22047445.214 7  22047441.281 8 114806998.631 7  88775910.498 8
C21  23089695.280 7                 120234149.236 7
C22  21496955.832 7                 111940266.708 7
E03  25774621.846 7  25774625.716 8 135446462.120 7 102464453.497 8
E05  22013014.758 8  22013015.863 8 115679129.271 8  87510547.909 8
E09  25836358.612 4                                
E15  24993117.665 7  24993121.531 8 131339827.445 7  99357660.016 8
E34  23254503.583 8  23254505.486 9 122203222.373 8  92445962.601 9
E36  26063668.977 6  26063673.128 7 136965486.688 6 103613526.863 7
G01  20388847.709 8                  20388852.560 8 107144059.783 8                  83488946.722 8
G02  22469484.892 7  22469488.819 5                 118077843.836 7  92008791.849 5
G03  19833886.531 8                  19833892.260 8 104227762.462 8                  81216486.151 8
G04  21806631.544 7                  21806636.886 7 114594685.561 7                  89294556.682 7
G17  22250511.122 7                  22250514.726 7 116927251.826 7                  91112133.766 7
G19  22508764.624 7  22508767.943 5                 118284259.315 7  92169653.255 5
G31  22670201.491 6                  22670205.010 5 119132786.404 6                  92830708.947 5
R03  19296677.636 8  19296682.991 8 103296636.514 8  80341813.319 8
R04  20116055.256 8  20116058.579 7 107720593.535 8  83782750.643 7
R18  19933478.037 8  19933482.325 7 106406244.326 8  82760441.410 7
R19  19572139.819 8  19572141.341 7 104697739.697 8  81431559.714 7
> 2025 06 15 13 52 50.0000000  0 21
C11  24315921.959 6  24315919.280 7 126619407.021 6  97910140.443 7
C12  22046901.733 7  22046897.315 8 114804166.426 7  88773720.453 8
C21  23086561.918 7                 120217836.213 7
C22  21496603.262 7                 111938428.671 7
E03  25770833.800 7  25770837.496 8 135426554.983 7 102449393.899 8
E05  22011417.008 8  22011418.190 9 115670733.243 8  87504196.366 9
E09  25837357.745 4  25837377.651 5 135776139.68914 102713834.94015
E15  24989982.844 7  24989986.744 8 131323354.302 7  99345198.198 8
E34  23253796.427 8  23253798.580 9 122199507.679 8  92443152.461 9
E36  26065035.156 6  26065039.178 8 136972665.101 6 103618957.271 8
G01  20389080.903 7                  20389085.673 8 107145286.128 7                  83489902.306 8
G02  22471000.203 7  22471003.626 5                 118085804.672 7  92014995.081 5
G03  19832486.471 8                  19832492.558 8 104220407.560 8                  81210755.051 8
G04  21802693.740 7                  21802699.302 7 114573990.825 7                  89278430.922 7
G17  22249713.816 7                  22249717.917 7 116923064.869 7                  91108871.188 7
G19  22506060.500 6  22506064.367 5                 118270050.569 6  92158581.507 5
G31  22667320.739 6                  22667325.799 5 119117652.508 6                  92818916.308 5
R03  19296714.910 8  19296720.908 8 103296838.886 8  80341970.730 8
R04  20112679.484 8  20112682.964 7 107702519.608 8  83768693.145 7
R18  19934900.755 8  19934904.618 7 106413836.931 8  82766346.754 7
R19  19569558.150 8  19569560.471 7 104683933.189 8  81420821.322 7
> 2025 06 15 13 52 55.0000000  0 21
C11  24312473.474 6  24312470.653 7 126601448.834 6  97896254.030 7
C12  22046360.490 7  22046356.730 8 114801350.188 7  88771542.767 8
C21  23083431.406 7                 120201532.862 7
C22  21496251.920 7                 111936602.071 7
E03  25767046.751 7  25767050.685 8 135406654.975 7 102434339.688 8
E05  22009822.116 8  22009822.943 9 115662350.139 8  87497854.591 9
E09  25838365.017 4  25838383.242 5 135781426.741 4 102717834.553 5
E15  24986849.938 7  24986853.340 8 131306887.898 7  99332741.476 8
E34  23253091.607 8  23253093.785 9 122195804.031 8  92440350.678 9
E36  26066402.062 6  26066406.424 7 136979850.296 6 103624392.808 7
G01  20389317.315 7                  20389322.011 8 107146527.575 7                  83490869.654 8
G02  22472516.833 7  22472520.005 5                 118093775.148 7  92021205.839 5
G03  19831088.921 8                  19831095.503 8 104213065.683 8                  81205034.123 8
G04  21798756.939 7                  21798763.868 7 114553307.273 7                  89262313.864 7
G17  22248920.491 7                  22248924.243 7 116918895.098 7                  91105622.027 7
G19  22503359.666 6  22503364.118 5                 118255859.723 6  92147523.735 5
G31  22664444.058 6                  22664449.680 5 119102535.037 6                  92807136.458 5
R03  19296756.333 8  19296761.814 7 103297058.412 8  80342141.467 7
R04  20109307.056 8  20109310.409 7 107684461.494 8  83754647.941 7
R18  19936326.630 8  19936330.261 7 106421448.388 8  82772266.755 7
R19  19566981.893 8  19566983.228 7 104670147.853 8  81410099.393 7
> 2025 06 15 13 53  0.0000000  0 21
C11  24309026.216 6  24309023.864 7 126583500.254 6  97882375.053 7
C12  22045822.494 7  22045818.867 8 114798548.864 7  88769376.606 8
C21  23080301.812 7                 120185238.160 7
C22  21495902.673 7                 111934785.888 7
E03  25763261.243 7  25763265.027 8 135386761.094 7 102419290.120 8
E05  22008228.838 8  22008229.971 9 115653978.885 8  87491521.794 9
E09  25839372.213 4  25839390.371 5 135786721.271 4 102721839.877 5
E15  24983717.401 7  24983720.920 8 131290427.208 7  99320289.072 8
E34  23252388.844 8  23252390.957 9 122192110.407 8  92437556.470 9
E36  26067770.104 6  26067774.827 7 136987041.168 6 103629832.666 7
G01  20389555.784 7                  20389561.211 8 107147783.081 7                  83491847.984 8
G02  22474035.172 7  22474038.155 5                 118101754.240 7  92027423.305 5
G03  19829694.307 8                  19829700.952 8 104205735.827 8                  81199322.548 8
G04  21794823.627 7                  21794829.916 7 114532633.924 7                  89246204.766 7
G17  22248130.213 7                  22248133.822 7 116914741.462 7                  91102385.417 7
G19  22500663.140 7  22500666.956 5                 118241685.814 7  92136479.149 5
G31  22661569.853 6                  22661576.907 5 119087432.876 6                  92795368.520 5
R03  19296799.601 8  19296805.541 8 103297293.877 8  80342324.598 8
R04  20105937.858 8  20105941.762 7 107666418.212 8  83740614.293 7
R18  19937755.926 8  19937759.686 7 106429077.775 8  82778200.709 7
R19  19564408.689 8  19564409.770 7 104656382.485 8  81399392.979 7
> 2025 06 15 13 53  5.0000000  0 21
C11  24305581.532 6  24305578.864 7 126565560.766 6  97868503.116 7
C12  22045287.530 7  22045283.467 8 114795761.908 7  88767221.558 8
C21  23077173.646 7                 120168951.542 7
C22  21495555.611 7                 111932979.540 7
E03  25759475.914 7  25759480.374 8 135366872.747 7 102404244.734 8
E05  22006638.058 8  22006639.128 9 115645618.952 8  87485197.557 9
E09  25840379.982 4  25840398.895 5 135792022.844 4 102725850.502 5
E15  24980586.015 7  24980589.536 8 131273971.702 7  99307840.597 8
E34  23251687.596 8  23251689.859 9 122188426.230 8  92434769.419 9
E36  26069139.432 6  26069144.206 7 136994237.200 6 103635276.401 7
G01  20389797.813 7                  20389802.738 8 107149052.080 7                  83492836.806 8
G02  22475554.620 7  22475557.973 5                 118109741.375 7  92033647.024 5
G03  19828301.573 8                  19828308.088 7 104198417.374 8                  81193619.865 7
G04  21790891.359 7                  21790897.876 7 114511970.168 7                  89230103.144 7
G17  22247342.167 7                  22247346.247 7 116910603.368 7                  91099160.941 7
G19  22497969.170 7  22497972.936 5                 118227528.250 7  92125447.268 5
G31  22658699.664 6                  22658705.373 5 119072345.580 6                  92783612.145 5
R03  19296846.201 7  19296852.680 8 103297544.917 7  80342519.854 8
R04  20102570.844 8  20102574.870 7 107648389.094 8  83726591.663 7
R18  19939188.666 8  19939192.324 7 106436724.420 8  82784148.097 7
R19  19561839.502 8  19561840.113 7 104642636.560 8  81388701.697 7
> 2025 06 15 13 53 10.0000000  0 21
C11  24302137.902 6  24302135.374 7 126547631.283 6  97854638.898 7
C12  22044755.447 7  22044751.219 8 114792990.275 7  88765078.353 8
C21  23074047.224 7                 120152673.922 7
C22  21495210.563 7                 111931183.926 7
E03  25755692.889 7  25755696.948 8 135346990.889 7 102389204.258 8
E05  22005049.235 8  22005050.636 8 115637271.232 8  87478882.573 8
E09  25841390.676 4  25841409.002 5 135797332.267 4 102729867.012 5
E15  24977455.915 7  24977459.319 8 131257522.302 7  99295396.731 8
E34  23250988.404 8  23250990.752 9 122184752.444 8  92431990.219 9
E36  26070510.319 6  26070514.760 7 137001439.329 6 103640724.747 7
G01  20390042.471 7                  20390046.983 8 107150335.504 7                  83493836.884 8
G02  22477075.966 7  22477079.172 5                 118117737.499 7  92039877.744 5
G03  19826911.391 8                  19826917.751 7 104191111.303 8                  81187926.830 7
G04  21786961.029 7                  21786967.862 7 114491316.964 7                  89214009.750 7
G17  22246558.540 7                  22246562.133 7 116906481.770 7                  91095949.293 7
G19  22495277.905 7  22495282.011 5                 118213387.979 7  92114428.892 5
G31  22655831.918 6                  22655837.147 5 119057273.991 6                  92771868.038 5
R03  19296896.380 7  19296902.570 7 103297812.319 7  80342727.832 7
R04  20099206.333 8  20099210.973 7 107630375.177 8  83712580.858 7
R18  19940624.451 8  19940628.098 7 106444389.281 8  82790109.642 7
R19  19559273.071 8  19559274.331 7 104628911.106 8  81378026.346 7
> 2025 06 15 13 53 15.0000000  0 21
C11  24298697.011 6  24298694.126 7 126529711.707 6  97840782.359 7
C12  22044226.352 7  22044221.618 8 114790233.837 7  88762946.906 8
C21  23070923.092 7                 120136405.257 7
C22  21494868.270 7                 111929398.991 7
E03  25751910.904 7  25751914.723 8 135327115.440 7 102374168.617 8
E05  22003463.157 8  22003464.463 9 115628935.680 8  87472576.776 9
E09  25842403.817 4  25842420.605 5 135802649.46314 102733889.46915
E15  24974326.718 7  24974330.255 8 131241078.915 7  99282957.421 8
E34  23250291.582 8  23250293.641 9 122181088.978 8  92429218.829 9
E36  26071881.364 6  26071886.374 7 137008647.383 6 103646177.584 7
G01  20390289.147 7                  20390293.942 8 107151633.276 7                  83494848.139 8
G02  22478599.202 7  22478602.274 5                 118125742.486 7  92046115.392 5
G03  19825522.813 8                  19825529.751 7 104183817.518 8                  81182243.359 7
G04  21783033.169 7                  21783039.958 7 114470674.235 7                  89197924.523 7
G17  22245776.674 7                  22245780.803 7 116902376.566 7                  91092750.421 7
G19  22492590.203 7  22492594.680 5                 118199264.911 7  92103423.921 5
G31  22652966.043 6                  22652972.049 5 119042218.070 6                  92760136.133 5
R03  19296949.376 8  19296955.706 7 103298096.053 8  80342948.508 7
R04  20095845.549 8  20095850.127 7 107612376.449 8  83698581.849 7
R18  19942062.943 8  19942066.591 7 106452072.262 8  82796085.298 7
R19  19556711.413 8  19556712.848 7 104615205.957 8  81367366.796 7
> 2025 06 15 13 53 20.0000000  0 21
C11  24295257.582 6  24295254.441 7 126511801.940 6  97826933.396 7
C12  22043699.793 7  22043695.212 8 114787492.434 7  88760827.069 8
C21  23067800.190 7                 120120145.316 7
C22  21494527.915 7                 111927624.518 7
E03  25748130.462 7  25748133.683 8 135307246.207 7 102359137.685 8
E05  22001879.323 8  22001880.554 8 115620612.085 8  87466280.040 8
E09  25843416.668 4  25843433.780 5 135807974.248 4 102737917.650 5
E15  24971198.793 7  24971202.300 8 131224641.354 7  99270522.515 8
E34  23249596.213 8  23249598.420 9 122177435.611 8  92426455.079 9
E36  26073254.421 6  26073259.141 7 137015861.245 6 103651634.820 7
G01  20390538.879 7                  20390543.660 8 107152945.177 7                  83495870.405 8
G02  22480124.251 7  22480126.989 5                 118133756.137 7  92052359.775 5
G03  19824137.810 8                  19824144.005 7 104176535.830 8                  81176569.315 7
G04  21779107.135 7                  21779113.695 8 114450041.803 7                  89181847.325 8
G17  22244998.425 7                  22245002.911 7 116898287.578 7                  91089564.188 7
G19  22489905.479 6  22489910.434 5                 118185158.852 6  92092432.190 5
G31  22650104.185 6                  22650110.892 5 119027177.674 6                  92748416.338 5
R03  19297005.568 8  19297011.199 7 103298396.013 8  80343181.798 7
R04  20092487.797 8  20092491.941 7 107594392.660 8  83684594.475 7
R18  19943505.812 8  19943509.654 7 106459773.227 8  82802074.930 7
R19  19554152.914 8  19554154.107 7 104601520.963 8  81356722.917 7
> 2025 06 15 13 53 25.0000000  0 21
C11  24291820.108 6  24291816.816 7 126493900.730 6  97813091.065 7
C12  22043175.695 7  22043171.344 7 114784764.826 7  88758717.921 7
C21  23064679.951 7                 120103892.899 7
C22  21494189.131 7                 111925859.324 7
E03  25744350.233 7  25744353.572 8 135287381.994 7 102344110.543 8
E05  22000297.487 8  22000298.685 8 115612299.234 8  87459991.418 8
E09  25844430.564 4  25844448.188 5 135813305.425 4 102741950.639 5
E15  24968071.632 7  24968075.195 9 131208208.421 7  99258091.117 9
E34  23248902.595 8  23248904.918 9 122173791.154 8  92423698.069 9
E36  26074627.258 6  26074632.751 7 137023079.698 6 103657095.534 7
G01  20390790.693 7                  20390796.066 8 107154270.024 7                  83496902.752 8
G02  22481650.990 7  22481653.150 5                 118141777.233 7  92058609.979 5
G03  19822753.919 8                  19822760.202 7 104169264.995 8                  81170903.735 7
G04  21775182.532 7                  21775189.058 7 114429418.453 7                  89165777.199 7
G17  22244222.871 7                  22244227.309 7 116894213.533 7                  91086389.604 7
G19  22487225.230 7  22487229.115 5                 118171068.667 7  92081452.828 5
G31  22647244.628 6                  22647251.371 5 119012151.587 6                  92736707.684 5
R03  19297063.800 7  19297069.701 7 103298710.703 7  80343426.545 7
R04  20089132.252 8  20089135.954 7 107576422.529 8  83670617.719 7
R18  19944951.549 8  19944955.572 7 106467490.839 8  82808077.520 7
R19  19551598.126 8  19551599.359 7 104587854.950 8  81346093.796 7
> 2025 06 15 13 53 30.0000000  0 20
C11  24288383.765 6  24288381.144 7 126476010.086 6  97799256.882 7
C12  22042654.672 7  22042650.881 8 114782053.064 7  88756621.006 8
C21  23061560.566 7                 120087650.052 7
C22  21493852.656 7                 111924105.381 7
E03  25740571.602 7  25740574.842 8 135267524.827 7 102329088.733 8
E05  21998717.895 8  21998719.265 8 115603999.159 8  87453712.465 8
E15  24964945.498 7  24964949.409 8 131191782.161 7  99245664.771 8
E34  23248211.516 8  23248213.479 9 122170157.621 8  92420949.324 9
E36  26076001.674 6  26076007.611 7 137030304.725 6 103662561.216 7
G01  20391045.555 7                  20391050.981 8 107155609.827 7                  83497946.745 8
G02  22483178.887 7  22483181.482 5                 118149807.826 7  92064867.571 5
G03  19821372.371 7                  19821379.050 7 104162007.085 7                  81165248.215 7
G04  21771260.003 7                  21771266.679 7 114408806.245 7                  89149715.745 7
G17  22243450.369 7                  22243455.255 7 116890156.513 7                  91083228.298 7
G19  22484546.524 6  22484551.275 5                 118156996.324 6  92070487.363 5
G31  22644388.614 6                  22644394.865 5 118997141.815 6                  92725011.792 5
R03  19297126.385 7  19297131.802 7 103299042.173 7  80343684.354 7
R04  20085780.119 8  20085782.707 7 107558468.120 8  83656653.191 7
R18  19946401.213 8  19946404.499 7 106475227.239 8  82814094.713 7
R19  19549047.111 8  19549048.795 7 104574209.908 8  81335480.979 7
> 2025 06 15 13 53 35.0000000  0 20
C11  24284950.133 6  24284947.497 7 126458130.222 6  97785431.039 7
C12  22042136.720 7  22042133.374 7 114779357.332 7  88754536.496 7
C21  23058443.300 7                 120071416.981 7
C22  21493518.262 7                 111922362.921 7
E03  25736794.423 7  25736797.502 8 135247674.920 7 102314072.420 8
E05  21997140.896 8  21997142.306 9 115595712.059 8  87447443.332 9
E15  24961821.102 7  24961824.906 9 131175362.776 7  99233243.621 9
E34  23247522.175 8  23247524.169 9 122166535.234 8  92418209.011 9
E36  26077378.258 6  26077383.765 7 137037536.546 6 103668032.037 7
G01  20391303.474 7                  20391308.717 8 107156964.791 7                  83499002.547 8
G02  22484708.721 7  22484711.799 5                 118157848.101 7  92071132.716 5
G03  19819994.071 8                  19820000.451 7 104154762.303 8                  81159602.924 7
G04  21767339.716 7                  21767346.230 7 114388205.367 7                  89133663.121 7
G17  22242681.621 7                  22242686.805 7 116886116.715 7                  91080080.407 7
G19  22481872.682 7  22481877.069 5                 118142942.029 7  92059535.978 5
G31  22641535.891 6                  22641541.838 5 118982148.604 6                  92713328.806 5
R03  19297192.355 7  19297197.106 7 103299390.838 7  80343955.532 7
R04  20082430.770 8  20082433.321 7 107540529.788 8  83642701.164 7
R18  19947853.768 8  19947857.434 7 106482982.536 8  82820126.598 7
R19  19546499.877 8  19546502.138 7 104560586.262 8  81324884.806 7
> 2025 06 15 13 53 40.0000000  0 20
C11  24281518.600 6  24281515.395 7 126440259.375 6  97771612.175 7
C12  22041621.257 7  22041618.566 7 114776675.787 7  88752462.950 7
C21  23055327.786 7                 120055191.853 7
C22  21493185.200 7                 111920630.126 7
E03  25733018.095 7  25733021.177 8 135227830.428 7 102299060.201 8
E05  21995566.216 8  21995567.478 9 115587436.111 8  87441182.635 9
E15  24958697.948 7  24958701.380 9 131158948.437 7  99220826.295 9
E34  23246834.754 8  23246836.624 9 122162922.156 8  92415475.741 9
E36  26078755.130 6  26078760.872 7 137044773.371 6 103673506.621 7
G01  20391564.172 7                  20391569.193 8 107158333.084 7                  83500068.734 8
G02  22486240.514 7  22486243.200 5                 118165896.209 7  92077403.965 5
G03  19818617.561 7                  19818623.808 7 104147528.776 7                  81153966.406 7
G04  21763420.865 7                  21763427.687 7 114367614.004 7                  89117617.918 7
G17  22241916.303 7                  22241920.978 7 116882092.313 7                  91076944.508 7
G19  22479200.429 7  22479205.639 5                 118128904.008 7  92048597.268 5
G31  22638686.082 6                  22638690.331 5 118967170.130 6                  92701657.285 5
R03  19297260.959 7  19297265.394 7 103299754.775 7  80344238.581 7
R04  20079082.717 8  20079086.182 7 107522605.507 8  83628760.060 7
R18  19949310.522 8  19949313.910 7 106490754.908 8  82826171.760 7
R19  19543956.489 8  19543959.050 7 104546981.940 8  81314303.680 7
> 2025 06 15 13 53 45.0000000  0 20
C11  24278088.344 6  24278085.299 7 126422398.067 6  97757800.691 7
C12  22041109.458 7  22041106.636 7 114774009.007 7  88750400.830 7
C21  23052213.516 7                 120038975.234 7
C22  21492854.476 7                 111918907.513 7
E03  25729242.907 7  25729245.985 8 135207991.928 7 102284052.522 8
E05  21993993.517 8  21993994.835 8 115579171.854 8  87434930.780 8
E15  24955575.369 7  24955578.912 9 131142539.705 7  99208413.202 9
E34  23246148.908 8  23246150.957 9 122159318.957 8  92412749.942 9
E36  26080133.363 6  26080139.023 7 137052015.706 6 103678985.386 7
G01  20391827.485 7                  20391832.388 8 107159715.242 7                  83501145.740 8
G02  22487773.153 7  22487776.572 5                 118173952.701 7  92083681.745 5
G03  19817243.609 8                  19817249.717 8 104140307.091 8                  81148339.124 8
G04  21759504.882 7                  21759510.800 7 114347032.705 7                  89101580.553 7
G17  22241153.264 7                  22241158.208 7 116878083.873 7                  91073821.060 7
G19  22476533.470 7  22476537.715 5                 118114882.804 7  92037671.669 5
G31  22635838.509 6                  22635843.783 5 118952206.894 6                  92689997.631 5
R03  19297331.554 8  19297335.912 7 103300134.436 8  80344533.874 7
R04  20075737.857 8  20075741.615 7 107504695.985 8  83614830.443 7
R18  19950769.995 8  19950772.845 7 106498544.886 8  82832230.602 7
R19  19541416.491 7  19541419.823 7 104533397.506 7  81303738.030 7
> 2025 06 15 13 53 50.0000000  0 21
C11  24274659.676 6  24274657.428 7 126404546.616 6  97743996.820 7
C12  22040599.845 7  22040597.175 7 114771357.269 7  88748350.326 7
C21  23049100.746 7                 120022767.403 7
C22  21492525.447 7                 111917195.392 7
E03  25725468.578 7  25725472.017 8 135188159.749 7 102269049.613 8
E05  21992422.854 8  21992424.467 9 115570919.604 8  87428688.001 9
E15  24952454.196 7  24952457.593 9 131126136.890 7  99196004.585 9
E34  23245465.167 8  23245467.208 9 122155725.914 8  92410031.829 9
E36  26081513.349 6  26081518.247 7 137059263.849 6 103684468.538 7
G01  20392093.096 7                  20392097.878 8 107161111.571 7                  83502233.772 8
G02  22489308.350 7  22489311.368 5                 118182017.875 7  92089966.286 5
G03  19815871.468 8                  19815877.724 8 104133097.551 8                  81142721.302 8
G04  21755590.199 7                  21755596.211 7 114326461.813 7                  89085551.285 7
G17  22240393.172 7                  22240398.434 7 116874091.616 7                  91070710.198 7
G19  22473868.508 7  22473872.905 5                 118100878.745 7  92026759.429 5
G28  23078687.550 5                  23078696.187 5 121279322.79215                  94503401.60115
G31  22632992.775 6                  22632998.936 5 118937259.314 6                  92678350.184 5
R03  19297406.495 8  19297410.406 7 103300530.291 8  80344841.754 7
R04  20072396.471 8  20072399.909 7 107486801.345 8  83600912.391 7
R18  19952232.539 8  19952235.839 7 106506352.753 8  82838303.375 7
R19  19538881.364 8  19538883.979 7 104519833.404 8  81293188.178 7
> 2025 06 15 13 53 55.0000000  0 21
C11  24271233.533 6  24271230.927 7 126386705.382 6  97730200.853 7
C12  22040093.700 7  22040090.646 7 114768720.947 7  88746311.749 7
C21  23045989.472 7                 120006568.707 7
C22  21492198.534 7                 111915494.088 7
E03  25721695.964 7  25721699.296 8 135168334.198 7 102254051.724 8
E05  21990855.093 8  21990856.511 9 115562679.694 8  87422454.563 9
E15  24949333.848 7  24949337.402 9 131109740.333 7  99183600.702 9
E34  23244783.317 8  23244785.474 9 122152143.383 8  92407321.661 9
E36  26082894.079 6  26082898.683 7 137066518.110 6 103689956.325 7
G01  20392361.642 8                  20392366.306 8 107162522.423 8                  83503333.131 8
G02  22490844.562 7  22490847.800 5                 118190092.081 7  92096257.878 5
G03  19814501.905 8                  19814508.201 8 104125900.452 8                  81137113.173 8
G04  21751677.255 7                  21751683.486 7 114305901.658 7                  89069530.385 7
G17  22239637.625 7                  22239642.385 7 116870115.933 7                  91067612.257 7
G19  22471207.215 7  22471211.498 5                 118086892.159 7  92015860.806 5
G28  23077634.631 5                  23077643.779 5 121273801.039 5                  94499098.918 5
G31  22630151.135 6                  22630156.374 5 118922327.709 6                  92666715.168 5
R03  19297482.669 8  19297487.082 7 103300942.318 8  80345162.229 7
R04  20069057.184 8  20069060.980 7 107468922.163 8  83587006.357 7
R18  19953698.820 8  19953702.083 7 106514178.858 8  82844390.319 7
R19  19536349.449 8  19536351.971 7 104506289.993 8  81282654.418 7
> 2025 06 15 13 54  0.0000000  0 21
C11  24267808.961 6  24267806.528 7 126368873.553 6  97716412.151 7
C12  22039590.048 7  22039587.025 8 114766099.239 7  88744284.474 8
C21  23042880.557 7                 119990378.347 7
C22  21491873.705 7                 111913802.823 7
E03  25717924.164 7  25717927.655 8 135148514.486 7 102239058.252 8
E05  21989289.434 8  21989290.694 9 115554451.320 8  87416229.846 9
E15  24946214.751 7  24946218.291 9 131093349.243 7  99171200.956 9
E34  23244103.408 8  23244105.595 9 122148570.560 8  92404618.842 9
E36  26084276.086 6  26084280.177 7 137073777.776 6 103695448.191 7
G01  20392633.385 8                  20392637.344 8 107163946.952 8                  83504443.149 8
G02  22492382.807 7  22492385.939 5                 118198174.507 7  92102555.854 5
G03  19813135.154 8                  19813140.950 7 104118715.048 8                  81131514.157 7
G04  21747766.685 7                  21747772.683 7 114285351.431 7                  89053517.229 7
G17  22238883.982 7                  22238888.952 7 116866156.009 7                  91064526.595 7
G19  22468549.119 7  22468552.967 5                 118072922.212 7  92004975.144 5
G28  23076589.495 5                  23076594.970 4 121268296.535 5                  94494809.656 4
G31  22627312.644 6                  22627316.633 4 118907411.219 6                  92655091.957 4
R03  19297562.782 8  19297566.906 7 103301370.128 8  80345494.967 7
R04  20065721.152 8  20065724.614 7 107451057.447 8  83573111.586 7
R18  19955167.691 8  19955171.451 7 106522022.375 8  82850490.824 7
R19  19533821.144 8  19533824.051 7 104492766.392 8  81272136.071 7
> 2025 06 15 13 54  5.0000000  0 21
C11  24264385.400 6  24264384.410 7 126351051.665 6  97702631.127 7
C12  22039090.082 7  22039086.406 8 114763492.569 7  88742268.814 8
C21  23039772.748 7                 119974196.838 7
C22  21491550.704 7                 111912122.052 7
E03  25714153.532 7  25714157.286 8 135128701.119 7 102224069.588 8
E05  21987725.619 8  21987727.138 8 115546234.976 8  87410014.238 8
E15  24943097.007 7  24943100.312 9 131076964.119 7  99158805.711 9
E34  23243425.364 8  23243427.628 9 122145007.949 8  92401923.744 9
E36  26085658.705 6  26085662.688 7 137081043.201 6 103700944.444 7
G01  20392906.777 8                  20392911.097 8 107165385.690 8                  83505564.248 8
G02  22493922.221 7  22493925.554 5                 118206265.659 7  92108860.638 5
G03  19811770.145 8                  19811775.715 7 104111541.791 8                  81125924.611 7
G04  21743858.271 7                  21743864.413 7 114264811.631 7                  89037512.205 7
G17  22238133.185 7                  22238138.735 7 116862212.349 7                  91061453.623 7
G19  22465893.412 7  22465897.799 5                 118058969.456 7  91994102.863 5
G28  23075544.612 4                  23075549.373 4 121262809.747 4                  94490534.257 4
G31  22624476.711 6                  22624480.362 4 118892510.422 6                  92643481.003 4
R03  19297645.765 8  19297649.873 7 103301814.047 8  80345840.238 7
R04  20062387.936 8  20062391.556 7 107433207.891 8  83559228.605 7
R18  19956640.229 8  19956644.084 7 106529883.761 8  82856605.239 7
R19  19531297.075 8  19531299.508 7 104479263.152 8  81261633.566 7
> 2025 06 15 13 54 10.0000000  0 21
C11  24260965.748 6  24260963.161 7 126333238.740 6  97688857.031 7
C12  22038591.930 7  22038588.277 7 114760900.063 7  88740264.123 7
C21  23036666.293 7                 119958023.230 7
C22  21491229.760 7                 111910450.851 7
E03  25710383.702 7  25710387.916 8 135108893.158 7 102209085.020 8
E05  21986164.531 8  21986165.731 8 115538029.719 8  87403807.020 8
E15  24939979.246 7  24939983.271 9 131060584.033 7  99146414.290 9
E34  23242749.576 8  23242751.426 9 122141454.604 8  92399235.662 9
E36  26087042.617 7  26087046.183 7 137088313.569 7 103706444.420 7
G01  20393182.729 7                  20393187.321 8 107166837.675 7                  83506695.658 8
G02  22495463.979 7  22495466.621 5                 118214364.571 7  92115171.465 5
G03  19810407.382 8                  19810413.047 8 104104379.771 8                  81120343.817 8
G04  21739951.164 7                  21739957.559 7 114244281.369 7                  89021514.611 7
G17  22237385.906 7                  22237390.935 7 116858284.017 7                  91058392.595 7
G19  22463241.148 7  22463245.792 5                 118045032.984 7  91983243.274 5
G28  23074503.943 4                                 121257339.681 4                
G31  22621643.739 6                  22621648.239 5 118877624.367 6                  92631881.532 5
R03  19297731.355 8  19297735.229 7 103302273.011 8  80346197.214 7
R04  20059056.947 8  20059061.142 7 107415372.310 8  83545356.507 7
R18  19958115.742 8  19958120.437 7 106537762.111 8  82862732.857 7
R19  19528776.369 8  19528778.743 7 104465779.288 8  81251146.126 7
> 2025 06 15 13 54 15.0000000  0 21
C11  24257546.096 6  24257544.595 7 126315435.457 6  97675090.436 7
C12  22038097.139 7  22038093.414 8 114758322.337 7  88738270.854 8
C21  23033562.322 7                 119941858.169 7
C22  21490910.826 7                 111908789.833 7
E03  25706616.018 7  25706619.701 8 135089091.256 7 102194105.013 8
E05  21984605.118 8  21984606.513 8 115529836.183 8  87397608.661 8
E15  24936863.727 7  24936867.316 9 131044209.608 7  99134027.149 9
E34  23242075.271 8  23242077.096 9 122137911.189 8  92396555.085 9
E36  26088426.947 7  26088430.814 7 137095589.466 7 103711948.574 7
G01  20393461.840 7                  20393466.245 8 107168303.549 7                  83507837.901 8
G02  22497006.831 7  22497009.086 5                 118222471.822 7  92121488.785 5
G03  19809046.621 8                  19809052.356 7 104097229.616 8                  81114772.271 7
G04  21736046.053 7                  21736052.837 7 114223761.231 7                  89005524.914 7
G17  22236641.111 7                  22236646.720 7 116854371.653 7                  91055344.007 7
G19  22460592.540 7  22460597.047 5                 118031113.389 7  91972396.853 5
G28  23073466.694 4                  23073471.622 4 121251887.094 4                  94482007.14514
G31  22618813.714 5                  22618819.910 5 118862753.718 5                  92620294.018 5
R03  19297819.655 8  19297823.564 7 103302747.740 8  80346566.462 7
R04  20055729.447 8  20055733.590 7 107397551.524 8  83531495.906 7
R18  19959594.686 8  19959599.477 7 106545657.982 8  82868874.102 7
R19  19526259.941 8  19526261.925 7 104452315.462 8  81240674.265 7
> 2025 06 15 13 54 20.0000000  0 21
C11  24254129.144 6  24254127.570 7 126297641.353 6  97661330.895 7
C12  22037605.267 7  22037601.331 7 114755758.917 7  88736288.655 7
C21  23030459.638 7                 119925701.151 7
C22  21490593.579 7                 111907138.538 7
E03  25702848.567 7  25702852.551 8 135069294.934 7 102179129.236 8
E05  21983048.400 8  21983049.436 8 115521653.889 8  87391418.811 8
E15  24933749.104 7  24933752.318 9 131027840.393 7  99121643.942 9
E34  23241402.988 8  23241404.593 9 122134377.172 8  92393881.618 9
E36  26089813.078 7  26089816.344 7 137102870.349 7 103717456.516 7
G01  20393743.160 7                  20393747.554 8 107169782.841 7                  83508990.583 8
G02  22498551.004 7  22498553.217 5                 118230586.995 7  92127812.290 5
G03  19807687.973 8                  19807693.942 8 104090090.819 8                  81109209.570 8
G04  21732143.536 7                  21732149.862 7 114203250.818 7                  88989542.788 7
G17  22235899.854 7                  22235904.987 7 116850474.758 7                  91052307.472 7
G19  22457946.895 7  22457951.583 5                 118017210.266 7  91961563.254 5
G28  23072432.877 4                  23072437.748 4 121246451.431 4                  94477771.559 4
G31  22615988.624 6                  22615993.705 5 118847897.997 6                  92608718.143 5
R03  19297911.493 8  19297915.327 7 103303237.682 8  80346947.539 7
R04  20052404.520 8  20052408.604 7 107379745.017 8  83517646.415 7
R18  19961076.638 8  19961081.959 7 106553570.993 8  82875028.661 7
R19  19523746.583 8  19523748.324 7 104438871.233 8  81230217.641 7
> 2025 06 15 13 54 25.0000000  0 21
C11  24250714.112 6  24250712.093 7 126279856.755 6  97647578.719 7
C12  22037116.250 7  22037111.353 8 114753210.119 7  88734317.761 8
C21  23027358.167 7                 119909552.565 7
C22  21490278.873 7                 111905497.302 7
E03  25699082.433 7  25699086.606 8 135049504.547 7 102164157.945 8
E05  21981493.197 8  21981494.578 8 115513483.210 8  87385237.752 8
E15  24930634.922 7  24930638.419 9 131011476.729 7  99109264.948 9
E34  23240732.583 8  23240733.934 9 122130852.977 8  92391215.575 9
E36  26091198.795 7  26091202.869 7 137110156.690 7 103722968.568 7
G01  20394027.588 8                  20394031.725 8 107171275.878 8                  83510153.993 8
G02  22500096.768 7  22500098.831 5                 118238710.412 7  92134142.215 5
G03  19806331.337 8                  19806337.813 7 104082963.784 8                  81103656.030 7
G04  21728242.474 7                  21728249.080 7 114182750.434 7                  88973568.492 7
G17  22235161.968 7                  22235166.049 7 116846593.694 7                  91049283.274 7
G19  22455304.663 7  22455309.124 5                 118003323.972 7  91950742.762 5
G28  23071400.566 4                  23071406.495 4 121241032.96614                  94473549.51614
G31  22613163.751 6                  22613169.720 5 118833057.582 6                  92597154.203 5
R03  19298005.887 8  19298009.763 7 103303743.314 8  80347340.823 7
R04  20049082.084 8  20049085.918 7 107361953.021 8  83503808.195 7
R18  19962562.627 8  19962567.469 7 106561501.429 8  82881196.765 7
R19  19521237.407 8  19521238.936 7 104425447.039 8  81219776.595 7
> 2025 06 15 13 54 30.0000000  0 22
C11  24247300.751 6  24247298.574 7 126262082.693 6  97633834.679 7
C12  22036629.946 7  22036625.137 8 114750676.951 7  88732358.966 8
C21  23024259.413 7                 119893413.366 7
C22  21489965.435 7                 111903867.056 7
E03  25695318.149 7  25695321.927 8 135029721.049 7 102149191.871 8
E05  21979941.026 8  21979942.119 9 115505325.062 8  87379066.170 9
E09  25857753.300 5                 135883262.97515
E15  24927522.805 7  24927525.709 9 130995119.572 7  99096890.867 9
E34  23240063.615 8  23240065.335 9 122127339.497 8  92388557.655 9
E36  26092586.453 6  26092590.745 7 137117449.338 6 103728485.404 7
G01  20394314.434 8                  20394318.664 8 107172783.632 8                  83511328.862 8
G02  22501643.866 7  22501646.239 5                 118246843.014 7  92140479.297 5
G03  19804977.767 7                  19804983.796 7 104075849.410 7                  81098112.356 7
G04  21724343.325 7                  21724350.076 7 114162261.088 7                  88957602.785 7
G17  22234425.785 7                  22234430.849 7 116842729.380 7                  91046272.111 7
G19  22452664.882 7  22452670.120 5                 117989455.400 7  91939936.100 5
G28  23070372.052 4                  23070379.574 5 121235632.72514                  94469341.56715
G31  22610342.983 6                  22610349.459 5 118818233.364 6                  92585602.924 5
R03  19298103.408 8  19298107.462 7 103304265.519 8  80347746.974 7
R04  20045761.934 8  20045765.542 7 107344176.739 8  83489982.202 7
R18  19964052.514 8  19964056.149 7 106569450.246 8  82887379.166 7
R19  19518731.767 8  19518733.225 7 104412043.805 8  81209351.853 7
> 2025 06 15 13 54 35.0000000  0 22
C11  24243889.347 6  24243887.089 7 126244318.010 6  97620097.919 7
C12  22036145.655 7  22036141.694 8 114748158.332 7  88730411.396 8
C21  23021161.793 7                 119877282.474 7
C22  21489654.291 7                 111902246.770 7
E03  25691554.937 7  25691558.336 8 135009943.387 7 102134230.213 8
E05  21978390.550 8  21978391.807 8 115497178.404 8  87372903.275 8
E09  25858787.503 5  25858790.266 5 135888698.525 5 102799039.25015
E15  24924410.460 7  24924414.078 9 130978767.905 7  99084520.949 9
E34  23239396.839 8  23239398.589 9 122123835.689 8  92385907.041 9
E36  26093974.946 7  26093979.425 7 137124747.312 7 103734006.244 7
G01  20394604.033 8                  20394608.136 8 107174305.033 8                  83512514.363 8
G02  22503194.025 7  22503195.425 5                 118254983.733 7  92146822.697 5
G03  19803625.634 7                  19803632.210 7 104068746.696 7                  81092577.773 7
G04  21720446.354 7                  21720452.981 7 114141781.669 7                  88941644.799 7
G17  22233693.859 7                  22233698.218 7 116838880.780 7                  91043273.200 7
G19  22450028.643 7  22450034.087 5                 117975603.513 7  91929142.431 5
G28  23069353.777 4                  23069355.965 5 121230249.71314                  94465146.98915
G31  22607525.573 6                  22607531.440 5 118803424.409 6                  92574063.447 5
R03  19298203.794 8  19298207.939 7 103304803.058 8  80348165.053 7
R04  20042444.568 8  20042448.219 7 107326414.949 8  83476167.491 7
R18  19965544.146 8  19965548.675 7 106577416.350 8  82893575.009 7
R19  19516229.341 8  19516231.421 7 104398660.438 8  81198942.555 7
> 2025 06 15 13 54 40.0000000  0 22
C11  24240479.964 6  24240477.491 7 126226563.602 6  97606369.066 7
C12  22035664.928 7  22035660.856 8 114745655.063 7  88728475.700 8
C21  23018066.226 7                 119861160.724 7
C22  21489345.235 7                 111900637.228 7
E03  25687792.886 8  25687796.022 8 134990172.404 8 102119273.602 8
E05  21976842.664 8  21976843.876 8 115489044.047 8  87366749.694 8
E09  25859824.339 5  25859825.978 6 135894141.923 5 102803157.115 6
E15  24921300.348 7  24921303.615 9 130962422.516 7  99072155.771 9
E34  23238732.298 8  23238733.843 9 122120342.396 8  92383264.382 9
E36  26095365.084 7  26095369.382 7 137132051.385 7 103739531.690 7
G01  20394896.195 7                  20394900.469 8 107175840.890 7                  83513711.130 8
G02  22504744.503 7  22504746.727 5                 118263133.354 7  92153173.036 5
G03  19802276.588 7                  19802282.913 7 104061656.387 7                  81087052.854 7
G04  21716551.577 7                  21716557.621 7 114121313.045 7                  88925695.231 7
G17  22232964.579 7                  22232968.884 7 116835048.677 7                  91040287.146 7
G19  22447396.760 7  22447401.484 5                 117961769.140 7  91918362.396 5
G28  23068329.241 4                  23068335.721 5 121224884.70914                  94460966.47715
G31  22604711.084 6                  22604716.187 5 118788631.459 6                  92562536.509 5
R03  19298306.737 8  19298311.023 7 103305356.881 8  80348595.805 7
R04  20039130.525 8  20039134.627 7 107308668.604 8  83462364.803 7
R18  19967040.920 8  19967044.631 7 106585400.563 8  82899784.925 7
R19  19513731.957 8  19513733.401 7 104385297.733 8  81188549.358 7
> 2025 06 15 13 54 45.0000000  0 21
C11  24237071.691 7  24237070.018 7 126208819.163 7  97592647.956 7
C12  22035186.495 7  22035183.245 8 114743166.868 7  88726551.679 8
C21  23014971.657 7                 119845047.794 7
C22  21489038.333 7                 111899038.133 7
E03  25684032.062 8  25684034.879 8 134970407.784 8 102104321.803 8
E05  21975297.168 8  21975298.295 8 115480921.709 8  87360605.203 8
E09  25860860.640 5  25860863.377 5 135899592.895 5 102807280.727 5
E15  24918191.221 7  24918194.318 9 130946083.121 7  99059795.133 9
E34  23238069.277 8  23238071.073 9 122116859.304 8  92380629.449 9
E36  26096756.205 7  26096760.412 7 137139361.242 7 103745061.529 7
G01  20395190.788 8                  20395195.606 8 107177390.917 8                  83514918.931 8
G02  22506296.612 7  22506299.000 5                 118271291.591 7  92159530.104 5
G03  19800929.484 7                  19800936.044 7 104054578.250 7                  81081537.425 7
G04  21712659.455 7                  21712664.818 7 114100854.921 7                  88909753.831 7
G17  22232238.774 7                  22232242.676 7 116831232.822 7                  91037313.733 7
G19  22444766.986 7  22444772.204 5                 117947952.004 7  91907595.803 5
G31  22601898.813 6                  22601903.840 5 118773854.312 6                  92551021.828 5
R03  19298413.283 8  19298417.805 7 103305926.772 8  80349039.058 7
R04  20035818.712 8  20035823.524 7 107290937.264 8  83448573.753 7
R18  19968540.125 8  19968543.875 7 106593402.628 8  82906008.722 7
R19  19511237.233 8  19511239.526 7 104371955.479 8  81178172.044 7
> 2025 06 15 13 54 50.0000000  0 21
C11  24233664.949 6  24233664.073 7 126191083.353 6  97578933.503 7
C12  22034712.167 7  22034707.831 8 114740692.364 7  88724638.231 8
C21  23011878.644 7                 119828942.396 7
C22  21488732.900 7                 111897448.111 7
E03  25680271.520 7  25680274.807 8 134950648.181 7 102089373.795 8
E05  21973753.372 8  21973754.679 8 115472809.994 8  87354468.743 8
E09  25861899.507 5  25861902.032 6 135905049.918 5 102811408.893 6
E15  24915082.632 7  24915085.893 9 130929748.364 7  99047437.992 9
E34  23237408.308 8  23237409.963 9 122113385.024 8  92378001.180 9
E36  26098148.248 6  26098152.242 7 137146675.533 6 103750594.704 7
G01  20395488.726 7                  20395492.642 8 107178953.715 7                  83516136.686 8
G02  22507851.034 7  22507852.998 5                 118279457.139 7  92165892.855 5
G03  19799584.654 7                  19799591.274 7 104047510.874 7                  81076030.370 7
G04  21708767.797 7                  21708773.892 7 114080405.922 7                  88893819.542 7
G17  22231515.504 7                  22231519.439 7 116827431.806 7                  91034351.913 7
G19  22442141.594 7  22442145.986 5                 117934150.714 7  91896841.563 5
G31  22599087.931 6                  22599094.652 5 118759091.524 6                  92539518.383 5
R03  19298521.368 8  19298527.167 7 103306511.173 8  80349493.605 7
R04  20032509.247 8  20032514.614 7 107273219.618 8  83434793.366 7
R18  19970041.506 8  19970045.637 7 106601421.019 8  82912245.243 7
R19  19508746.329 8  19508748.742 7 104358632.285 8  81167809.571 7
> 2025 06 15 13 54 55.0000000  0 21
C11  24230262.137 6  24230259.406 7 126173356.616 6  97565226.079 7
C12  22034239.423 7  22034235.553 8 114738232.005 7  88722735.714 8
C21  23008787.199 7                 119812844.875 7
C22  21488429.094 7                 111895867.620 7
E03  25676512.226 7  25676515.711 8 134930894.026 7 102074429.914 8
E05  21972211.985 8  21972213.115 8 115464709.373 8  87348340.688 8
E09  25862939.488 6  25862941.650 5 135910513.616 6 102815542.135 5
E15  24911974.727 7  24911978.521 9 130913418.673 7  99035084.698 9
E34  23236748.640 8  23236750.610 9 122109920.049 8  92375379.955 9
E36  26099540.287 6  26099545.046 7 137153994.650 6 103756131.533 7
G01  20395788.141 8                  20395792.750 8 107180529.737 8                  83517364.774 8
G02  22509406.076 7  22509408.723 5                 118287630.377 7  92172261.595 5
G03  19798241.214 7                  19798248.137 7 104040454.746 7                  81070532.079 7
G04  21704878.816 7                  21704883.810 7 114059966.521 7                  88877892.736 7
G17  22230795.195 7                  22230799.007 7 116823646.067 7                  91031401.991 7
G19  22439518.012 7  22439522.975 5                 117920365.748 7  91886100.035 5
G31  22596282.000 6                  22596287.971 5 118744343.589 6                  92528026.517 5
R03  19298634.275 8  19298638.829 7 103307110.720 8  80349959.911 7
R04  20029203.975 8  20029208.313 7 107255516.188 8  83421024.043 7
R18  19971546.725 8  19971550.883 7 106609456.231 8  82918494.834 7
R19  19506259.410 8  19506262.164 7 104345328.574 8  81157462.256 7
> 2025 06 15 13 55  0.0000000  0 21
C11  24226859.772 6  24226857.490 7 126155640.255 6  97551526.684 7
C12  22033769.666 7  22033765.875 8 114735787.074 7  88720845.146 8
C21  23005698.043 7                 119796756.593 7
C22  21488127.940 7                 111894297.969 7
E03  25672754.333 7  25672757.891 8 134911146.658 7 102059491.169 8
E05  21970673.164 8  21970673.951 8 115456621.136 8  87342221.990 8
E09  25863980.059 5  25863982.732 5 135915985.140 5 102819681.350 5
E15  24908868.424 7  24908872.319 9 130897095.393 7  99022736.237 9
E34  23236091.416 8  23236093.253 9 122106465.655 8  92372766.729 9
E36  26100934.364 6  26100938.984 7 137161319.959 6 103761673.089 7
G01  20396091.073 8                  20396095.283 8 107182120.304 8                  83518604.174 8
G02  22510963.664 7  22510965.920 5                 118295812.600 7  92178637.354 5
G03  19796900.690 7                  19796907.912 7 104033411.146 7                  81065043.569 7
G04  21700990.651 7                  21700996.708 7 114039538.017 7                  88861974.424 7
G17  22230077.593 7                  22230081.900 7 116819876.971 7                  91028465.013 7
G19  22436897.929 7  22436903.168 5                 117906598.438 7  91875372.265 5
G31  22593477.835 5                  22593484.944 5 118729611.829 5                  92516547.246 5
R03  19298749.191 8  19298754.477 7 103307726.586 8  80350438.906 7
R04  20025900.656 8  20025905.516 7 107237828.151 8  83407266.706 7
R18  19973056.512 8  19973059.397 7 106617509.655 8  82924758.611 7
R19  19503776.573 8  19503779.259 7 104332045.732 8  81147131.167 7
> 2025 06 15 13 55  5.0000000  0 21
C11  24223458.924 6  24223456.932 7 126137933.550 6  97537834.738 7
C12  22033303.066 7  22033299.494 8 114733356.797 7  88718965.903 8
C21  23002609.741 7                 119780676.781 7
C22  21487828.097 7                 111892738.354 7
E03  25668998.010 7  25669001.210 8 134891405.282 7 102044556.951 8
E05  21969135.995 8  21969137.031 8 115448544.528 8  87336112.085 8
E09  25865023.545 6  25865025.384 6 135921463.811 6 102823825.933 6
E15  24905763.514 7  24905767.120 9 130880777.749 7  99010392.049 9
E34  23235436.030 8  23235437.821 9 122103021.090 8  92370160.938 9
E36  26102330.335 7  26102333.919 7 137168650.661 7 103767218.699 7
G01  20396396.243 7                  20396400.649 8 107183724.638 7                  83519854.309 8
G02  22512522.586 7  22512524.347 5                 118304003.064 7  92185019.521 5
G03  19795563.073 7                  19795569.906 7 104026379.293 7                  81059564.210 7
G04  21697105.434 7                  21697110.761 7 114019119.671 7                  88846064.040 7
G17  22229363.143 7                  22229367.217 7 116816123.702 7                  91025540.393 7
G19  22434281.277 7  22434286.488 5                 117892848.001 7  91864657.653 5
G31  22590678.291 6                  22590683.662 5 118714895.570 6                  92505080.019 5
R03  19298867.172 8  19298872.154 7 103308357.730 8  80350929.798 7
R04  20022600.815 8  20022605.300 7 107220154.896 8  83393520.837 7
R18  19974568.128 8  19974571.692 7 106625580.393 8  82931035.844 7
R19  19501297.628 8  19501299.399 7 104318782.998 8  81136815.707 7
> 2025 06 15 13 55 10.0000000  0 21
C11  24220060.714 6  24220058.743 7 126120237.041 6  97524150.695 7
C12  22032839.033 7  22032835.430 8 114730941.796 7  88717098.472 8
C21  22999523.265 7                 119764606.033 7
C22  21487530.975 7                 111891189.371 7
E03  25665242.872 7  25665245.826 8 134871670.541 7 102029627.766 8
E05  21967601.249 8  21967602.426 8 115440480.123 8  87330011.417 8
E09  25866066.947 6  25866069.309 6 135926950.253 6 102827976.357 6
E15  24902659.311 7  24902663.154 9 130864466.327 7  98998052.572 9
E34  23234782.420 8  23234784.313 9 122099586.959 8  92367563.044 9
E36  26103726.357 6  26103730.087 7 137175987.342 6 103772768.839 7
G01  20396704.152 8                  20396708.912 8 107185343.330 8                  83521115.634 8
G02  22514082.349 7  22514084.820 5                 118312202.346 7  92191408.566 5
G03  19794227.750 7                  19794233.924 7 104019359.787 7                  81054094.453 7
G04  21693222.018 7                  21693227.666 7 113998712.059 7                  88830162.006 7
G17  22228652.076 7                  22228656.286 7 116812386.814 7                  91022628.514 7
G19  22431667.928 7  22431672.959 5                 117879115.044 7  91853956.650 5
G31  22587880.051 6                  22587886.891 5 118700195.277 6                  92493625.243 5
R03  19298987.875 8  19298993.181 7 103309005.365 8  80351433.499 7
R04  20019304.286 8  20019307.836 7 107202496.900 8  83379786.822 7
R18  19976082.976 8  19976086.539 7 106633669.170 8  82937327.113 7
R19  19498821.313 8  19498824.631 7 104305541.024 8  81126516.390 7
> 2025 06 15 13 55 15.0000000  0 21
C11  24216665.009 6  24216661.876 7 126102550.318 6  97510474.210 7
C12  22032378.569 7  22032374.543 8 114728541.601 7  88715242.483 8
C21  22996438.872 7                 119748543.854 7
C22  21487235.497 7                 111889650.535 7
E03  25661488.584 7  25661491.611 8 134851941.915 7 102014703.196 8
E05  21966068.769 8  21966069.962 8 115432427.463 8  87323919.632 8
E09  25867112.346 6  25867114.713 6 135932443.860 6 102832132.256 6
E15  24899556.991 7  24899560.289 8 130848160.694 7  98985717.474 8
E34  23234131.328 8  23234132.743 9 122096162.778 8  92364972.670 9
E36  26105123.652 6  26105127.246 7 137183329.520 6 103778323.138 7
G01  20397015.056 8                  20397019.173 8 107186975.910 8                  83522387.764 8
G02  22515644.214 7  22515646.766 5                 118320409.957 7  92197804.091 5
G03  19792894.793 7                  19792900.559 7 104012352.214 7                  81048634.002 7
G04  21689340.753 7                  21689345.649 7 113978314.725 7                  88814267.970 7
G17  22227943.643 7                  22227948.349 7 116808665.903 7                  91019729.087 7
G19  22429057.719 7  22429063.087 5                 117865399.124 7  91843268.926 5
G31  22585086.321 6                  22585092.639 5 118685510.557 6                  92482182.640 5
R03  19299112.269 8  19299117.075 7 103309668.414 8  80351949.201 7
R04  20016010.117 7  20016012.677 7 107184853.805 7  83366064.392 7
R18  19977601.856 8  19977605.152 7 106641775.349 8  82943631.911 7
R19  19496350.729 8  19496352.242 7 104292319.299 8  81116232.827 7
> 2025 06 15 13 55 20.0000000  0 21
C11  24213269.988 6  24213267.256 7 126084873.181 6  97496805.138 7
C12  22031920.475 7  22031916.460 8 114726155.983 7  88713397.782 8
C21  22993355.533 7                 119732490.097 7
C22  21486942.256 7                 111888121.685 7
E03  25657735.638 7  25657738.500 8 134832219.270 7 101999783.143 8
E05  21964538.542 8  21964539.821 8 115424386.350 8  87317836.585 8
E09  25868158.518 6  25868161.276 6 135937944.525 6 102836293.477 6
E15  24896455.669 7  24896458.523 9 130831860.632 7  98973386.588 9
E34  23233481.466 8  23233483.018 9 122092748.350 8  92362389.689 9
E36  26106521.208 6  26106525.516 7 137190677.051 6 103783881.479 7
G01  20397327.966 8                  20397332.595 8 107188622.191 8                  83523670.568 8
G02  22517207.928 7  22517210.289 5                 118328625.729 7  92204205.979 5
G03  19791563.536 7                  19791569.375 7 104005356.289 7                  81043182.641 7
G04  21685460.173 7                  21685466.423 7 113957927.476 7                  88798381.813 7
G17  22227238.551 7                  22227243.312 7 116804960.740 7                  91016841.949 7
G19  22426450.853 7  22426456.140 5                 117851700.033 7  91832594.330 5
G31  22582294.749 6                  22582301.641 6 118670841.200 6                  92470752.020 6
R03  19299238.121 8  19299243.790 7 103310346.960 8  80352476.945 7
R04  20012718.033 7  20012720.605 7 107167225.224 7  83352353.288 7
R18  19979123.514 8  19979127.334 7 106649898.771 8  82949950.130 7
R19  19493882.303 8  19493884.750 7 104279117.639 8  81105964.858 7
> 2025 06 15 13 55 25.0000000  0 21
C11  24209876.488 6  24209874.184 7 126067205.305 6  97483143.237 7
C12  22031464.754 7  22031461.366 8 114723784.670 7  88711564.144 8
C21  22990274.097 7                 119716444.450 7
C22  21486650.656 7                 111886602.474 7
E03  25653983.716 7  25653986.466 8 134812502.253 7 101984867.368 8
E05  21963010.493 8  21963011.797 8 115416356.479 8  87311762.047 8
E09  25869207.460 6  25869209.449 6 135943451.908 6 102840459.764 6
E15  24893354.953 7  24893357.729 9 130815565.850 7  98961059.688 9
E34  23232833.119 8  23232835.059 9 122089343.396 8  92359813.857 9
E36  26107920.167 6  26107924.509 7 137198029.531 6 103789443.596 7
G01  20397643.959 7                  20397648.399 8 107190281.840 7                  83524963.798 8
G02  22518772.588 7  22518775.367 5                 118336849.347 7  92210613.975 5
G03  19790234.692 7                  19790240.319 8 103998371.771 7                  81037740.155 8
G04  21681583.051 7                  21681588.798 7 113937550.025 7                  88782503.302 7
G17  22226536.285 7                  22226541.435 7 116801271.010 7                  91013966.857 7
G19  22423846.763 7  22423852.025 5                 117838017.504 7  91821932.606 5
G31  22579507.496 6                  22579513.570 6 118656186.901 6                  92459333.097 6
R03  19299368.780 8  19299373.457 7 103311040.661 8  80353016.489 7
R04  20009427.680 7  20009431.908 7 107149610.926 7  83338653.314 7
R18  19980648.447 8  19980652.123 7 106658039.171 8  82956281.543 7
R19  19491418.887 8  19491420.190 7 104265935.678 8  81095712.238 7
> 2025 06 15 13 55 30.0000000  0 21
C11  24206485.425 6  24206483.428 7 126049547.682 6  97469489.251 7
C12  22031012.927 7  22031009.162 8 114721428.554 7  88709742.235 8
C21  22987194.283 7                 119700407.785 7
C22  21486360.641 7                 111885093.834 7
E03  25650232.611 7  25650235.724 8 134792791.784 7 101969956.540 8
E05  21961484.713 8  21961486.143 9 115408338.739 8  87305696.681 9
E09  25870256.816 6  25870258.899 6 135948966.888 6 102844631.779 6
E15  24890254.979 7  24890258.179 8 130799277.261 7  98948737.488 8
E34  23232187.597 8  23232189.060 9 122085948.773 8  92357245.843 9
E36  26109320.648 6  26109324.830 7 137205387.959 6 103795010.184 7
G01  20397962.549 7                  20397967.112 8 107191955.755 7                  83526268.136 8
G02  22520338.899 7  22520342.187 5                 118345081.642 7  92217028.751 5
G03  19788908.203 8                  19788913.388 7 103991399.507 8                  81032307.233 7
G04  21677706.815 7                  21677713.316 7 113917183.305 7                  88766633.144 7
G17  22225837.206 7                  22225842.161 7 116797597.648 7                  91011104.502 7
G19  22421246.888 7  22421251.303 5                 117824352.397 7  91811284.462 5
G31  22576721.420 6                  22576728.103 6 118641548.557 6                  92447926.626 6
R03  19299501.154 8  19299505.848 7 103311750.313 8  80353568.446 7
R04  20006141.631 8  20006145.150 7 107132011.981 8  83324965.254 7
R18  19982176.624 8  19982180.555 7 106666197.394 8  82962626.813 7
R19  19488957.740 8  19488960.136 7 104252774.421 8  81085475.703 7
> 2025 06 15 13 55 35.0000000  0 21
C11  24203095.969 6  24203093.889 7 126031898.423 6  97455841.706 7
C12  22030562.689 7  22030559.190 8 114719085.755 7  88707930.639 8
C21  22984116.709 7                 119684378.265 7
C22  21486072.662 8                 111883593.847 8
E03  25646482.325 7  25646485.876 8 134773086.033 7 101955049.271 8
E05  21959961.366 8  21959962.416 8 115400331.280 8  87299639.101 8
E09  25871307.447 6  25871309.360 6 135954487.621 6 102848808.18516
E15  24887156.638 7  24887159.326 8 130782992.991 7  98936418.557 8
E34  23231543.096 8  23231544.699 9 122082562.678 8  92354684.283 9
E36  26110720.688 6  26110725.877 7 137212750.436 6 103800579.811 7
G01  20398283.346 8                  20398287.824 8 107193642.091 8                  83527582.167 8
G02  22521906.290 7  22521910.260 5                 118353320.759 7  92223448.820 5
G03  19787582.775 8                  19787588.651 7 103984437.661 8                  81026882.434 7
G04  21673833.919 7                  21673839.437 7 113896825.434 7                  88750769.875 7
G17  22225140.642 7                  22225145.888 7 116793938.703 7                  91008253.383 7
G19  22418649.890 7  22418654.287 5                 117810702.905 7  91800648.484 5
G31  22573939.476 6                  22573945.356 6 118626924.378 6                  92436531.133 6
R03  19299637.362 8  19299641.432 7 103312474.300 8  80354131.551 7
R04  20002856.824 8  20002861.319 7 107114426.384 8  83311287.596 7
R18  19983707.467 8  19983712.107 7 106674371.597 8  82968984.521 7
R19  19486500.930 8  19486503.546 7 104239632.023 8  81075253.841 7
> 2025 06 15 13 55 40.0000000  0 21
C11  24199708.592 6  24199706.506 7 126014259.298 6  97442202.023 7
C12  22030115.519 7  22030112.334 8 114716758.118 7  88706130.766 8
C21  22981040.765 7                 119668357.682 7
C22  21485786.491 8                 111882104.371 8
E03  25642734.297 7  25642737.265 8 134753386.813 7 101940146.950 8
E05  21958439.725 8  21958441.002 8 115392335.907 8  87293590.655 8
E09  25872359.656 6  25872361.367 6 135960015.911 6 102852990.240 6
E15  24884059.040 7  24884061.705 8 130766714.881 7  98924104.271 8
E34  23230900.781 8  23230902.306 9 122079186.880 8  92352130.512 9
E36  26112124.455 6  26112128.056 7 137220118.780 6 103806153.910 7
G01  20398606.637 7                  20398611.738 8 107195342.635 7                  83528907.262 8
G02  22523475.838 7  22523480.379 5                 118361568.541 7  92229875.667 5
G03  19786260.012 8                  19786265.936 7 103977488.056 8                  81021467.163 7
G04  21669961.920 7                  21669967.886 7 113876478.271 7                  88734914.952 7
G17  22224447.805 7                  22224452.926 7 116790296.052 7                  91005414.988 7
G19  22416055.654 7  22416059.982 5                 117797070.801 7  91790026.070 5
G31  22571158.451 6                  22571165.927 6 118612316.105 6                  92425148.079 6
R03  19299775.133 8  19299779.378 7 103313214.144 8  80354706.999 7
R04  19999574.826 8  19999579.697 7 107096855.991 8  83297621.739 7
R18  19985242.288 8  19985246.474 7 106682563.534 8  82975356.024 7
R19  19484048.420 8  19484050.581 7 104226510.278 8  81065048.034 7
> 2025 06 15 13 55 45.0000000  0 21
C11  24196322.658 6  24196321.310 7 125996630.414 6  97428570.268 7
C12  22029671.279 7  22029668.346 8 114714445.655 7  88704342.634 8
C21  22977965.567 7                 119652346.152 7
C22  21485502.226 8                 111880625.430 8
E03  25638986.921 7  25638989.953 8 134733694.177 7 101925249.603 8
E05  21956920.691 8  21956921.829 8 115384352.670 8  87287551.396 8
E09  25873411.938 6  25873414.535 6 135965551.767 6 102857178.062 6
E15  24880962.556 7  24880965.299 8 130750442.992 7  98911794.697 8
E34  23230260.480 8  23230261.934 9 122075821.459 8  92349584.593 9
E36  26113527.443 6  26113531.332 7 137227493.010 6 103811732.431 7
G01  20398933.473 7                  20398938.026 8 107197057.462 7                  83530243.481 8
G02  22525047.467 7  22525051.067 5                 118369825.043 7  92236309.292 5
G03  19784940.026 7                  19784945.812 7 103970550.744 7                  81016061.477 7
G04  21666092.241 7                  21666098.024 7 113856141.820 7                  88719068.389 7
G17  22223758.190 7                  22223762.934 7 116786669.722 7                  91002589.298 7
G19  22413465.463 7  22413468.944 5                 117783456.178 7  91779417.291 5
G31  22568380.388 6                  22568389.072 5 118597723.857 6                  92413777.514 5
R03  19299916.346 8  19299920.693 7 103313970.025 8  80355294.907 7
R04  19996296.725 8  19996301.617 7 107079300.866 8  83283967.743 7
R18  19986780.408 8  19986784.666 7 106690773.293 8  82981741.395 7
R19  19481598.886 8  19481600.987 7 104213409.307 8  81054858.400 7
> 2025 06 15 13 55 50.0000000  0 21
C11  24192939.055 6  24192937.445 7 125979010.982 6  97414945.821 7
C12  22029229.662 7  22029226.892 8 114712147.630 7  88702565.646 8
C21  22974893.341 7                 119636342.854 7
C22  21485219.756 7                 111879156.243 7
E03  25635239.604 7  25635243.661 8 134714007.354 7 101910356.657 8
E05  21955403.587 8  21955404.920 9 115376380.811 8  87281520.734 9
E09  25874465.690 6  25874469.132 6 135971094.439 6 102861371.098 6
E15  24877867.100 7  24877869.921 8 130734176.549 7  98899489.236 8
E34  23229621.693 8  23229623.351 8 122072465.638 8  92347045.938 8
E36  26114931.639 6  26114935.637 7 137234872.358 6 103817314.856 7
G01  20399262.205 7                  20399267.224 8 107198785.781 7                  83531590.213 8
G02  22526620.288 7  22526623.807 5                 118378089.492 7  92242749.112 5
G03  19783622.273 7                  19783627.857 7 103963624.958 7                  81010664.765 7
G04  21662223.883 7                  21662229.942 8 113835815.346 7                  88703229.589 8
G17  22223071.993 7                  22223075.874 7 116783058.967 7                  90999775.708 7
G19  22410878.307 7  22410881.421 5                 117769858.241 7  91768821.499 5
G31  22565608.271 6                  22565614.820 5 118583146.884 6                  92402418.789 5
R03  19300060.672 8  19300064.902 7 103314740.980 8  80355894.540 7
R04  19993022.437 7  19993026.287 7 107061760.299 7  83270325.064 7
R18  19988321.637 8  19988325.687 7 106699000.098 8  82988140.004 7
R19  19479153.551 8  19479155.573 7 104200328.248 8  81044684.236 7
> 2025 06 15 13 55 55.0000000  0 21
C11  24189557.314 6  24189555.790 7 125961402.062 6  97401329.485 7
C12  22028791.159 7  22028788.404 8 114709865.041 7  88700800.605 8
C21  22971821.275 7                 119620348.810 7
C22  21484939.761 7                 111877697.830 7
E03  25631495.036 7  25631498.674 8 134694327.343 7 101895468.863 8
E05  21953889.051 8  21953890.339 9 115368421.340 8  87275499.453 9
E09  25875523.585 6  25875525.499 6 135976644.934 6 102865569.958 6
E15  24874773.045 7  24874775.765 9 130717916.562 7  98887188.668 9
E34  23228985.034 8  23228986.747 8 122069120.425 8  92344515.309 8
E36  26116337.688 6  26116341.161 7 137242257.867 6 103822901.912 7
G01  20399594.433 7                  20399598.186 8 107200528.615 7                  83532948.263 8
G02  22528193.923 7  22528198.272 5                 118386362.859 7  92249195.869 5
G03  19782306.368 8                  19782312.189 7 103956711.681 8                  81005277.806 7
G04  21658358.157 7                  21658364.442 7 113815499.877 7                  88687399.381 7
G17  22222387.738 7                  22222392.110 7 116779464.745 7                  90996975.011 7
G19  22408293.622 7  22408297.009 5                 117756278.050 7  91758239.531 5
G31  22562837.338 6                  22562842.578 5 118568586.188 6                  92391072.808 5
R03  19300208.081 8  19300211.895 7 103315528.232 8  80356506.843 7
R04  19989750.253 7  19989753.233 7 107044235.223 7  83256694.441 7
R18  19989866.128 8  19989870.099 7 106707244.865 8  82994552.598 7
R19  19476711.511 8  19476713.993 7 104187268.239 8  81034526.449 7
> 2025 06 15 13 56  0.0000000  0 21
C11  24186178.180 6  24186176.259 7 125943802.931 6  97387720.729 7
C12  22028356.141 7  22028353.002 8 114707597.147 7  88699046.918 8
C21  22968751.063 7                 119604363.321 7
C22  21484662.117 8                 111876249.457 8
E03  25627751.329 7  25627754.853 8 134674653.452 7 101880585.710 8
E05  21952376.430 8  21952377.937 9 115360473.530 8  87269486.985 9
E09  25876580.805 6  25876583.033 6 135982202.506 6 102869774.204 6
E15  24871679.858 7  24871682.712 9 130701662.330 7  98874892.450 9
E34  23228350.305 8  23228352.049 9 122065785.104 8  92341992.159 9
E36  26117743.182 6  26117747.635 7 137249648.758 6 103828493.056 7
G01  20399928.472 8                  20399932.668 8 107202285.231 8                  83534317.048 8
G02  22529770.076 7  22529773.908 5                 118394644.412 7  92255649.017 5
G03  19780993.380 8                  19780998.955 7 103949810.235 8                  80999900.043 7
G04  21654494.109 7                  21654499.776 7 113795194.703 7                  88671577.165 7
G17  22221706.251 7                  22221710.901 7 116775886.422 7                  90994186.690 7
G19  22405711.927 7  22405715.567 5                 117742714.849 7  91747670.813 5
G31  22560068.766 6                  22560073.531 5 118554041.061 6                  92379738.953 5
R03  19300357.501 8  19300362.135 7 103316331.018 8  80357131.227 7
R04  19986480.065 7  19986483.282 7 107026725.023 7  83243075.404 7
R18  19991414.577 8  19991417.677 7 106715506.964 8  83000978.656 7
R19  19474273.826 8  19474276.993 7 104174228.475 8  81024384.435 7
> 2025 06 15 13 56  5.0000000  0 21
C11  24182800.203 6  24182798.561 7 125926214.260 6  97374120.073 7
C12  22027923.669 7  22027920.131 8 114705344.579 7  88697305.088 8
C21  22965682.444 7                 119588387.022 7
C22  21484385.943 7                 111874811.795 7
E03  25624008.612 7  25624012.294 8 134654986.366 7 101865707.693 8
E05  21950866.499 8  21950867.881 9 115352538.046 8  87263483.847 9
E09  25877639.907 6  25877642.015 6 135987767.878 6 102873984.359 6
E15  24868587.792 7  24868590.804 9 130685414.521 7  98862601.094 9
E34  23227717.691 8  23227719.373 9 122062460.366 8  92339477.019 9
E36  26119151.959 6  26119155.264 7 137257045.731 6 103834088.820 7
G01  20400265.813 8                  20400269.698 8 107204056.288 8                  83535697.099 8
G02  22531347.647 6  22531351.351 5                 118402934.847 6  92262109.085 5
G03  19779682.107 8                  19779688.009 7 103942921.257 8                  80994532.002 7
G04  21650632.309 7                  21650637.895 7 113774900.477 7                  88655763.504 7
G17  22221028.518 7                  22221033.026 7 116772324.543 7                  90991411.196 7
G19  22403134.883 7  22403137.652 5                 117729169.354 7  91737115.896 5
G31  22557303.417 6                  22557307.213 4 118539512.215 6                  92368417.834 4
R03  19300510.387 8  19300514.257 7 103317150.017 8  80357768.231 7
R04  19983212.814 7  19983216.489 7 107009230.211 7  83229468.354 7
R18  19992965.742 8  19992969.373 7 106723787.019 8  83007418.698 7
R19  19471840.415 8  19471843.187 7 104161209.614 8  81014258.668 7
> 2025 06 15 13 56 10.0000000  0 21
C11  24179424.924 6  24179422.627 7 125908635.286 6  97360526.903 7
C12  22027494.593 7  22027490.897 8 114703106.690 7  88695574.604 8
C21  22962615.977 7                 119572419.205 7
C22  21484111.769 7                 111873384.099 7
E03  25620267.427 7  25620270.893 8 134635325.321 7 101850834.254 8
E05  21949358.218 8  21949360.031 9 115344614.152 8  87257489.477 9
E09  25878700.541 6  25878702.297 6 135993340.196 6 102878199.777 6
E15  24865496.799 7  24865499.976 9 130669172.393 7  98850314.035 9
E34  23227086.771 8  23227088.593 9 122059145.438 8  92336969.292 9
E36  26120560.047 6  26120563.930 7 137264448.036 6 103839688.612 7
G01  20400604.771 7                  20400609.334 8 107205841.054 7                  83537087.818 8
G02  22532926.431 7  22532930.536 5                 118411233.427 7  92268575.489 5
G03  19778372.982 7                  19778379.315 7 103936044.020 7                  80989173.118 7
G04  21646772.309 7                  21646777.842 7 113754616.492 7                  88639957.807 7
G17  22220354.152 7                  22220358.125 7 116768778.465 7                  90988648.006 7
G19  22400560.350 7  22400563.339 5                 117715640.827 7  91726574.194 5
G31  22554541.122 5                  22554544.746 4 118524998.884 5                  92357108.681 4
R03  19300665.957 8  19300670.155 7 103317984.257 8  80358417.085 7
R04  19979948.851 7  19979952.146 7 106991750.127 7  83215872.741 7
R18  19994519.340 8  19994523.788 7 106732084.276 8  83013872.106 7
R19  19469410.204 8  19469413.069 7 104148210.959 8  81004148.601 7
> 2025 06 15 13 56 15.0000000  0 21
C11  24176050.768 6  24176048.996 7 125891066.920 6  97346941.935 7
C12  22027067.352 7  22027063.819 8 114700884.295 7  88693856.101 8
C21  22959550.793 7                 119556460.716 7
C22  21483839.225 7                 111871967.208 7
E03  25616527.371 7  25616530.780 8 134615671.196 7 101835966.057 8
E05  21947853.014 8  21947854.538 9 115336702.694 8  87251504.510 9
E09  25879762.857 6  25879764.226 6 135998920.401 6 102882421.152 6
E15  24862406.811 7  24862410.478 8 130652936.822 7  98838031.948 8
E34  23226457.989 8  23226459.796 8 122055841.203 8  92334469.664 8
E36  26121969.158 6  26121973.731 7 137271856.533 6 103845293.106 7
G01  20400947.464 7                  20400951.770 8 107207640.399 7                  83538489.908 8
G02  22534507.341 7  22534510.904 5                 118419540.960 7  92275048.880 5
G03  19777067.186 7                  19777073.297 7 103929179.388 7                  80983824.040 7
G04  21642914.482 7                  21642919.798 7 113734343.598 7                  88624160.754 7
G17  22219682.105 7                  22219686.679 7 116765249.010 7                  90985897.776 7
G19  22397989.253 7  22397992.441 5                 117702130.155 7  91716046.382 5
G31  22551781.782 5                  22551784.678 4 118510502.070 5                  92345812.486 4
R03  19300824.860 8  19300829.568 7 103318834.670 8  80359078.527 7
R04  19976686.790 8  19976690.438 7 106974285.660 8  83202289.272 7
R18  19996077.250 8  19996081.858 7 106740399.631 8  83020339.590 7
R19  19466984.269 8  19466987.460 7 104135233.510 8  80994055.049 7
> 2025 06 15 13 56 20.0000000  0 21
C11  24172678.886 6  24172676.922 7 125873508.279 6  97333364.493 7
C12  22026642.725 7  22026639.299 8 114698676.522 7  88692148.906 8
C21  22956487.360 7                 119540510.690 7
C22  21483569.668 8                 111870560.261 8
E03  25612788.000 7  25612791.803 8 134596023.130 7 101821102.438 8
E05  21946349.645 8  21946351.240 9 115328802.808 8  87245528.298 9
E09  25880824.990 6  25880827.342 6 136004507.573 6 102886647.804 6
E15  24859318.804 7  24859322.013 8 130636706.935 7  98825754.159 8
E34  23225831.228 8  23225832.887 9 122052546.774 8  92331977.449 9
E36  26123380.121 6  26123384.645 7 137279270.331 6 103850901.585 7
G01  20401292.354 7                  20401296.903 8 107209453.425 7                  83539902.659 8
G02  22536090.564 6  22536093.605 5                 118427856.580 6  92281528.562 5
G03  19775763.236 7                  19775769.143 7 103922326.469 7                  80978484.102 7
G04  21639058.681 7                  21639063.873 7 113714080.938 7                  88608371.671 7
G17  22219013.014 7                  22219017.975 7 116761735.292 7                  90983159.802 7
G19  22395422.343 7  22395424.547 5                 117688636.438 7  91705531.795 5
G31  22549024.892 5                  22549030.534 4 118496020.794 5                  92334528.425 4
R03  19300986.146 8  19300991.126 7 103319700.637 8  80359752.050 7
R04  19973428.060 8  19973432.005 7 106956836.021 8  83188717.331 7
R18  19997638.774 8  19997642.868 7 106748732.108 8  83026820.379 7
R19  19464561.803 8  19464565.159 7 104122276.371 8  80983977.281 7
> 2025 06 15 13 56 25.0000000  0 21
C11  24169308.766 6  24169306.806 7 125855959.546 6  97319794.716 7
C12  22026221.530 7  22026218.194 7 114696483.538 7  88690453.135 7
C21  22953425.825 7                 119524569.286 7
C22  21483301.242 8                 111869163.390 8
E03  25609050.078 7  25609054.044 8 134576381.289 7 101806243.533 8
E05  21944848.777 8  21944850.168 9 115320914.662 8  87239560.966 9
E09  25881889.430 6  25881891.834 6 136010101.858 6 102890879.836 6
E15  24856231.500 7  24856234.640 8 130620482.919 7  98813480.803 8
E34  23225206.512 8  23225207.871 8 122049262.349 8  92329492.795 8
E36  26124790.427 5  26124796.594 7 137286689.630 5 103856514.244 7
G01  20401640.099 8                  20401644.822 8 107211280.302 8                  83541326.207 8
G02  22537674.817 7  22537677.528 5                 118436180.450 7  92288014.683 5
G03  19774461.291 7                  19774467.205 7 103915485.440 7                  80973153.427 7
G04  21635204.046 7                  21635209.989 7 113693828.679 7                  88592590.695 7
G17  22218347.369 7                  22218352.302 7 116758237.472 7                  90980434.239 7
G19  22392857.974 7  22392859.840 5                 117675159.889 7  91695030.582 5
G31  22546271.620 5                  22546279.661 5 118481555.129 5                  92323256.510 5
R03  19301151.745 8  19301155.707 7 103320582.084 8  80360437.610 7
R04  19970172.114 8  19970176.308 7 106939401.327 8  83175157.012 7
R18  19999203.082 8  19999207.439 7 106757081.907 8  83033314.654 7
R19  19462143.742 8  19462146.727 7 104109339.579 8  80973915.345 7
> 2025 06 15 13 56 30.0000000  0 21
C11  24165939.639 6  24165938.647 7 125838421.395 6  97306233.100 7
C12  22025803.241 7  22025799.841 7 114694305.925 7  88688769.261 7
C21  22950366.307 7                 119508637.127 7
C22  21483035.387 7                 111867777.268 7
E03  25605313.769 7  25605317.583 8 134556746.318 7 101791389.822 8
E05  21943350.136 8  21943351.412 9 115313038.886 8  87233603.000 9
E09  25882955.600 6  25882957.835 6 136015703.924 6 102895117.741 6
E15  24853144.857 7  24853148.461 8 130604265.374 7  98801212.346 8
E34  23224583.283 8  23224584.852 9 122045988.532 8  92327016.167 9
E36  26126202.513 5  26126209.558 7 137294114.953 5 103862131.466 7
G01  20401990.576 7                  20401995.135 8 107213121.662 7                  83542761.034 8
G02  22539260.095 7  22539262.966 5                 118444513.235 7  92294507.745 5
G03  19773161.650 7                  19773167.800 7 103908656.930 7                  80967832.517 7
G04  21631352.317 7                  21631357.958 7 113673587.456 7                  88576818.325 7
G17  22217685.306 7                  22217689.548 7 116754756.251 7                  90977721.589 7
G19  22390296.568 7  22390298.705 5                 117661701.130 7  91684543.225 5
G31  22543521.008 5                  22543532.273 5 118467105.857 5                  92311997.329 5
R03  19301319.144 8  19301323.095 7 103321479.479 8  80361135.572 7
R04  19966919.157 8  19966923.737 7 106921982.018 8  83161608.674 7
R18  20000770.285 8  20000773.904 7 106765449.618 8  83039822.861 7
R19  19459729.595 8  19459732.490 7 104096423.851 8  80963869.762 7
> 2025 06 15 13 56 35.0000000  0 21
C11  24162573.941 6  24162572.628 7 125820893.250 6  97292679.255 7
C12  22025388.238 7  22025384.814 7 114692143.188 7  88687096.893 7
C21  22947308.484 7                 119492713.710 7
C22  21482771.141 7                 111866401.310 7
E03  25601578.730 7  25601582.337 8 134537117.651 7 101776540.880 8
E05  21941853.746 8  21941854.960 9 115305174.932 8  87227653.974 9
E09  25884022.520 6  25884025.253 6 136021313.211 6 102899361.123 6
E15  24850060.185 7  24850063.470 8 130588053.835 7  98788948.430 8
E34  23223962.323 8  23223963.751 9 122042724.792 8  92324547.168 9
E36  26127614.766 4  26127623.699 7 137301545.87714 103867752.96417
G01  20402343.612 8                  20402348.312 8 107214976.962 8                  83544206.725 8
G02  22540848.238 7  22540849.944 5                 118452854.344 7  92301007.274 5
G03  19771864.352 7                  19771870.885 7 103901840.400 7                  80962520.938 7
G04  21627502.526 7                  21627508.189 7 113653356.796 7                  88561054.166 7
G17  22217025.371 7                  22217030.077 7 116751290.982 7                  90975021.389 7
G19  22387739.138 7  22387740.971 5                 117648259.606 7  91674069.317 5
G31  22540777.085 5                  22540786.755 5 118452672.407 5                  92300750.445 5
R03  19301489.149 8  19301494.092 7 103322392.666 8  80361845.830 7
R04  19963668.338 8  19963673.453 7 106904577.797 8  83148072.069 7
R18  20002341.536 8  20002344.905 7 106773834.770 8  83046344.644 7
R19  19457319.104 8  19457321.594 7 104083528.723 8  80953840.221 7
> 2025 06 15 13 56 40.0000000  0 22
C11  24159209.196 6  24159208.573 7 125803374.944 6  97279133.002 7
C12  22024976.022 7  22024972.160 8 114689995.163 7  88685435.900 8
C21  22944252.602 7                 119476798.856 7
C22  21482508.862 7                 111865035.388 7
E03  25597844.529 7  25597848.293 8 134517495.198 7 101761696.624 8
E05  21940359.429 8  21940360.706 9 115297322.654 8  87221713.777 9
E09  25885091.216 6  25885094.020 6 136026929.495 6 102903609.806 6
E15  24846976.465 7  24846979.564 8 130571848.080 7  98776688.887 8
E34  23223343.164 8  23223344.547 9 122039470.966 8  92322085.677 9
E36  26129026.893 4                                
G01  20402699.874 8                  20402703.977 8 107216846.053 8                  83545663.144 8
G02  22542436.821 7  22542438.877 5                 118461203.598 7  92307513.179 5
G03  19770569.223 7                  19770576.163 7 103895035.687 7                  80957218.565 7
G04  21623654.687 7                  21623659.930 7 113633136.471 7                  88545298.075 7
G17  22216368.861 7                  22216374.175 7 116747841.615 7                  90972333.563 7
G19  22385183.632 7  22385186.279 5                 117634835.180 7  91663608.730 5
G28  23044820.461 5                                 121101324.13315                
G31  22538034.095 5                  22538044.673 5 118438254.734 5                  92289515.811 5
R03  19301663.399 8  19301667.391 7 103323321.134 8  80362567.977 7
R04  19960422.763 7  19960426.581 7 106887188.478 7  83134547.043 7
R18  20003915.388 8  20003918.944 7 106782237.059 8  83052879.756 7
R19  19454912.278 8  19454914.758 7 104070653.950 8  80943826.504 7
> 2025 06 15 13 56 45.0000000  0 21
C11  24155847.597 6  24155846.916 7 125785868.466 6  97265595.898 7
C12  22024566.267 7  22024562.980 8 114687863.824 7  88683787.802 8
C21  22941197.699 7                 119460894.514 7
C22  21482248.509 7                 111863681.415 7
E03  25594112.663 7  25594115.709 8 134497880.864 7 101746858.513 8
E05  21938867.462 8  21938868.997 9 115289483.995 8  87215783.884 9
E09  25886161.665 6  25886164.484 6 136032554.823 6 102907865.328 6
E15  24843893.578 7  24843897.127 8 130555650.108 7  98764435.244 8
E34  23222726.001 8  23222727.602 9 122036229.023 8  92319633.167 9
G01  20403058.399 8                  20403062.867 8 107218730.850 8                  83547131.812 8
G02  22544026.581 7  22544029.791 5                 118469562.975 7  92314026.969 5
G03  19769277.638 8                  19769283.968 7 103888244.748 8                  80951926.924 7
G04  21619809.498 7                  21619814.678 7 113612928.469 7                  88529551.581 7
G17  22215715.542 7                  22215721.060 7 116744410.043 7                  90969659.613 7
G19  22382633.219 7  22382634.890 5                 117621429.792 7  91653162.977 5
G28  23043882.850 5                  23043881.947 5 121096397.405 5                  94360843.97315
G31  22535292.027 5                  22535304.659 5 118423854.637 5                  92278294.984 5
R03  19301839.710 8  19301843.736 7 103324267.030 8  80363303.687 7
R04  19957178.233 7  19957182.326 7 106869815.839 7  83121034.997 7
R18  20005493.117 8  20005496.468 7 106790658.540 8  83059429.791 7
R19  19452510.896 8  19452511.740 7 104057801.532 8  80933830.165 7
> 2025 06 15 13 56 50.0000000  0 21
C11  24152486.831 6  24152487.313 7 125768371.901 6  97252066.440 7
C12  22024159.450 7  22024155.974 7 114685747.167 7  88682151.063 7
C21  22938145.163 7                 119444998.750 7
C22  21481990.635 7                 111862337.457 7
E03  25590380.992 7  25590384.384 8 134478272.731 7 101732025.098 8
E05  21937378.058 8  21937379.532 9 115281657.005 8  87209862.820 9
E09  25887233.937 6  25887236.312 6 136038187.146 6 102912126.118 6
E15  24840812.730 7  24840815.818 8 130539457.966 7  98752185.995 8
E34  23222110.734 8  23222112.554 9 122032997.006 8  92317188.166 9
G01  20403419.373 8                  20403424.319 8 107220629.423 8                  83548611.224 8
G02  22545619.333 7  22545622.386 5                 118477930.518 7  92320547.134 5
G03  19767987.318 7                  19767993.946 8 103881465.629 7                  80946644.499 8
G04  21615965.934 7                  21615971.502 7 113592730.853 7                  88513813.200 7
G17  22215065.749 7                  22215071.171 7 116740994.328 7                  90966998.012 7
G19  22380085.473 7  22380087.520 5                 117608041.545 7  91642730.577 5
G28  23042947.890 5                  23042947.617 5 121091488.099 5                  94357018.528 5
G31  22532554.466 5                  22532568.172 5 118409470.301 5                  92267086.390 5
R03  19302018.605 8  19302023.505 7 103325228.432 8  80364051.439 7
R04  19953937.439 7  19953940.893 7 106852458.185 7  83107534.609 7
R18  20007073.945 8  20007077.768 7 106799097.232 8  83065993.199 7
R19  19450110.921 8  19450113.273 7 104044969.593 8  80923849.769 7
> 2025 06 15 13 56 55.0000000  0 21
C11  24149129.469 6  24149129.085 7 125750886.147 6  97238545.349 7
C12  22023755.886 7  22023752.403 7 114683646.152 7  88680526.427 7
C21  22935094.836 7                 119429112.495 7
C22  21481734.963 7                 111861004.436 7
E03  25586651.177 7  25586654.415 8 134458671.721 7 101717197.069 8
E05  21935890.832 8  21935892.517 9 115273842.605 8  87203951.278 9
E09  25888306.079 6  25888309.682 6 136043827.447 6 102916392.979 6
E15  24837732.759 7  24837735.770 8 130523272.570 7  98739941.850 8
E34  23221497.996 8  23221499.614 9 122029775.853 8  92314751.392 9
G01  20403783.285 8                  20403788.270 8 107222542.696 8                  83550102.087 8
G02  22547213.331 7  22547216.718 5                 118486307.155 7  92327074.377 5
G03  19766700.005 7                  19766706.368 7 103874699.278 7                  80941372.019 7
G04  21612124.965 7                  21612130.315 7 113572544.576 7                  88498083.639 7
G17  22214418.425 7                  22214424.362 7 116737595.371 7                  90964349.468 7
G19  22377540.959 7  22377543.022 5                 117594671.346 7  91632312.244 5
G28  23042016.277 5                  23042017.326 5 121086597.120 5                  94353207.286 5
G31  22529819.360 4                  22529836.970 5 118395102.557 4                  92255890.736 5
R03  19302201.508 8  19302205.984 7 103326206.065 8  80364811.813 7
R04  19950698.692 8  19950702.616 7 106835116.310 8  83094046.486 7
R18  20008658.042 8  20008661.916 7 106807554.125 8  83072570.766 7
R19  19447716.147 8  19447718.585 7 104032158.918 8  80913885.910 7
> 2025 06 15 13 57  0.0000000  0 21
C11  24145774.493 6  24145773.199 7 125733410.656 6  97225032.210 7
C12  22023355.792 7  22023351.993 7 114681560.154 7  88678913.388 7
C21  22932045.777 7                 119413235.162 7
C22  21481480.472 7                 111859681.756 7
E03  25582922.776 7  25582925.683 8 134439077.242 7 101702373.993 8
E05  21934406.035 8  21934407.712 8 115266040.230 8  87198048.834 8
E09  25889381.207 6  25889384.304 7 136049475.108 6 102920665.401 7
E15  24834654.126 7  24834656.950 8 130507093.385 7  98727702.401 8
E34  23220886.879 8  23220888.575 9 122026564.986 8  92312322.393 9
G01  20404150.211 8                  20404155.174 8 107224470.088 8                  83551603.955 8
G02  22548808.690 6  22548812.410 5                 118494692.264 6  92333608.214 5
G03  19765414.625 7                  19765421.068 7 103867945.096 7                  80936109.024 7
G04  21608285.141 7                  21608291.237 7 113552369.043 7                  88482362.455 7
G17  22213775.099 7                  22213780.291 7 116734212.573 7                  90961713.514 7
G19  22374999.798 7  22375002.389 5                 117581318.645 7  91621907.529 5
G28  23041085.643 4                  23041092.444 5 121081723.891 4                  94349409.940 5
G31  22527089.588 5                  22527107.404 5 118380750.897 5                  92244707.672 5
R03  19302387.786 8  19302391.770 7 103327199.296 8  80365584.323 7
R04  19947462.520 8  19947466.632 7 106817789.725 8  83080570.256 7
R18  20010245.037 8  20010249.470 7 106816028.529 8  83079161.958 7
R19  19445324.612 8  19445327.519 7 104019369.120 8  80903938.291 7
> 2025 06 15 13 57  5.0000000  0 21
C11  24142419.996 6  24142419.511 7 125715946.005 6  97211527.449 7
C12  22022958.340 7  22022954.574 7 114679489.824 7  88677312.483 7
C21  22928998.958 7                 119397367.339 7
C22  21481228.267 7                 111858370.006 7
E03  25579195.352 7  25579198.338 8 134419489.909 7 101687556.304 8
E05  21932923.993 8  21932925.377 9 115258250.448 8  87192155.927 9
E09  25890457.759 6  25890460.392 6 136055130.745 6 102924943.842 6
E15  24831576.103 7  24831579.421 8 130490920.972 7  98715468.086 8
E34  23220277.688 8  23220279.673 9 122023364.983 8  92309901.606 9
G01  20404519.680 8                  20404524.512 8 107226412.194 8                  83553117.289 8
G02  22550406.286 6  22550409.176 5                 118503086.455 6  92340149.132 5
G03  19764131.751 7                  19764138.466 8 103861203.666 7                  80930855.962 8
G04  21604448.040 7                  21604454.124 7 113532204.858 7                  88466650.121 7
G17  22213134.711 7                  22213140.062 7 116730846.533 7                  90959090.605 7
G19  22372462.320 7  22372464.383 5                 117567983.984 7  91611516.897 5
G28  23040164.123 4                  23040169.558 5 121076868.91414                  94345626.81215
G31  22524361.340 5                  22524380.263 4 118366415.951 5                  92233537.606 4
R03  19302575.559 8  19302580.054 7 103328208.930 8  80366369.609 7
R04  19944230.398 8  19944234.039 7 106800478.889 8  83067106.295 7
R18  20011836.261 8  20011840.378 7 106824521.007 8  83085767.201 7
R19  19442937.501 8  19442940.456 7 104006600.772 8  80894007.357 7
> 2025 06 15 13 57 10.0000000  0 22
C11  24139068.351 6  24139067.336 7 125698491.562 6  97198030.571 7
C12  22022563.805 7  22022559.893 7 114677434.445 7  88675723.142 7
C21  22925953.734 7                 119381508.353 7
C22  21480977.962 7                 111857068.472 7
E03  25575469.437 7  25575472.253 8 134399909.025 7 101672743.499 8
E05  21931443.714 8  21931445.329 8 115250472.595 8  87186272.019 8
E09  25891534.972 6  25891537.965 6 136060793.631 6 102929227.751 6
E15  24828500.350 7  24828503.098 8 130474754.660 7  98703238.375 8
E34  23219670.943 8  23219672.647 9 122020175.158 8  92307488.529 9
E36  26137549.206 5                 137353712.58415
G01  20404891.586 7                  20404896.855 8 107228368.294 7                  83554641.523 8
G02  22552005.247 7  22552008.317 5                 118511489.053 7  92346696.581 5
G03  19762850.962 7                  19762857.788 7 103854474.310 7                  80925612.309 7
G04  21600613.274 7                  21600618.808 7 113512051.343 7                  88450946.103 7
G17  22212497.976 7                  22212502.388 7 116727496.568 7                  90956480.234 7
G19  22369928.703 7  22369930.350 5                 117554666.702 7  91601139.786 5
G28  23039245.062 4                                                                
G31  22521638.581 5                  22521655.106 4 118352097.039 5                  92222380.080 4
R03  19302767.482 8  19302772.014 7 103329234.386 8  80367167.177 7
R04  19941000.469 8  19941004.520 7 106783183.142 8  83053654.063 7
R18  20013430.279 8  20013434.206 7 106833030.904 8  83092385.998 7
R19  19440553.771 8  19440557.187 7 103993853.099 8  80884092.503 7
> 2025 06 15 13 57 15.0000000  0 21
C11  24135717.996 6  24135717.825 7 125681048.108 6  97184542.219 7
C12  22022172.410 7  22022168.436 8 114675394.884 7  88674146.026 8
C21  22922909.563 7                 119365659.077 7
C22  21480730.026 7                 111855778.099 7
E03  25571744.530 7  25571747.557 8 134380335.530 7 101657936.280 8
E05  21929965.854 8  21929967.641 8 115242707.540 8  87180397.806 8
E09  25892615.049 6  25892616.995 6 136066464.591 6 102933517.792 6
E15  24825425.584 7  24825428.090 8 130458595.342 7  98691013.958 8
E34  23219065.993 8  23219067.767 9 122016996.414 8  92305083.827 9
E36  26138973.455 5  26138977.851 7 137361192.220 5 103912898.02817
G01  20405266.892 8                  20405272.052 8 107230339.309 8                  83556177.381 8
G02  22553605.257 6  22553608.802 5                 118519900.938 6  92353251.289 5
G03  19761572.863 7                  19761579.782 8 103847757.892 7                  80920378.735 8
G04  21596780.769 7                  21596786.276 7 113491909.382 7                  88435251.084 7
G17  22211864.036 7                  22211868.223 7 116724163.547 7                  90953883.083 7
G19  22367397.688 7  22367399.473 5                 117541367.729 7  91590776.938 5
G31  22518918.864 5                  22518932.844 3 118337795.063 5                  92211235.654 3
R03  19302961.747 8  19302966.651 7 103330276.185 8  80367977.454 7
R04  19937772.951 8  19937776.946 7 106765903.525 8  83040214.360 7
R18  20015028.430 8  20015031.909 7 106841559.063 8  83099019.003 7
R19  19438175.327 7  19438178.187 7 103981127.146 7  80874194.533 7
> 2025 06 15 13 57 20.0000000  0 21
C11  24132371.056 6  24132370.131 7 125663616.054 6  97171062.663 7
C12  22021783.471 7  22021780.014 8 114673371.404 7  88672581.350 8
C21  22919867.965 7                 119349819.782 7
C22  21480484.270 7                 111854499.072 7
E03  25568021.601 7  25568024.310 8 134360769.642 7 101643134.820 8
E05  21928490.929 8  21928492.418 9 115234955.562 8  87174533.484 9
E09  25893694.601 6  25893697.697 6 136072143.996 6 102937814.232 6
E15  24822351.364 7  24822354.449 8 130442443.285 7  98678795.036 8
E34  23218463.202 8  23218465.015 9 122013829.015 8  92302687.710 9
E36  26140397.323 6  26140402.421 7 137368678.641 6 103918561.419 7
G01  20405644.792 8                  20405649.949 8 107232325.479 8                  83557725.032 8
G02  22555208.159 7  22555211.785 5                 118528322.314 7  92359813.384 5
G03  19760297.745 7                  19760304.183 8 103841054.723 7                  80915155.468 8
G04  21592949.981 7                  21592955.490 7 113471779.275 7                  88419565.297 7
G17  22211233.131 7                  22211237.222 7 116720847.752 7                  90951299.337 7
G19  22364869.928 7  22364872.514 5                 117528087.297 7  91580428.566 5
G31  22516200.085 5                                 118323510.244 5                
R03  19303159.706 8  19303164.274 7 103331334.830 8  80368800.845 7
R04  19934549.641 8  19934553.286 7 106748640.253 8  83026787.377 7
R18  20016629.048 8  20016632.815 7 106850105.773 8  83105666.439 7
R19  19435800.192 7  19435803.553 7 103968423.029 7  80864313.557 7
> 2025 06 15 13 57 25.0000000  0 21
C11  24129025.565 6  24129024.801 7 125646195.284 6  97157591.807 7
C12  22021399.157 7  22021394.617 8 114671363.955 7  88671029.075 8
C21  22916827.992 7                 119333990.416 7
C22  21480240.307 7                 111853231.339 7
E03  25564299.055 7  25564302.521 8 134341211.309 7 101628339.067 8
E05  21927018.541 8  21927019.789 9 115227216.555 8  87168678.977 9
E09  25894776.553 6  25894779.934 6 136077831.704 6 102942116.929 6
E15  24819278.943 7  24819282.187 8 130426298.424 7  98666581.567 8
E34  23217862.486 8  23217864.447 9 122010672.888 8  92300300.116 9
E36  26141822.672 6  26141828.285 7 137376171.814 6 103924229.951 7
G01  20406025.330 8                  20406030.734 8 107234326.735 8                  83559284.441 8
G02  22556812.197 7  22556815.685 5                 118536753.112 7  92366382.813 5
G03  19759024.653 8                  19759031.177 8 103834364.704 8                  80909942.467 8
G04  21589121.371 7                  21589126.944 7 113451660.942 7                  88403888.682 7
G17  22210605.308 7                  22210609.832 7 116717549.136 7                  90948729.000 7
G19  22362347.111 7  22362348.917 5                 117514825.411 7  91570094.637 5
G31  22513485.799 5                                 118309242.592 5                
R03  19303360.652 8  19303364.869 7 103332410.093 8  80369637.162 7
R04  19931328.048 8  19931332.627 7 106731393.121 8  83013372.956 7
R18  20018232.923 8  20018237.722 7 106858670.954 8  83112328.248 7
R19  19433428.763 7  19433432.854 7 103955740.738 7  80854449.568 7
> 2025 06 15 13 57 30.0000000  0 21
C11  24125681.247 6  24125681.091 7 125628784.450 6  97144128.640 7
C12  22021016.629 7  22021012.098 7 114669371.259 7  88669488.201 7
C21  22913789.306 7                 119318169.658 7
C22  21479998.975 7                 111851973.601 7
E03  25560579.025 7  25560581.956 8 134321659.215 7 101613548.051 8
E05  21925547.552 8  21925549.276 8 115219489.246 8  87162833.314 8
E09  25895860.969 6  25895863.554 6 136083526.404 6 102946424.938 6
E15  24816208.097 7  24816211.046 8 130410159.464 7  98654372.552 8
E34  23217263.735 8  23217265.736 9 122007526.718 8  92297920.063 9
E36  26143251.362 6  26143255.248 7 137383670.392 6 103929902.576 7
G01  20406409.136 7                  20406414.314 8 107236341.761 7                  83560854.594 8
G02  22558418.833 7  22558421.086 5                 118545192.059 7  92372958.583 5
G03  19757754.104 8                  19757760.074 7 103827686.523 8                  80904738.695 7
G04  21585293.958 7                  21585300.699 7 113431553.090 7                  88388220.239 7
G17  22209980.899 7                  22209984.914 7 116714266.447 7                  90946171.056 7
G19  22359825.554 7  22359828.626 5                 117501580.698 7  91559774.082 5
G31  22510773.375 5                                 118294990.763 5                
R03  19303564.623 8  19303568.885 7 103333500.753 8  80370485.443 7
R04  19928109.880 8  19928114.203 7 106714160.979 8  82999970.187 7
R18  20019840.741 8  20019845.066 7 106867253.263 8  83119003.356 7
R19  19431061.618 7  19431065.558 7 103943078.946 7  80844601.531 7
> 2025 06 15 13 57 35.0000000  0 21
C11  24122339.884 6  24122339.513 7 125611384.242 6  97130673.712 7
C12  22020636.370 7  22020632.316 7 114667393.839 7  88667959.136 7
C21  22910753.048 7                 119302358.091 7
C22  21479760.024 7                 111850726.432 7
E03  25556859.031 7  25556862.670 8 134302113.965 7 101598762.215 8
E05  21924080.028 8  21924081.228 8 115211774.191 8  87156996.926 8
E09  25896945.162 6  25896948.848 7 136089228.680 6 102950738.672 7
E15  24813138.157 7  24813141.121 8 130394026.982 7  98642168.434 8
E34  23216667.204 8  23216669.056 9 122004391.103 8  92295547.988 9
E36  26144679.097 6  26144683.366 7 137391174.955 6 103935579.699 7
G01  20406794.821 8                  20406800.457 8 107238371.136 8                  83562435.914 8
G02  22560025.211 6  22560028.400 5                 118553639.705 6  92379541.157 5
G03  19756485.574 8                  19756491.544 8 103821020.765 8                  80899544.598 8
G04  21581470.330 7                  21581476.035 7 113411456.260 7                  88372560.381 7
G17  22209359.647 7                  22209362.986 7 116711000.102 7                  90943625.835 7
G19  22357308.373 7  22357311.869 5                 117488353.726 7  91549467.360 5
G31  22508065.689 6                  22508078.028 4 118280755.287 6                  92166823.30914
R03  19303771.319 8  19303775.479 7 103334607.295 8  80371346.085 7
R04  19924894.592 8  19924898.869 7 106696944.304 8  82986579.443 7
R18  20021452.335 8  20021456.603 7 106875853.305 8  83125692.271 7
R19  19428699.388 8  19428702.508 7 103930438.346 8  80834769.952 7
> 2025 06 15 13 57 40.0000000  0 21
C11  24119000.659 6  24118999.759 7 125593994.433 6  97117226.817 7
C12  22020258.884 7  22020255.372 7 114665431.548 7  88666441.746 7
C21  22907717.781 7                 119286555.550 7
C22  21479522.537 7                 111849489.650 7
E03  25553140.632 7  25553144.636 8 134282575.368 7 101583981.416 8
E05  21922614.293 8  21922615.410 9 115204071.210 8  87151169.681 9
E09  25898031.434 6  25898035.366 6 136094938.354 6 102955058.015 6
E15  24810069.645 7  24810072.407 8 130377900.815 7  98629969.099 8
E34  23216072.401 8  23216074.362 9 122001265.844 8  92293183.750 9
E36  26146109.388 6  26146112.525 7 137398685.272 6 103941261.180 7
G01  20407184.130 7                  20407189.010 8 107240414.668 7                  83564028.284 8
G02  22561635.245 7  22561637.698 5                 118562095.897 7  92386130.389 5
G03  19755219.140 8                  19755225.448 8 103814367.251 8                  80894360.050 8
G04  21577647.476 7                  21577653.975 7 113391370.351 7                  88356909.044 7
G17  22208740.530 7                  22208744.842 7 116707749.989 7                  90941093.265 7
G19  22354795.409 7  22354798.290 5                 117475144.357 7  91539174.355 5
G31  22505359.271 5                  22505368.677 5 118266536.088 5                  92155743.298 5
R03  19303980.643 8  19303985.505 7 103335729.494 8  80372218.903 7
R04  19921682.777 8  19921686.708 7 106679743.007 8  82973200.681 7
R18  20023066.346 8  20023070.989 7 106884470.840 8  83132394.796 7
R19  19426339.609 7  19426343.204 7 103917818.674 7  80824954.675 7
> 2025 06 15 13 57 45.0000000  0 21
C11  24115663.006 6  24115662.014 7 125576615.252 6  97103788.141 7
C12  22019885.276 7  22019881.215 7 114663484.567 7  88664936.209 7
C21  22904685.367 7                 119270762.247 7
C22  21479287.093 7                 111848263.471 7
E03  25549423.754 7  25549427.842 8 134263043.661 7 101569205.830 8
E05  21921150.589 8  21921151.926 9 115196380.542 8  87145351.747 9
E09  25899119.909 6  25899123.214 6 136100655.620 6 102959383.082 6
E15  24807002.175 7  24807005.010 8 130361781.194 7  98617774.719 8
E34  23215480.063 8  23215481.631 9 121998151.197 8  92290827.533 9
E36  26147538.897 6  26147542.836 7 137406201.620 6 103946947.239 7
G01  20407575.887 7                  20407581.041 8 107242472.586 7                  83565631.859 8
G02  22563246.112 7  22563248.699 5                 118570560.810 7  92392726.401 5
G03  19753955.808 8                  19753961.977 7 103807726.222 8                  80889185.225 7
G04  21573827.783 7                  21573833.808 7 113371295.594 7                  88341266.358 7
G17  22208125.185 7                  22208129.202 7 116704516.286 7                  90938573.473 7
G19  22352284.309 7  22352288.082 5                 117461952.829 7  91528895.280 5
G31  22502657.008 5                  22502664.047 5 118252333.384 5                  92144676.195 5
R03  19304193.878 8  19304197.728 7 103336867.569 8  80373104.059 7
R04  19918473.349 8  19918477.596 7 106662557.335 8  82959834.062 7
R18  20024684.342 8  20024688.429 7 106893106.064 8  83139111.076 7
R19  19423984.621 8  19423988.260 7 103905220.282 8  80815155.917 7
> 2025 06 15 13 57 50.0000000  0 21
C11  24112327.146 6  24112326.210 7 125559246.263 6  97090357.342 7
C12  22019514.118 7  22019510.301 7 114661552.499 7  88663442.222 7
C21  22901654.080 7                 119254977.744 7
C22  21479054.462 7                 111847047.424 7
E03  25545708.174 7  25545712.306 8 134243518.401 7 101554435.119 8
E05  21919689.226 8  21919690.683 9 115188701.729 8  87139542.785 9
E09  25900209.091 6  25900212.399 6 136106380.007 6 102963713.527 6
E15  24803935.824 7  24803938.699 8 130345667.655 7  98605584.937 8
E34  23214889.187 8  23214890.871 9 121995046.696 8  92288478.993 9
E36  26148971.029 6  26148974.243 7 137413723.544 6 103952637.498 7
G01  20407969.308 7                  20407975.134 8 107244544.460 7                  83567246.306 8
G02  22564857.957 7  22564861.247 5                 118579033.986 7  92399328.875 5
G03  19752693.916 7                  19752700.154 7 103801097.192 7                  80884019.743 7
G04  21570009.664 7                  21570015.347 7 113351231.486 7                  88325631.997 7
G17  22207512.700 7                  22207516.830 7 116701298.603 7                  90936066.168 7
G19  22349778.005 7  22349781.006 5                 117448778.705 7  91518629.736 5
G31  22499956.047 5                  22499964.419 5 118238146.633 5                  92133621.574 5
R03  19304409.120 8  19304413.565 7 103338021.031 8  80374001.201 7
R04  19915267.095 8  19915271.594 7 106645386.690 8  82946479.126 7
R18  20026304.747 8  20026309.732 7 106901758.564 8  83145840.797 7
R19  19421633.206 7  19421637.110 7 103892642.505 7  80805373.199 7
> 2025 06 15 13 57 55.0000000  0 21
C11  24108993.768 6  24108992.813 7 125541887.676 6  97076934.599 7
C12  22019145.868 7  22019142.096 7 114659635.494 7  88661959.864 7
C21  22898624.666 7                 119239202.222 7
C22  21478822.528 7                 111845841.713 7
E03  25541993.859 7  25541998.021 8 134223999.790 7 101539669.441 8
E05  21918230.301 8  21918231.749 9 115181034.941 8  87133742.906 9
E09  25901300.041 6  25901303.035 6 136112111.757 6 102968049.521 6
E15  24800871.091 7  24800873.585 9 130329560.406 7  98593399.911 9
E34  23214300.491 8  23214302.072 9 121991952.503 8  92286138.251 9
E36  26150403.223 6  26150406.690 7 137421251.172 6 103958332.081 7
G01  20408366.835 7                  20408371.945 8 107246630.444 7                  83568871.727 8
G02  22566473.065 7  22566475.253 5                 118587515.649 7  92405937.928 5
G03  19751434.484 7                  19751441.112 8 103794480.352 7                  80878863.760 8
G04  21566193.627 7                  21566199.378 7 113331178.241 7                  88310006.112 7
G17  22206903.830 7                  22206907.705 7 116698097.079 7                  90933571.485 7
G19  22347274.515 7  22347277.557 5                 117435622.203 7  91508377.922 5
G31  22497260.088 4                  22497267.380 5 118223976.276 4                  92122579.728 5
R03  19304627.042 8  19304632.138 7 103339190.221 8  80374910.577 7
R04  19912061.883 8  19912067.487 7 106628231.460 8  82933136.184 7
R18  20027928.460 8  20027933.332 7 106910428.514 8  83152584.077 7
R19  19419286.417 7  19419289.640 7 103880085.760 7  80795606.834 7
> 2025 06 15 13 58  0.0000000  0 21
C11  24105662.376 6  24105661.263 7 125524539.065 6  97063519.543 7
C12  22018780.785 7  22018776.723 7 114657733.151 7  88660488.848 7
C21  22895597.167 7                 119223435.287 7
C22  21478592.933 7                 111844645.908 7
E03  25538280.600 7  25538284.940 8 134204487.388 7 101524908.459 8
E05  21916773.588 8  21916775.008 8 115173379.784 8  87127951.840 8
E09  25902391.394 6  25902395.046 6 136117850.423 6 102972390.764 6
E15  24797806.681 7  24797809.583 8 130313459.039 7  98581219.340 8
E34  23213713.935 8  23213715.181 9 121988868.243 8  92283805.029 9
E36  26151837.073 6  26151840.136 7 137428784.135 6 103964030.695 7
G01  20408766.231 7                  20408771.211 8 107248730.146 7                  83570507.838 8
G02  22568087.925 7  22568091.184 5                 118596005.326 7  92412553.267 5
G03  19750177.712 8                  19750183.995 7 103787875.313 8                  80873716.973 7
G04  21562379.816 7                  21562385.206 7 113311135.464 7                  88294388.388 7
G17  22206297.745 7                  22206301.041 7 116694911.341 7                  90931089.090 7
G19  22344774.035 7  22344777.225 5                 117422482.913 7  91498139.514 5
G31  22494564.592 4                  22494573.024 5 118209821.610 4                  92111550.149 5
R03  19304848.598 8  19304853.441 7 103340374.638 8  80375831.778 7
R04  19908861.720 8  19908867.005 7 106611091.013 8  82919804.726 7
R18  20029556.489 8  20029561.091 7 106919115.460 8  83159340.568 7
R19  19416942.759 7  19416946.442 7 103867549.603 7  80785856.490 7
> 2025 06 15 13 58  5.0000000  0 21
C11  24102333.431 6  24102331.386 7 125507201.238 6  97050112.829 7
C12  22018418.265 7  22018414.054 7 114655846.225 7  88659029.757 7
C21  22892570.722 7                 119207677.703 7
C22  21478365.185 7                 111843460.782 7
E03  25534568.673 7  25534573.144 8 134184982.025 7 101510152.800 8
E05  21915319.010 8  21915320.638 9 115165737.030 8  87122170.139 9
E09  25903484.917 6  25903488.490 6 136123596.681 6 102976737.827 6
E15  24794743.996 7  24794746.868 8 130297364.313 7  98569043.792 8
E34  23213128.654 8  23213130.276 9 121985794.664 8  92281479.894 9
E36  26153272.350 6  26153274.749 7 137436323.197 6 103969733.918 7
G01  20409168.873 7                  20409173.674 8 107250844.316 7                  83572155.246 8
G02  22569706.020 7  22569709.203 5                 118604503.791 7  92419175.423 5
G03  19748923.181 7                  19748929.556 8 103781282.831 7                  80868579.967 8
G04  21558567.940 7                  21558573.484 7 113291103.959 7                  88278779.416 7
G17  22205694.547 7                  22205698.360 7 116691742.129 7                  90928619.580 7
G19  22342276.573 7  22342279.990 5                 117409361.577 7  91487915.095 5
G31  22491874.723 4                                                                
R03  19305073.253 8  19305077.954 7 103341575.101 8  80376765.468 7
R04  19905663.874 8  19905668.738 7 106593966.317 8  82906485.522 7
R18  20031187.539 8  20031191.654 7 106927820.196 8  83166110.908 7
R19  19414603.571 7  19414606.422 7 103855034.771 7  80776122.747 7
> 2025 06 15 13 58 10.0000000  0 21
C11  24099006.447 6  24099003.864 7 125489874.767 6  97036714.906 7
C12  22018059.414 7  22018054.876 7 114653975.396 7  88657583.118 7
C21  22889546.109 7                 119191930.110 7
C22  21478139.816 7                 111842286.979 7
E03  25530858.721 7  25530862.861 8 134165484.330 7 101495402.943 8
E05  21913867.070 8  21913868.787 9 115158107.323 8  87116398.325 9
E09  25904580.728 6  25904583.459 6 136129351.266 6 102981091.108 6
E15  24791682.599 7  24791685.556 8 130281276.934 7  98556873.790 8
E34  23212546.190 8  23212547.540 9 121982732.444 8  92279163.347 9
E36  26154707.520 6  26154710.591 7 137443868.970 6 103975442.243 7
G01  20409574.359 7                  20409578.773 8 107252973.604 7                  83573814.411 8
G02  22571324.933 7  22571328.282 5                 118613011.729 7  92425804.992 5
G03  19747671.464 8                  19747677.370 7 103774703.579 8                  80863453.273 7
G04  21554757.499 7                  21554764.213 7 113271084.353 7                  88263179.743 7
G17  22205094.807 7                  22205098.154 7 116688590.065 7                  90926163.437 7
G19  22339783.886 7  22339786.606 5                 117396258.847 7  91477705.170 5
G31  22489189.510 5                  22489194.816 5 118181562.97015                  92089530.39115
R03  19305300.944 8  19305305.301 7 103342792.151 8  80377712.060 7
R04  19902468.594 8  19902474.211 7 106576857.950 8  82893179.030 7
R18  20032821.591 8  20032825.744 7 106936543.337 8  83172895.569 7
R19  19412268.371 8  19412270.828 7 103842541.937 8  80766406.085 7
> 2025 06 15 13 58 15.0000000  0 21
C11  24095681.363 7  24095678.429 7 125472559.165 7  97023325.388 7
C12  22017703.026 7  22017698.283 7 114652119.999 7  88656148.398 7
C21  22886523.746 7                 119176191.876 7
C22  21477916.777 7                 111841123.847 7
E03  25527149.507 7  25527153.845 8 134145993.671 7 101480658.398 8
E05  21912417.180 8  21912419.256 9 115150490.029 8  87110635.892 9
E09  25905676.969 6  25905679.937 6 136135113.571 6 102985450.235 6
E15  24788622.769 7  24788625.541 8 130265196.229 7  98544708.851 8
E34  23211965.369 8  23211966.827 9 121979680.946 8  92276854.905 9
E36  26156144.419 6  26156147.659 7 137451420.866 6 103981155.193 7
G01  20409982.040 7                  20409986.454 8 107255117.376 7                  83575484.885 8
G02  22572945.618 7  22572948.685 5                 118621528.490 7  92432441.424 5
G03  19746421.541 7                  19746427.875 7 103768136.869 7                  80858336.355 7
G04  21550950.892 7                  21550956.779 7 113251076.063 7                  88247588.875 7
G17  22204498.023 7                  22204501.373 6 116685454.560 7                  90923720.199 6
G19  22337293.647 7  22337296.320 5                 117383174.152 7  91467509.334 5
G31  22486504.575 5                  22486510.602 5 118167458.917 5                  92078540.136 5
R03  19305531.595 8  19305535.230 7 103344025.296 8  80378671.162 7
R04  19899277.240 8  19899282.062 7 106559765.344 8  82879884.787 7
R18  20034458.496 8  20034462.942 7 106945284.291 8  83179694.104 7
R19  19409936.850 8  19409939.851 7 103830070.542 8  80756706.129 7
> 2025 06 15 13 58 20.0000000  0 22
C11  24092358.098 6  24092355.193 7 125455253.767 6  97009943.775 7
C12  22017349.032 7  22017344.653 7 114650279.467 7  88654725.169 7
C21  22883502.302 7                 119160462.448 7
C22  21477695.637 7                 111839970.809 7
E03  25523441.755 7  25523446.129 8 134126509.471 7 101465918.741 8
E05  21910969.916 8  21910971.985 8 115142884.566 8  87104882.407 8
E09  25906774.868 5  25906777.794 6 136140882.986 5 102989814.748 6
E15  24785564.121 7  24785566.620 8 130249121.654 7  98532548.536 8
E34  23211386.349 8  23211388.066 9 121976639.573 8  92274554.126 9
E36  26157582.282 6  26157585.793 7 137458978.282 6 103986872.323 7
G01  20410393.051 8                  20410397.017 8 107257275.035 8                  83577166.170 8
G02  22574567.501 7  22574571.058 5                 118630053.431 7  92439084.228 5
G03  19745174.297 7                  19745180.748 7 103761582.189 7                  80853228.810 7
G04  21547145.250 7                  21547151.081 7 113231078.472 7                  88232006.330 7
G09  24361347.785 6                  24361356.618 6 128019749.34216                  99755706.47516
G17  22203904.210 7                  22203907.989 7 116682334.998 7                  90921289.366 7
G19  22334807.113 7  22334809.737 5                 117370106.877 7  91457327.034 5
G31  22483825.563 5                  22483827.292 4 118153370.965 5                  92067562.539 4
R03  19305764.370 8  19305768.360 7 103345273.619 8  80379642.089 7
R04  19896087.970 8  19896093.236 7 106542687.786 8  82866602.233 7
R18  20036099.803 8  20036103.706 7 106954042.359 8  83186505.922 7
R19  19407609.489 7  19407612.332 7 103817619.938 7  80747022.317 7
> 2025 06 15 13 58 25.0000000  0 21
C11  24089037.254 7  24089033.709 7 125437958.495 7  96996569.978 7
C12  22016998.866 7  22016993.788 7 114648453.621 7  88653313.294 7
C21  22880483.492 7                 119144741.655 7
C22  21477475.787 7                 111838827.741 7
E03  25519735.404 7  25519739.577 8 134107031.600 7 101451183.872 8
E05  21909524.704 8  21909526.951 9 115135290.787 8  87099137.759 9
E09  25907873.563 5  25907876.972 6 136146659.295 5 102994184.451 6
E15  24782505.918 8  24782508.909 8 130233053.028 8  98520392.728 8
E34  23210809.660 8  23210811.259 8 121973608.188 8  92272260.903 8
E36  26159021.128 6  26159024.965 7 137466541.072 6 103992593.515 7
G01  20410805.968 8                  20410810.303 8 107259446.448 8                  83578858.184 8
G02  22576191.471 7  22576194.916 5                 118638586.464 7  92445733.335 5
G03  19743929.557 8                  19743935.560 7 103755039.354 8                  80848130.486 7
G04  21543341.817 7                  21543347.582 7 113211091.457 7                  88216432.021 7
G09  24356650.176 6                  24356659.370 6 127995067.303 6                  99736473.725 6
G17  22203313.432 7                  22203317.420 7 116679231.256 7                  90918870.861 7
G19  22332324.132 7  22332326.006 5                 117357056.875 7  91447158.201 5
R03  19306000.367 8  19306004.482 7 103346537.348 8  80380624.989 7
R04  19892901.640 8  19892906.412 7 106525625.213 8  82853331.340 7
R18  20037744.310 8  20037747.400 7 106962817.430 8  83193330.973 7
R19  19405285.182 7  19405288.785 7 103805189.973 7  80737354.578 7
> 2025 06 15 13 58 30.0000000  0 21
C11  24085717.662 7  24085714.480 7 125420673.687 7  96983204.282 7
C12  22016650.933 7  22016646.151 7 114646642.859 7  88651913.094 7
C21  22877465.866 7                 119129029.874 7
C22  21477258.135 7                 111837694.983 7
E03  25516030.327 7  25516034.300 8 134087560.428 7 101436454.067 8
E05  21908082.317 8  21908084.221 9 115127709.063 8  87093402.237 9
E09  25908973.965 5  25908977.480 6 136152442.849 5 102998559.659 6
E15  24779449.732 7  24779452.318 8 130216990.771 7  98508241.739 8
E34  23210234.678 8  23210236.404 9 121970587.170 8  92269975.529 9
E36  26160461.045 6  26160465.156 7 137474109.569 6 103998319.034 7
G01  20411222.110 8                  20411226.037 8 107261631.974 8                  83580561.188 8
G02  22577817.126 7  22577820.295 5                 118647127.942 7  92452389.021 5
G03  19742686.592 7                  19742692.802 7 103748508.721 7                  80843041.694 7
G04  21539541.042 7                  21539546.333 7 113191115.377 7                  88200866.255 7
G09  24351953.637 6                  24351963.229 5 127970388.670 6                  99717243.650 5
G17  22202725.763 7                  22202729.408 7 116676143.696 7                  90916464.972 7
G19  22329844.236 7  22329845.917 5                 117344024.567 7  91437003.133 5
R03  19306238.821 8  19306243.617 7 103347816.484 8  80381619.881 7
R04  19889719.575 8  19889722.864 7 106508577.995 8  82840072.397 7
R18  20039391.753 8  20039394.762 7 106971609.883 8  83200169.538 7
R19  19402966.540 8  19402968.916 7 103792781.198 8  80727703.310 7
> 2025 06 15 13 58 35.0000000  0 21
C11  24082400.292 7  24082397.401 7 125403400.167 7  96969847.309 7
C12  22016305.817 7  22016301.551 7 114644847.984 7  88650525.188 7
C21  22874450.571 7                 119113327.912 7
C22  21477042.302 7                 111836573.322 7
E03  25512326.209 7  25512330.466 8 134068096.760 7 101421729.939 8
E05  21906642.312 8  21906643.920 8 115120140.183 8  87087676.431 8
E09  25910077.285 6  25910079.564 6 136158234.511 6 103002941.008 6
E15  24776394.985 7  24776397.125 8 130200935.669 7  98496096.157 8
E34  23209661.898 8  23209663.686 9 121967577.315 8  92267698.592 9
E36  26161902.512 6  26161906.635 7 137481684.612 6 104004049.492 7
G01  20411640.713 7                  20411644.929 8 107263832.406 7                  83582275.807 8
G02  22579443.981 7  22579448.074 5                 118655678.643 7  92459051.914 5
G03  19741446.175 7                  19741452.612 8 103741991.107 7                  80837963.036 8
G04  21535741.709 7                  21535747.298 7 113171151.062 7                  88185309.647 7
G09  24347259.235 6                  24347268.169 6 127945714.251 6                  99698016.822 6
G17  22202141.077 7                  22202145.600 6 116673073.120 7                  90914072.296 6
G19  22327367.393 7  22327369.177 5                 117331010.719 7  91426862.481 5
R03  19306481.226 8  19306485.590 7 103349112.261 8  80382627.696 7
R04  19886538.819 8  19886542.658 7 106491546.952 8  82826826.040 7
R18  20041040.850 8  20041045.108 7 106980420.507 8  83207022.238 7
R19  19400651.827 8  19400653.221 7 103780394.322 8  80718069.082 7
> 2025 06 15 13 58 40.0000000  0 21
C11  24378877.722 7  24378875.397 7 126947237.694 7  98163640.433 7
C12  22315756.727 7  22315752.197 7 116204165.667 7  89856288.537 7
C21  23171229.865 7                 120658735.253 7
C22  21776621.342 7                 113396559.345 7
E03  25808417.210 7  25808420.917 8 135624062.800 7 102598808.164 8
E05  22204996.757 8  22204998.522 9 116688003.990 8  88273755.225 9
E09  26210972.784 5  26210975.086 6 137739451.440 5 104199121.349 6
E15  25073133.410 7  25073136.075 8 131760309.248 7  99675752.146 8
E34  23508883.527 8  23508885.321 9 123539997.545 8  93457224.282 9
E36  26463137.695 6  26463141.249 7 139064683.021 6 105201577.485 7
G01  20711854.037 8                  20711858.448 8 108841465.635 8                  84811600.398 8
G02  22880864.151 7  22880868.936 5                 120239655.160 7  93693319.314 5
G03  20040000.701 7                  20040007.320 8 105310906.141 7                  82060494.239 8
G04  21831737.905 7                  21831743.320 7 114726620.833 7                  89397364.038 7
G09  24642357.729 6                  24642366.387 5 129496467.302 6                 100906395.814 5
G17  22501352.329 7                  22501357.079 6 118245438.411 7                  92139292.002 6
G19  22624687.026 7  22624689.138 5                 118893436.266 7  92644336.932 5
R03  19606518.710 8  19606522.697 7 104955234.729 8  81631834.055 7
R04  20183154.205 8  20183157.565 7 108079908.831 8  84062218.605 7
R18  20342486.671 8  20342490.746 7 108589558.353 8  84458573.886 7
R19  19698132.401 8  19698134.145 7 105371717.521 8  81955764.893 7
> 2025 06 15 13 58 45.0000000  0 21
C11  24375564.460 6  24375562.066 7 126929984.430 6  98150299.114 7
C12  22315417.226 7  22315413.452 7 116202400.194 7  89854923.354 7
C21  23168218.047 7                 120643050.583 7
C22  21776409.749 7                 113395457.526 7
E03  25804715.116 7  25804719.528 8 135604611.779 7 102584093.602 8
E05  22203560.801 8  22203562.660 9 116680458.441 8  88268047.066 9
E09  26212076.919 5  26212079.849 6 137745256.871 5 104203513.098 6
E15  25070080.601 7  25070083.149 8 131744266.094 7  99663615.606 8
E34  23508314.358 8  23508316.380 9 123537007.650 8  93454962.450 9
E36  26464581.317 6  26464584.781 7 139072268.775 6 105207316.039 7
G01  20712277.766 8                  20712282.477 8 108843693.536 8                  84813336.406 8
G02  22882495.345 7  22882498.998 5                 120248221.969 7  93699994.723 5
G03  20038765.398 7                  20038771.683 8 105304412.196 7                  82055434.033 8
G04  21827942.220 7                  21827948.589 7 114706677.697 7                  89381823.938 7
G09  24637663.409 6                  24637672.137 6 129471798.937 6                 100887173.709 6
G17  22500774.166 7                  22500778.444 7 118242399.364 7                  92136923.900 7
G19  22622216.767 7  22622219.329 5                 118880457.022 7  92634223.249 5
R03  19606766.222 8  19606770.578 7 104956560.561 8  81632865.262 7
R04  20179978.587 8  20179982.843 7 108062907.685 8  84048995.515 7
R18  20344143.826 8  20344147.775 7 108598402.903 8  84465452.973 7
R19  19695823.298 8  19695825.721 7 105359371.896 8  81946162.738 7
> 2025 06 15 13 58 50.0000000  0 21
C11  24372253.000 6  24372250.613 7 126912742.374 6  98136966.460 7
C12  22315081.402 7  22315077.291 7 116200650.457 7  89853570.342 7
C21  23165208.497 7                 120627375.609 7
C22  21776200.213 7                 113394366.700 7
E03  25801015.654 7  25801019.484 8 135585168.181 7 102569384.660 8
E05  22202127.333 8  22202129.215 8 116672925.642 8  88262348.550 8
E09  26213183.272 5  26213186.186 6 137751070.345 5 104207910.951 6
E15  25067028.436 7  25067031.542 8 131728230.021 7  99651484.434 8
E34  23507747.501 8  23507749.554 9 123534028.841 8  93452708.995 9
E36  26466025.394 6  26466029.572 7 139079860.939 6 105213059.475 7
G01  20712704.945 7                  20712709.115 8 108845936.241 7                  84815083.962 8
G02  22884127.141 7  22884130.939 5                 120256797.854 7  93706677.215 5
G03  20037531.946 7                  20037538.234 8 105297931.186 7                  82050383.907 8
G04  21824149.962 7                  21824156.023 7 114686746.250 7                  89366292.957 7
G09  24632970.033 6                  24632979.574 6 129447134.707 6                 100867954.830 6
G17  22500199.487 7                  22500203.575 7 118239377.187 7                  92134568.947 7
G19  22619750.737 7  22619753.324 5                 118867496.223 7  92624123.933 5
R03  19607016.336 8  19607020.872 7 104957902.785 8  81633909.216 7
R04  20176805.777 8  20176811.322 7 108045922.743 8  84035785.035 7
R18  20345803.631 8  20345808.317 7 108607265.470 8  84472346.060 7
R19  19693520.046 8  19693522.412 7 105347048.039 8  81936577.511 7
> 2025 06 15 13 58 55.0000000  0 21
C11  24368943.412 6  24368941.436 7 126895511.287 6  98123642.282 7
C12  22314747.906 7  22314744.684 7 116198916.333 7  89852229.402 7
C21  23162200.672 7                 120611710.188 7
C22  21775992.624 7                 113393286.668 7
E03  25797317.537 7  25797320.876 8 135565731.819 7 102554681.184 8
E05  22200696.102 8  22200698.150 8 116665405.374 8  88256659.524 8
E09  26214290.723 5  26214293.921 6 137756891.438 5 104212314.578 6
E15  25063978.671 7  25063981.260 8 131712200.811 7  99639358.436 8
E34  23507182.687 8  23507184.794 9 123531060.884 8  93450463.756 9
E36  26467471.158 6  26467475.535 7 139087459.343 6 105218807.600 7
G01  20713133.908 7                  20713138.856 8 108848193.534 7                  84816842.910 8
G02  22885760.902 7  22885764.334 5                 120265382.670 7  93713366.655 5
G03  20036300.840 7                  20036307.425 8 105291462.872 7                  82045343.661 8
G04  21820359.705 7                  21820365.134 7 114666826.301 7                  89350770.926 7
G09  24628277.181 6                  24628286.925 6 129422474.385 6                 100848739.025 6
G17  22499627.381 7                  22499631.501 7 118236371.694 7                  92132227.011 7
G19  22617287.732 6  22617291.014 5                 118854553.615 6  92614038.785 5
R03  19607270.214 8  19607274.439 7 104959261.060 8  81634965.659 7
R04  20173637.987 8  20173642.710 7 108028953.679 8  84022586.872 7
R18  20347468.021 8  20347472.094 7 108616145.843 8  84479253.005 7
R19  19691220.570 8  19691222.317 7 105334745.848 8  81927009.128 7
> 2025 06 15 13 59  0.0000000  0 21
C11  24365636.434 6  24365634.516 7 126878290.454 6  98110326.055 7
C12  22314417.577 7  22314414.747 7 116197196.996 7  89850899.906 7
C21  23159194.082 7                 120596053.474 7
C22  21775787.404 7                 113392216.606 7
E03  25793619.688 7  25793623.499 8 135546301.871 7 102539982.566 8
E05  22199267.342 8  22199269.334 9 116657896.858 8  88250979.375 9
E09  26215399.504 5  26215402.989 6 137762719.555 5 104216723.507 6
E15  25060929.543 7  25060932.142 8 131696177.700 7  99627237.065 8
E34  23506619.844 8  23506621.914 9 123528103.006 8  93448226.144 9
E36  26468918.255 6  26468922.442 7 139095063.150 6 105224559.820 7
G01  20713566.365 8                  20713571.259 8 108850464.633 8                  84818612.602 8
G02  22887395.721 7  22887399.539 5                 120273975.591 7  93720062.417 5
G03  20035072.827 7                  20035078.694 7 105285006.499 7                  82040312.726 7
G04  21816571.137 7                  21816576.897 7 114646917.037 7                  89335257.223 7
G09  24623584.717 6                  24623594.498 6 129397817.253 6                 100829525.696 6
G17  22499058.545 7                  22499062.687 7 118233382.072 7                  92129897.427 7
G19  22614828.612 7  22614831.292 5                 118841628.392 7  92603967.210 5
R03  19607526.373 8  19607530.726 7 104960634.555 8  81636033.946 7
R04  20170472.026 8  20170476.552 7 108011999.686 8  84009400.422 7
R18  20349134.558 8  20349138.576 7 108625043.226 8  84486173.188 7
R19  19688925.367 8  19688926.548 7 105322464.548 8  81917456.994 7
> 2025 06 15 13 59  5.0000000  0 21
C11  24362332.223 6  24362329.718 7 126861080.532 6  98097018.246 7
C12  22314090.646 7  22314087.331 7 116195493.036 7  89849582.292 7
C21  23156189.811 7                 120580406.151 7
C22  21775584.323 7                 113391157.161 7
E03  25789924.255 8  25789927.436 8 135526879.000 8 102525289.299 8
E05  22197840.623 8  22197842.858 8 116650400.714 8  88245308.596 8
E09  26216510.555 4  26216513.524 6 137768555.255 4 104221138.172 6
E15  25057881.346 7  25057884.298 8 131680161.329 7  99615120.788 8
E34  23506058.979 8  23506061.087 9 123525155.846 8  93445996.632 9
E36  26470366.374 6  26470370.695 7 139102673.064 6 105230316.646 7
G01  20714000.803 7                  20714006.324 8 108852750.164 7                  84820393.543 8
G02  22889032.646 7  22889036.145 5                 120282577.238 7  93726764.976 5
G03  20033846.710 8                  20033852.470 8 105278562.678 8                  82035291.576 8
G04  21812784.685 7                  21812790.329 8 114627019.139 7                  89319752.371 8
G09  24618893.354 6                  24618903.864 6 129373163.889 6                 100810315.296 6
G17  22498492.713 7                  22498496.829 7 118230408.932 7                  92127580.688 7
G19  22612372.225 7  22612375.258 5                 118828721.262 7  92593909.714 5
R03  19607786.098 8  19607790.569 7 104962023.841 8  81637114.506 7
R04  20167308.412 8  20167313.182 7 107995061.438 8  83996226.235 7
R18  20350805.137 8  20350809.066 7 108633958.260 8  84493107.090 7
R19  19686633.936 8  19686634.142 7 105310204.642 8  81907921.517 7
> 2025 06 15 13 59 10.0000000  0 21
C11  24359029.092 6  24359026.534 7 126843881.812 6  98083719.108 7
C12  22313765.453 7  22313763.247 7 116193804.796 7  89848276.838 7
C21  23153187.299 7                 120564768.557 7
C22  21775383.068 7                 113390108.683 7
E03  25786229.220 7  25786232.755 8 135507463.553 7 102510601.653 8
E05  22196416.773 8  22196418.790 8 116642917.349 8  88239647.480 8
E09  26217621.091 4  26217625.651 6 137774398.878 4 104225558.824 6
E15  25054834.418 7  25054837.831 8 131664152.035 7  99603009.863 8
E34  23505500.089 8  23505502.375 9 123522219.758 8  93443775.498 9
E36  26471816.115 5  26471820.159 7 139110289.329 5 105236078.289 7
G01  20714439.014 8                  20714444.005 8 108855050.477 8                  84822185.996 8
G02  22890671.110 7  22890674.923 5                 120291187.956 7  93733474.632 5
G03  20032622.848 7                  20032628.654 7 105272131.771 7                  82030280.478 7
G04  21809000.181 7                  21809006.700 8 114607132.955 7                  89304256.646 8
G09  24614204.317 6                  24614212.522 6 129348514.705 6                 100791108.137 6
G17  22497930.676 7                  22497934.593 7 118227452.614 7                  92125277.079 7
G19  22609919.436 7  22609922.888 5                 118815832.551 7  92583866.581 5
R03  19608048.256 8  19608053.125 7 104963429.449 8  81638207.754 7
R04  20164147.904 8  20164153.871 7 107978139.237 8  83983064.564 7
R18  20352478.716 8  20352481.991 7 108642891.271 8  84500054.968 7
R19  19684345.271 8  19684346.765 7 105297966.593 8  81898403.061 7
> 2025 06 15 13 59 15.0000000  0 21
C11  24355729.215 6  24355725.709 7 126826694.417 6  98070428.749 7
C12  22313444.940 7  22313441.854 7 116192132.383 7  89846983.634 7
C21  23150186.300 7                 120549140.753 7
C22  21775183.681 7                 113389071.239 7
E03  25782535.967 8  25782539.554 8 135488055.623 8 102495919.698 8
E05  22194995.112 8  22194997.214 9 116635446.754 8  88233996.021 9
E09  26218734.785 4  26218739.236 6 137780250.55914 104229985.55116
E15  25051789.227 7  25051792.682 9 131648149.896 7  99590904.365 9
E34  23504943.849 8  23504945.752 9 123519294.811 8  93441562.793 9
E36  26473267.835 6  26473270.789 7 139117912.055 6 105241844.814 7
G01  20714879.195 8                  20714884.661 8 108857365.653 8                  84823990.027 8
G02  22892311.286 7  22892314.820 5                 120299807.838 7  93740191.401 5
G03  20031401.114 7                  20031407.219 7 105265713.816 7                  82025279.481 7
G04  21805218.051 7                  21805224.612 8 114587258.551 7                  89288770.107 8
G09  24609513.563 6                  24609522.348 6 129323869.715 6                 100771904.290 6
G17  22497370.515 7                  22497375.183 7 118224513.221 7                  92122986.644 7
G19  22607469.841 7  22607473.359 5                 118802962.348 7  92573837.832 5
R03  19608314.477 8  19608318.563 7 104964851.164 8  81639313.524 7
R04  20160991.054 8  20160996.992 7 107961233.191 8  83969915.427 7
R18  20354154.991 8  20354159.284 7 108651842.344 8  84507016.890 7
R19  19682060.877 8  19682063.108 7 105285750.508 8  81888901.674 7
> 2025 06 15 13 59 20.0000000  0 20
C11  24352430.505 6  24352427.213 7 126809518.875 6  98057147.512 7
C12  22313127.395 7  22313123.693 7 116190476.324 7  89845703.036 7
C21  23147186.804 7                 120533523.261 7
C22  21774986.374 7                 113388045.313 7
E03  25778844.086 7  25778847.907 8 135468655.724 7 102481243.802 8
E05  22193576.162 8  22193578.117 8 116627989.467 8  88228354.637 8
E15  25048745.866 7  25048748.995 8 131632155.451 7  99578804.676 8
E34  23504389.356 8  23504391.352 9 123516381.507 8  93439358.892 9
E36  26474719.240 6  26474722.695 7 139125541.741 6 105247616.660 7
G01  20715322.602 7                  20715328.019 8 108859696.186 7                  84825806.017 8
G02  22893953.254 7  22893957.439 5                 120308437.381 7  93746915.699 5
G03  20030182.704 8                  20030188.900 7 105259309.383 8                  82020289.004 7
G04  21801438.847 7                  21801444.589 7 114567396.440 7                  89273293.146 7
G09  24604824.994 6                  24604833.649 6 129299229.519 6                 100752704.149 6
G17  22496814.592 7                  22496818.932 7 118221591.208 7                  92120709.755 7
G19  22605025.110 7  22605028.077 5                 118790111.176 7  92563823.919 5
R03  19608583.270 8  19608587.636 7 104966289.823 8  81640432.478 7
R04  20157837.112 8  20157842.756 7 107944343.810 8  83956779.253 7
R18  20355834.916 7  20355839.389 7 108660811.944 7  84513993.244 7
R19  19679781.403 8  19679784.103 7 105273556.947 8  81879417.790 7
> 2025 06 15 13 59 25.0000000  0 20
C11  24349133.710 6  24349130.946 7 126792354.488 6  98043874.937 7
C12  22312812.479 7  22312808.768 7 116188835.902 7  89844434.552 7
C21  23144188.841 7                 120517915.414 7
C22  21774791.002 7                 113387030.236 7
E03  25775153.808 7  25775157.623 8 135449263.185 7 102466573.477 8
E05  22192159.532 8  22192161.499 9 116620544.822 8  88222722.824 9
E15  25045703.631 7  25045706.644 8 131616168.027 7  99566710.301 8
E34  23503837.486 8  23503839.035 9 123513479.189 8  93437163.305 9
E36  26476171.850 6  26476175.915 7 139133177.725 6 105253393.231 7
G01  20715768.899 7                  20715774.686 8 108862041.411 7                  84827633.473 8
G02  22895597.947 7  22895601.443 5                 120317075.869 7  93753646.979 5
G03  20028966.685 8                  20028972.358 7 105252917.765 8                  82015308.525 7
G04  21797661.144 7                  21797667.001 7 114547545.954 7                  89257825.258 7
G09  24600136.623 6                  24600145.561 6 129274593.400 6                 100733507.180 6
G17  22496262.046 7                  22496266.347 7 118218685.957 7                  92118445.923 7
G19  22602582.799 7  22602585.791 5                 118777278.346 7  92553824.314 5
R03  19608854.761 7  19608859.323 7 104967744.436 7  81641563.844 7
R04  20154686.151 8  20154692.158 7 107927470.554 8  83943655.597 7
R18  20357518.409 7  20357522.824 7 108669799.376 7  84520983.457 7
R19  19677506.535 8  19677508.799 7 105261385.218 8  81869950.898 7
> 2025 06 15 13 59 30.0000000  0 20
C11  24345839.319 6  24345837.267 7 126775201.966 6  98030611.524 7
C12  22312500.886 7  22312496.851 7 116187211.850 7  89843178.720 7
C21  23141192.906 7                 120502317.886 7
C22  21774598.184 7                 113386026.715 7
E03  25771465.586 7  25771468.887 8 135429878.695 7 102451909.242 8
E05  22190745.792 8  22190747.336 9 116613113.514 8  88217101.085 9
E15  25042662.538 7  25042665.873 8 131600188.292 7  99554621.740 8
E34  23503287.461 8  23503288.962 9 123510588.544 8  93434976.545 9
E36  26477626.515 6  26477630.350 7 139140820.765 6 105259175.131 7
G01  20716218.370 7                  20716223.835 8 108864401.999 7                  84829472.887 8
G02  22897242.555 7  22897247.225 5                 120325723.967 7  93760385.735 5
G03  20027752.751 8                  20027758.648 7 105246539.648 8                  82010338.554 7
G04  21793885.467 7                  21793891.821 7 114527707.839 7                  89242367.007 7
G09  24595450.202 6                  24595458.153 5 129249962.070 6                 100714313.989 5
G17  22495712.521 7                  22495716.910 7 118215798.143 7                  92116195.688 7
G19  22600145.267 7  22600147.499 5                 118764464.593 7  92543839.566 5
R03  19609129.203 7  19609134.003 7 104969216.012 7  81642708.388 7
R04  20151538.328 7  20151543.803 7 107910614.067 7  83930544.986 7
R18  20359205.422 8  20359209.818 7 108678805.269 8  84527988.056 7
R19  19675236.059 8  19675237.594 7 105249235.943 8  81860501.452 7
> 2025 06 15 13 59 35.0000000  0 20
C11  24342547.081 6  24342545.407 7 126758060.538 6  98017356.692 7
C12  22312191.445 7  22312188.053 7 116185603.358 7  89841934.938 7
C21  23138198.921 7                 120486729.901 7
C22  21774407.623 7                 113385033.924 7
E03  25767777.993 7  25767781.523 8 135410501.456 7 102437250.497 8
E05  22189333.956 8  22189335.580 9 116605694.761 8  88211488.854 9
E15  25039623.132 7  25039626.391 9 131584215.531 7  99542538.455 9
E34  23502739.760 8  23502740.907 9 123507708.795 8  93432798.025 9
E36  26479081.990 6  26479085.997 7 139148469.993 6 105264961.721 7
G01  20716669.845 8                  20716675.512 8 108866777.183 8                  84831323.678 8
G02  22898890.151 7  22898894.467 4                 120334380.994 7  93767131.458 4
G03  20026541.776 8                  20026547.065 7 105240174.248 8                  82005378.505 7
G04  21790112.672 7                  21790118.851 7 114507881.261 7                  89226917.738 7
G09  24590762.569 6                  24590772.173 5 129225334.753 6                 100695123.922 5
G17  22495166.581 7                  22495170.423 7 118212926.995 7                  92113958.427 7
G19  22597710.323 7  22597712.608 5                 118751669.080 7  92533869.028 5
R03  19609407.124 7  19609411.794 7 104970703.412 7  81643865.264 7
R04  20148394.224 8  20148398.696 7 107893773.348 8  83917446.639 7
R18  20360895.978 8  20360900.502 7 108687828.983 8  84535006.483 7
R19  19672968.259 8  19672970.515 7 105237108.416 8  81851068.944 7
> 2025 06 15 13 59 40.0000000  0 20
C11  24339258.313 6  24339255.690 7 126740930.908 6  98004110.995 7
C12  22311886.050 7  22311882.282 7 116184011.092 7  89840703.694 7
C21  23135207.517 7                 120471152.145 7
C22  21774219.509 7                 113384052.573 7
E03  25764091.668 7  25764095.686 8 135391132.190 7 102422597.789 8
E05  22187924.426 8  22187926.316 9 116598289.231 8  88205886.620 9
E15  25036584.932 7  25036588.325 8 131568250.377 7  99530460.928 8
E34  23502193.526 8  23502195.103 9 123504840.616 8  93430628.268 9
E36  26480538.106 6  26480542.881 7 139156126.123 6 105270753.515 7
G01  20717125.319 7                  20717130.546 8 108869167.640 7                  84833186.359 8
G02  22900539.434 7  22900543.316 5                 120343047.540 7  93773884.596 5
G03  20025333.058 7                  20025338.378 7 105233822.269 7                  82000428.910 7
G04  21786342.663 7                  21786348.321 7 114488066.976 7                  89211478.050 7
G09  24586077.651 6                  24586086.395 6 129200712.144 6                 100675937.500 6
G17  22494623.036 7                  22494627.350 7 118210073.147 7                  92111734.663 7
G19  22595278.085 7  22595281.620 5                 118738892.554 7  92523913.323 5
R03  19609687.913 7  19609692.503 7 104972207.585 7  81645035.170 7
R04  20145252.615 8  20145257.020 7 107876949.421 8  83904361.346 7
R18  20362590.293 8  20362594.408 7 108696871.103 8  84542039.231 7
R19  19670705.105 8  19670707.410 7 105225003.243 8  81841653.814 7
> 2025 06 15 13 59 45.0000000  0 20
C11  24335970.773 6  24335968.490 7 126723813.572 6  97990874.771 7
C12  22311583.413 7  22311579.886 7 116182435.551 7  89839485.381 7
C21  23132217.964 7                 120455585.085 7
C22  21774033.263 7                 113383083.110 7
E03  25760407.858 7  25760411.402 8 135371771.378 7 102407951.472 8
E05  22186517.938 8  22186519.694 9 116590897.428 8  88200294.767 9
E15  25033548.973 7  25033551.820 8 131552293.352 7  99518389.545 8
E34  23501650.433 8  23501651.565 9 123501984.508 8  93428467.640 9
E36  26481996.518 6  26482001.151 7 139163789.599 6 105276550.873 7
G01  20717583.078 7                  20717587.951 8 108871573.833 7                  84835061.306 8
G02  22902189.959 6  22902194.573 4                 120351724.105 6  93780645.547 4
G03  20024126.441 8                  20024132.231 7 105227484.167 8                  81995490.134 7
G04  21782574.679 7                  21782580.072 7 114468265.431 7                  89196048.276 7
G09  24581393.066 6                  24581402.129 6 129176094.729 6                 100656755.126 6
G17  22494083.264 7                  22494088.148 7 118207237.164 7                  92109524.801 7
G19  22592850.682 7  22592853.693 5                 118726135.479 7  92513972.744 5
R03  19609972.872 7  19609977.090 7 104973728.769 7  81646218.323 7
R04  20142114.230 8  20142117.894 7 107860142.548 8  83891289.336 7
R18  20364287.583 8  20364291.845 7 108705932.144 8  84549086.701 7
R19  19668446.893 8  19668449.117 7 105212921.030 8  81832256.529 7
> 2025 06 15 13 59 50.0000000  0 21
C11  24332684.255 6  24332683.636 7 126706706.850 6  97977646.799 7
C12  22311283.205 7  22311279.983 7 116180875.056 7  89838278.708 7
C21  23129231.089 7                 120440027.086 7
C22  21773848.805 7                 113382123.890 7
E03  25756724.715 7  25756728.408 8 135352417.318 7 102393310.280 8
E05  22185113.761 8  22185115.359 9 116583517.647 8  88194712.002 9
E15  25030513.833 7  25030516.512 9 131536342.764 7  99506323.042 9
E34  23501109.096 8  23501110.002 9 123499138.777 8  93426314.864 9
E36  26483455.151 6  26483460.516 7 139171458.787 6 105282352.528 7
G01  20718043.577 7                  20718048.487 8 108873994.100 7                  84836947.219 8
G02  22903842.827 7  22903847.079 5                 120360409.038 7  93787412.983 5
G03  20022923.173 8                  20022928.283 7 105221158.278 8                  81990560.872 7
G04  21778808.736 7                  21778813.897 7 114448474.979 7                  89180627.154 7
G09  24576708.936 6                  24576718.291 6 129151480.895 6                 100637575.561 6
G17  22493546.260 7                  22493551.370 7 118204417.323 7                  92107327.521 7
G19  22590426.014 6  22590429.940 5                 118713396.182 6  92504046.026 5
G31  22735904.913 4                                 119478012.59414                
R03  19610259.763 7  19610263.814 7 104975265.394 7  81647413.467 7
R04  20138979.061 8  20138982.387 7 107843351.144 8  83878229.345 7
R18  20365987.649 8  20365992.466 7 108715010.338 8  84556147.522 7
R19  19666191.960 8  19666194.406 7 105200860.082 8  81822875.804 7
> 2025 06 15 13 59 55.0000000  0 21
C11  24329401.744 6  24329400.823 7 126689612.001 6  97964427.987 7
C12  22310986.924 7  22310983.735 7 116179330.855 7  89837084.646 7
C21  23126246.135 7                 120424479.376 7
C22  21773667.183 7                 113381176.142 7
E03  25753043.455 7  25753046.899 8 135333071.345 7 102378675.182 8
E05  22183711.924 8  22183713.569 9 116576151.152 8  88189139.296 9
E15  25027479.284 7  25027482.644 8 131520399.875 7  99494262.357 8
E34  23500569.749 8  23500570.692 9 123496304.692 8  93424170.894 9
E36  26484915.681 6  26484921.249 7 139179134.870 6 105288159.432 7
G01  20718507.403 8                  20718511.779 8 108876429.678 8                  84838845.060 8
G02  22905497.220 7  22905501.242 5                 120369103.510 7  93794187.914 5
G03  20021721.530 8                  20021727.232 7 105214845.859 8                  81985642.129 7
G04  21775044.953 7                  21775050.181 7 114428696.866 7                  89165215.653 7
G09  24572025.235 6                  24572035.284 6 129126871.822 6                 100618399.689 6
G17  22493013.051 7                  22493017.995 7 118201614.878 7                  92105143.793 7
G19  22588005.341 7  22588009.276 5                 118700675.911 7  92494134.165 5
G31  22733284.059 5                                 119464246.729 5                
R03  19610550.047 7  19610554.427 7 104976818.641 7  81648621.548 7
R04  20135846.325 8  20135849.951 7 107826576.405 8  83865182.339 7
R18  20367692.293 8  20367696.710 7 108724107.009 8  84563222.701 7
R19  19663941.388 8  19663943.763 7 105188821.748 8  81813512.650 7
> 2025 06 15 14 00  0.0000000  0 21
C11  24326120.358 6  24326120.318 7 126672527.810 6  97951217.401 7
C12  22310693.184 7  22310689.878 7 116177801.682 7  89835902.188 7
C21  23123261.662 7                 120408940.718 7
C22  21773487.137 7                 113380238.597 7
E03  25749362.777 7  25749366.756 8 135313732.126 7 102364045.205 8
E05  22182312.250 8  22182313.934 9 116568796.675 8  88183575.686 9
E15  25024446.884 7  25024450.042 8 131504463.438 7  99482206.553 8
E34  23500032.475 8  23500033.333 9 123493480.972 8  93422034.771 9
E36  26486378.180 6  26486383.029 7 139186816.659 6 105293970.624 7
G01  20718973.484 8                  20718978.176 8 108878879.315 8                  84840753.884 8
G02  22907153.212 6  22907157.090 4                 120377806.300 6  93800969.293 4
G03  20020522.548 8                  20020528.343 7 105208545.660 8                  81980732.879 7
G04  21771283.404 7                  21771288.690 7 114408929.834 7                  89149812.785 7
G09  24567343.025 6                  24567353.418 6 129102266.315 6                 100599226.629 6
G17  22492482.554 7                  22492488.107 7 118198828.577 7                  92102972.646 7
G19  22585588.449 7  22585592.209 5                 118687973.498 7  92484236.198 5
G31  22730666.491 4                                 119450497.432 4                
R03  19610843.660 7  19610847.397 7 104978387.275 7  81649841.591 7
R04  20132716.365 7  20132720.618 7 107809817.075 7  83852147.314 7
R18  20369399.183 8  20369404.183 7 108733220.838 8  84570311.224 7
R19  19661695.264 8  19661696.881 7 105176804.534 8  81804165.930 7
> 2025 06 15 14 00  5.0000000  0 21
C11  24322841.905 6  24322841.433 7 126655455.638 6  97938016.135 7
C12  22310402.164 7  22310399.672 7 116176288.948 7  89834732.454 7
C21  23120280.132 7                 120393412.508 7
C22  21773309.376 7                 113379312.663 7
E03  25745683.851 7  25745688.107 8 135294401.128 7 102349421.442 8
E05  22180915.408 8  22180916.962 9 116561455.607 8  88178022.224 9
E15  25021416.052 7  25021418.892 8 131488534.871 7  99470156.702 8
E34  23499497.306 8  23499498.228 9 123490669.050 8  93419907.575 9
E36  26487841.932 6  26487846.083 7 139194505.482 6 105299787.160 7
G01  20719442.440 8                  20719446.958 8 108881344.397 8                  84842674.718 8
G02  22908810.947 6  22908815.510 5                 120386518.861 6  93807758.297 5
G03  20019325.962 8                  20019331.987 7 105202259.038 8                  81975834.225 7
G04  21767524.504 7                  21767529.932 7 114389175.323 7                  89134419.669 7
G09  24562661.436 6                  24562672.766 6 129077665.714 6                 100580057.357 6
G17  22491955.890 7                  22491961.053 7 118196059.746 7                  92100815.120 7
G19  22583174.721 7  22583178.166 5                 118675290.258 7  92474353.146 5
G31  22728055.635 5                                 119436766.002 5                
R03  19611139.676 8  19611143.893 7 104979972.670 8  81651074.688 7
R04  20129589.476 7  20129594.161 7 107793074.651 7  83839125.440 7
R18  20371111.097 8  20371114.863 7 108742353.190 8  84577414.163 7
R19  19659453.447 8  19659454.668 7 105164810.025 8  81794836.877 7
> 2025 06 15 14 00 10.0000000  0 21
C11  24319565.413 6  24319565.392 7 126638395.064 6  97924823.837 7
C12  22310115.328 7  22310112.320 7 116174792.271 7  89833575.124 7
C21  23117300.335 7                 120377894.335 7
C22  21773133.677 7                 113378397.917 7
E03  25742007.461 7  25742010.958 8 135275077.915 7 102334803.555 8
E05  22179521.105 8  22179522.439 9 116554127.589 8  88172478.622 9
E15  25018386.007 7  25018389.200 8 131472613.767 7  99458112.495 8
E34  23498964.217 8  23498965.321 9 123487868.513 8  93417788.993 9
E36  26489306.584 6  26489310.447 7 139202201.009 6 105305608.747 7
G01  20719914.684 8                  20719918.741 8 108883824.538 8                  84844607.294 8
G02  22910471.434 7  22910474.877 4                 120395240.673 7  93814554.503 4
G03  20018132.340 8                  20018138.046 7 105195985.651 8                  81970945.873 7
G04  21763767.530 7                  21763773.406 7 114369432.908 7                  89119035.980 7
G09  24557980.371 6                  24557991.769 6 129053069.710 6                 100560891.636 6
G17  22491431.908 7                  22491437.073 7 118193308.054 7                  92098670.947 7
G19  22580765.228 7  22580768.308 5                 118662625.825 7  92464484.761 5
G31  22725446.123 5                                 119423052.101 5                
R03  19611438.926 8  19611443.086 7 104981574.537 8  81652320.573 7
R04  20126466.251 7  20126470.227 7 107776348.707 7  83826116.381 7
R18  20372825.104 8  20372828.813 7 108751503.677 8  84584531.199 7
R19  19657214.917 8  19657216.513 7 105152837.865 8  81785525.197 7
> 2025 06 15 14 00 15.0000000  0 21
C11  24316291.484 6  24316291.177 7 126621346.002 6  97911640.437 7
C12  22309831.373 7  22309828.013 7 116173311.402 7  89832430.023 7
C21  23114322.114 7                 120362386.038 7
C22  21772960.392 7                 113377494.190 7
E03  25738331.325 7  25738335.255 8 135255762.313 7 102320191.442 8
E05  22178129.108 8  22178130.396 9 116546812.391 8  88166944.724 9
E15  25015358.091 7  25015360.903 8 131456699.947 7  99446073.803 8
E34  23498433.565 8  23498434.520 9 123485079.179 8  93415678.877 9
E36  26490771.519 6  26490776.038 7 139209902.990 6 105311435.244 7
G01  20720389.474 8                  20720393.547 8 108886319.534 8                  84846551.448 8
G02  22912133.333 7  22912136.328 4                 120403971.635 7  93821357.833 4
G03  20016940.788 7                  20016946.954 7 105189725.275 7                  81966067.654 7
G04  21760012.863 7                  21760018.835 7 114349702.412 7                  89103661.575 7
G09  24553301.848 6                  24553312.316 6 129028478.118 6                 100541729.386 6
G17  22490911.764 7                  22490916.787 7 118190573.281 7                  92096539.951 7
G19  22578358.459 7  22578361.889 5                 118649980.017 7  92454630.877 5
G31  22722839.406 5                  22722844.367 4 119409355.558 5                
R03  19611741.335 8  19611745.519 7 104983192.646 8  81653579.104 7
R04  20123345.997 8  20123349.926 7 107759638.969 8  83813119.951 7
R18  20374542.612 8  20374546.198 7 108760672.141 8  84591662.205 7
R19  19654980.483 8  19654982.263 7 105140887.827 8  81776230.707 7
> 2025 06 15 14 00 20.0000000  0 21
C11  24313020.256 6  24313019.348 7 126604308.196 6  97898465.728 7
C12  22309549.668 7  22309546.864 7 116171846.158 7  89831297.011 7
C21  23111345.988 7                 120346887.388 7
C22  21772788.697 7                 113376601.270 7
E03  25734656.643 7  25734660.977 8 135236454.112 7 102305584.934 8
E05  22176739.450 8  22176740.693 9 116539509.814 8  88161420.379 9
E15  25012331.394 8  25012333.941 8 131440793.194 8  99434040.447 8
E34  23497904.579 8  23497905.824 9 123482300.816 8  93413577.068 9
E36  26492238.827 6  26492242.849 7 139217611.244 6 105317266.467 7
G01  20720866.953 8                  20720871.194 8 108888829.156 8                  84848506.979 8
G02  22913795.991 7  22913799.004 5                 120412711.461 7  93828168.069 5
G03  20015751.992 7                  20015758.089 7 105183477.700 7                  81961199.420 7
G04  21756260.110 7                  21756266.801 7 114329983.656 7                  89088296.310 7
G09  24548622.616 6                  24548633.501 6 129003890.638 6                 100522570.323 6
G17  22490394.631 7                  22490399.056 7 118187855.154 7                  92094421.946 7
G19  22575955.531 7  22575958.821 5                 118637352.624 7  92444791.358 5
G31  22720237.270 5                  22720241.622 4 119395676.150 5                  93035588.03114
R03  19612045.893 8  19612050.700 7 104984826.772 8  81654850.087 7
R04  20120228.898 8  20120232.909 7 107742945.330 8  83800136.022 7
R18  20376263.713 8  20376266.603 7 108769858.286 8  84598806.979 7
R19  19652751.168 8  19652753.132 7 105128959.695 8  81766953.257 7
> 2025 06 15 14 00 25.0000000  0 21
C11  24309750.953 6  24309749.412 7 126587281.758 6  97885299.804 7
C12  22309271.369 7  22309268.618 7 116170396.617 7  89830176.125 7
C21  23108370.635 7                 120331398.461 7
C22  21772619.406 7                 113375719.159 7
E03  25730984.311 7  25730988.135 8 135217153.373 7 102290984.072 8
E05  22175352.406 8  22175353.461 9 116532219.905 8  88155905.609 9
E15  25009305.378 8  25009308.355 8 131424893.590 8  99422012.503 8
E34  23497377.934 8  23497379.265 9 123479533.521 8  93411483.630 9
E36  26493706.090 6  26493710.830 7 139225325.783 6 105323102.468 7
G01  20721347.545 8                  20721351.636 8 108891353.493 8                  84850473.991 8
G02  22915461.656 7  22915464.264 5                 120421460.201 7  93834985.271 5
G03  20014565.584 7                  20014571.843 7 105177242.999 7                  81956341.206 7
G04  21752510.337 7                  21752516.416 7 114310276.698 7                  89072940.231 7
G09  24543944.928 6                  24543955.580 6 128979307.419 6                 100503414.570 6
G17  22489880.602 7                  22489885.322 7 118185153.748 7                  92092316.948 7
G19  22573555.811 7  22573559.652 5                 118624743.695 7  92434966.231 5
G31  22717638.016 5                  22717643.329 5 119382014.021 5                  93024942.217 5
R03  19612354.450 8  19612359.199 7 104986476.913 8  81656133.516 7
R04  20117114.720 8  20117118.212 7 107726267.711 8  83787164.528 7
R18  20377987.623 8  20377991.196 7 108779062.178 8  84605965.545 7
R19  19650525.457 8  19650527.045 7 105117053.475 8  81757692.859 7
> 2025 06 15 14 00 30.0000000  0 22
C11  24306483.636 6  24306481.672 7 126570265.258 6  97872141.591 7
C12  22308996.524 7  22308992.994 7 116168961.361 7  89829066.303 7
C21  23105397.072 7                 120315917.837 7
C22  21772451.499 7                 113374846.529 7
E03  25727313.487 7  25727316.480 8 135197858.713 7 102276387.806 8
E05  22173967.166 8  22173968.362 9 116524941.282 8  88150399.378 9
E09  26235626.965 5  26235628.117 6 137869281.53315 104297119.83716
E15  25006281.434 7  25006283.863 8 131408999.740 7  99409988.906 8
E34  23496853.153 8  23496854.515 9 123476775.860 8  93409397.478 9
E36  26495174.825 6  26495179.863 7 139233045.271 6 105328942.183 7
G01  20721830.359 8                  20721834.518 8 108893891.106 8                  84852451.346 8
G02  22917127.916 7  22917130.256 4                 120430216.493 7  93841808.350 4
G03  20013381.748 7                  20013387.453 7 105171019.764 7                  81951491.933 7
G04  21748762.610 7                  21748768.128 7 114290580.126 7                  89057592.226 7
G09  24539267.590 5                  24539278.561 6 128954727.059 5                 100484261.040 6
G17  22489369.881 7                  22489374.044 7 118182467.718 7                  92090223.925 7
G19  22571159.825 7  22571163.717 5                 118612151.884 7  92425154.449 5
G31  22715043.310 6                  22715047.344 5 119368367.705 6                  93014308.701 5
R03  19612665.449 8  19612669.869 7 104988141.422 8  81657428.130 7
R04  20114002.950 8  20114006.467 7 107709604.865 8  83774204.546 7
R18  20379714.932 8  20379718.130 7 108788282.379 8  84613136.813 7
R19  19648304.774 7  19648305.395 7 105105167.882 7  81748448.516 7
> 2025 06 15 14 00 35.0000000  0 22
C11  24303217.411 6  24303215.398 7 126553258.588 6  97858990.950 7
C12  22308723.274 7  22308719.732 7 116167540.224 7  89827967.374 7
C21  23102425.147 7                 120300445.374 7
C22  21772285.598 7                 113373983.168 7
E03  25723641.900 7  25723645.895 8 135178569.934 7 102261795.977 8
E05  22172584.529 8  22172585.388 8 116517673.747 8  88144901.536 8
E09  26236762.425 5  26236765.480 6 137875258.438 5 104301641.219 6
E15  25003257.866 7  25003260.381 8 131393111.439 7  99397969.511 8
E34  23496330.243 8  23496331.567 9 123474027.664 8  93407318.488 9
E36  26496644.744 6  26496649.753 7 139240769.461 6 105334785.457 7
G01  20722315.895 8                  20722319.715 8 108896441.834 8                  84854438.914 8
G02  22918795.397 7  22918797.806 4                 120438980.114 7  93848637.134 4
G03  20012199.653 8                  20012205.734 7 105164807.815 8                  81946651.457 7
G04  21745016.758 7                  21745022.043 8 114270893.775 7                  89042252.217 8
G09  24534590.439 6                  24534600.931 6 128930149.367 6                 100465109.615 6
G17  22488861.679 7                  22488865.950 7 118179796.807 7                  92088142.693 7
G19  22568767.293 7  22568770.678 5                 118599576.950 7  92415355.802 5
G31  22712447.861 6                  22712453.587 5 119354737.030 6                  93003687.384 5
R03  19612978.852 8  19612983.482 7 104989820.346 8  81658733.956 7
R04  20110893.258 7  20110897.192 7 107692956.541 7  83761255.859 7
R18  20381444.745 8  20381448.726 7 108797518.696 8  84620320.591 7
R19  19646085.920 8  19646087.276 7 105093302.606 8  81739219.970 7
> 2025 06 15 14 00 40.0000000  0 22
C11  24299953.709 6  24299951.479 7 126536262.701 6  97845848.626 7
C12  22308452.929 7  22308449.720 7 116166134.214 7  89826880.147 7
C21  23099455.666 7                 120284982.104 7
C22  21772121.283 7                 113373130.100 7
E03  25719973.082 7  25719976.660 8 135159288.110 7 102247209.424 8
E05  22171203.615 8  22171204.757 8 116510418.350 8  88139412.880 8
E09  26237900.480 5  26237904.093 6 137881242.445 5 104306168.095 6
E15  25000235.702 7  25000238.225 8 131377229.781 7  99385955.137 8
E34  23495809.390 8  23495810.630 9 123471289.989 8  93405247.461 9
E36  26498116.436 6  26498120.749 7 139248499.434 6 105340633.100 7
G01  20722804.296 8                  20722808.098 8 108899006.717 8                  84856437.510 8
G02  22920465.027 7  22920467.049 5                 120447752.106 7  93855472.438 5
G03  20011020.227 8                  20011026.073 7 105158608.162 8                  81941820.558 7
G04  21741271.656 7                  21741277.766 7 114251218.676 7                  89026920.989 7
G09  24529913.738 6                  24529924.989 6 128905575.477 6                 100445961.164 6
G17  22488357.217 7                  22488360.832 7 118177142.107 7                  92086074.063 7
G19  22566377.823 7  22566381.631 5                 118587020.032 7  92405571.166 5
G31  22709856.762 6                  22709862.065 4 119341123.052 6                  92993079.147 4
R03  19613295.700 8  19613299.970 7 104991514.789 8  81660051.853 7
R04  20107787.309 7  20107790.939 7 107676323.780 7  83748319.271 7
R18  20383178.444 8  20383181.915 7 108806772.261 8  84627517.795 7
R19  19643871.655 8  19643873.028 7 105081458.784 8  81730008.113 7
> 2025 06 15 14 00 45.0000000  0 22
C11  24296691.756 6  24296689.788 7 126519277.140 6  97832714.330 7
C12  22308185.648 7  22308182.149 7 116164742.780 7  89825804.194 7
C21  23096487.658 7                 120269527.435 7
C22  21771959.067 7                 113372286.743 7
E03  25716304.784 7  25716308.631 8 135140012.677 7 102232627.697 8
E05  22169825.332 8  22169826.310 8 116503174.521 8  88133932.971 8
E09  26239040.503 5  26239044.029 6 137887233.058 5 104310699.982 6
E15  24997214.659 7  24997217.136 8 131361354.173 7  99373945.349 8
E34  23495289.924 8  23495291.593 9 123468562.270 8  93403183.956 9
E36  26499587.811 6  26499592.794 7 139256234.642 6 105346484.697 7
G01  20723294.864 8                  20723298.495 8 108901585.159 8                  84858446.693 8
G02  22922136.600 7  22922137.764 4                 120456531.928 7  93862313.832 4
G03  20009842.160 8                  20009848.421 7 105152420.296 8                  81936998.845 7
G04  21737529.871 7                  21737535.534 7 114231554.312 7                  89011598.133 7
G09  24525237.254 6                  24525249.340 6 128881004.620 6                 100426815.100 6
G17  22487854.048 7                  22487858.391 7 118174502.986 7                  92084017.611 7
G19  22563992.051 7  22563995.651 5                 118574480.499 7  92395800.113 5
G31  22707267.759 6                  22707271.793 3 119327525.264 6                  92982483.548 3
R03  19613615.095 8  19613619.012 7 104993223.949 8  81661381.225 7
R04  20104683.503 7  20104688.302 7 107659706.013 7  83735394.358 7
R18  20384914.777 8  20384918.813 7 108816042.382 8  84634727.903 7
R19  19641661.674 7  19641662.841 7 105069635.913 7  81720812.538 7
> 2025 06 15 14 00 50.0000000  0 22
C11  24293431.236 6  24293430.167 7 126502303.230 6  97819589.000 7
C12  22307921.751 7  22307917.853 7 116163367.380 7  89824740.646 7
C21  23093522.090 7                 120254082.826 7
C22  21771799.808 7                 113371454.548 7
E03  25712638.117 7  25712642.132 8 135120745.072 7 102218051.895 8
E05  22168449.215 8  22168450.351 8 116495943.677 8  88128462.889 8
E09  26240181.036 4  26240185.596 6 137893231.77214 104315237.94916
E15  24994195.418 7  24994197.554 8 131345486.065 7  99361941.237 8
E34  23494772.892 8  23494774.706 9 123465845.946 8  93401129.063 9
E36  26501060.536 6  26501066.086 7 139263976.409 6 105352341.279 7
G01  20723788.669 8                  20723792.456 8 108904178.607 8                  84860467.559 8
G02  22923807.046 7  22923810.058 4                 120465320.982 7  93869162.428 4
G03  20008666.678 8                  20008673.428 8 105146245.601 8                  81932187.383 8
G04  21733790.276 7                  21733795.836 7 114211902.075 7                  88996284.730 7
G09  24520563.447 6                  24520574.627 6 128856438.463 6                 100407672.611 6
G17  22487355.322 7                  22487359.249 7 118171880.934 7                  92081974.445 7
G19  22561608.775 7  22561613.051 5                 118561959.833 7  92386043.730 5
G31  22704684.068 5                  22704686.329 4 119313945.163 5                  92971901.659 4
R03  19613938.007 8  19613941.504 7 104994949.426 8  81662723.241 7
R04  20101582.367 7  20101587.196 7 107643104.674 7  83722482.232 7
R18  20386655.423 8  20386658.791 7 108825330.524 8  84641951.996 7
R19  19639454.864 8  19639457.008 7 105057835.356 8  81711634.330 7
> 2025 06 15 14 00 55.0000000  0 22
C11  24290174.070 6  24290173.194 7 126485342.029 6  97806473.543 7
C12  22307660.961 7  22307656.835 7 116162008.931 7  89823690.200 7
C21  23090558.585 7                 120238649.209 7
C22  21771641.868 7                 113370634.473 7
E03  25708973.337 7  25708977.301 8 135101486.281 7 102203482.758 8
E05  22167075.877 8  22167077.037 9 116488726.819 8  88123003.385 9
E09  26241325.426 5  26241328.815 6 137899239.466 5 104319782.704 6
E15  24991176.873 7  24991179.549 8 131329626.423 7  99349943.522 8
E34  23494258.053 8  23494260.197 9 123463141.971 8  93399083.529 9
E36  26502535.567 6  26502540.806 7 139271725.817 6 105358203.635 7
G01  20724284.786 8                  20724288.944 8 108906788.060 8                  84862500.881 8
G02  22925481.987 7  22925484.129 5                 120474120.269 7  93876019.004 5
G03  20007495.116 8                  20007501.195 7 105140085.057 8                  81927386.964 7
G04  21730052.543 7                  21730058.612 7 114192263.026 7                  88980981.581 7
G09  24515890.072 6                  24515901.144 6 128831877.906 6                 100388534.552 6
G17  22486859.544 7                  22486863.617 7 118169276.915 7                  92079945.331 7
G19  22559230.330 7  22559234.246 5                 118549459.008 7  92376302.860 5
G31  22702103.676 5                  22702105.197 4 119300383.635 5                  92961334.242 4
R03  19614263.460 8  19614267.472 7 104996692.061 8  81664078.621 7
R04  20098486.131 7  20098491.051 7 107626520.998 7  83709583.808 7
R18  20388397.435 8  20388402.231 7 108834637.675 8  84649190.887 7
R19  19637253.753 8  19637255.423 7 105046058.180 8  81702474.313 7
> 2025 06 15 14 01  0.0000000  0 22
C11  24286919.207 6  24286918.863 7 126468392.737 6  97793367.278 7
C12  22307403.262 7  22307399.211 7 116160666.695 7  89822652.290 7
C21  23087596.667 7                 120223225.849 7
C22  21771486.861 7                 113369825.725 7
E03  25705309.399 7  25705314.039 8 135082235.519 7 102188919.702 8
E05  22165705.003 8  22165706.251 8 116481523.156 8  88117553.868 8
E09  26242466.944 4  26242473.719 6 137905255.510 4 104324333.783 6
E15  24988160.010 7  24988163.046 8 131313774.507 7  99337951.656 8
E34  23493745.662 8  23493747.821 9 123460449.581 8  93397046.753 9
E36  26504010.600 6  26504016.783 7 139279482.017 6 105364071.142 7
G01  20724783.825 8                  20724788.065 8 108909412.704 8                  84864546.072 8
G02  22927158.993 7  22927160.411 4                 120482928.971 7  93882882.907 4
G03  20006325.272 8                  20006331.640 7 105133937.938 8                  81922596.999 7
G04  21726317.398 7                  21726323.442 7 114172636.311 7                  88965688.059 7
G09  24511217.380 6                  24511228.249 6 128807322.128 6                 100369400.180 6
G17  22486367.738 7                  22486371.533 7 118166690.158 7                  92077929.657 7
G19  22556855.394 7  22556859.427 5                 118536977.237 7  92366576.807 5
G31  22699525.387 5                  22699529.030 4 119286839.851 5                  92950780.629 4
R03  19614591.944 8  19614596.003 7 104998451.381 8  81665446.983 7
R04  20095392.175 8  20095396.643 7 107609953.880 8  83696698.280 7
R18  20390146.315 8  20390149.849 7 108843962.974 8  84656443.911 7
R19  19635056.024 8  19635057.704 7 105034303.610 8  81693331.876 7
> 2025 06 15 14 01  5.0000000  0 22
C11  24283667.220 6  24283665.826 7 126451455.044 6  97780269.998 7
C12  22307148.422 7  22307144.196 7 116159340.288 7  89821626.614 7
C21  23084636.933 7                 120207812.435 7
C22  21771334.103 7                 113369027.954 7
E03  25701647.940 7  25701652.250 8 135062992.452 7 102174362.470 8
E05  22164336.819 8  22164337.904 8 116474332.354 8  88112114.079 8
E09  26243615.475 5  26243620.156 6 137911279.463 5 104328890.895 6
E15  24985145.514 7  24985147.932 8 131297929.979 7  99325965.371 8
E34  23493235.677 8  23493237.641 9 123457768.444 8  93395018.489 9
E36  26505487.847 6  26505493.995 7 139287244.674 6 105369943.525 7
G01  20725286.246 8                  20725290.469 8 108912052.204 8                  84866602.820 8
G02  22928836.630 7  22928838.195 4                 120491746.779 7  93889753.921 4
G03  20005157.797 8                  20005164.587 8 105127803.841 8                  81917817.187 8
G04  21722585.433 7                  21722591.019 7 114153021.665 7                  88950403.933 7
G09  24506544.784 6                  24506555.662 6 128782770.877 6                 100350269.373 6
G17  22485878.922 7                  22485882.494 7 118164120.305 7                  92075927.187 7
G19  22554483.825 7  22554487.864 5                 118524514.188 7  92356865.361 5
G31  22696951.889 5                  22696955.974 5 119273313.604 5                  92940240.717 5
R03  19614923.458 8  19614927.380 7 105000226.670 8  81666827.776 7
R04  20092301.424 8  20092306.164 7 107593403.009 8  83683825.372 7
R18  20391895.146 8  20391899.660 7 108853306.235 8  84663710.874 7
R19  19632862.545 8  19632865.093 7 105022571.396 8  81684206.826 7
> 2025 06 15 14 01 10.0000000  0 22
C11  24280416.140 6  24280415.236 7 126434527.688 6  97767180.716 7
C12  22306896.396 7  22306892.577 7 116158028.490 7  89820612.254 7
C21  23081678.650 7                 120192407.635 7
C22  21771182.776 7                 113368239.918 7
E03  25697988.197 7  25697991.621 8 135043755.819 7 102159810.095 8
E05  22162970.860 8  22162971.724 8 116467153.124 8  88106683.032 8
E09  26244760.063 5  26244767.668 6 137917309.99515 104333452.93216
E15  24982130.782 7  24982133.806 8 131282091.519 7  99313983.694 8
E34  23492727.142 8  23492729.348 9 123455097.264 8  93392997.760 9
E36  26506967.044 6  26506972.248 7 139295012.524 6 105375819.830 7
G01  20725790.994 7                  20725795.386 8 108914705.287 7                  84868670.147 8
G02  22930515.634 7  22930516.964 4                 120500572.387 7  93896630.982 4
G03  20003992.570 7                  20003999.376 8 105121681.517 7                  81913046.547 8
G04  21718855.526 7                  21718860.436 7 114133417.792 7                  88935128.203 7
G09  24501873.755 6                  24501884.262 6 128758222.854 6                 100331141.094 6
G17  22485393.036 7                  22485396.248 7 118161566.053 7                  92073936.860 7
G19  22552114.740 7  22552119.653 5                 118512068.627 7  92347167.520 5
G31  22694379.417 5                  22694385.939 5 119259803.62815                  92929713.42915
R03  19615257.276 8  19615261.378 7 105002016.721 8  81668220.038 7
R04  20089214.439 8  20089217.795 7 107576867.279 8  83670964.244 7
R18  20393648.409 8  20393653.430 7 108862665.979 8  84670990.638 7
R19  19630673.359 7  19630675.571 7 105010860.103 7  81675098.040 7
> 2025 06 15 14 01 15.0000000  0 21
C11  24277167.124 6  24277166.925 7 126417610.876 6  97754099.574 7
C12  22306647.208 7  22306643.568 7 116156731.515 7  89819609.347 7
C21  23078721.640 7                 120177011.742 7
C22  21771033.398 7                 113367461.820 7
E03  25694328.209 7  25694332.260 8 135024525.860 7 102145262.766 8
E05  22161606.397 8  22161607.786 8 116459985.701 8  88101260.924 8
E15  24979118.424 7  24979121.045 8 131266259.417 7  99302006.826 8
E34  23492220.696 8  23492222.956 9 123452436.326 8  93390984.772 9
E36  26508446.261 6  26508451.482 7 139302785.866 6 105381700.314 7
G01  20726298.689 8                  20726302.868 8 108917372.176 8                  84870748.233 8
G02  22932196.336 7  22932198.038 4                 120509405.972 7  93903514.314 4
G03  20002830.041 7                  20002836.603 8 105115571.194 7                  81908285.250 8
G04  21715126.395 7                  21715132.035 7 114113824.932 7                  88919861.055 7
G09  24497202.613 6                  24497213.741 6 128733678.299 6                 100312015.448 6
G17  22484909.822 7                  22484913.287 7 118159027.650 7                  92071958.896 7
G19  22549750.506 7  22549754.666 5                 118499640.759 7  92337483.482 5
G31  22691813.403 6                  22691818.300 5 119246310.104 6                  92919199.025 5
R03  19615594.225 8  19615598.634 7 105003821.813 8  81669624.012 7
R04  20086129.029 8  20086132.870 7 107560346.807 8  83658114.992 7
R18  20395404.432 8  20395410.208 7 108872042.545 8  84678283.544 7
R19  19628487.612 7  19628490.858 7 104999170.000 7  81666005.752 7
> 2025 06 15 14 01 20.0000000  0 21
C11  24273919.836 6  24273920.107 7 126400704.978 6  97741026.862 7
C12  22306401.391 7  22306397.520 7 116155449.569 7  89818618.077 7
C21  23075766.550 7                 120161624.990 7
C22  21770886.040 7                 113366693.918 7
E03  25690670.238 7  25690674.276 8 135005302.803 7 102130720.659 8
E05  22160244.551 8  22160246.230 8 116452830.342 8  88095847.945 8
E15  24976106.975 7  24976109.605 9 131250433.944 7  99290034.963 9
E34  23491716.324 8  23491718.552 9 123449785.834 8  93388979.690 9
E36  26509925.826 6  26509931.733 7 139310564.810 6 105387585.029 7
G01  20726808.737 8                  20726813.102 8 108920053.109 8                  84872837.271 8
G02  22933878.893 7  22933881.042 4                 120518247.868 7  93910404.079 4
G03  20001669.797 8                  20001676.313 8 105109473.130 8                  81903533.513 8
G04  21711399.748 7                  21711406.400 7 114094243.366 7                  88904602.706 7
G09  24492532.994 6                  24492543.626 6 128709137.483 6                 100292892.749 6
G17  22484429.468 7                  22484432.922 6 118156505.384 7                  92069993.479 6
G19  22547389.075 7  22547393.277 5                 118487230.862 7  92327813.449 5
G31  22689246.214 5                  22689253.145 5 119232833.350 5                  92908697.703 5
R03  19615933.808 8  19615938.458 7 105005642.179 8  81671039.846 7
R04  20083047.365 8  20083050.658 7 107543841.877 8  83645277.849 7
R18  20397165.080 8  20397169.158 7 108881436.084 8  84685589.615 7
R19  19626306.913 8  19626309.127 7 104987501.431 8  81656930.195 7
> 2025 06 15 14 01 25.0000000  0 21
C11  24270675.275 6  24270675.657 7 126383810.184 6  97727962.743 7
C12  22306158.064 7  22306154.343 7 116154182.990 7  89817638.685 7
C21  23072813.311 7                 120146247.638 7
C22  21770740.957 7                 113365936.483 7
E03  25687014.226 7  25687017.674 8 134986086.964 7 102116184.015 8
E05  22158885.515 8  22158886.976 8 116445687.326 8  88090444.307 8
E15  24973096.365 7  24973099.409 8 131234615.336 7  99278068.290 8
E34  23491214.170 8  23491216.202 9 123447146.090 8  93386982.741 9
E36  26511408.793 6  26511413.182 7 139318349.804 6 105393474.318 7
G01  20727321.788 8                  20727326.093 8 108922748.392 8                  84874937.500 8
G02  22935562.211 7  22935565.267 4                 120527098.281 7  93917300.507 4
G03  20000512.073 8                  20000518.136 8 105103387.604 8                  81898791.544 8
G04  21707676.093 7                  21707681.957 7 114074673.334 7                  88889353.337 7
G09  24487863.984 6                  24487874.978 6 128684600.684 6                 100273773.209 6
G17  22483952.583 7                  22483956.146 7 118153999.501 7                  92068040.873 7
G19  22545031.222 7  22545034.805 5                 118474839.233 7  92318157.625 5
G31  22686685.493 5                  22686691.505 5 119219373.594 5                  92898209.561 5
R03  19616277.614 8  19616281.645 7 105007478.042 8  81672467.729 7
R04  20079966.802 8  20079972.348 7 107527352.840 8  83632453.087 7
R18  20398927.208 8  20398932.414 7 108890846.946 8  84692909.158 7
R19  19624129.699 8  19624131.982 7 104975854.639 8  81647871.604 7
> 2025 06 15 14 01 30.0000000  0 22
C11  24267433.053 6  24267433.317 7 126366926.558 6  97714907.278 7
C12  22305917.967 7  22305914.237 7 116152931.806 7  89816671.183 7
C21  23069862.146 7                 120130879.778 7
C22  21770597.677 8                 113365189.573 8
E03  25683359.324 7  25683362.446 8 134966878.436 7 102101652.897 8
E05  22157528.510 8  22157530.065 8 116438556.711 8  88085050.042 8
E09  26249363.688 5                 137941483.97915
E15  24970087.222 7  24970090.474 8 131218803.701 7  99266106.909 8
E34  23490714.258 8  23490715.932 9 123444517.149 8  93384993.969 9
E36  26512891.487 6  26512895.757 7 139326140.758 6 105399368.087 7
G01  20727837.459 8                  20727841.515 8 108925458.055 8                  84877048.928 8
G02  22937248.846 7  22937251.850 5                 120535957.256 7  93924203.615 5
G03  19999356.272 8                  19999362.301 8 105097314.691 8                  81894059.394 8
G04  21703954.034 7                  21703959.992 7 114055114.970 7                  88874113.086 7
G09  24483195.809 6                  24483206.093 6 128660067.985 6                 100254656.824 6
G17  22483478.570 7                  22483482.612 6 118151510.063 7                  92066101.033 6
G19  22542676.159 7  22542680.093 6                 118462465.921 7  92308516.081 6
G31  22684127.006 5                  22684132.224 4 119205930.994 5                  92887734.784 4
R03  19616623.062 8  19616627.484 7 105009329.427 8  81673907.697 7
R04  20076890.732 8  20076896.431 7 107510879.746 8  83619640.701 7
R18  20400695.213 8  20400698.891 7 108900275.085 8  84700242.134 7
R19  19621955.399 7  19621958.710 7 104964229.617 7  81638829.906 7
> 2025 06 15 14 01 35.0000000  0 22
C11  24264192.610 6  24264192.594 7 126350053.613 6  97701860.024 7
C12  22305680.688 7  22305677.077 7 116151695.458 7  89815715.168 7
C21  23066912.673 7                 120115520.813 7
C22  21770455.511 7                 113364452.613 7
E03  25679704.804 7  25679708.496 8 134947676.597 7 102087126.831 8
E05  22156173.918 8  22156175.458 9 116431437.910 8  88079664.718 9
E09  26250519.772 4  26250526.026 6 137947550.006 4 104356344.61416
E15  24967078.969 7  24967082.816 8 131202998.472 7  99254150.358 8
E34  23490215.786 8  23490217.616 8 123441898.439 8  93383012.929 8
E36  26514376.685 6  26514379.281 7 139333937.150 6 105405265.968 7
G01  20728355.541 8                  20728360.049 8 108928181.538 8                  84879171.121 8
G02  22938936.005 7  22938940.177 5                 120544824.279 7  93931112.938 5
G03  19998203.250 8                  19998209.017 8 105091253.798 8                  81889336.632 8
G04  21700234.825 7                  21700240.101 7 114035567.647 7                  88858881.396 7
G09  24478528.034 6                  24478538.601 6 128635538.827 6                 100235543.234 6
G17  22483008.398 7                  22483012.073 7 118149036.502 7                  92064173.583 7
G19  22540325.031 7  22540328.738 5                 118450110.335 7  92298888.348 5
G31  22681573.406 5                  22681576.521 4 119192504.959 5                  92877272.902 4
R03  19616972.706 8  19616976.870 7 105011196.122 8  81675359.570 7
R04  20073817.400 8  20073822.679 7 107494421.859 8  83606840.131 7
R18  20402464.243 8  20402468.760 7 108909719.995 8  84707588.155 7
R19  19619787.531 7  19619789.177 7 104952625.920 7  81629804.807 7
> 2025 06 15 14 01 40.0000000  0 22
C11  24260955.302 6  24260954.425 7 126333191.545 6  97688821.226 7
C12  22305445.504 7  22305442.555 7 116150474.171 7  89814770.783 7
C21  23063965.712 7                 120100170.984 7
C22  21770316.229 8                 113363725.828 8
E03  25676052.345 7  25676055.845 8 134928481.725 7 102072606.050 8
E05  22154821.470 8  22154823.095 8 116424331.201 8  88074288.534 8
E09  26251674.083 5  26251681.440 5 137953623.217 5 104360938.93415
E15  24964073.164 7  24964076.435 8 131187199.861 7  99242198.822 8
E34  23489719.089 8  23489721.287 9 123439290.211 8  93381039.822 9
E36  26515859.385 6  26515863.989 7 139341739.221 6 105411168.185 7
G01  20728876.321 8                  20728880.432 8 108930919.080 8                  84881304.273 8
G02  22940625.638 7  22940629.814 5                 120553699.542 7  93938028.714 5
G03  19997051.960 8                  19997058.251 8 105085205.167 8                  81884623.413 8
G04  21696517.079 7                  21696522.838 7 114016031.664 7                  88843658.543 7
G09  24473860.650 6                  24473871.530 6 128611013.403 6                 100216432.548 6
G17  22482541.040 7                  22482544.379 7 118146579.042 7                  92062258.679 7
G19  22537977.541 7  22537980.950 5                 118437772.755 7  92289274.646 5
G31  22679021.074 5                  22679024.500 4 119179095.730 5                  92866824.148 4
R03  19617323.548 8  19617328.542 7 105013077.844 8  81676823.142 7
R04  20070746.767 8  20070752.167 7 107477979.553 8  83594051.685 7
R18  20404237.082 8  20404240.293 7 108919181.864 8  84714947.380 7
R19  19617622.188 7  19617623.870 7 104941043.800 7  81620796.478 7
> 2025 06 15 14 01 45.0000000  0 22
C11  24257718.931 6  24257718.883 7 126316340.214 6  97675790.742 7
C12  22305213.606 7  22305210.781 7 116149267.799 7  89813837.936 7
C21  23061020.316 7                 120084830.199 7
C22  21770178.350 7                 113363009.074 7
E03  25672401.162 7  25672404.487 8 134909293.647 7 102058090.408 8
E05  22153471.475 8  22153472.975 9 116417236.394 8  88068921.361 9
E09  26252831.151 4  26252838.064 6 137959703.28114 104365538.47116
E15  24961067.750 7  24961071.328 8 131171407.739 7  99230252.196 8
E34  23489224.333 8  23489226.919 9 123436692.301 8  93379074.514 9
E36  26517345.448 6  26517349.687 7 139349546.768 6 105417074.521 7
G01  20729399.698 8                  20729404.178 8 108933670.511 8                  84883448.253 8
G02  22942315.970 7  22942320.163 5                 120562582.913 7  93944950.791 5
G03  19995903.478 8                  19995909.101 7 105079168.660 8                  81879919.629 7
G04  21692801.249 7                  21692807.287 7 113996506.856 7                  88828444.399 7
G09  24469194.940 6                  24469205.283 6 128586491.646 6                 100197324.728 6
G17  22482076.103 7                  22482079.531 7 118144137.547 7                  92060356.194 7
G19  22535632.654 7  22535636.598 5                 118425453.041 7  92279674.883 5
G31  22676474.104 6                  22676476.835 5 119165703.103 6                  92856388.304 5
R03  19617679.000 8  19617683.092 7 105014974.713 8  81678298.498 7
R04  20067678.953 7  20067684.440 7 107461552.675 7  83581275.232 7
R18  20406012.467 8  20406016.219 7 108928660.532 8  84722319.687 7
R19  19615460.992 8  19615463.105 7 104929483.025 8  81611804.771 7
> 2025 06 15 14 01 50.0000000  0 22
C11  24254485.237 6  24254484.686 7 126299500.380 6  97662769.106 7
C12  22304984.851 7  22304982.274 7 116148077.057 7  89812917.172 7
C21  23058075.957 7                 120069499.128 7
C22  21770043.128 8                 113362303.070 8
E03  25668751.048 7  25668754.584 8 134890113.110 7 102043580.459 8
E05  22152123.690 8  22152125.283 8 116410154.228 8  88063563.746 8
E09  26253989.055 4  26253996.435 6 137965791.06114 104370143.77016
E15  24958063.892 7  24958067.520 8 131155622.854 7  99218311.044 8
E34  23488732.471 8  23488734.683 9 123434105.453 8  93377117.586 9
E36  26518831.645 6  26518836.594 7 139357360.646 6 105422985.634 7
G01  20729926.119 7                  20729930.963 8 108936436.582 7                  84885603.623 8
G02  22944009.291 7  22944012.632 5                 120571475.134 7  93951879.793 5
G03  19994757.285 7                  19994762.800 7 105073144.966 7                  81875225.848 7
G04  21689088.790 7                  21689093.982 7 113976993.932 7                  88813239.517 7
G09  24464529.728 6                  24464539.507 6 128561974.233 6                 100178220.274 6
G17  22481614.896 8                  22481618.465 7 118141712.697 8                  92058466.733 7
G19  22533292.722 7  22533295.555 5                 118413151.892 7  92270089.568 5
G31  22673927.999 6                  22673932.221 5 119152327.826 6                  92845966.005 5
R03  19618035.458 8  19618040.561 7 105016887.332 8  81679786.076 7
R04  20064614.331 7  20064620.030 7 107445141.891 7  83568511.289 7
R18  20407791.842 8  20407795.095 7 108938156.748 8  84729705.636 7
R19  19613303.944 8  19613305.743 7 104917944.355 8  81602830.246 7
> 2025 06 15 14 01 55.0000000  0 22
C11  24251253.864 6  24251252.937 7 126282670.966 6  97649755.561 7
C12  22304759.562 7  22304756.269 7 116146900.907 7  89812007.708 7
C21  23055133.128 7                 120054176.752 7
C22  21769909.325 7                 113361606.768 7
E03  25665102.014 7  25665105.890 8 134870939.073 7 102029075.438 8
E05  22150778.201 8  22150779.848 8 116403083.635 8  88058214.887 8
E09  26255151.770 4  26255155.863 5 137971885.32414 104374754.07515
E15  24955061.251 7  24955064.967 8 131139844.156 7  99206374.570 8
E34  23488241.989 8  23488244.382 9 123431528.613 8  93375168.227 9
E36  26520319.419 5  26520324.550 7 139365179.691 5 105428900.638 7
G01  20730454.854 8                  20730459.868 8 108939216.213 8                  84887769.559 8
G02  22945702.344 7  22945706.362 5                 120580375.061 7  93958814.793 5
G03  19993612.892 7                  19993618.660 7 105067133.066 7                  81870541.263 7
G04  21685376.919 7                  21685382.700 7 113957491.860 7                  88798043.107 7
G09  24459864.033 6                  24459874.701 6 128537460.150 6                 100159118.417 6
G17  22481156.314 8                  22481159.994 7 118139303.487 8                  92056589.405 7
G19  22530954.433 7  22530957.462 5                 118400868.288 7  92260517.933 5
G31  22671386.089 6                  22671390.581 5 119138968.852 6                  92835556.398 5
R03  19618394.790 8  19618400.685 7 105018814.754 8  81681285.191 7
R04  20061552.808 7  20061557.838 7 107428746.276 7  83555759.157 7
R18  20409574.531 8  20409577.626 7 108947669.443 8  84737104.393 7
R19  19611150.861 8  19611153.046 7 104906426.814 8  81593872.171 7
> 2025 06 15 14 02  0.0000000  0 22
C11  24248024.995 6  24248022.836 7 126265852.477 6  97636750.449 7
C12  22304536.499 7  22304533.713 7 116145739.808 7  89811109.869 7
C21  23052191.794 7                 120038863.546 7
C22  21769777.545 8                 113360920.640 8
E03  25661454.809 7  25661458.515 8 134851772.017 7 102014575.697 8
E05  22149435.143 8  22149436.660 9 116396025.124 8  88052875.174 9
E09  26256312.597 5  26256317.058 6 137977986.660 5 104379369.69916
E15  24952059.579 7  24952063.588 8 131124072.109 7  99194443.136 8
E34  23487753.530 8  23487756.015 9 123428962.277 8  93373226.803 9
E36  26521808.925 5  26521813.486 7 139373004.389 5 105434819.938 7
G01  20730987.240 8                  20730991.541 8 108942009.896 8                  84889946.446 8
G02  22947397.684 7  22947402.113 5                 120589283.229 7  93965756.212 5
G03  19992471.367 8                  19992477.135 7 105061133.453 8                  81865866.237 7
G04  21681667.961 7                  21681673.423 7 113938001.154 7                  88782855.553 7
G09  24455199.735 6                  24455210.615 6 128512949.880 6                 100140019.544 6
G17  22480700.886 7                  22480705.169 7 118136910.362 7                  92054724.636 7
G19  22528621.141 7  22528623.171 5                 118388602.733 7  92250960.359 5
G31  22668846.441 5                  22668851.369 5 119125626.728 5                  92825159.936 5
R03  19618757.673 8  19618763.038 7 105020757.462 8  81682796.193 7
R04  20058494.704 7  20058499.442 7 107412366.339 7  83543019.191 7
R18  20411359.131 8  20411362.524 7 108957199.053 8  84744516.314 7
R19  19609001.533 8  19609003.824 7 104894930.863 8  81584930.891 7
> 2025 06 15 14 02  5.0000000  0 22
C11  24244796.114 6  24244795.502 7 126249045.231 6  97623754.020 7
C12  22304317.022 7  22304313.073 7 116144594.087 7  89810223.927 7
C21  23049252.662 7                 120023559.813 7
C22  21769647.810 7                 113360244.952 7
E03  25657808.982 7  25657812.528 8 134832612.249 7 102000081.469 8
E05  22148094.172 8  22148095.845 8 116388978.968 8  88047544.806 8
E09  26257477.070 5  26257479.410 6 137984095.414 5 104383990.889 6
E15  24949060.107 7  24949063.632 8 131108307.072 7  99182516.984 8
E34  23487267.425 8  23487269.721 9 123426406.710 8  93371293.528 9
E36  26523299.739 5  26523303.575 7 139380835.057 5 105440743.764 7
G01  20731521.596 8                  20731525.887 8 108944817.913 8                  84892134.503 8
G02  22949094.580 7  22949099.019 5                 120598199.942 7  93972704.307 5
G03  19991331.884 8                  19991337.569 7 105055146.374 8                  81861200.993 7
G04  21677961.134 7                  21677967.022 7 113918522.101 7                  88767677.083 7
G09  24450536.016 6                  24450547.058 6 128488443.718 6                 100120923.857 6
G17  22480248.490 7                  22480252.558 7 118134533.620 7                  92052872.614 7
G19  22526290.203 7  22526292.605 5                 118376355.542 7  92241417.081 5
G31  22666312.512 6                  22666315.990 5 119112301.771 6                  92814776.894 5
R03  19619123.650 8  19619128.902 7 105022715.440 8  81684319.048 7
R04  20055438.507 8  20055442.652 7 107396002.255 8  83530291.577 7
R18  20413147.528 8  20413150.951 7 108966745.887 8  84751941.625 7
R19  19606856.471 8  19606858.541 7 104883456.686 8  81576006.523 7
> 2025 06 15 14 02 10.0000000  0 22
C11  24241571.601 6  24241569.499 7 126232248.978 6  97610766.101 7
C12  22304100.352 7  22304096.373 7 116143463.510 7  89809349.698 7
C21  23046314.275 7                 120008265.327 7
C22  21769520.135 8                 113359579.502 8
E03  25654164.266 7  25654167.892 8 134813459.548 7 101985592.582 8
E05  22146755.899 8  22146757.298 9 116381944.940 8  88042223.609 9
E09  26258638.795 5  26258643.251 6 137990211.24015 104388617.49916
E15  24946061.436 7  24946064.860 8 131092548.782 7  99170595.946 8
E34  23486783.167 8  23486785.448 9 123423861.711 8  93369368.254 9
E36  26524785.854 4  26524794.754 7 139388671.41114 105446671.89017
G01  20732058.671 7                  20732062.562 8 108947640.057 7                  84894333.571 8
G02  22950792.772 7  22950797.638 5                 120607124.947 7  93979658.846 5
G03  19990194.926 7                  19990201.055 7 105049171.659 7                  81856545.368 7
G04  21674257.595 7                  21674262.290 7 113899054.490 7                  88752507.530 7
G09  24445874.249 6                  24445884.717 6 128463941.496 6                 100101831.259 6
G17  22479798.954 7                  22479803.503 7 118132173.019 7                  92051033.170 7
G19  22523963.128 7  22523965.196 5                 118364126.433 7  92231887.882 5
G31  22663778.590 5                  22663783.523 5 119098993.721 5                  92804406.962 5
R03  19619493.067 8  19619497.626 7 105024688.646 8  81685853.742 7
R04  20052385.427 8  20052390.464 7 107379653.780 8  83517576.102 7
R18  20414938.675 8  20414942.329 7 108976309.693 8  84759380.131 7
R19  19604715.701 8  19604717.631 7 104872004.303 8  81567099.113 7
> 2025 06 15 14 02 15.0000000  0 23
C11  24238347.711 6  24238346.096 7 126215463.451 6  97597786.476 7
C12  22303886.183 7  22303881.975 7 116142347.708 7  89808486.879 7
C21  23043378.527 7                 119992979.746 7
C22  21769394.165 7                 113358923.954 7
E03  25650520.842 7  25650524.510 8 134794313.594 7 101971108.805 8
E05  22145419.340 8  22145421.044 8 116374922.715 8  88036911.339 8
E09  26259805.686 5  26259808.066 6 137996333.773 5 104393249.096 6
E15  24943064.210 7  24943067.448 8 131076796.899 7  99158679.753 8
E34  23486300.983 8  23486303.105 9 123421326.956 8  93367450.719 9
E36  26526281.474 5  26526287.158 7 139396513.208 5 105452604.140 7
G01  20732598.685 8                  20732602.247 8 108950475.962 8                  84896543.361 8
G02  22952492.093 7  22952497.115 5                 120616057.897 7  93986619.582 5
G03  19989060.363 7                  19989065.946 7 105043208.956 7                  81851899.107 7
G04  21670554.376 7                  21670559.659 7 113879598.007 7                  88737346.644 7
G09  24441212.168 7                  24441222.895 6 128439442.834 7                 100082741.399 6
G17  22479352.649 7                  22479357.028 7 118129828.284 7                  92049206.110 7
G19  22521638.985 7  22521641.306 5                 118351915.115 7  92222372.580 5
G28  23289424.683 5                                                                
G31  22661250.237 5                  22661254.223 5 119085702.289 5                  92794050.029 5
R03  19619864.299 8  19619869.160 7 105026676.928 8  81687400.206 7
R04  20049335.196 8  20049340.295 7 107363320.639 8  83504872.546 7
R18  20416733.347 8  20416736.964 7 108985890.107 8  84766831.541 7
R19  19602579.437 8  19602580.842 7 104860573.303 8  81558208.331 7
> 2025 06 15 14 02 20.0000000  0 23
C11  24235126.747 6  24235124.587 7 126198689.175 6  97584815.520 7
C12  22303674.712 7  22303670.660 7 116141247.252 7  89807635.938 7
C21  23040444.322 7                 119977703.623 7
C22  21769270.688 7                 113358278.857 7
E03  25646879.223 7  25646882.486 8 134775174.907 7 101956630.521 8
E05  22144085.570 8  22144087.118 8 116367912.844 8  88031608.418 8
E09  26260973.241 4  26260974.390 5 138002463.68814 104397886.35415
E15  24940068.255 7  24940071.296 8 131061052.021 7  99146768.853 8
E34  23485820.858 8  23485822.785 8 123418802.979 8  93365541.344 8
E36  26527772.182 5  26527780.486 7 139404360.932 5 105458540.871 7
G01  20733141.016 8                  20733144.684 8 108953326.180 8                  84898764.297 8
G02  22954193.860 7  22954198.414 5                 120624999.344 7  93993586.949 5
G03  19987927.711 7                  19987933.808 7 105037258.802 7                  81847262.617 7
G04  21666854.456 7                  21666859.838 7 113860153.197 7                  88722194.862 7
G09  24436549.637 6                  24436561.784 6 128414948.293 6                 100063654.801 6
G17  22478909.153 7                  22478913.893 7 118127499.874 7                  92047391.771 7
G19  22519319.245 7  22519321.220 5                 118339722.129 7  92212871.545 5
G28  23288719.010 5                  23288734.727 5 122382963.08515                  95363470.98615
G31  22658724.277 5                  22658727.988 5 119072428.035 5                  92783706.480 5
R03  19620238.248 8  19620243.163 7 105028680.465 8  81688958.505 7
R04  20046288.514 8  20046293.378 7 107347003.411 8  83492181.367 7
R18  20418531.739 8  20418535.292 7 108995487.755 8  84774296.369 7
R19  19600446.941 8  19600448.346 7 104849164.257 8  81549334.628 7
> 2025 06 15 14 02 25.0000000  0 22
C11  24231907.939 6  24231905.772 7 126181926.289 6  97571853.426 7
C12  22303466.298 7  22303461.696 7 116140162.271 7  89806796.951 7
C21  23037512.686 7                 119962437.091 7
C22  21769148.835 7                 113357644.297 7
E03  25643238.293 7  25643241.933 8 134756043.665 7 101942157.863 8
E05  22142753.879 8  22142755.551 9 116360915.457 8  88026314.938 9
E09  26262139.837 4  26262142.059 6 138008601.04714 104402529.17616
E15  24937073.543 7  24937076.485 8 131045314.256 7  99134863.339 8
E34  23485342.834 8  23485344.579 9 123416289.920 8  93363640.225 9
E36  26529269.849 5  26529275.038 7 139412214.680 5 105464482.130 7
G01  20733685.995 8                  20733689.570 8 108956190.844 8                  84900996.506 8
G02  22955896.236 7  22955901.273 5                 120633949.418 7  94000561.026 5
G03  19986797.961 7                  19986803.918 7 105031321.349 7                  81842636.034 7
G04  21663156.487 7                  21663161.757 7 113840720.195 7                  88707052.287 7
G09  24431890.327 6                  24431901.544 6 128390458.032 6                 100044571.515 6
G17  22478470.273 7                  22478474.079 7 118125187.960 7                  92045590.297 7
G19  22517002.198 7  22517004.526 5                 118327547.652 7  92203384.940 5
G31  22656200.896 5                  22656205.962 5 119059171.027 5                  92773376.355 5
R03  19620615.504 8  19620620.302 7 105030699.526 8  81690528.888 7
R04  20043244.272 8  20043249.054 7 107330702.264 8  83479502.711 7
R18  20420332.655 8  20420336.348 7 109005102.710 8  84781774.632 7
R19  19598317.603 8  19598319.403 7 104837777.163 8  81540478.018 7
> 2025 06 15 14 02 30.0000000  0 22
C11  24228690.357 6  24228688.739 7 126165175.198 6  97558900.428 7
C12  22303260.627 7  22303256.718 7 116139093.160 7  89805970.237 7
C21  23034583.026 7                 119947180.564 7
C22  21769028.713 7                 113357020.705 7
E03  25639599.988 7  25639602.880 8 134736920.259 7 101927691.140 8
E05  22141425.061 8  22141426.437 9 116353930.954 8  88021031.208 9
E09  26263308.523 4  26263311.288 6 138014746.188 4 104407177.917 6
E15  24934080.354 7  24934083.133 8 131029584.035 7  99122963.536 8
E34  23484866.772 8  23484868.532 8 123413788.196 8  93361747.686 8
E36  26530767.939 5  26530770.757 7 139420074.964 5 105470428.367 7
G01  20734233.923 8                  20734237.739 8 108959070.387 8                  84903240.300 8
G02  22957601.368 7  22957606.132 5                 120642908.510 7  94007542.138 5
G03  19985670.681 8                  19985676.333 7 105025397.000 8                  81838019.658 7
G04  21659461.175 7                  21659466.251 7 113821299.435 7                  88691919.229 7
G09  24427229.987 6                  24427241.804 6 128365972.502 6                 100025491.874 6
G17  22478033.710 7                  22478037.633 7 118122892.983 7                  92043802.001 7
G19  22514689.257 7  22514691.329 5                 118315392.075 7  92193913.076 5
G31  22653681.086 5                  22653686.149 5 119045931.802 5                  92763060.128 5
R03  19620995.645 8  19621000.313 7 105032734.700 8  81692111.814 7
R04  20040203.444 8  20040207.417 7 107314417.551 8  83466836.842 7
R18  20422138.013 8  20422140.948 7 109014735.330 8  84789266.670 7
R19  19596193.280 8  19596195.044 7 104826412.632 8  81531638.950 7
> 2025 06 15 14 02 35.0000000  0 22
C11  24225475.952 6  24225473.585 7 126148434.304 6  97545955.310 7
C12  22303057.727 7  22303054.053 7 116138038.277 7  89805154.532 7
C21  23031655.023 7                 119931932.384 7
C22  21768910.583 7                 113356406.423 7
E03  25635961.445 7  25635964.942 8 134717803.035 7 101913229.098 8
E05  22140098.011 8  22140099.456 9 116346957.672 8  88015755.960 9
E09  26264481.743 5  26264481.868 6 138020897.587 5 104411831.412 6
E15  24931088.453 7  24931090.893 8 131013859.685 7  99111068.155 8
E34  23484392.676 8  23484394.302 9 123411296.107 8  93359862.429 9
E36  26532263.258 5  26532267.443 7 139427940.020 5 105476378.229 7
G01  20734783.959 8                  20734788.334 8 108961963.103 8                  84905494.354 8
G02  22959308.077 7  22959312.421 5                 120651874.984 7  94014528.976 5
G03  19984545.846 8                  19984551.404 7 105019484.067 8                  81833412.173 7
G04  21655767.350 7                  21655772.662 7 113801889.242 7                  88676794.410 7
G09  24422571.613 6                  24422582.331 6 128341489.994 6                 100006414.637 6
G17  22477599.404 7                  22477603.741 7 118120613.193 7                  92042025.543 7
G19  22512379.523 7  22512381.770 5                 118303253.767 7  92184454.635 5
G31  22651164.581 5                  22651168.082 5 119032708.669 5                  92752756.390 5
R03  19621378.400 8  19621383.480 7 105034784.163 8  81693705.833 7
R04  20037164.972 8  20037169.561 7 107298147.592 8  83454182.424 7
R18  20423944.865 8  20423948.468 7 109024383.932 8  84796771.120 7
R19  19594073.165 8  19594074.496 7 104815068.937 8  81522816.066 7
> 2025 06 15 14 02 40.0000000  0 22
C11  24222263.260 6  24222261.214 7 126131705.178 6  97533019.290 7
C12  22302857.728 7  22302854.836 7 116136999.229 7  89804351.081 7
C21  23028729.446 7                 119916694.148 7
C22  21768794.621 7                 113355803.065 7
E03  25632325.449 7  25632328.529 8 134698693.615 7 101898772.964 8
E05  22138773.506 8  22138774.897 8 116339997.226 8  88010490.433 8
E09  26265654.979 5  26265653.952 6 138027056.698 5 104416490.729 6
E15  24928097.638 7  24928100.133 8 130998142.844 7  99099178.470 8
E34  23483920.536 8  23483922.232 9 123408815.322 8  93357985.731 9
E36  26533762.292 5  26533765.350 7 139435811.543 5 105482332.947 7
G01  20735337.815 8                  20735341.823 8 108964870.601 8                  84907759.933 8
G02  22961015.898 7  22961019.768 5                 120660850.384 7  94021522.774 5
G03  19983422.840 8                  19983428.682 7 105013584.188 8                  81828814.878 7
G04  21652075.828 7                  21652081.196 7 113782491.272 7                  88661679.113 7
G09  24417913.271 7                  24417924.034 6 128317012.132 7                  99987341.000 6
G17  22477168.769 7                  22477172.864 7 118118350.231 7                  92040262.198 7
G19  22510072.988 7  22510075.425 5                 118291134.322 7  92175010.919 5
G31  22648651.737 5                  22648656.335 5 119019503.214 5                  92742466.440 5
R03  19621763.642 8  19621769.050 7 105036849.572 8  81695312.262 7
R04  20034128.917 8  20034134.107 7 107281893.964 8  83441540.709 7
R18  20425755.329 8  20425759.248 7 109034050.102 8  84804289.235 7
R19  19591956.870 8  19591958.036 7 104803747.684 8  81514010.642 7
> 2025 06 15 14 02 45.0000000  0 22
C11  24219052.863 6  24219050.768 7 126114986.698 6  97520091.527 7
C12  22302661.172 7  22302658.258 7 116135974.854 7  89803558.975 7
C21  23025805.172 7                 119901464.735 7
C22  21768680.444 7                 113355209.452 7
E03  25628690.357 7  25628693.305 8 134679590.870 7 101884321.867 8
E05  22137450.888 8  22137452.569 8 116333048.463 8  88005233.743 8
E09  26266827.086 5  26266827.385 6 138033222.442 5 104421155.065 6
E15  24925108.283 7  24925110.505 8 130982432.363 7  99087293.596 8
E34  23483450.258 8  23483452.080 9 123406344.654 8  93356116.689 9
E36  26535259.840 5  26535264.243 7 139443688.272 5 105488291.614 7
G01  20735893.389 8                  20735897.691 8 108967791.763 8                  84910036.151 8
G02  22962725.058 7  22962728.684 4                 120669833.598 7  94028522.673 4
G03  19982302.171 8                  19982308.227 7 105007696.186 8                  81824226.837 7
G04  21648387.291 7                  21648392.089 7 113763104.347 7                  88646572.422 7
G09  24413255.975 7                  24413266.911 6 128292537.837 7                  99968270.158 6
G17  22476741.364 7                  22476744.878 7 118116102.974 7                  92038511.075 7
G19  22507770.361 7  22507772.549 5                 118279032.583 7  92165580.994 5
G31  22646143.063 5                  22646148.248 5 119006314.416 5                  92732189.428 5
R03  19622152.479 8  19622157.716 7 105038929.540 8  81696930.021 7
R04  20031096.618 8  20031101.630 7 107265655.683 8  83428910.943 7
R18  20427569.785 8  20427573.365 7 109043732.790 8  84811820.202 7
R19  19589843.772 8  19589845.588 7 104792447.755 8  81505221.814 7
> 2025 06 15 14 02 50.0000000  0 22
C11  24215844.157 6  24215842.318 7 126098279.790 6  97507172.681 7
C12  22302467.547 7  22302464.618 7 116134966.070 7  89802778.920 7
C21  23022882.666 7                 119886245.098 7
C22  21768568.405 7                 113354626.526 7
E03  25625056.379 7  25625059.595 8 134660495.707 7 101869876.508 8
E05  22136130.657 8  22136132.650 9 116326112.329 8  87999986.599 9
E09  26267999.212 4  26268002.227 6 138039395.682 4 104425825.097 6
E15  24922119.643 7  24922122.357 8 130966729.175 7  99075414.232 8
E34  23482982.144 8  23482983.997 9 123403885.066 8  93354256.026 9
E36  26536760.364 5  26536764.257 7 139451571.199 5 105494255.021 7
G01  20736452.152 8                  20736456.508 8 108970727.506 8                  84912323.740 8
G02  22964435.950 7  22964439.446 4                 120678825.546 7  94035529.367 4
G03  19981184.132 8                  19981190.163 7 105001821.012 8                  81819648.773 7
G04  21644699.501 7                  21644705.121 7 113743729.438 7                  88631475.097 7
G09  24408600.034 7                  24408609.713 6 128268067.991 7                  99949202.779 6
G17  22476316.498 7                  22476320.581 7 118113872.340 7                  92036772.914 7
G19  22505470.871 7  22505473.658 5                 118266949.540 7  92156165.630 5
G31  22643636.147 6                  22643642.041 5 118993143.030 6                  92721925.968 5
R03  19622544.105 8  19622549.512 7 105041025.399 8  81698560.127 7
R04  20028067.417 8  20028072.145 7 107249433.697 8  83416293.831 7
R18  20429386.378 8  20429390.226 7 109053432.846 8  84819364.670 7
R19  19587735.569 8  19587737.294 7 104781170.080 8  81496450.303 7
> 2025 06 15 14 02 55.0000000  0 22
C11  24212637.996 6  24212636.197 7 126081584.918 6  97494263.146 7
C12  22302276.925 7  22302274.245 7 116133973.329 7  89802011.266 7
C21  23019961.889 7                 119871035.640 7
C22  21768458.642 7                 113354054.715 7
E03  25621425.002 7  25621427.408 8 134641408.586 7 101855437.236 8
E05  22134813.147 8  22134815.212 9 116319189.257 8  87994749.348 9
E09  26269174.409 4  26269178.480 6 138045576.96414 104430501.14516
E15  24919132.861 7  24919135.623 8 130951033.734 7  99063540.735 8
E34  23482516.383 8  23482518.095 9 123401436.983 8  93352404.068 9
E36  26538261.421 4  26538265.473 7 139459460.785 4 105500223.420 7
G01  20737013.281 8                  20737018.089 8 108973678.269 8                  84914623.034 8
G02  22966148.676 7  22966152.882 5                 120687826.597 7  94042543.137 5
G03  19980068.763 8                  19980074.818 7 104995959.137 8                  81815081.080 7
G04  21641015.312 7                  21641020.755 7 113724366.964 7                  88616387.464 7
G09  24403944.557 7                  24403954.491 6 128243603.046 7                  99930139.208 6
G17  22475895.746 7                  22475899.440 7 118111658.811 7                  92035048.091 7
G19  22503175.916 7  22503178.283 5                 118254885.613 7  92146765.172 5
G31  22641132.677 6                  22641138.630 5 118979989.591 6                  92711676.584 5
R03  19622938.859 8  19622943.647 7 105043137.173 8  81700202.606 7
R04  20025041.706 8  20025045.828 7 107233228.304 8  83403689.651 7
R18  20431206.881 8  20431210.981 7 109063150.692 8  84826923.003 7
R19  19585631.423 8  19585633.142 7 104769915.196 8  81487696.508 7
> 2025 06 15 14 03  0.0000000  0 22
C11  24209433.506 6  24209432.241 7 126064901.387 6  97481362.396 7
C12  22302088.965 7  22302086.612 7 116132995.914 7  89801255.463 7
C21  23017042.652 8                 119855835.666 8
C22  21768350.674 7                 113353493.310 7
E03  25617794.005 7  25617796.613 8 134622328.801 7 101841003.527 8
E05  22133498.373 8  22133500.157 8 116312278.514 8  87989521.416 8
E09  26270353.934 5  26270356.069 6 138051765.515 5 104435182.747 6
E15  24916147.763 7  24916150.282 8 130935345.333 7  99051672.563 8
E34  23482052.514 8  23482054.311 9 123398999.705 8  93350560.279 9
E36  26539762.677 5  26539767.993 7 139467356.301 5 105506196.290 7
G01  20737577.674 8                  20737582.168 8 108976643.314 8                  84916933.451 8
G02  22967862.390 6  22967867.547 4                 120696836.045 6  94049563.475 4
G03  19978956.094 8                  19978961.423 7 104990109.803 8                  81810523.162 7
G04  21637332.197 7                  21637338.596 8 113705016.212 7                  88601308.966 8
G09  24399289.684 7                  24399299.826 6 128219142.347 7                  99911078.942 6
G17  22475477.728 7                  22475481.140 7 118109461.620 7                  92033335.989 7
G19  22500883.840 7  22500885.974 5                 118242840.139 7  92137379.094 5
G31  22638634.459 6                  22638638.819 5 118966853.356 6                  92701440.564 5
R03  19623336.157 8  19623341.240 7 105045264.398 8  81701857.108 7
R04  20022018.416 8  20022022.946 7 107217038.892 8  83391097.892 7
R18  20433030.168 8  20433034.576 7 109072885.609 8  84834494.613 7
R19  19583530.839 8  19583533.208 7 104758682.209 8  81478959.747 7
> 2025 06 15 14 03  5.0000000  0 22
C11  24206232.305 6  24206230.477 7 126048229.453 6  97468470.595 7
C12  22301904.402 7  22301901.808 7 116132034.071 7  89800511.711 7
C21  23014125.439 7                 119840645.421 7
C22  21768244.733 7                 113352942.547 7
E03  25614163.684 7  25614167.287 8 134603256.627 7 101826575.567 8
E05  22132185.972 8  22132187.453 9 116305380.363 8  87984303.017 9
E09  26271530.542 4  26271535.351 6 138057961.56814 104439870.02616
E15  24913163.637 7  24913166.289 8 130919664.221 7  99039809.905 8
E34  23481591.028 8  23481592.631 9 123396573.470 8  93348724.852 9
E36  26541268.585 5  26541271.680 7 139475257.955 5 105512173.801 7
G01  20738144.523 8                  20738149.284 8 108979622.904 8                  84919255.216 8
G02  22969578.946 6  22969583.978 4                 120705854.227 6  94056590.630 4
G03  19977845.269 8                  19977850.781 7 104984273.283 8                  81805975.235 7
G04  21633652.353 7                  21633658.311 7 113685677.474 7                  88586239.840 7
G09  24394636.137 7                  24394645.657 6 128194686.106 7                  99892022.176 6
G17  22475062.561 7                  22475066.158 7 118107281.132 7                  92031636.898 7
G19  22498595.084 7  22498597.518 5                 118230813.305 7  92128007.547 5
G31  22636138.178 6                  22636141.445 5 118953734.654 6                  92691218.267 5
R03  19623736.027 7  19623741.240 7 105047407.234 7  81703523.744 7
R04  20018999.450 8  20019002.551 7 107200865.648 8  83378518.703 7
R18  20434858.109 8  20434861.906 7 109082637.856 8  84842079.694 7
R19  19581435.830 8  19581437.674 7 104747471.518 8  81470240.316 7
> 2025 06 15 14 03 10.0000000  0 22
C11  24203033.417 6  24203030.534 7 126031568.710 6  97455587.452 7
C12  22301721.486 7  22301719.934 7 116131087.479 7  89799779.728 7
C21  23011209.769 7                 119825464.551 7
C22  21768141.063 7                 113352402.058 7
E03  25610536.065 7  25610539.371 8 134584191.679 7 101812153.057 8
E05  22130875.781 8  22130877.090 9 116298494.439 8  87979093.861 9
E09  26272709.864 5  26272715.916 6 138064164.73115 104444562.68616
E15  24910180.751 7  24910183.595 8 130903990.035 7  99027952.500 8
E34  23481131.358 8  23481133.023 9 123394157.932 8  93346897.508 9
E36  26542772.699 5  26542776.456 7 139483165.534 5 105518155.762 7
G01  20738713.976 8                  20738719.024 8 108982616.672 8                  84921588.015 8
G02  22971296.427 6  22971301.768 4                 120714880.759 6  94063624.247 4
G03  19976737.019 8                  19976742.744 7 104978449.184 8                  81801436.987 7
G04  21629974.326 7                  21629980.567 7 113666350.378 7                  88571179.773 7
G09  24389982.603 7                  24389992.378 6 128170233.960 7                  99872968.610 6
G17  22474651.037 7                  22474654.161 7 118105116.796 7                  92029950.387 7
G19  22496310.260 7  22496312.424 5                 118218804.785 7  92118650.242 5
G31  22633644.671 6                  22633647.333 5 118940633.120 6                  92681009.293 5
R03  19624138.989 7  19624144.649 7 105049565.155 7  81705202.106 7
R04  20015981.643 8  20015985.256 7 107184708.147 8  83365951.777 7
R18  20436687.772 8  20436691.804 7 109092407.016 8  84849677.932 7
R19  19579343.635 8  19579345.981 7 104736282.734 8  81461537.938 7
> 2025 06 15 14 03 15.0000000  0 22
C11  24199834.720 6  24199833.558 7 126014919.578 6  97442713.295 7
C12  22301543.429 7  22301541.248 7 116130156.427 7  89799059.762 7
C21  23008296.250 7                 119810293.381 7
C22  21768039.252 7                 113351872.183 7
E03  25606909.702 7  25606912.885 8 134565134.316 7 101797736.290 8
E05  22129567.419 8  22129569.130 8 116291621.090 8  87973894.226 8
E09  26273890.484 4  26273897.830 6 138070375.33914 104449260.95816
E15  24907199.704 7  24907202.266 8 130888323.131 7  99016100.589 8
E34  23480673.755 8  23480675.435 9 123391753.415 8  93345078.508 9
E36  26544281.005 5  26544282.325 7 139491079.172 5 105524142.349 7
G01  20739286.544 8                  20739291.473 8 108985624.961 8                  84923932.131 8
G02  22973016.472 6  22973021.433 4                 120723915.962 6  94070664.642 4
G03  19975631.255 8                  19975636.877 7 104972637.901 8                  81796908.709 7
G04  21626299.001 7                  21626305.439 8 113647035.266 7                  88556129.043 8
G09  24385330.023 6                  24385339.988 6 128145786.295 6                  99853918.492 6
G17  22474242.193 7                  22474245.712 7 118102969.003 7                  92028276.768 7
G19  22494028.306 7  22494030.613 5                 118206814.888 7  92109307.475 5
G31  22631155.280 6                  22631156.077 4 118927549.061 6                  92670813.964 4
R03  19624546.419 7  19624550.459 7 105051738.883 7  81706892.771 7
R04  20012966.916 8  20012970.603 7 107168566.846 8  83353397.451 7
R18  20438521.442 8  20438525.253 7 109102193.438 8  84857289.582 7
R19  19577256.485 8  19577258.565 7 104725116.264 8  81452852.900 7
> 2025 06 15 14 03 20.0000000  0 22
C11  24196641.062 6  24196638.854 7 125998282.405 6  97429848.381 7
C12  22301368.147 7  22301364.981 7 116129241.246 7  89798352.084 7
C21  23005384.905 7                 119795132.268 7
C22  21767939.958 7                 113351353.263 7
E03  25603284.632 7  25603287.918 8 134546084.894 7 101783325.536 8
E05  22128262.008 8  22128263.578 8 116284760.654 8  87968704.354 8
E09  26275077.423 4  26275081.200 6 138076593.779 4 104453965.172 6
E15  24904219.101 7  24904222.457 8 130872663.858 7  99004254.469 8
E34  23480218.483 8  23480220.055 9 123389360.288 8  93343268.127 9
E36  26545786.228 5  26545789.585 7 139498999.312 5 105530133.846 7
G01  20739862.174 8                  20739866.693 8 108988648.114 8                  84926287.847 8
G02  22974737.215 6  22974742.634 4                 120732960.125 6  94077712.031 4
G03  19974527.512 8                  19974533.279 7 104966839.744 8                  81792390.651 7
G04  21622625.647 7                  21622631.791 7 113627732.523 7                  88541087.954 7
G09  24380678.624 6                  24380688.615 6 128121343.438 6                  99834872.151 6
G17  22473837.424 7                  22473840.260 7 118100838.070 7                  92026616.317 7
G19  22491750.250 7  22491752.772 5                 118194843.988 7  92099979.519 5
G31  22628668.615 6                  22628669.168 4 118914482.864 6                  92660632.537 4
R03  19624955.285 7  19624959.301 7 105053928.329 7  81708595.670 7
R04  20009955.335 8  20009959.127 7 107152442.187 8  83340856.058 7
R18  20440358.185 8  20440361.397 7 109111997.511 8  84864914.984 7
R19  19575173.299 8  19575175.429 7 104713972.371 8  81444185.443 7
> 2025 06 15 14 03 25.0000000  0 22
C11  24193447.264 6  24193445.341 7 125981656.829 6  97416992.415 7
C12  22301195.008 7  22301191.933 7 116128341.576 7  89797656.391 7
C21  23002475.565 7                 119779980.858 7
C22  21767841.929 7                 113350844.914 7
E03  25599661.574 7  25599664.371 8 134527043.051 7 101768920.515 8
E05  22126959.329 8  22126960.477 8 116277912.772 8  87963523.975 8
E09  26276262.247 5  26276265.979 6 138082819.657 5 104458674.988 6
E15  24901240.836 7  24901243.975 8 130857011.902 7  98992413.872 8
E34  23479765.167 8  23479766.778 9 123386978.176 8  93341466.075 9
E36  26547299.025 5  26547297.976 7 139506925.590 5 105536129.931 7
G01  20740439.943 8                  20740444.961 8 108991685.744 8                  84928654.829 8
G02  22976460.520 6  22976465.619 5                 120742012.952 6  94084766.185 5
G03  19973426.584 8                  19973432.598 7 104961054.373 8                  81787882.586 7
G04  21618954.950 7                  21618961.057 7 113608441.769 7                  88526056.209 7
G09  24376029.080 6                  24376038.277 6 128096905.078 6                  99815829.283 6
G17  22473434.525 8                  22473437.924 7 118098723.651 8                  92024968.724 7
G19  22489474.402 6  22489478.586 5                 118182891.716 6  92090666.083 5
G31  22626185.888 6                  22626187.000 5 118901434.282 6                  92650464.824 5
R03  19625367.171 7  19625371.538 7 105056133.354 7  81710310.685 7
R04  20006947.770 8  20006950.880 7 107136333.756 8  83328327.272 7
R18  20442197.266 8  20442201.640 7 109121818.824 8  84872553.770 7
R19  19573094.647 8  19573096.199 7 104702850.811 8  81435535.341 7
> 2025 06 15 14 03 30.0000000  0 22
C11  24190257.667 6  24190254.803 7 125965042.721 6  97404145.347 7
C12  22301025.102 7  22301022.035 7 116127457.362 7  89796972.661 7
C21  22999568.650 7                 119764839.072 7
C22  21767746.337 7                 113350347.063 7
E03  25596038.722 7  25596042.279 8 134508008.694 7 101754521.157 8
E05  22125658.224 8  22125659.701 9 116271077.347 8  87958353.023 9
E09  26277450.007 4  26277452.257 6 138089052.80114 104463390.32816
E15  24898263.797 7  24898266.891 8 130841367.127 7  98980578.709 8
E34  23479313.940 8  23479315.588 9 123384607.003 8  93339672.291 9
E36  26548808.249 5  26548807.376 7 139514857.810 5 105542130.615 7
G01  20741020.828 7                  20741025.761 8 108994737.782 7                  84931033.047 8
G02  22978185.601 7  22978190.003 5                 120751074.333 7  94091826.962 5
G03  19972328.088 8                  19972334.228 7 104955281.653 8                  81783384.369 7
G04  21615286.863 7                  21615292.199 7 113589162.929 7                  88511033.745 7
G09  24371379.132 6                  24371388.152 6 128072471.078 6                  99796789.845 6
G17  22473035.428 8                  22473038.787 7 118096625.644 8                  92023333.909 7
G19  22487203.266 6  22487207.670 5                 118170958.050 6  92081367.128 5
G31  22623705.905 6                  22623707.530 4 118888403.032 6                  92640310.660 4
R03  19625781.806 8  19625786.023 7 105058353.974 8  81712037.828 7
R04  20003942.105 8  20003945.812 7 107120241.321 8  83315810.943 7
R18  20444040.463 8  20444045.130 7 109131657.267 8  84880205.876 7
R19  19571020.558 8  19571021.084 7 104691751.442 8  81426902.492 7
> 2025 06 15 14 03 35.0000000  0 22
C11  24187069.273 6  24187066.679 7 125948440.970 6  97391307.813 7
C12  22300858.458 7  22300855.150 7 116126589.399 7  89796301.502 7
C21  22996663.672 7                 119749707.738 7
C22  21767653.697 7                 113349860.555 7
E03  25592418.496 7  25592421.753 8 134488982.678 7 101740128.116 8
E05  22124360.204 8  22124361.516 8 116264255.222 8  87953192.127 8
E09  26278636.976 5  26278640.223 6 138095294.222 5 104468111.911 6
E15  24895288.629 7  24895291.394 8 130825730.420 7  98968749.639 8
E34  23478864.523 8  23478866.610 9 123382247.603 8  93337887.423 9
E36  26550318.584 5  26550318.160 7 139522796.889 5 105548136.462 7
G01  20741604.288 7                  20741609.197 8 108997805.080 7                  84933423.141 8
G02  22979911.427 7  22979916.086 5                 120760145.046 7  94098895.045 5
G03  19971231.919 8                  19971238.403 8 104949522.478 8                  81778896.703 8
G04  21611619.752 7                  21611626.427 7 113569896.851 7                  88496021.230 7
G09  24366729.823 6                  24366739.523 6 128048042.322 6                  99777754.456 6
G17  22472639.341 7                  22472642.911 7 118094544.931 7                  92021712.572 7
G19  22484935.866 6  22484940.632 5                 118159043.766 6  92072083.279 5
G31  22621227.404 5                  22621231.551 5 118875390.080 5                  92630170.756 5
R03  19626199.729 8  19626203.963 7 105060590.605 8  81713777.435 7
R04  20000939.785 8  20000944.782 7 107104165.829 8  83303307.823 7
R18  20445887.139 8  20445891.476 7 109141513.657 8  84887871.951 7
R19  19568949.793 8  19568951.118 7 104680675.128 8  81418287.585 7
> 2025 06 15 14 03 40.0000000  0 22
C11  24183882.161 6  24183880.666 7 125931851.151 6  97378479.497 7
C12  22300694.009 6  22300691.229 7 116125737.259 6  89795642.561 7
C21  22993759.442 7                 119734586.399 7
C22  21767562.324 7                 113349384.869 7
E03  25588799.404 7  25588802.744 8 134469964.509 7 101725741.016 8
E05  22123064.638 8  22123065.734 8 116257445.911 8  87948040.937 8
E09  26279828.169 5  26279829.556 6 138101543.353 5 104472839.302 6
E15  24892314.471 7  24892317.241 8 130810101.277 7  98956926.282 8
E34  23478417.667 8  23478419.739 9 123379899.481 8  93336111.088 9
E36  26551832.355 5  26551830.210 7 139530742.405 5 105554147.157 7
G01  20742190.732 7                  20742195.795 8 109000887.107 7                  84935824.715 8
G02  22981638.970 7  22981643.712 5                 120769224.658 7  94105970.056 5
G03  19970138.769 8                  19970144.620 8 104943776.334 8                  81774419.186 8
G04  21607956.614 7                  21607962.203 7 113550643.072 7                  88481018.317 7
G09  24362082.726 7                  24362092.340 6 128023618.336 7                  99758722.843 6
G17  22472246.385 7                  22472250.197 7 118092481.041 7                  92020104.349 7
G19  22482673.006 7  22482677.120 5                 118147148.460 7  92062814.228 5
G31  22618754.786 5                  22618760.845 5 118862394.906 5                  92620044.702 5
R03  19626620.564 8  19626624.486 7 105062843.030 8  81715529.327 7
R04  19997940.835 8  19997945.158 7 107088106.714 8  83290817.394 7
R18  20447736.405 8  20447741.010 7 109151387.542 8  84895551.617 7
R19  19566883.580 8  19566884.186 7 104669621.441 8  81409690.276 7
> 2025 06 15 14 03 45.0000000  0 22
C11  24180699.381 6  24180696.880 7 125915273.391 6  97365660.528 7
C12  22300533.788 7  22300530.454 7 116124901.119 7  89794996.004 7
C21  22990857.576 7                 119719475.256 7
C22  21767472.851 7                 113348920.264 7
E03  25585181.893 7  25585185.299 8 134450954.443 7 101711360.036 8
E05  22121771.218 8  22121772.430 9 116250649.640 8  87942899.597 9
E09  26281018.575 5  26281020.421 6 138107800.330 5 104477572.629 6
E15  24889342.003 7  24889344.615 8 130794479.912 7  98945108.842 8
E34  23477973.100 8  23477975.139 9 123377562.895 8  93334343.469 9
E36  26553346.963 5  26553343.470 7 139538694.502 5 105560162.847 7
G01  20742779.902 8                  20742785.095 8 109003984.118 8                  84938237.958 8
G02  22983369.169 7  22983372.904 4                 120778313.385 7  94113052.152 4
G03  19969047.774 8                  19969053.686 7 104938043.444 8                  81769951.994 7
G04  21604295.097 7                  21604300.712 7 113531401.792 7                  88466025.121 7
G09  24357435.475 6                  24357445.193 6 127999199.333 6                  99739695.087 6
G17  22471856.585 7                  22471860.593 7 118090434.229 7                  92018509.431 7
G19  22480412.278 6  22480417.057 5                 118135272.314 6  92053560.096 5
G31  22616283.013 5                  22616292.354 5 118849417.802 5                  92609932.646 5
R03  19627044.909 8  19627048.370 7 105065111.572 8  81717293.746 7
R04  19994944.931 8  19994949.998 7 107072064.288 8  83278339.957 7
R18  20449590.019 8  20449594.205 7 109161279.085 8  84903245.021 7
R19  19564821.263 8  19564822.161 7 104658590.607 8  81401110.752 7
> 2025 06 15 14 03 50.0000000  0 22
C11  24177517.972 6  24177515.709 7 125898707.809 6  97352850.988 7
C12  22300376.489 7  22300373.028 7 116124081.001 7  89794361.833 7
C21  22987957.746 7                 119704374.346 7
C22  21767385.860 7                 113348466.751 7
E03  25581565.842 7  25581569.421 8 134431952.542 7 101696985.227 8
E05  22120480.420 8  22120481.665 8 116243866.450 8  87937768.165 8
E09  26282210.593 5  26282212.778 6 138114065.251 5 104482312.011 6
E15  24886370.509 7  24886373.449 8 130778866.408 7  98933297.332 8
E34  23477530.723 8  23477532.716 9 123375237.861 8  93332584.600 9
E36  26554860.134 5  26554857.947 7 139546653.204 5 105566183.563 7
G01  20743371.810 7                  20743377.106 8 109007096.135 7                  84940662.913 8
G02  22985100.841 7  22985103.674 5                 120787411.248 7  94120141.385 5
G03  19967959.451 7                  19967965.441 7 104932323.862 7                  81765495.172 7
G04  21600635.819 7                  21600641.657 7 113512173.100 7                  88451041.744 7
G09  24352790.506 6                  24352799.684 6 127974785.382 6                  99720671.227 6
G17  22471470.228 7                  22471474.157 7 118088404.445 7                  92016927.775 7
G19  22478155.767 7  22478160.730 5                 118123415.380 7  92044320.938 5
G31  22613816.844 4                  22613826.589 5 118836458.860 4                  92599834.758 5
R03  19627470.710 8  19627475.572 7 105067396.065 8  81719070.583 7
R04  19991951.790 7  19991957.027 7 107056038.662 7  83265875.573 7
R18  20451446.021 8  20451450.179 7 109171188.345 8  84910952.203 7
R19  19562762.887 8  19562764.427 7 104647582.650 8  81392549.012 7
> 2025 06 15 14 03 55.0000000  0 22
C11  24174338.464 6  24174336.647 7 125882153.679 6  97340050.286 7
C12  22300222.272 7  22300218.553 7 116123276.206 7  89793739.510 7
C21  22985058.477 7                 119689282.952 7
C22  21767300.481 7                 113348023.581 7
E03  25577951.548 7  25577954.939 8 134412958.023 7 101682615.997 8
E05  22119192.023 8  22119193.228 8 116237095.594 8  87932646.049 8
E09  26283403.954 5  26283406.460 6 138120337.390 5 104487056.816 6
E15  24883400.795 7  24883403.629 8 130763260.008 7  98921491.202 8
E34  23477090.227 8  23477092.353 9 123372923.655 8  93330833.918 9
E36  26556374.397 5  26556373.664 7 139554617.773 5 105572208.678 7
G01  20743967.346 7                  20743972.250 8 109010222.418 7                  84943098.969 8
G02  22986833.226 7  22986836.023 5                 120796517.498 7  94127237.144 5
G03  19966873.215 7                  19966879.265 7 104926616.841 7                  81761048.135 7
G04  21596978.899 7                  21596984.792 7 113492956.226 7                  88436067.556 7
G09  24348144.756 6                  24348154.697 6 127950375.702 6                  99701650.747 6
G17  22471087.405 7                  22471091.253 7 118086390.972 7                  92015358.826 7
G19  22475903.916 6  22475908.430 5                 118111576.938 6  92035096.195 5
G31  22611352.806 4                  22611363.907 6 118823517.27214                  92589750.39016
R03  19627900.227 8  19627904.931 7 105069695.677 8  81720859.164 7
R04  19988962.389 8  19988967.564 7 107040028.967 8  83253423.588 7
R18  20453306.231 8  20453310.112 7 109181114.563 8  84918672.578 7
R19  19560709.679 8  19560710.689 7 104636596.825 8  81384004.483 7
> 2025 06 15 14 04  0.0000000  0 22
C11  24171161.136 6  24171160.072 7 125865611.629 6  97327258.937 7
C12  22300070.142 7  22300067.000 7 116122487.400 7  89793129.550 7
C21  22982162.283 7                 119674201.709 7
C22  21767217.717 7                 113347591.430 7
E03  25574338.529 7  25574341.986 8 134393971.562 7 101668252.878 8
E05  22117906.081 8  22117907.256 8 116230337.716 8  87927533.765 8
E09  26284599.585 5  26284601.461 6 138126617.352 5 104491807.547 6
E15  24880432.726 7  24880435.256 8 130747661.386 7  98909690.950 8
E34  23476651.989 8  23476654.144 9 123370620.904 8  93329091.896 9
E36  26557889.179 5  26557890.566 7 139562588.927 5 105578238.782 7
G01  20744565.243 7                  20744569.850 8 109013363.604 7                  84945546.648 8
G02  22988568.252 7  22988570.358 5                 120805632.779 7  94134339.946 5
G03  19965789.479 7                  19965795.921 7 104920923.000 7                  81756611.385 7
G04  21593323.766 7                  21593330.107 7 113473751.860 7                  88421103.131 7
G09  24343500.877 7                  24343510.650 6 127925971.049 7                  99682634.151 6
G17  22470707.344 7                  22470711.202 7 118084394.560 7                  92013803.189 7
G19  22473654.621 6  22473659.042 5                 118099757.673 6  92025886.384 5
G31  22608895.034 4                  22608905.082 6 118810593.754 4                  92579680.024 6
R03  19628333.244 8  19628337.508 7 105072011.395 8  81722660.268 7
R04  19985976.018 8  19985981.141 7 107024035.999 8  83240984.626 7
R18  20455168.670 8  20455172.213 7 109191058.430 8  84926406.692 7
R19  19558659.754 8  19558661.388 7 104625633.825 8  81375477.703 7
> 2025 06 15 14 04  5.0000000  0 22
C11  24167987.348 6  24167985.451 7 125849080.896 6  97314476.334 7
C12  22299921.286 7  22299918.527 7 116121713.693 7  89792531.271 7
C21  22979267.406 7                 119659129.846 7
C22  21767136.059 7                 113347169.430 7
E03  25570726.608 7  25570730.407 8 134374992.353 7 101653895.249 8
E05  22116622.510 8  22116623.599 9 116223592.011 8  87922430.686 9
E09  26285795.436 5  26285797.915 6 138132904.302 5 104496563.588 6
E15  24877465.407 7  24877468.206 8 130732069.745 7  98897895.985 8
E34  23476215.768 8  23476218.003 8 123368328.835 8  93327357.967 8
E36  26559406.509 5  26559408.476 7 139570565.794 5 105584273.238 7
G01  20745164.941 8                  20745170.002 8 109016518.899 8                  84948005.324 8
G02  22990304.336 7  22990306.179 5                 120814756.334 7  94141449.186 5
G03  19964708.085 7                  19964714.629 7 104915241.595 7                  81752184.314 7
G04  21589671.701 7                  21589677.833 7 113454559.187 7                  88406147.806 7
G09  24338858.603 7                  24338867.454 6 127901570.559 7                  99663620.816 6
G17  22470330.708 7                  22470334.318 7 118082414.216 7                  92012260.071 7
G19  22471408.519 6  22471413.296 5                 118087956.712 6  92016690.845 5
G31  22606441.394 4                  22606448.776 6 118797687.433 4                  92569623.174 6
R03  19628768.950 8  19628772.876 7 105074342.050 8  81724472.986 7
R04  19982993.029 8  19982998.004 7 107008058.839 8  83228557.949 7
R18  20457035.060 8  20457037.741 7 109201019.054 8  84934153.831 7
R19  19556614.473 8  19556616.005 7 104614692.740 8  81366967.968 7
> 2025 06 15 14 04 10.0000000  0 22
C11  24164815.212 6  24164812.973 7 125832562.101 6  97301702.961 7
C12  22299775.894 7  22299772.968 7 116120955.823 7  89791945.229 7
C21  22976374.532 7                 119644067.967 7
C22  21767056.958 7                 113346758.302 7
E03  25567116.383 7  25567120.387 8 134356021.067 7 101639543.604 8
E05  22115340.948 8  22115342.382 8 116216859.121 8  87917337.304 8
E09  26286992.499 5  26286995.855 6 138139198.977 5 104501325.444 6
E15  24874500.235 7  24874502.642 8 130716485.727 7  98886106.773 8
E34  23475781.882 8  23475783.990 9 123366048.090 8  93325632.592 9
E36  26560922.568 5  26560927.705 7 139578548.996 5 105590312.501 7
G01  20745768.239 7                  20745773.156 8 109019688.963 7                  84950475.489 8
G02  22992041.867 7  22992043.556 4                 120823888.764 7  94148565.343 4
G03  19963629.466 8                  19963636.059 7 104909573.249 8                  81747767.429 7
G04  21586022.199 7                  21586027.877 7 113435378.873 7                  88391202.101 7
G09  24334216.299 7                  24334225.055 6 127877174.884 7                  99644611.224 6
G17  22469956.940 7                  22469960.377 7 118080450.626 7                  92010729.995 7
G19  22469166.299 7  22469171.568 5                 118076174.750 7  92007510.095 5
G31  22603986.575 4                  22603995.675 6 118784798.889 4                  92559580.183 6
R03  19629206.623 8  19629211.626 7 105076688.377 8  81726297.905 7
R04  19980013.028 8  19980016.666 7 106992098.139 8  83216144.097 7
R18  20458904.239 8  20458907.401 7 109210997.023 8  84941914.462 7
R19  19554573.640 8  19554574.829 7 104603774.282 8  81358475.839 7
> 2025 06 15 14 04 15.0000000  0 22
C11  24161645.310 6  24161642.830 7 125816055.713 6  97288939.182 7
C12  22299633.213 7  22299630.412 7 116120214.188 7  89791371.751 7
C21  22973484.200 7                 119629016.556 7
C22  21766980.257 7                 113346358.411 7
E03  25563508.127 7  25563511.916 8 134337058.157 7 101625198.300 8
E05  22114062.611 8  22114063.719 8 116210139.530 8  87912253.981 8
E09  26288190.553 5  26288195.303 6 138145501.689 5 104506093.388 6
E15  24871535.954 7  24871538.604 8 130700909.807 7  98874323.692 8
E34  23475350.212 8  23475352.220 8 123363779.117 8  93323916.130 8
E36  26562444.794 5  26562448.245 7 139586539.070 5 105596356.913 7
G01  20746374.842 8                  20746379.466 8 109022874.219 8                  84952957.493 8
G02  22993781.168 7  22993782.940 4                 120833030.491 7  94155688.757 4
G03  19962553.365 7                  19962560.054 7 104903918.383 7                  81743361.049 7
G04  21582374.283 7                  21582380.330 7 113416211.366 7                  88376266.392 7
G09  24329575.294 7                  24329584.014 6 127852784.514 7                  99625605.752 6
G17  22469586.491 7                  22469590.400 7 118078504.232 7                  92009213.339 7
G19  22466928.370 7  22466932.991 5                 118064412.299 7  91998344.552 5
G31  22601536.801 4                                                                
R03  19629648.100 8  19629652.909 7 105079051.048 8  81728135.545 7
R04  19977035.144 8  19977039.520 7 106976154.426 8  83203743.446 7
R18  20460776.578 8  20460780.134 7 109220992.904 8  84949689.019 7
R19  19552536.543 8  19552538.171 7 104592878.941 8  81350001.689 7
> 2025 06 15 14 04 20.0000000  0 22
C11  24158477.855 6  24158475.195 7 125799561.248 6  97276184.613 7
C12  22299493.929 7  22299491.080 7 116119488.211 7  89790810.373 7
C21  22970595.262 7                 119613975.050 7
C22  21766905.612 7                 113345969.266 7
E03  25559901.185 7  25559904.899 8 134318103.056 7 101610858.900 8
E05  22112786.213 8  22112787.455 8 116203432.666 8  87907180.293 8
E09  26289393.218 5  26289396.237 6 138151812.006 5 104510867.086 6
E15  24868573.749 7  24868576.002 8 130685341.423 7  98862546.321 8
E34  23474920.421 8  23474922.616 8 123361521.372 8  93322208.159 8
E36  26563964.995 5  26563969.928 7 139594535.457 5 105602406.121 7
G01  20746983.543 7                  20746988.305 8 109026074.114 7                  84955450.904 8
G02  22995522.814 7  22995524.191 4                 120842180.976 7  94162818.983 4
G03  19961479.898 7                  19961486.651 7 104898276.495 7                  81738964.779 7
G04  21578728.928 7                  21578735.334 7 113397056.131 7                  88361340.260 7
G09  24324934.676 7                  24324943.658 6 127828398.885 7                  99606603.984 6
G17  22469219.107 7                  22469223.117 7 118076574.521 7                  92007709.665 7
G19  22464694.238 7  22464698.207 5                 118052668.739 7  91989193.743 5
G31  22599095.478 4                  22599100.418 5 118759076.41614                  92539536.84315
R03  19630092.150 8  19630096.739 7 105081429.254 8  81729985.257 7
R04  19974060.427 8  19974064.732 7 106960227.170 8  83191355.579 7
R18  20462653.232 8  20462655.925 7 109231006.069 8  84957477.015 7
R19  19550504.285 8  19550505.638 7 104582006.229 8  81341545.129 7
> 2025 06 15 14 04 25.0000000  0 22
C11  24155311.858 6  24155309.704 7 125783078.898 6  97263439.405 7
C12  22299357.524 7  22299354.720 7 116118778.196 7  89790261.337 7
C21  22967708.752 7                 119598943.709 7
C22  21766833.263 7                 113345591.062 7
E03  25556295.167 7  25556299.391 8 134299156.055 7 101596525.625 8
E05  22111512.397 8  22111513.664 8 116196738.764 8  87902116.400 8
E09  26290596.146 5  26290598.613 6 138158130.067 5 104515646.639 6
E15  24865612.498 7  24865614.902 8 130669780.809 7  98850774.824 8
E34  23474492.724 8  23474495.185 8 123359275.081 8  93320508.858 8
E36  26565489.429 5  26565492.851 7 139602538.322 5 105608460.225 7
G01  20747595.303 7                  20747599.837 8 109029288.896 7                  84957955.923 8
G02  22997265.104 6  22997267.117 4                 120851340.385 6  94169956.168 4
G03  19960408.246 7                  19960415.355 8 104892647.797 7                  81734578.771 8
G04  21575086.551 7                  21575092.864 7 113377913.418 7                  88346423.869 7
G09  24320295.869 7                  24320303.910 6 127804018.262 7                  99587606.111 6
G17  22468855.707 7                  22468858.927 7 118074661.677 7                  92006219.136 7
G19  22462462.859 7  22462467.009 5                 118040944.361 7  91980057.871 5
G31  22596650.747 4                  22596657.206 5 118746242.200 4                  92529536.138 5
R03  19630538.832 8  19630544.021 7 105083823.138 8  81731847.161 7
R04  19971088.564 8  19971093.126 7 106944316.531 8  83178980.635 7
R18  20464531.555 8  20464535.361 7 109241036.729 8  84965278.625 7
R19  19548475.764 8  19548477.138 7 104571156.386 8  81333106.354 7
> 2025 06 15 14 04 30.0000000  0 22
C11  24152149.002 6  24152146.598 7 125766608.383 6  97250703.362 7
C12  22299224.617 7  22299221.227 7 116118083.840 7  89789724.413 7
C21  22964823.924 7                 119583922.260 7
C22  21766762.751 8                 113345223.562 8
E03  25552691.501 7  25552695.377 8 134280216.854 7 101582198.259 8
E05  22110240.961 8  22110242.305 8 116190057.568 8  87897062.114 8
E09  26291799.162 5  26291802.389 6 138164455.655 5 104520431.914 6
E15  24862653.342 7  24862655.239 8 130654227.753 7  98839009.043 8
E34  23474067.553 8  23474069.896 8 123357040.014 8  93318818.039 8
E36  26567014.016 5  26567016.959 7 139610547.414 5 105614519.038 7
G01  20748210.464 8                  20748214.394 8 109032518.304 8                  84960472.334 8
G02  22999009.848 6  22999012.056 4                 120860508.500 6  94177100.151 4
G03  19959339.620 8                  19959347.018 8 104887032.051 8                  81730202.861 8
G04  21571445.745 7                  21571452.277 7 113358782.987 7                  88331517.042 7
G09  24315656.596 7                  24315665.315 6 127779642.371 7                  99568611.937 6
G17  22468494.679 7                  22468498.397 7 118072765.529 7                  92004741.610 7
G19  22460235.200 7  22460239.632 5                 118029238.921 7  91970936.753 5
G31  22594209.505 4                  22594217.922 4 118733425.70314                  92519549.27814
R03  19630990.085 8  19630994.337 7 105086232.710 8  81733721.271 7
R04  19968120.913 8  19968125.042 7 106928422.304 8  83166618.442 7
R18  20466414.229 8  20466417.478 7 109251084.651 8  84973093.667 7
R19  19546451.551 8  19546452.924 7 104560329.090 8  81324685.118 7
> 2025 06 15 14 04 35.0000000  0 22
C11  24148987.866 6  24148985.801 7 125750149.269 6  97237976.141 7
C12  22299094.323 7  22299090.767 7 116117404.672 7  89789199.230 7
C21  22961941.822 7                 119568910.208 7
C22  21766694.269 7                 113344866.267 7
E03  25549088.745 7  25549092.756 8 134261284.983 7 101567876.432 8
E05  22108971.704 8  22108973.246 8 116183388.560 8  87892017.066 8
E09  26293004.815 5  26293007.527 6 138170788.282 5 104525222.478 6
E15  24859694.653 7  24859696.893 8 130638681.745 7  98827248.588 8
E34  23473644.242 8  23473646.609 9 123354815.662 8  93317135.334 9
E36  26568541.551 6  26568542.180 7 139618562.266 6 105620582.216 7
G01  20748827.694 8                  20748831.408 8 109035761.829 8                  84962999.734 8
G02  23000755.556 6  23000758.540 4                 120869684.843 6  94184250.529 4
G03  19958273.535 7                  19958280.658 8 104881428.751 7                  81725836.646 8
G04  21567807.273 7                  21567813.982 7 113339664.333 7                  88316619.405 7
G09  24311019.902 7                  24311027.380 6 127755270.755 7                  99549621.070 6
G17  22468136.231 7                  22468140.560 7 118070885.488 7                  92003276.647 7
G19  22458011.431 7  22458015.614 5                 118017551.867 7  91961829.963 5
G31  22591777.804 5                  22591782.063 4 118720626.623 5                  92509575.994 4
R03  19631442.811 8  19631446.867 7 105088657.402 8  81735607.142 7
R04  19965155.231 7  19965160.229 7 106912543.932 7  83154268.604 7
R18  20468299.813 8  20468303.405 7 109261149.278 8  84980921.703 7
R19  19544431.403 8  19544433.244 7 104549523.954 8  81316281.121 7
> 2025 06 15 14 04 40.0000000  0 22
C11  24145829.319 6  24145827.379 7 125733702.416 6  97225258.392 7
C12  22298967.848 7  22298963.222 7 116116741.488 7  89788686.417 7
C21  22959061.109 7                 119553908.402 7
C22  21766627.982 7                 113344519.998 7
E03  25545487.514 7  25545491.701 8 134242361.291 7 101553560.795 8
E05  22107705.197 8  22107706.672 9 116176732.612 8  87886981.896 9
E09  26294210.762 5  26294214.117 6 138177128.738 5 104530018.967 6
E15  24856737.551 7  24856740.028 8 130623143.630 7  98815494.112 8
E34  23473223.111 8  23473225.511 8 123352602.852 8  93315461.364 8
E36  26570069.404 5  26570068.688 7 139626583.712 5 105626650.387 7
G01  20749447.691 8                  20749451.648 8 109039020.302 8                  84965538.810 8
G02  23002504.123 6  23002506.846 4                 120878870.219 6  94191407.950 4
G03  19957210.216 7                  19957216.595 8 104875838.711 7                  81721480.767 8
G04  21564171.738 7                  21564178.471 7 113320558.316 7                  88301731.605 7
G09  24306382.717 7                  24306390.195 6 127730904.237 7                  99530634.206 6
G17  22467781.658 7                  22467785.936 7 118069022.437 7                  92001824.903 7
G19  22455791.318 7  22455795.381 5                 118005884.068 7  91952738.158 5
G31  22589346.821 5                  22589349.675 5 118707845.648 5                  92499616.829 5
R03  19631898.685 8  19631903.140 7 105091097.895 8  81737505.305 7
R04  19962194.101 7  19962198.105 7 106896682.317 7  83141931.789 7
R18  20470188.078 8  20470191.925 7 109271231.466 8  84988763.396 7
R19  19542415.598 8  19542417.697 7 104538741.761 8  81307894.971 7
> 2025 06 15 14 04 45.0000000  0 22
C11  24142672.987 6  24142671.584 7 125717268.724 6  97212550.839 7
C12  22298843.889 7  22298839.090 7 116116095.226 7  89788186.683 7
C21  22956183.157 7                 119538917.756 7
C22  21766563.735 8                 113344185.649 8
E03  25541888.479 7  25541892.371 8 134223446.675 7 101539252.020 8
E05  22106440.873 8  22106442.761 8 116170090.640 8  87881957.283 8
E09  26295419.763 5  26295422.370 6 138183477.978 5 104534822.102 6
E15  24853782.060 7  24853784.867 8 130607614.309 7  98803746.290 8
E34  23472804.193 8  23472806.827 8 123350402.530 8  93313796.833 8
E36  26571598.527 5  26571596.566 7 139634612.660 5 105632724.189 7
G01  20750070.949 8                  20750074.567 8 109042294.644 8                  84968090.230 8
G02  23004253.312 6  23004257.204 4                 120888065.553 6  94198573.133 4
G03  19956148.803 7                  19956155.846 8 104870262.881 7                  81717135.959 8
G04  21560539.006 7                  21560545.251 7 113301465.844 7                  88286854.368 7
G09  24301747.337 7                  24301754.742 6 127706543.752 7                  99511652.032 6
G17  22467430.399 7                  22467435.184 7 118067177.297 7                  92000387.130 7
G19  22453574.704 7  22453579.010 5                 117994236.466 7  91943662.104 5
G31  22586918.939 4                  22586921.218 4 118695083.880 4                  92489672.543 4
R03  19632357.735 8  19632362.144 7 105093555.228 8  81739416.566 7
R04  19959235.811 7  19959239.004 7 106880838.340 7  83129608.701 7
R18  20472080.686 8  20472084.132 7 109281332.169 8  84996619.485 7
R19  19540404.724 8  19540406.420 7 104527983.521 8  81299527.432 7
> 2025 06 15 14 04 50.0000000  0 22
C11  24139519.495 6  24139518.138 7 125700847.339 6  97199852.811 7
C12  22298722.341 7  22298718.114 7 116115465.019 7  89787699.373 7
C21  22953306.266 7                 119523937.438 7
C22  21766501.680 8                 113343862.390 8
E03  25538290.465 7  25538294.538 8 134204540.335 7 101524949.503 8
E05  22105179.323 8  22105181.345 8 116163461.763 8  87876942.588 8
E09  26296628.357 5  26296632.092 6 138189835.132 5 104539631.233 6
E15  24850828.738 7  24850831.261 8 130592092.979 7  98792004.525 8
E34  23472387.613 8  23472390.325 8 123348213.840 8  93312141.102 8
E36  26573121.642 5  26573125.616 7 139642648.255 5 105638803.053 7
G01  20750696.502 8                  20750700.580 8 109045583.998 8                  84970653.364 8
G02  23006004.715 6  23006009.075 4                 120897269.977 6  94205745.407 4
G03  19955090.821 7                  19955097.169 8 104864700.393 7                  81712801.558 8
G04  21556908.025 7                  21556914.658 8 113282386.098 7                  88271987.058 8
G09  24297112.811 7                  24297119.880 6 127682188.456 7                  99492673.912 6
G17  22467082.275 7                  22467087.217 7 118065349.211 7                  91998962.647 7
G19  22451362.264 7  22451365.974 5                 117982608.209 7  91934601.115 5
G31  22584494.770 5                  22584496.344 4 118682340.352 5                  92479742.449 4
R03  19632819.740 8  19632823.879 7 105096028.541 8  81741340.241 7
R04  19956279.725 7  19956283.983 7 106865011.146 7  83117298.672 7
R18  20473975.498 8  20473980.046 7 109291450.470 8  85004489.281 7
R19  19538398.605 8  19538399.801 7 104517248.331 8  81291177.840 7
> 2025 06 15 14 04 55.0000000  0 22
C11  24136368.729 6  24136366.972 7 125684437.784 6  97187163.898 7
C12  22298604.917 7  22298599.877 7 116114850.350 7  89787224.067 7
C21  22950430.998 7                 119508966.913 7
C22  21766441.425 8                 113343549.686 8
E03  25534694.105 7  25534698.165 8 134185641.708 7 101510652.824 8
E05  22103920.245 8  22103922.282 8 116156845.472 8  87871937.399 8
E09  26297840.466 5  26297843.183 6 138196199.639 5 104544445.92916
E15  24847876.170 7  24847879.093 8 130576579.101 7  98780268.381 8
E34  23471973.076 8  23471975.927 8 123346036.251 8  93310493.769 8
E36  26574652.496 5  26574655.871 7 139650690.033 5 105644886.557 7
G01  20751325.176 8                  20751329.163 7 109048887.829 8                  84973227.785 7
G02  23007756.927 6  23007762.533 4                 120906482.963 6  94212924.345 4
G03  19954034.454 7                  19954041.107 7 104859150.709 7                  81708477.129 7
G04  21553279.722 7                  21553286.532 8 113263318.540 7                  88257129.208 8
G09  24292478.350 7                  24292486.090 6 127657837.854 7                  99473699.445 6
G17  22466738.169 7                  22466742.974 7 118063537.594 7                  91997550.983 7
G19  22449152.603 7  22449156.707 5                 117970998.785 7  91925554.824 5
G31  22582072.840 5                  22582075.581 4 118669614.625 5                  92469826.247 4
R03  19633284.875 8  19633289.142 7 105098517.278 8  81743275.934 7
R04  19953327.165 8  19953331.569 7 106849200.322 8  83105001.384 7
R18  20475874.499 8  20475878.192 7 109301585.840 8  85012372.333 7
R19  19536395.341 8  19536396.914 7 104506535.607 8  81282845.728 7
> 2025 06 15 14 05  0.0000000  0 22
C11  24133219.986 6  24133218.306 7 125668041.576 6  97174485.336 7
C12  22298490.036 7  22298485.434 7 116114252.782 7  89786761.996 7
C21  22947557.682 7                 119494007.732 7
C22  21766383.801 8                 113343249.053 8
E03  25531099.830 7  25531103.559 8 134166752.350 7 101496363.167 8
E05  22102663.996 8  22102665.939 9 116150243.303 8  87866942.903 9
E09  26299052.098 5  26299055.914 6 138202573.006 5 104549267.330 6
E15  24844925.447 7  24844928.599 8 130561074.218 7  98768539.051 8
E34  23471561.403 8  23471563.919 8 123343871.295 8  93308855.994 8
E36  26576182.671 4  26576187.636 7 139658739.408 4 105650975.811 7
G01  20751957.185 8                  20751961.020 7 109052207.701 8                  84975814.686 7
G02  23009512.464 6  23009517.940 4                 120915706.071 6  94220111.191 4
G03  19952981.847 7                  19952987.625 7 104853615.401 7                  81704163.903 7
G04  21549653.771 7                  21549660.449 8 113244264.737 7                  88242282.094 8
G09  24287845.074 6                  24287853.563 6 127633493.438 6                  99454729.826 6
G17  22466397.166 7                  22466401.796 7 118061744.051 7                  91996153.402 7
G19  22446947.581 7  22446950.999 5                 117959409.752 7  91916524.390 5
G31  22579655.133 5                  22579658.104 4 118656908.174 5                  92459925.064 4
R03  19633752.626 8  19633756.994 7 105101022.859 8  81745224.717 7
R04  19950377.998 8  19950382.417 7 106833407.417 8  83092718.042 7
R18  20477776.858 8  20477780.733 7 109311739.807 8  85020269.869 7
R19  19534398.008 8  19534399.373 7 104495846.917 8  81274532.317 7
> 2025 06 15 14 05  5.0000000  0 22
C11  24130074.026 6  24130072.325 7 125651657.867 6  97161816.423 7
C12  22298378.645 7  22298373.935 7 116113671.400 7  89786312.437 7
C21  22944686.609 7                 119479059.011 7
C22  21766328.863 8                 113342959.638 8
E03  25527507.020 7  25527510.548 8 134147871.431 7 101482079.883 8
E05  22101410.377 8  22101412.125 9 116143654.381 8  87861958.428 9
E09  26300267.571 5  26300270.171 6 138208954.445 5 104554094.830 6
E15  24841977.280 7  24841979.661 8 130545577.475 7  98756815.871 8
E34  23471151.842 8  23471154.215 9 123341718.134 8  93307227.132 9
E36  26577713.794 4  26577720.545 7 139666795.61114 105657070.26617
G01  20752591.601 8                  20752595.581 7 109055542.729 8                  84978413.396 7
G02  23011269.216 6  23011275.088 4                 120924938.399 6  94227305.175 4
G03  19951930.746 8                  19951936.964 7 104848093.595 8                  81699861.205 7
G04  21546030.895 7                  21546037.188 8 113225223.808 7                  88227444.996 8
G09  24283213.393 6                  24283221.981 6 127609154.445 6                  99435764.401 6
G17  22466059.539 7                  22466063.803 7 118059967.677 7                  91994769.188 7
G19  22444745.679 7  22444749.330 5                 117947840.199 7  91907509.147 5
G31  22577244.185 5                  22577243.693 3 118644220.247 5                  92450038.361 3
R03  19634223.754 8  19634228.121 7 105103544.385 8  81747185.896 7
R04  19947431.430 8  19947436.473 7 106817631.438 8  83080447.836 7
R18  20479682.009 8  20479686.465 7 109321911.505 8  85028181.173 7
R19  19532403.834 8  19532405.609 7 104485181.480 8  81266236.989 7
