     3.04           OBSERVATION DATA    Mixed(MIXED)        RINEX VERSION / TYPE
cnvtToRINEX 3.14.0  convertToRINEX OPR  20250615 162732 UTC PGM / RUN BY / DATE 
----------------------------------------------------------- COMMENT             
37K                                                         MARKER NAME         
37K                                                         MARKER NUMBER       
GEODETIC                                                    MARKER TYPE         
GNSS Observer       Trimble                                 OBSERVER / AGENCY   
6203S17886          Geo Explorer 3      5.53                REC # / TYPE / VERS 
                    UNKNOWN EXT     NONE                    ANT # / TYPE        
  3912819.3862  1190414.5219  4878774.6612                  APPROX POSITION XYZ 
        1.3060        0.0000        0.0000                  ANTENNA: DELTA H/E/N
G    6 C1C C2W C2X L1C L2W L2X                              SYS / # / OBS TYPES 
R    4 C1C C2C L1C L2C                                      SYS / # / OBS TYPES 
C    4 C2I C7I L2I L7I                                      SYS / # / OBS TYPES 
E    4 C1X C8X L1X L8X                                      SYS / # / OBS TYPES 
     5.000                                                  INTERVAL            
  2025     6    15    11    45   50.0000000     GPS         TIME OF FIRST OBS   
  2025     6    15    12    26    0.0000000     GPS         TIME OF LAST OBS    
     0                                                      RCV CLOCK OFFS APPL 
  6 R01  1 R02 -4 R03  5 R17  4 R18 -3 R24  2               GLONASS SLOT / FRQ #
G L2X -0.25000                                              SYS / PHASE SHIFT   
R L2C -0.25000                                              SYS / PHASE SHIFT   
    18                                                      LEAP SECONDS        
    24                                                      # OF SATELLITES     
   C12   445   440   444   440                              PRN / # OF OBS      
   C19   483     0   483     0                              PRN / # OF OBS      
   C20   212     0   211     0                              PRN / # OF OBS      
   C21    96     0    96     0                              PRN / # OF OBS      
   C22   483     0   483     0                              PRN / # OF OBS      
   E04   483   483   483   483                              PRN / # OF OBS      
   E05   483   483   483   483                              PRN / # OF OBS      
   E06   483   483   483   483                              PRN / # OF OBS      
   E09   483   483   483   483                              PRN / # OF OBS      
   E30    41    32    36    32                              PRN / # OF OBS      
   E34   483   483   483   483                              PRN / # OF OBS      
   E36   483   483   483   483                              PRN / # OF OBS      
   G01   483     0   483   483     0   483                  PRN / # OF OBS      
   G02   483   483     0   483   483     0                  PRN / # OF OBS      
   G03   483     0   483   483     0   483                  PRN / # OF OBS      
   G08   483     0   483   483     0   483                  PRN / # OF OBS      
   G10   135     0   102   124     0   101                  PRN / # OF OBS      
   G27   138     0   137   137     0   137                  PRN / # OF OBS      
   G32   483     0   483   483     0   483                  PRN / # OF OBS      
   R01   401     0   401     0                              PRN / # OF OBS      
   R02   483   483   483   483                              PRN / # OF OBS      
   R03   483   483   483   483                              PRN / # OF OBS      
   R17   483   483   483   483                              PRN / # OF OBS      
   R18   483   483   483   483                              PRN / # OF OBS      
DBHZ                                                        SIGNAL STRENGTH UNIT
                                                            END OF HEADER       
>                              2  1
              *** Start of Kinematic Data ***               COMMENT             
> 2025 06 15 11 45 50.0000000  0 21
C19  22271520.663 7                 115973712.31917
C20  25151978.536 6                 130973129.55616
C22  22917180.047 7                 119335747.66317
E04  26410518.747 7  26410520.680 8 138788193.21717 104992392.61518
E05  25039496.692 7  25039503.110 8 131583473.16217  99542051.47218
E06  25119865.191 7  25119867.810 8 132005746.16817  99861530.92718
E09  24905004.555 7  24905005.874 8 130876643.11317  99007370.63318
E34  24461132.094 8  24461134.565 8 128544089.00018  97242796.59018
E36  23700413.013 8  23700415.581 9 124546517.03918  94218640.02219
G01  21248378.712 8                  21248382.969 8 111661083.46318                  87008592.21718
G02  20717161.400 8  20717162.457 6                 108869539.40718  84833321.63716
G03  22709346.862 7                  22709352.887 6 119338586.91217                  92991021.18016
G08  21643011.344 7                  21643018.247 7 113734863.40717                  88624548.81817
G10  23230583.137 6                  23230591.852 6 122077676.07816                  95125419.18916
G27  24186143.222 6                  24186153.936 6 127099151.65416                  99038252.94516
G32  21918482.701 7                  21918489.423 7 115182327.07217                  89752563.47417
R01  21725817.792 7                 116137021.44417
R02  19444607.823 8  19444611.645 7 103760259.07018  80702355.05517
R03  21453649.973 7  21453656.709 6 114843394.60217  89322368.88016
R17  19351246.292 8  19351251.019 7 103552645.95418  80540800.23917
R18  20189662.246 8  20189665.976 7 107773820.57018  83824044.08317
> 2025 06 15 11 45 55.0000000  0 21
C19  22271010.857 7                 115971058.479 7
C20  25153701.516 6                 130982097.946 6
C22  22913608.413 7                 119317148.781 7
E04  26410965.101 7  26410967.153 8 138790539.068 7 104994167.244 8
E05  25035434.404 7  25035440.863 8 131562125.815 7  99525902.354 8
E06  25119057.112 7  25119059.401 8 132001497.755 7  99858317.021 8
E09  24902887.974 7  24902889.317 8 130865520.570 7  98998956.505 8
E34  24458443.160 8  24458445.724 8 128529959.013 8  97232107.340 8
E36  23700030.615 8  23700033.379 9 124544508.919 8  94217120.896 9
G01  21245247.345 8                  21245252.031 8 111644629.127 8                  86995770.652 8
G02  20715803.654 8  20715804.269 6                 108862401.816 8  84827759.890 6
G03  22705126.959 6                  22705134.549 6 119316419.757 6                  92973748.082 6
G08  21644438.789 7                  21644445.994 7 113742366.363 7                  88630395.297 7
G10  23232218.446 6                  23232226.828 7 122086267.018 6                  95132113.406 7
G27  24188701.697 6                  24188711.837 6 127112593.085 6                  99048726.739 6
G32  21917680.352 7                  21917686.879 7 115178111.153 7                  89749278.339 7
R01  21728063.794 6                 116149031.077 6
R02  19443464.807 8  19443468.532 7 103754157.554 8  80697609.414 7
R03  21448922.014 7  21448928.301 6 114818080.993 7  89302680.499 6
R17  19351000.709 8  19351004.918 8 103551328.402 8  80539775.468 8
R18  20186203.193 8  20186206.646 7 107755355.538 8  83809682.405 7
>                              3  5
              *** Start of Occupation ***                   COMMENT             
37K                                                         MARKER NAME         
37K                                                         MARKER NUMBER       
  3912819.3862  1190414.5219  4878774.6612                  APPROX POSITION XYZ 
        1.3060        0.0000        0.0000                  ANTENNA: DELTA H/E/N
> 2025 06 15 11 46  0.0000000  0 21
C19  22270503.948 7                 115968418.224 7
C20  25155424.358 6                 130991072.243 6
C22  22910039.039 7                 119298559.877 7
E04  26411413.420 7  26411415.647 8 138792895.616 7 104995949.970 8
E05  25031372.737 7  25031379.304 8 131540782.599 7  99509756.372 8
E06  25118251.683 7  25118253.417 8 131997262.241 7  99855112.881 8
E09  24900773.271 7  24900775.193 8 130854410.566 7  98990551.860 8
E34  24455754.843 8  24455757.876 9 128515833.860 8  97221421.759 9
E36  23699650.153 8  23699652.565 9 124542507.608 8  94215606.912 9
G01  21242117.872 8                  21242122.334 8 111628183.143 8                  86982955.613 8
G02  20714446.637 8  20714447.809 6                 108855274.500 8  84822206.115 6
G03  22700910.716 6                  22700917.449 6 119294259.799 6                  92956480.594 6
G08  21645868.574 7                  21645875.935 7 113749880.921 7                  88636250.763 7
G10  23233853.444 6                  23233862.766 6 122094862.932 6                  95138811.498 6
G27  24191259.888 6                  24191270.556 6 127126037.617 6                  99059202.952 6
G32  21916881.454 8                  21916888.566 7 115173911.850 8                  89746006.152 7
R01  21730314.476 7                 116161051.987 7
R02  19442325.048 8  19442328.729 7 103748078.541 8  80692881.306 7
R03  21444196.150 8  21444201.135 6 114792779.101 8  89283001.292 6
R17  19350757.798 8  19350761.402 7 103550027.658 8  80538763.795 7
R18  20182744.819 8  20182749.607 7 107736901.632 8  83795329.364 7
> 2025 06 15 11 46  5.0000000  0 21
C19  22269999.578 7                 115965791.632 7
C20  25157147.079 6                 131000052.545 6
C22  22906471.559 7                 119279980.999 7
E04  26411862.836 7  26411866.189 8 138795263.063 7 104997740.928 8
E05  25027313.487 7  25027318.600 8 131519443.663 7  99493613.633 8
E06  25117448.219 7  25117449.900 8 131993039.724 7  99851918.578 8
E09  24898662.810 7  24898663.304 8 130843313.122 7  98982156.724 8
E34  24453068.528 8  24453070.796 8 128501713.689 8  97210739.941 8
E36  23699270.664 8  23699273.034 9 124540513.172 8  94214098.125 9
G01  21238989.850 8                  21238994.653 8 111611745.606 8                  86970147.161 8
G02  20713092.564 8  20713093.583 6                 108848157.487 8  84816660.402 6
G03  22696694.214 6                  22696702.498 7 119272107.145 6                  92939218.835 7
G08  21647301.307 7                  21647308.330 7 113757407.192 7                  88642115.414 7
G10  23235490.963 6                  23235498.706 6 122103463.844 6                  95145513.534 6
G27  24193818.537 6                  24193829.774 6 127139485.419 6                  99069681.724 6
G32  21916085.149 8                  21916092.507 7 115169729.248 8                  89742746.996 7
R01  21732564.765 7                 116173084.249 7
R02  19441191.251 8  19441193.876 7 103742022.005 8  80688170.660 7
R03  21439471.384 8  21439477.216 7 114767489.148 8  89263331.344 7
R17  19350517.573 8  19350521.832 7 103548743.878 8  80537765.295 7
R18  20179290.233 7  20179294.407 7 107718459.064 7  83780985.159 7
> 2025 06 15 11 46 10.0000000  0 21
C19  22269497.713 7                 115963178.085 7
C20  25158870.614 6                 131009038.227 6
C22  22902905.563 7                 119261411.593 7
E04  26412315.733 7  26412318.573 8 138797640.632 7 104999539.524 8
E05  25023252.820 7  25023258.621 8 131498108.366 7  99477473.653 8
E06  25116647.000 7  25116648.659 8 131988829.574 7  99848733.635 8
E09  24896552.267 7  24896553.791 8 130832227.728 7  98973770.688 8
E34  24450382.438 8  24450384.534 8 128487597.862 8  97200061.409 8
E36  23698891.658 8  23698894.708 9 124538524.974 8  94212594.065 9
G01  21235863.538 7                  21235868.216 8 111595315.903 7                  86957344.797 8
G02  20711739.756 8  20711741.602 6                 108841050.198 8  84811122.251 6
G03  22692479.900 6                  22692487.901 6 119249961.227 6                  92921962.268 6
G08  21648735.908 7                  21648743.034 7 113764944.554 7                  88647988.656 7
G10  23237127.896 6                  23237135.815 6 122112069.228 6                  95152219.014 6
G27  24196378.317 6                  24196389.215 6 127152935.758 6                  99080162.495 6
G32  21915292.413 8                  21915299.549 7 115165562.735 8                  89739500.352 7
R01  21734817.822 7                 116185127.291 7
R02  19440058.935 8  19440062.937 7 103735987.500 8  80683477.166 7
R03  21434749.718 8  21434755.244 7 114742210.313 8  89243670.054 7
R17  19350280.508 8  19350284.185 7 103547476.341 8  80536779.417 7
R18  20175837.040 7  20175841.622 7 107700027.188 7  83766649.263 7
> 2025 06 15 11 46 15.0000000  0 21
C19  22268998.187 7                 115960578.346 7
C20  25160598.469 6                 131018030.008 6
C22  22899340.886 7                 119242852.356 7
E04  26412771.476 7  26412773.095 8 138800029.173 7 105001346.428 8
E05  25019193.589 7  25019199.365 8 131476777.497 7  99461337.016 8
E06  25115848.563 8  25115850.069 8 131984632.572 8  99845558.642 8
E09  24894445.736 7  24894446.751 8 130821155.079 7  98965394.300 8
E34  24447697.022 8  24447699.385 8 128473487.143 8  97189386.744 8
E36  23698515.261 8  23698517.725 9 124536543.794 8  94211095.314 9
G01  21232738.164 7                  21232743.512 8 111578894.827 7                  86944549.175 8
G02  20710389.614 8  20710391.072 6                 108833953.392 8  84805592.281 6
G03  22688265.916 6                  22688275.079 7 119227822.709 6                  92904711.498 7
G08  21650171.510 7                  21650179.397 7 113772493.742 7                  88653871.152 7
G10  23238766.900 6                  23238774.768 6 122120679.665 6                  95158928.430 6
G27  24198937.293 6                  24198949.178 6 127166389.426 6                  99090645.850 6
G32  21914503.268 8                  21914510.431 7 115161413.082 8                  89736266.871 7
R01  21737072.418 7                 116197181.737 7
R02  19438933.340 8  19438936.294 7 103729975.652 8  80678801.277 7
R03  21430028.748 7  21430035.506 7 114716943.526 7  89224018.131 7
R17  19350047.528 8  19350050.649 7 103546225.939 8  80535806.845 7
R18  20172387.805 7  20172390.607 7 107681606.765 7  83752322.305 7
> 2025 06 15 11 46 20.0000000  0 21
C19  22268501.494 7                 115957991.731 7
C20  25162325.454 6                 131027027.223 6
C22  22895778.616 7                 119224302.720 7
E04  26413227.146 7  26413229.652 8 138802428.042 7 105003161.147 8
E05  25015134.577 7  25015140.919 8 131455450.447 7  99445203.253 8
E06  25115052.065 8  25115053.827 8 131980448.094 8  99842393.105 8
E09  24892341.585 7  24892342.070 7 130810094.568 7  98957027.068 7
E34  24445013.153 8  24445014.993 9 128459380.889 8  97178715.462 9
E36  23698139.407 8  23698141.942 9 124534568.994 8  94209601.396 9
G01  21229615.148 8                  21229619.858 8 111562481.744 8                  86931759.773 8
G02  20709040.902 8  20709042.361 6                 108826866.436 8  84800069.985 6
G03  22684054.872 6                  22684064.286 7 119205691.061 6                  92887466.094 7
G08  21651611.049 7                  21651617.923 7 113780054.134 7                  88659762.349 7
G10  23240406.709 6                  23240413.696 6 122129294.660 6                  95165641.453 6
G27  24201498.638 6                  24201509.876 5 127179845.815 6                  99101131.291 5
G32  21913716.261 8                  21913723.883 7 115157279.634 8                  89733045.989 7
R01  21739330.530 7                 116209247.131 7
R02  19437811.070 8  19437813.648 7 103723986.045 8  80674142.690 7
R03  21425312.241 8  21425317.953 7 114691688.213 8  89204375.146 7
R17  19349816.430 8  19349820.106 7 103544991.923 8  80534847.088 7
R18  20168938.760 8  20168942.134 7 107663197.196 8  83738003.760 7
> 2025 06 15 11 46 25.0000000  0 21
C19  22268006.784 7                 115955418.699 7
C20  25164054.965 6                 131036030.311 6
C22  22892219.023 7                 119205763.039 7
E04  26413685.973 7  26413688.081 8 138804837.594 7 105004983.957 8
E05  25011076.645 7  25011083.316 8 131434127.600 7  99429072.659 8
E06  25114258.151 8  25114259.891 8 131976276.503 8  99839237.326 8
E09  24890237.896 7  24890239.803 8 130799046.589 7  98948669.346 8
E34  24442329.446 8  24442331.618 8 128445279.516 8  97168047.879 8
E36  23697764.839 8  23697767.427 9 124532600.994 8  94208112.610 9
G01  21226493.766 8                  21226498.193 8 111546077.051 8                  86918976.886 8
G02  20707694.353 8  20707695.734 6                 108819789.738 8  84794555.676 6
G03  22679844.920 6                  22679853.929 7 119183566.667 6                  92870226.342 7
G08  21653051.191 7                  21653059.054 7 113787626.075 7                  88665662.548 7
G10  23242047.152 6                  23242053.823 6 122137914.590 6                  95172358.268 6
G27  24204059.735 5                  24204071.294 6 127193305.374 5                  99111619.262 6
G32  21912932.373 8                  21912940.530 7 115153162.816 8                  89729838.065 7
R01  21741589.152 7                 116221323.725 7
R02  19436691.981 8  19436695.983 7 103718018.788 8  80669501.500 7
R03  21420596.695 8  21420601.272 7 114666444.396 8  89184741.091 7
R17  19349589.252 8  19349593.154 7 103543774.742 8  80533900.390 7
R18  20165491.512 8  20165494.997 7 107644798.847 8  83723693.939 7
> 2025 06 15 11 46 30.0000000  0 21
C19  22267515.414 7                 115952858.788 7
C20  25165785.322 6                 131045038.863 6
C22  22888659.921 7                 119187232.955 7
E04  26414145.872 7  26414148.657 8 138807257.458 7 105006814.560 8
E05  25007020.083 7  25007026.261 8 131412808.538 7  99412944.954 8
E06  25113466.851 8  25113468.410 8 131972117.410 8  99836090.998 8
E09  24888138.690 7  24888139.779 8 130788010.712 7  98940320.782 8
E34  24439646.849 8  24439648.889 8 128431182.620 8  97157383.670 8
E36  23697391.512 8  23697394.160 9 124530639.354 8  94206628.631 9
G01  21223373.275 8                  21223378.006 8 111529680.315 8                  86906200.210 8
G02  20706349.693 8  20706350.601 6                 108812722.846 8  84789049.019 6
G03  22675635.604 6                  22675644.429 7 119161449.068 6                  92852991.865 7
G08  21654494.292 7                  21654501.871 7 113795209.172 7                  88671571.441 7
G10  23243687.432 6                  23243695.387 6 122146538.998 6                  95179078.630 6
G27  24206622.062 5                  24206632.435 5 127206767.453 5                  99122109.104 5
G32  21912152.026 8                  21912159.841 7 115149062.150 8                  89726642.746 7
R01  21743850.376 7                 116233411.136 7
R02  19435578.131 8  19435581.546 7 103712073.653 8  80664877.506 7
R03  21415881.962 8  21415888.494 7 114641212.084 8  89165115.966 7
R17  19349363.831 8  19349368.411 7 103542573.903 8  80532966.428 7
R18  20162047.251 8  20162050.152 7 107626411.354 8  83709392.530 7
> 2025 06 15 11 46 35.0000000  0 21
C19  22267026.645 7                 115950312.862 7
C20  25167516.935 6                 131054053.713 6
C22  22885103.226 7                 119168713.329 7
E04  26414609.079 7  26414611.242 8 138809688.469 7 105008653.584 8
E05  25002964.916 7  25002970.237 8 131391494.182 7  99396820.792 8
E06  25112677.466 8  25112679.454 8 131967971.671 8  99832954.770 8
E09  24886040.777 6  24886042.230 8 130776987.873 6  98931982.062 8
E34  24436965.109 8  24436967.344 8 128417091.093 8  97146723.520 8
E36  23697019.439 8  23697022.237 9 124528684.957 8  94205150.149 9
G01  21220255.225 7                  21220259.599 8 111513292.476 7                  86893430.470 8
G02  20705006.647 8  20705008.108 6                 108805666.690 8  84783550.714 6
G03  22671428.974 6                  22671437.173 7 119139339.218 6                  92835763.438 7
G08  21655939.586 7                  21655947.603 7 113802804.321 7                  88677489.744 7
G10  23245329.790 6                  23245336.903 6 122155168.829 6                  95185803.148 6
G27  24209184.172 5                  24209195.460 6 127220233.075 5                  99132601.798 6
G32  21911375.424 8                  21911383.178 7 115144978.573 8                  89723460.746 7
R01  21746113.115 7                 116245510.154 7
R02  19434468.361 8  19434471.936 7 103706151.417 8  80660271.303 7
R03  21411169.706 7  21411176.596 7 114615991.943 7  89145500.325 7
R17  19349141.806 8  19349147.628 7 103541390.440 8  80532045.958 7
R18  20158605.015 8  20158608.482 7 107608035.590 8  83695100.249 7
> 2025 06 15 11 46 40.0000000  0 21
C19  22266540.108 7                 115947779.705 7
C20  25169248.698 6                 131063073.613 6
C22  22881548.618 7                 119150202.899 7
E04  26415073.835 7  26415075.631 8 138812129.341 7 105010500.085 8
E05  24998908.642 7  24998914.910 8 131370183.285 7  99380699.245 8
E06  25111890.090 7  25111892.829 8 131963838.044 7  99829827.710 8
E09  24883945.931 6  24883946.877 8 130765976.710 6  98923652.196 8
E34  24434284.759 8  24434286.547 8 128403003.660 8  97136066.465 8
E36  23696648.681 8  23696651.462 9 124526736.570 8  94203676.204 9
G01  21217137.615 7                  21217142.692 8 111496912.236 7                  86880666.648 8
G02  20703665.817 8  20703667.238 6                 108798619.967 8  84778059.755 6
G03  22667221.683 6                  22667230.724 6 119117235.793 6                  92818540.013 6
G08  21657387.065 7                  21657394.215 7 113810410.179 7                  88683416.386 7
G10  23246973.486 7                  23246979.854 6 122163802.731 7                  95192530.853 6
G27  24211747.731 6                  24211758.270 6 127233701.017 6                  99143096.304 6
G32  21910600.662 7                  21910608.967 7 115140910.828 7                  89720291.061 7
R01  21748379.367 7                 116257619.563 7
R02  19433362.196 8  19433366.071 7 103700250.833 8  80655681.976 7
R03  21406460.159 7  21406466.904 7 114590782.914 7  89125893.321 7
R17  19348923.621 8  19348929.430 7 103540223.060 8  80531138.003 7
R18  20155164.219 8  20155167.811 7 107589670.307 8  83680816.140 7
> 2025 06 15 11 46 45.0000000  0 22
C12  24024494.529 5                 125101826.98815
C19  22266056.595 7                 115945258.793 7
C20  25170982.157 6                 131072098.034 6
C22  22877995.972 7                 119131701.186 7
E04  26415540.374 7  26415541.893 8 138814579.582 7 105012353.696 8
E05  24994854.218 7  24994860.095 8 131348875.297 7  99364579.920 8
E06  25111105.449 7  25111108.541 8 131959716.003 7  99826709.418 8
E09  24881852.569 6  24881853.676 8 130754976.840 6  98915330.883 8
E34  24431604.682 8  24431606.487 8 128388919.804 8  97125412.122 8
E36  23696278.963 8  23696281.722 9 124524793.649 8  94202206.402 9
G01  21214021.701 7                  21214027.470 8 111480539.105 7                  86867908.384 8
G02  20702326.830 8  20702327.874 6                 108791582.229 8  84772575.793 6
G03  22663015.817 6                  22663025.848 6 119095138.335 6                  92801321.234 6
G08  21658836.033 7                  21658843.510 7 113818026.280 7                  88689351.006 7
G10  23248616.560 6                  23248623.807 6 122172440.223 6                  95199261.383 6
G27  24214310.236 6                  24214321.634 5 127247170.641 6                  99153592.083 5
G32  21909830.249 8                  21909837.707 7 115136858.337 8                  89717133.293 7
R01  21750647.534 7                 116269738.952 7
R02  19432260.273 8  19432264.161 7 103694371.636 8  80651109.255 7
R03  21401752.679 7  21401759.295 7 114565584.494 7  89106294.564 7
R17  19348709.420 8  19348713.841 7 103539071.182 8  80530242.045 7
R18  20151726.020 8  20151729.444 7 107571315.008 8  83666539.779 7
> 2025 06 15 11 46 50.0000000  0 22
C12  24020812.169 5  24020809.980 5 125082645.020 5  96721844.96615
C19  22265574.303 7                 115942750.992 7
C20  25172717.497 6                 131081127.896 6
C22  22874445.005 7                 119113209.064 7
E04  26416008.574 7  26416010.122 8 138817040.071 7 105014215.033 8
E05  24990800.205 7  24990805.994 8 131327571.146 7  99348463.491 8
E06  25110323.338 7  25110326.555 8 131955606.434 7  99823600.555 8
E09  24879761.006 6  24879762.786 8 130743989.095 6  98907018.730 8
E34  24428925.291 8  24428927.191 8 128374840.413 8  97114761.157 8
E36  23695910.445 8  23695913.163 9 124522857.114 8  94200741.417 9
G01  21210908.077 7                  21210913.205 8 111464173.989 7                  86855156.341 8
G02  20700988.883 8  20700990.786 6                 108784554.311 8  84767099.489 6
G03  22658813.384 6                  22658822.227 7 119073047.707 6                  92784107.823 7
G08  21660288.849 7                  21660295.317 7 113825653.492 7                  88695294.285 7
G10  23250260.171 6                  23250268.589 6 122181082.177 6                  95205995.367 6
G27  24216874.555 6                  24216884.841 5 127260642.904 6                  99164090.002 5
G32  21909062.123 7                  21909069.558 7 115132822.054 7                  89713988.140 7
R01  21752916.122 7                 116281868.984 7
R02  19431163.111 8  19431167.104 7 103688514.260 8  80646553.565 7
R03  21397047.881 7  21397053.931 7 114540397.457 7  89086704.667 7
R17  19348497.452 8  19348501.656 7 103537935.728 8  80529358.923 7
R18  20148289.324 8  20148292.791 7 107552970.564 8  83652271.898 7
> 2025 06 15 11 46 55.0000000  0 22
C12  24017126.618 5  24017127.522 4 125063467.627 5  96707015.818 4
C19  22265095.226 7                 115940255.339 7
C20  25174452.552 6                 131090162.212 6
C22  22870894.540 7                 119094725.661 7
E04  26416478.456 7  26416480.144 8 138819509.892 7 105016083.433 8
E05  24986745.857 7  24986752.446 8 131306269.920 7  99332349.235 8
E06  25109543.814 7  25109546.727 8 131951508.445 7  99820500.460 8
E09  24877671.601 6  24877673.991 8 130733012.562 6  98898715.057 8
E34  24426246.979 8  24426248.612 8 128360764.600 8  97104112.891 8
E36  23695543.051 8  23695545.703 9 124520926.037 8  94199280.557 9
G01  21207794.332 7                  21207800.155 8 111447815.908 7                  86842409.817 8
G02  20699653.592 8  20699655.153 6                 108777535.296 8  84761630.137 6
G03  22654610.118 6                  22654619.964 7 119050963.090 6                  92766899.043 7
G08  21661740.821 7                  21661748.590 7 113833290.924 7                  88701245.482 7
G10  23251906.781 6                  23251913.395 6 122189727.659 6                  95212732.079 6
G27  24219438.678 6                  24219448.716 5 127274116.885 6                  99174589.150 5
G32  21908296.508 7                  21908304.466 7 115128801.021 7                  89710854.832 7
R01  21755187.192 7                 116294008.781 7
R02  19430069.292 8  19430072.831 7 103682678.061 8  80642014.292 7
R03  21392344.777 7  21392350.333 6 114515221.085 7  89067123.032 6
R17  19348288.052 8  19348292.438 7 103536815.854 8  80528487.917 7
R18  20144854.522 8  20144858.099 7 107534636.194 8  83638011.832 7
> 2025 06 15 11 47  0.0000000  0 22
C12  24013443.832 5  24013444.405 4 125044296.371 5  96692191.313 4
C19  22264619.470 7                 115937773.354 7
C20  25176188.229 6                 131099202.452 6
C22  22867347.307 7                 119076252.375 7
E04  26416950.095 7  26416952.150 8 138821990.464 7 105017959.970 8
E05  24982693.029 7  24982699.781 8 131284973.068 7  99316238.331 8
E06  25108766.396 7  25108769.271 8 131947423.414 7  99817410.164 8
E09  24875585.153 6  24875587.542 8 130722048.698 6  98890420.961 8
E34  24423568.633 8  24423570.923 8 128346693.777 8  97093468.408 8
E36  23695176.746 8  23695179.570 9 124519001.832 8  94197824.906 9
G01  21204683.354 7                  21204689.368 8 111431466.417 7                  86829669.971 8
G02  20698319.859 8  20698321.628 6                 108770526.645 8  84756168.839 6
G03  22650410.444 6                  22650418.987 6 119028885.812 6                  92749695.976 6
G08  21663196.296 7                  21663203.726 7 113840939.905 7                  88707205.747 7
G10  23253551.719 6                  23253560.664 6 122198378.107 6                  95219472.699 6
G27  24222003.072 6                  24222013.943 5 127287593.938 6                  99185090.706 5
G32  21907534.959 8                  21907542.180 7 115124796.671 8                  89707734.580 7
R01  21757460.283 7                 116306159.716 7
R02  19428979.134 8  19428983.461 7 103676864.563 8  80637492.676 7
R03  21387645.038 7  21387649.487 7 114490056.571 7  89047550.644 7
R17  19348082.535 8  19348086.530 7 103535712.788 8  80527629.979 7
R18  20141421.751 8  20141425.416 7 107516313.202 8  83623760.596 7
> 2025 06 15 11 47  5.0000000  0 22
C12  24009760.908 5  24009763.584 4 125025131.642 5  96677371.902 4
C19  22264145.324 7                 115935305.614 7
C20  25177925.343 6                 131108249.200 6
C22  22863802.019 7                 119057789.870 7
E04  26417424.162 7  26417426.341 8 138824482.486 7 105019845.163 8
E05  24978642.005 7  24978648.054 8 131263681.263 7  99300131.218 8
E06  25107991.479 7  25107994.500 8 131943352.062 7  99814330.202 8
E09  24873502.423 6  24873503.677 8 130711098.170 6  98882136.948 8
E34  24420891.725 8  24420894.390 8 128332628.621 8  97082828.211 8
E36  23694812.178 8  23694814.830 9 124517085.191 8  94196374.980 9
G01  21201574.398 8                  21201580.086 8 111415126.118 8                  86816937.276 8
G02  20696988.407 8  20696989.964 6                 108763529.035 8  84750716.154 6
G03  22646210.018 6                  22646219.139 6 119006816.609 6                  92732499.196 6
G08  21664655.298 7                  21664661.529 7 113848601.140 7                  88713175.526 7
G10  23255199.189 6                  23255208.107 6 122207034.185 6                  95226217.678 6
G27  24224569.217 6                  24224578.776 5 127301074.768 6                  99195595.252 5
G32  21906776.786 7                  21906783.638 7 115120809.696 7                  89704627.840 7
R01  21759736.220 7                 116318322.600 7
R02  19427895.297 8  19427898.608 7 103671074.289 8  80632989.130 7
R03  21382945.122 8  21382951.708 7 114464904.873 8  89027988.261 7
R17  19347879.971 8  19347883.777 7 103534627.448 8  80526785.851 7
R18  20137992.118 8  20137995.393 7 107498002.377 8  83609518.845 7
> 2025 06 15 11 47 10.0000000  0 22
C12  24006081.690 5  24006085.004 3 125005973.600 5  96662557.646 3
C19  22263673.937 7                 115932852.158 7
C20  25179663.315 6                 131117302.528 6
C22  22860258.589 7                 119039338.179 7
E04  26417899.928 7  26417902.711 8 138826985.894 7 105021738.986 8
E05  24974590.920 7  24974597.245 8 131242394.475 7  99284027.941 8
E06  25107219.610 7  25107222.396 8 131939294.384 7  99811260.592 8
E09  24871420.418 6  24871422.339 8 130700160.938 6  98873863.015 8
E34  24418217.037 8  24418219.008 8 128318569.143 8  97072192.312 8
E36  23694449.084 8  23694451.530 9 124515176.093 8  94194930.749 9
G01  21198466.559 8                  21198471.634 8 111398795.053 8                  86804211.787 8
G02  20695658.269 8  20695660.468 6                 108756542.482 8  84745272.089 6
G03  22642012.310 6                  22642020.911 6 118984755.498 6                  92715308.730 6
G08  21666114.585 7                  21666122.388 7 113856274.671 7                  88719154.908 7
G10  23256846.755 6                  23256856.603 6 122215695.895 6                  95232967.033 6
G27  24227134.908 6                  24227145.073 5 127314559.328 6                  99206102.722 5
G32  21906021.154 7                  21906028.100 7 115116840.094 7                  89701534.645 7
R01  21762014.381 7                 116330497.296 7
R02  19426814.172 8  19426817.617 7 103665307.156 8  80628503.589 7
R03  21378249.981 8  21378255.157 7 114439765.558 8  89008435.480 7
R17  19347680.839 8  19347684.330 7 103533559.676 8  80525955.352 7
R18  20134564.279 8  20134567.713 7 107479703.673 8  83595286.533 7
> 2025 06 15 11 47 15.0000000  0 22
C12  24002405.044 5                 124986820.854 5
C19  22263204.689 7                 115930411.667 7
C20  25181402.231 6                 131126361.104 6
C22  22856717.103 7                 119020895.957 7
E04  26418378.213 7  26418381.086 8 138829499.425 7 105023640.437 8
E05  24970541.814 7  24970547.292 8 131221111.436 7  99267927.480 8
E06  25106450.267 7  25106452.558 8 131935248.994 7  99808200.271 8
E09  24869341.097 6  24869343.441 8 130689235.756 6  98865598.158 8
E34  24415542.169 8  24415544.182 8 128304514.012 8  97061559.706 8
E36  23694086.824 8  23694089.423 9 124513273.264 8  94193491.260 9
G01  21195359.891 7                  21195365.724 8 111382471.824 7                  86791492.392 8
G02  20694330.618 8  20694332.731 6                 108749565.586 8  84739835.550 6
G03  22637815.858 7                  22637823.208 6 118962701.105 7                  92698123.486 6
G08  21667577.201 7                  21667584.453 7 113863959.087 7                  88725142.750 7
G10  23258496.232 6                  23258505.682 6 122224361.862 6                  95239719.768 6
G27  24229700.984 6                  24229712.220 5 127328046.323 6                  99216612.071 5
G32  21905268.674 8                  21905275.659 7 115112886.483 8                  89698453.909 7
R01  21764292.032 7                 116342682.415 7
R02  19425737.380 8  19425741.294 7 103659561.981 8  80624035.117 7
R03  21373556.875 8  21373561.139 7 114414637.978 8  88988891.813 7
R17  19347483.758 8  19347487.724 7 103532508.237 8  80525137.558 7
R18  20131137.584 8  20131141.964 7 107461415.787 8  83581062.655 7
> 2025 06 15 11 47 20.0000000  0 22
C12  23998730.938 4  23998751.275 4 124967673.157 4  96633027.41214
C19  22262738.192 7                 115927983.800 7
C20  25183143.167 6                 131135424.581 6
C22  22853176.664 7                 119002462.975 7
E04  26418859.389 7  26418861.237 8 138832022.724 7 105025549.292 8
E05  24966493.257 7  24966498.011 8 131199831.855 7  99251829.624 8
E06  25105682.262 7  25105685.044 8 131931215.649 7  99805149.098 8
E09  24867266.349 6  24867266.663 8 130678322.292 6  98857342.198 8
E34  24412867.947 8  24412870.453 8 128290462.935 8  97050930.192 8
E36  23693726.085 8  23693728.517 9 124511376.339 8  94192056.264 9
G01  21192255.691 7                  21192261.009 8 111366156.227 7                  86778778.974 8
G02  20693005.056 8  20693007.028 6                 108742598.151 8  84734406.378 6
G03  22633620.117 7                  22633628.190 6 118940653.115 7                  92680943.285 6
G08  21669041.585 7                  21669048.856 7 113871654.152 7                  88731138.882 7
G10  23260147.376 6                  23260155.293 6 122233031.867 6                  95246475.578 6
G27  24232269.663 6                  24232278.256 6 127341535.464 6                  99227123.016 6
G32  21904518.504 7                  21904526.504 7 115108948.623 7                  89695385.445 7
R01  21766574.611 7                 116354877.803 7
R02  19424664.236 8  19424668.403 7 103653838.395 8  80619583.454 7
R03  21368864.870 8  21368869.213 6 114389521.515 8  88969356.791 6
R17  19347289.845 8  19347294.068 7 103531472.826 8  80524332.234 7
R18  20127714.163 8  20127717.854 7 107443138.459 8  83566846.979 7
> 2025 06 15 11 47 25.0000000  0 22
C12  23995054.214 4  23995074.461 4 124948530.946 4  96618225.365 4
C19  22262274.625 7                 115925568.989 7
C20  25184885.542 6                 131144493.313 6
C22  22849637.676 7                 118984039.582 7
E04  26419340.668 7  26419343.259 8 138834556.173 7 105027465.802 8
E05  24962443.961 7  24962449.300 8 131178556.107 7  99235734.660 8
E06  25104917.138 7  25104919.893 8 131927194.728 7  99802107.283 8
E09  24865191.316 6  24865192.156 8 130667420.917 6  98849095.358 8
E34  24410195.440 8  24410197.290 8 128276416.312 8  97040304.016 8
E36  23693366.242 8  23693368.766 9 124509485.760 8  94190626.047 9
G01  21189152.424 7                  21189157.453 8 111349848.614 7                  86766071.744 8
G02  20691681.455 8  20691683.059 6                 108735640.567 8  84728984.881 6
G03  22629426.331 6                  22629434.124 7 118918612.034 6                  92663768.391 7
G08  21670507.905 7                  21670515.314 7 113879360.164 7                  88737143.589 7
G10  23261796.967 6                  23261805.396 6 122241706.194 6                  95253234.779 6
G27  24234835.862 6                  24234846.798 5 127355027.091 6                  99237635.933 5
G32  21903772.791 7                  21903780.760 8 115105026.880 7                  89692329.542 8
R01  21768857.709 7                 116367083.690 7
R02  19423595.928 8  19423600.465 7 103648136.782 8  80615148.846 7
R03  21364174.657 8  21364179.160 7 114364416.278 8  88949830.514 7
R17  19347099.038 8  19347103.461 7 103530453.743 8  80523539.602 7
R18  20124292.031 8  20124296.043 7 107424872.009 8  83552639.747 7
> 2025 06 15 11 47 30.0000000  0 22
C12  23991376.772 4  23991400.536 4 124929394.396 4  96603427.808 4
C19  22261813.677 7                 115923167.407 7
C20  25186626.897 6                 131153567.594 6
C22  22846101.343 7                 118965625.985 7
E04  26419825.620 7  26419827.382 8 138837100.014 7 105029390.200 8
E05  24958396.276 7  24958401.377 8 131157284.436 7  99219642.823 8
E06  25104154.362 7  25104157.072 8 131923186.439 7  99799075.042 8
E09  24863120.770 6  24863120.073 8 130656531.868 6  98840857.875 8
E34  24407522.825 8  24407525.103 8 128262374.372 8  97029681.375 8
E36  23693007.854 8  23693010.235 9 124507601.721 8  94189200.777 9
G01  21186050.435 7                  21186055.500 8 111333549.236 7                  86753370.916 8
G02  20690359.058 8  20690361.044 6                 108728693.011 8  84723571.192 6
G03  22625232.791 6                  22625241.386 6 118896578.036 6                  92646599.029 6
G08  21671976.418 7                  21671983.829 7 113887077.378 7                  88743156.977 7
G10  23263448.786 6                  23263456.978 6 122250385.207 6                  95259997.571 6
G27  24237403.308 6                  24237414.655 5 127368521.408 6                  99248150.944 5
G32  21903029.763 7                  21903037.165 7 115101121.459 7                  89689286.372 7
R01  21771143.162 7                 116379300.328 7
R02  19422532.347 8  19422536.078 7 103642457.477 8  80610731.604 7
R03  21359487.460 8  21359492.404 7 114339322.918 8  88930313.438 7
R17  19346912.182 8  19346916.261 7 103529451.244 8  80522759.880 7
R18  20120871.964 8  20120876.519 7 107406616.756 8  83538441.230 7
> 2025 06 15 11 47 35.0000000  0 22
C12  23987701.169 4  23987724.581 5 124910263.193 4  96588634.248 5
C19  22261355.585 7                 115920778.666 7
C20  25188370.257 6                 131162646.945 6
C22  22842567.594 7                 118947221.814 7
E04  26420310.466 7  26420313.465 8 138839653.810 7 105031322.140 8
E05  24954347.608 7  24954354.177 8 131136016.425 7  99203553.741 8
E06  25103394.128 7  25103396.706 8 131919190.396 7  99796052.038 8
E09  24861050.262 6  24861050.213 8 130645654.770 6  98832629.415 8
E34  24404851.979 8  24404853.868 8 128248336.724 8  97019061.990 8
E36  23692650.540 8  23692652.912 9 124505723.818 8  94187780.150 9
G01  21182950.251 8                  21182955.038 8 111317257.702 8                  86740676.228 8
G02  20689038.885 8  20689040.834 6                 108721755.126 8  84718165.059 6
G03  22621041.220 6                  22621049.711 6 118874550.649 6                  92629434.884 6
G08  21673447.303 7                  21673454.712 7 113894805.408 7                  88749178.813 7
G10  23265101.010 6                  23265109.698 6 122259068.232 6                  95266763.582 6
G27  24239970.672 6                  24239982.800 6 127382018.007 6                  99258667.837 6
G32  21902289.820 8                  21902297.222 7 115097232.008 8                  89686255.598 7
R01  21773431.130 7                 116391527.361 7
R02  19421470.700 8  19421475.047 7 103636799.787 8  80606331.202 7
R03  21354801.031 8  21354806.102 7 114314240.741 8  88910805.116 7
R17  19346727.328 8  19346731.872 7 103528464.984 8  80521992.804 7
R18  20117453.790 8  20117458.575 7 107388372.309 8  83524251.119 7
> 2025 06 15 11 47 40.0000000  0 22
C12  23984027.292 4  23984047.175 3 124891137.152 4  96573844.854 3
C19  22260898.179 7                 115918402.692 7
C20  25190114.077 6                 131171731.342 6
C22  22839034.068 7                 118928827.025 7
E04  26420798.880 7  26420801.318 8 138842217.528 7 105033261.550 8
E05  24950301.730 7  24950307.684 8 131114752.030 7  99187467.373 8
E06  25102636.374 8  25102638.663 8 131915206.485 8  99793038.263 8
E09  24858982.741 6  24858982.626 8 130634789.542 6  98824409.960 8
E34  24402181.171 8  24402183.384 8 128234303.300 8  97008445.779 8
E36  23692294.312 8  23692296.738 9 124503852.031 8  94186364.152 9
G01  21179851.667 8                  21179856.223 8 111300973.956 8                  86727987.545 8
G02  20687720.476 8  20687722.777 6                 108714826.882 8  84712766.428 6
G03  22616850.357 6                  22616859.182 7 118852529.936 6                  92612275.882 7
G08  21674920.091 7                  21674926.997 7 113902544.141 7                  88755208.950 7
G10  23266754.664 6                  23266763.290 6 122267755.412 6                  95273532.815 6
G27  24242540.729 6                  24242552.327 6 127395516.810 6                  99269186.354 6
G32  21901552.312 7                  21901560.244 8 115093358.386 7                  89683237.188 8
R01  21775720.359 7                 116403764.605 7
R02  19420415.367 8  19420419.058 7 103631163.864 8  80601947.711 7
R03  21350116.736 8  21350123.338 7 114289170.196 8  88891305.834 7
R17  19346545.950 8  19346550.309 7 103527494.938 8  80521238.301 7
R18  20114039.024 8  20114042.859 7 107370138.513 8  83510069.292 7
> 2025 06 15 11 47 45.0000000  0 22
C12  23980357.796 4                 124872016.676 4
C19  22260444.874 7                 115916039.776 7
C20  25191859.874 6                 131180821.023 6
C22  22835504.332 7                 118910441.923 7
E04  26421289.121 7  26421291.066 8 138844791.419 7 105035208.682 8
E05  24946256.110 7  24946261.947 8 131093491.622 7  99171384.040 8
E06  25101880.979 8  25101882.835 8 131911235.048 8  99790033.887 8
E09  24856918.032 7  24856917.314 8 130623936.510 7  98816199.672 8
E34  24399511.769 8  24399513.759 8 128220274.351 8  96997832.981 8
E36  23691939.038 8  23691941.813 9 124501986.616 8  94184952.968 9
G01  21176755.044 8                  21176759.811 8 111284698.300 8                  86715305.216 8
G02  20686403.748 8  20686405.699 6                 108707908.494 8  84707375.485 6
G03  22612662.434 7                  22612670.256 6 118830516.176 7                  92595122.320 6
G08  21676394.645 7                  21676402.020 7 113910293.882 7                  88761247.708 7
G10  23268408.765 6                  23268416.605 6 122276446.991 6                  95280305.454 6
G27  24245109.647 5                  24245121.531 5 127409018.165 5                  99279706.848 5
G32  21900818.097 7                  21900825.840 7 115089500.925 7                  89680231.397 7
R01  21778010.990 7                 116416012.391 7
R02  19419363.549 8  19419367.376 7 103625550.124 8  80597581.478 7
R03  21345435.815 8  21345442.196 7 114264111.058 8  88871815.417 7
R17  19346367.985 8  19346372.517 7 103526541.188 8  80520496.503 7
R18  20110624.632 8  20110629.096 7 107351915.800 8  83495896.086 7
> 2025 06 15 11 47 50.0000000  0 22
C12  23976688.474 5  23976683.747 5 124852902.554 5  96544164.39215
C19  22259993.638 7                 115913690.800 7
C20  25193606.464 6                 131189916.830 6
C22  22831975.717 7                 118892067.333 7
E04  26421780.750 7  26421783.020 8 138847376.386 7 105037164.178 8
E05  24942210.901 7  24942217.102 8 131072235.959 7  99155304.288 8
E06  25101127.452 7  25101129.497 8 131907276.919 7  99787039.595 8
E09  24854854.272 7  24854854.612 8 130613096.467 7  98807999.267 8
E34  24396843.670 8  24396845.275 8 128206250.810 8  96987224.254 8
E36  23691585.657 8  23691588.267 9 124500128.436 8  94183547.261 9
G01  21173658.928 8                  21173664.418 8 111268431.510 8                  86702629.809 8
G02  20685089.139 8  20685091.386 6                 108701000.836 8  84701992.888 6
G03  22608474.061 6                  22608482.819 6 118808510.191 6                  92577974.795 6
G08  21677871.725 7                  21677879.319 7 113918055.455 7                  88767295.688 7
G10  23270064.378 6                  23270072.150 6 122285143.846 6                  95287082.202 6
G27  24247679.316 5                  24247691.539 6 127422522.854 5                  99290229.931 6
G32  21900086.503 7                  21900094.698 7 115085660.475 7                  89677238.838 7
R01  21780305.366 7                 116428271.547 7
R02  19418316.509 8  19418319.716 7 103619959.205 8  80593232.976 7
R03  21340757.442 8  21340762.760 7 114239064.354 8  88852334.677 7
R17  19346192.849 8  19346197.416 7 103525604.958 8  80519768.340 7
R18  20107213.349 8  20107217.644 7 107333705.013 8  83481732.119 7
> 2025 06 15 11 47 55.0000000  0 22
C12  23973018.830 5  23973014.729 4 124833794.325 5  96529388.672 4
C19  22259545.299 7                 115911355.208 7
C20  25195354.041 6                 131199018.306 6
C22  22828449.246 7                 118873702.773 7
E04  26422275.190 7  26422276.969 8 138849971.814 7 105039127.604 8
E05  24938166.381 7  24938173.029 8 131050984.614 7  99139227.792 8
E06  25100376.685 7  25100378.761 8 131903331.616 7  99784054.993 8
E09  24852794.349 6  24852794.281 8 130602268.952 6  98799808.313 8
E34  24394176.426 8  24394177.678 8 128192232.131 8  96976619.212 8
E36  23691233.165 8  23691235.954 9 124498276.982 8  94182146.646 9
G01  21170565.472 7                  21170570.066 8 111252173.154 7                  86689960.974 8
G02  20683776.854 8  20683778.857 6                 108694103.378 8  84696618.240 6
G03  22604287.595 6                  22604295.965 7 118786511.395 6                  92560832.889 7
G08  21679351.705 7                  21679357.854 7 113925828.369 7                  88773352.505 7
G10  23271719.839 6                  23271727.877 6 122293845.408 6                  95293862.671 6
G27  24250249.522 5                  24250261.374 6 127436030.321 5                  99300755.213 6
G32  21899359.008 7                  21899367.699 7 115081836.563 7                  89674259.146 7
R01  21782599.410 7                 116440541.541 7
R02  19417272.117 8  19417275.941 7 103614390.549 8  80588901.797 7
R03  21336080.088 8  21336085.899 7 114214029.913 8  88832863.452 7
R17  19346021.637 8  19346026.211 7 103524685.385 8  80519053.110 7
R18  20103804.907 8  20103807.758 7 107315505.640 8  83467577.024 7
> 2025 06 15 11 48  0.0000000  0 22
C12  23969348.949 5  23969344.364 3 124814691.164 5  96514616.931 3
C19  22259099.713 7                 115909032.115 7
C20  25197102.793 6                 131208124.519 6
C22  22824923.667 7                 118855347.373 7
E04  26422770.381 7  26422772.685 8 138852576.894 7 105041098.337 8
E05  24934123.105 7  24934129.639 8 131029736.684 7  99123153.884 8
E06  25099628.070 7  25099630.255 8 131899398.233 7  99781079.414 8
E09  24850735.855 6  24850736.139 8 130591453.055 6  98791626.192 8
E34  24391508.900 8  24391510.842 8 128178217.427 8  96966017.190 8
E36  23690882.178 8  23690884.762 9 124496431.381 8  94180750.454 9
G01  21167473.071 7                  21167477.338 8 111235922.392 7                  86677298.047 8
G02  20682465.589 7  20682467.508 6                 108687215.218 7  84691250.850 6
G03  22600102.067 6                  22600111.317 7 118764519.048 6                  92543696.045 7
G08  21680830.971 7                  21680839.898 7 113933611.692 7                  88779417.421 7
G10  23273375.983 6                  23273384.449 6 122302550.800 6                  95300646.026 6
G27  24252821.556 6                  24252832.725 6 127449539.760 6                  99311282.003 6
G32  21898635.141 7                  21898642.683 8 115078028.266 7                  89671291.638 8
R01  21784895.546 6                 116452821.427 6
R02  19416232.808 8  19416236.202 7 103608843.469 8  80584587.402 7
R03  21331405.561 8  21331411.354 7 114189006.553 8  88813400.894 7
R17  19345853.359 8  19345856.750 7 103523781.757 8  80518350.279 7
R18  20100397.163 8  20100400.397 8 107297316.749 8  83453430.111 8
> 2025 06 15 11 48  5.0000000  0 22
C12  23965678.925 4  23965677.080 4 124795593.36714  96499849.32114
C19  22258655.829 7                 115906721.874 7
C20  25198851.309 6                 131217235.845 6
C22  22821400.846 7                 118837001.490 7
E04  26423267.679 7  26423270.334 8 138855191.978 7 105043076.626 8
E05  24930081.554 7  24930086.924 8 131008492.526 7  99107082.845 8
E06  25098881.374 7  25098884.006 8 131895477.109 7  99778113.116 8
E09  24848679.179 6  24848680.292 8 130580649.171 6  98783453.128 8
E34  24388842.599 8  24388844.828 8 128164207.070 8  96955418.437 8
E36  23690532.189 8  23690534.704 9 124494591.975 8  94179358.959 9
G01  21164382.034 8                  21164386.218 8 111219679.540 8                  86664641.290 8
G02  20681157.300 7  20681158.272 6                 108680336.788 7  84685891.028 6
G03  22595918.710 7                  22595927.172 7 118742533.551 7                  92526564.495 7
G08  21682314.058 7                  21682322.526 7 113941405.818 7                  88785490.742 7
G10  23275033.176 6                  23275041.101 6 122311260.395 6                  95307432.714 6
G27  24255393.387 6                  24255403.801 6 127463051.535 6                  99321810.579 6
G32  21897913.055 7                  21897920.629 7 115074235.892 7                  89668336.548 7
R01  21787195.230 7                 116465111.510 7
R02  19415197.622 8  19415201.167 7 103603318.186 8  80580289.938 7
R03  21326732.519 8  21326739.077 7 114163994.576 8  88793947.161 7
R17  19345686.564 8  19345690.956 7 103522894.346 8  80517660.074 7
R18  20096991.292 8  20096994.775 7 107279138.768 8  83439291.714 7
> 2025 06 15 11 48 10.0000000  0 22
C12  23962012.434 5  23962011.785 4 124776501.92315  96485086.48114
C19  22258215.709 7                 115904425.420 7
C20  25200602.549 5                 131226353.102 5
C22  22817879.546 7                 118818666.053 7
E04  26423767.979 7  26423770.116 8 138857817.908 7 105045063.119 8
E05  24926039.309 7  24926045.192 8 130987253.094 7  99091015.376 8
E06  25098137.922 7  25098140.320 8 131891569.173 7  99775156.792 8
E09  24846627.408 6  24846626.800 8 130569858.258 6  98775289.891 8
E34  24386177.330 8  24386179.817 8 128150201.974 8  96944823.672 8
E36  23690183.893 8  23690186.042 9 124492759.691 8  94177972.857 9
G01  21161292.801 8                  21161296.765 7 111203445.511 8                  86651991.394 7
G02  20679850.472 8  20679851.249 6                 108673468.990 8  84680539.500 6
G03  22591736.951 6                  22591745.020 7 118720555.634 6                  92509438.867 7
G08  21683800.547 7                  21683807.783 7 113949211.626 7                  88791573.196 7
G10  23276691.386 6                  23276699.528 6 122319975.044 6                  95314223.341 6
G27  24257964.936 5                  24257975.085 5 127476566.433 5                  99332341.635 5
G32  21897195.513 8                  21897201.978 7 115070460.423 8                  89665394.625 7
R01  21789495.736 7                 116477412.832 7
R02  19414166.060 8  19414170.163 7 103597815.617 8  80576010.175 7
R03  21322063.485 8  21322068.759 7 114138995.057 8  88774503.110 7
R17  19345524.191 8  19345527.826 7 103522024.117 8  80516983.201 7
R18  20093588.285 8  20093592.314 7 107260972.618 8  83425162.481 7
> 2025 06 15 11 48 15.0000000  0 22
C12  23958349.282 4  23958346.520 4 124757414.31714  96470326.69014
C19  22257775.753 7                 115902140.351 7
C20  25202354.999 6                 131235473.968 6
C22  22814361.083 7                 118800338.633 7
E04  26424268.928 7  26424271.343 8 138860452.340 7 105047056.039 8
E05  24921997.890 7  24922003.974 8 130966015.911 7  99074949.606 8
E06  25097396.850 7  25097398.663 8 131887671.980 7  99772208.594 8
E09  24844577.544 6  24844575.450 8 130559077.857 6  98767134.521 8
E34  24383512.875 8  24383515.410 8 128136199.716 8  96934231.062 8
E36  23689835.244 8  23689838.252 9 124490932.088 8  94176590.282 9
G01  21158204.678 7                  21158209.265 8 111187217.934 7                  86639346.520 8
G02  20678544.784 8  20678545.793 6                 108666609.403 8  84675194.356 6
G03  22587556.037 6                  22587564.074 7 118698583.019 6                  92492317.344 7
G08  21685287.671 7                  21685295.102 7 113957026.680 7                  88797662.817 7
G10  23278349.995 6                  23278357.970 6 122328692.323 6                  95321016.017 6
G27  24260536.462 6                  24260546.718 5 127490082.107 6                  99342873.257 5
G32  21896479.806 8                  21896486.096 7 115066699.399 8                  89662463.974 7
R01  21791799.071 6                 116489722.931 6
R02  19413138.245 8  19413142.424 7 103592333.377 8  80571746.199 7
R03  21317396.230 8  21317399.909 7 114114005.478 8  88755066.769 7
R17  19345364.561 8  19345368.428 7 103521168.566 8  80516317.764 7
R18  20090186.719 8  20090190.427 7 107242815.870 8  83411040.594 7
> 2025 06 15 11 48 20.0000000  0 22
C12  23954686.697 5  23954680.483 4 124738331.820 5  96455570.896 4
C19  22257339.949 7                 115899867.712 7
C20  25204109.217 6                 131244599.489 6
C22  22810843.035 7                 118782020.377 7
E04  26424771.844 7  26424774.330 8 138863096.332 7 105049056.202 8
E05  24917957.554 7  24917963.217 8 130944782.160 7  99058886.444 8
E06  25096656.851 7  25096659.407 8 131883786.669 7  99769269.386 8
E09  24842527.663 6  24842526.212 8 130548309.068 6  98758988.010 8
E34  24380848.604 7  24380851.488 8 128122201.425 7  96923641.464 8
E36  23689489.454 8  23689491.635 9 124489110.310 8  94175212.126 9
G01  21155118.827 8                  21155122.435 8 111170997.896 8                  86626707.487 8
G02  20677241.061 8  20677242.067 6                 108659759.114 8  84669856.455 6
G03  22583375.845 6                  22583384.309 7 118676616.783 6                  92475200.850 7
G08  21686777.693 7                  21686784.127 7 113964852.114 7                  88803760.539 7
G10  23280009.082 6                  23280017.282 6 122337413.433 6                  95327811.708 6
G27  24263108.562 5                  24263119.233 6 127503599.612 5                  99353406.318 6
G32  21895767.221 8                  21895774.413 7 115062954.000 8                  89659545.496 7
R01  21794103.845 7                 116502042.808 7
R02  19412115.054 8  19412118.944 7 103586872.433 8  80567498.802 7
R03  21312729.528 8  21312733.840 6 114089027.104 8  88735639.146 6
R17  19345207.027 8  19345211.604 7 103520328.959 8  80515664.761 7
R18  20086787.151 8  20086790.896 7 107224669.709 8  83396926.902 7
> 2025 06 15 11 48 25.0000000  0 22
C12  23951022.414 4  23951015.867 4 124719254.965 4  96440819.538 4
C19  22256905.473 7                 115897608.287 7
C20  25205860.916 6                 131253730.486 6
C22  22807326.951 7                 118763712.018 7
E04  26425277.105 7  26425279.329 8 138865750.635 7 105051064.150 8
E05  24913917.393 7  24913923.340 8 130923552.610 7  99042826.441 8
E06  25095920.361 7  25095922.385 8 131879913.967 7  99766339.735 8
E09  24840480.047 6  24840479.245 8 130537552.631 6  98750850.839 8
E34  24378186.442 8  24378188.770 8 128108207.851 8  96913055.413 8
E36  23689143.776 8  23689146.238 9 124487295.115 8  94173838.941 9
G01  21152032.997 8                  21152037.518 8 111154786.145 8                  86614074.951 8
G02  20675939.746 7  20675940.899 6                 108652918.892 7  84664526.407 6
G03  22579196.694 6                  22579205.482 7 118654657.699 6                  92458089.892 7
G08  21688269.522 7                  21688275.578 7 113972688.610 7                  88809866.889 7
G10  23281671.255 6                  23281677.980 5 122346139.012 6                  95334610.837 5
G27  24265680.387 5                  24265691.616 5 127517119.692 5                  99363941.362 5
G32  21895057.106 8                  21895064.399 7 115059224.739 8                  89656639.580 7
R01  21796410.596 7                 116514373.214 7
R02  19411095.932 8  19411099.565 7 103581433.744 8  80563268.711 7
R03  21308065.252 8  21308070.220 6 114064060.791 8  88716220.932 6
R17  19345054.037 8  19345058.184 7 103519506.013 8  80515024.692 7
R18  20083389.836 8  20083393.381 7 107206534.859 8  83382822.034 7
> 2025 06 15 11 48 30.0000000  0 22
C12  23947359.150 5  23947353.864 4 124700183.41515  96426072.34614
C19  22256474.025 7                 115895361.502 7
C20  25207616.671 5                 131262866.287 5
C22  22803812.518 7                 118745412.989 7
E04  26425784.483 7  26425786.288 8 138868414.706 7 105053079.483 8
E05  24909879.214 7  24909884.388 8 130902326.663 7  99026769.150 8
E06  25095185.264 7  25095187.750 8 131876053.389 7  99763419.206 8
E09  24838435.780 6  24838434.645 8 130526808.005 6  98742722.641 8
E34  24375524.069 8  24375526.798 8 128094218.423 8  96902472.510 8
E36  23688799.137 8  23688801.901 9 124485485.913 8  94172470.280 9
G01  21148949.420 7                  21148953.947 8 111138582.127 7                  86601448.466 8
G02  20674640.349 8  20674641.270 6                 108646088.175 8  84659203.779 6
G03  22575019.212 6                  22575027.836 6 118632705.253 6                  92440984.121 6
G08  21689762.599 7                  21689768.874 7 113980535.644 7                  88815981.462 7
G10  23283331.298 6                  23283338.676 6 122354868.553 6                  95341413.032 6
G27  24268254.395 5                  24268264.509 6 127530641.847 5                  99374478.048 6
G32  21894350.477 8                  21894358.013 7 115055511.379 8                  89653746.057 7
R01  21798720.642 7                 116526713.632 7
R02  19410080.558 8  19410084.265 7 103576016.640 8  80559055.393 7
R03  21303403.649 8  21303409.174 6 114039105.655 8  88696811.392 6
R17  19344903.298 8  19344907.129 7 103518699.130 8  80514397.098 7
R18  20079994.594 8  20079998.206 7 107188410.745 8  83368725.517 7
> 2025 06 15 11 48 35.0000000  0 22
C12  23943698.229 4  23943692.808 4 124681117.029 4  96411328.965 4
C19  22256044.644 7                 115893127.275 7
C20  25209371.768 5                 131272006.877 5
C22  22800299.746 7                 118727123.259 7
E04  26426293.159 7  26426295.066 8 138871088.433 7 105055102.141 8
E05  24905840.325 7  24905845.841 8 130881104.292 7  99010714.592 8
E06  25094452.660 7  25094455.363 8 131872204.759 7  99760507.739 8
E09  24836390.859 6  24836392.273 8 130516075.091 6  98734603.272 8
E34  24372862.499 8  24372865.516 8 128080233.093 8  96891892.725 8
E36  23688456.352 8  23688458.733 9 124483682.636 8  94171106.113 9
G01  21145867.294 7                  21145872.219 8 111122385.813 7                  86588827.992 8
G02  20673342.243 8  20673343.829 6                 108639266.906 8  84653888.513 6
G03  22570844.422 7                  22570851.854 7 118610759.355 7                  92423883.405 7
G08  21691257.093 7                  21691263.865 7 113988393.121 7                  88822104.158 7
G10  23284993.400 6                  23285000.646 6 122363601.973 6                  95348218.295 6
G27  24270826.470 5                  24270837.839 6 127544166.030 5                  99385016.335 6
G32  21893646.765 8                  21893654.455 8 115051813.680 8                  89650864.750 8
R01  21801031.526 7                 116539063.959 7
R02  19409070.260 8  19409073.525 7 103570621.118 8  80554858.890 7
R03  21298743.514 8  21298749.047 7 114014161.762 8  88677410.619 7
R17  19344756.614 8  19344758.917 7 103517908.296 8  80513781.989 7
R18  20076600.734 8  20076605.430 7 107170297.382 8  83354637.373 7
> 2025 06 15 11 48 40.0000000  0 22
C12  23940034.470 4  23940030.321 4 124662056.73414  96396590.32714
C19  22255617.572 7                 115890906.487 7
C20  25211127.982 5                 131281153.087 5
C22  22796789.341 7                 118708843.701 7
E04  26426803.637 7  26426805.847 8 138873772.695 7 105057132.762 8
E05  24901803.585 7  24901808.188 8 130859886.361 7  98994663.367 8
E06  25093723.145 7  25093725.440 8 131868368.997 7  99757606.003 8
E09  24834352.173 6  24834352.413 8 130505354.869 6  98726493.515 8
E34  24370202.067 8  24370205.182 8 128066252.714 8  96881316.677 8
E36  23688114.485 8  23688116.918 8 124481886.193 8  94169747.104 8
G01  21142786.848 7                  21142792.087 8 111106198.044 7                  86576214.150 8
G02  20672045.674 8  20672047.809 6                 108632455.979 8  84648581.301 6
G03  22566669.042 7                  22566676.925 6 118588820.831 7                  92406788.440 6
G08  21692753.486 7                  21692761.847 7 113996261.895 7                  88828235.682 7
G10  23286656.559 6                  23286663.722 6 122372340.125 6                  95355027.195 6
G27  24273401.175 5                  24273411.813 6 127557692.789 5                  99395556.680 6
G32  21892946.594 8                  21892954.078 8 115048132.571 8                  89647996.342 8
R01  21803343.030 7                 116551425.031 7
R02  19408063.508 8  19408066.944 7 103565247.935 8  80550679.745 7
R03  21294085.028 8  21294090.893 7 113989230.126 8  88658019.362 7
R17  19344610.709 8  19344614.241 7 103517134.263 8  80513179.972 7
R18  20073210.734 8  20073214.092 7 107152195.619 8  83340558.215 7
> 2025 06 15 11 48 45.0000000  0 22
C12  23936375.308 4                                
C19  22255193.865 7                 115888698.427 7
C20  25212884.920 5                 131290304.202 5
C22  22793280.972 7                 118690573.601 7
E04  26427316.926 7  26427318.473 8 138876466.807 7 105059170.843 8
E05  24897766.240 7  24897771.075 8 130838672.187 7  98978615.003 8
E06  25092995.582 7  25092997.884 8 131864545.423 7  99754713.490 8
E09  24832314.284 6  24832314.684 8 130494646.551 6  98718392.726 8
E34  24367541.950 8  24367545.556 8 128052276.663 8  96870743.880 8
E36  23687773.619 8  23687776.205 9 124480095.876 8  94168392.728 9
G01  21139707.848 8                  21139713.740 8 111090018.157 8                  86563606.470 8
G02  20670751.662 8  20670753.737 6                 108625654.708 8  84643281.620 6
G03  22562495.535 7                  22562503.565 6 118566889.068 7                  92389698.811 6
G08  21694253.848 7                  21694261.391 7 114004141.299 7                  88834375.454 7
G10  23288318.657 6                  23288327.049 6 122381082.308 6                  95361839.362 6
G27  24275972.368 4                  24275986.633 6 127571221.745 4                  99406098.727 6
G32  21892249.352 8                  21892256.022 7 115044467.311 8                  89645140.287 7
R01  21805656.048 7                 116563796.164 7
R02  19407059.941 8  19407063.613 7 103559896.418 8  80546517.464 7
R03  21289430.727 8  21289436.525 6 113964309.852 8  88638636.941 6
R17  19344468.559 8  19344472.891 7 103516376.433 8  80512590.561 7
R18  20069821.112 8  20069825.695 7 107134104.758 8  83326487.537 7
> 2025 06 15 11 48 50.0000000  0 22
C12  23932717.236 4  23932716.130 5 124623951.90114  96367125.20715
C19  22254772.245 7                 115886502.857 7
C20  25214643.824 5                 131299460.063 5
C22  22789774.481 7                 118672312.756 7
E04  26427831.010 7  26427832.973 8 138879170.553 7 105061216.187 8
E05  24893730.707 7  24893734.743 8 130817461.538 7  98962569.311 8
E06  25092270.479 7  25092272.540 8 131860733.748 7  99751829.985 8
E09  24830279.355 6  24830279.213 8 130483950.057 6  98710300.885 8
E34  24364883.718 8  24364886.808 9 128038304.644 8  96860174.135 9
E36  23687434.185 8  23687436.615 9 124478311.440 8  94167042.813 9
G01  21136630.849 8                  21136636.186 8 111073845.915 8                  86551004.749 8
G02  20669459.319 8  20669461.024 6                 108618862.824 8  84637989.234 6
G03  22558323.453 7                  22558330.959 6 118544963.765 7                  92372614.160 6
G08  21695755.374 7                  21695762.483 7 114012031.053 7                  88840523.295 7
G10  23289982.356 5                  23289991.552 5 122389828.265 5                  95368654.421 5
G27  24278550.640 5                  24278560.993 6 127584752.588 5                  99416642.188 6
G32  21891555.390 8                  21891561.649 7 115040817.681 8                  89642296.403 7
R01  21807973.302 7                 116576177.031 7
R02  19406060.834 8  19406064.507 7 103554566.411 8  80542371.902 7
R03  21284777.183 8  21284783.062 7 113939401.028 8  88619263.424 7
R17  19344329.980 8  19344334.027 7 103515634.488 8  80512013.479 7
R18  20066434.553 8  20066438.901 7 107116024.572 8  83312425.203 7
> 2025 06 15 11 48 55.0000000  0 22
C12  23929062.871 4  23929060.729 5 124604906.754 4  96352398.274 5
C19  22254352.571 7                 115884319.339 7
C20  25216405.098 5                 131308620.167 5
C22  22786269.680 7                 118654060.711 7
E04  26428347.775 7  26428349.189 8 138881883.418 7 105063268.444 8
E05  24889694.395 7  24889699.021 8 130796253.983 7  98946525.947 8
E06  25091547.667 7  25091549.357 8 131856933.580 7  99748955.168 8
E09  24828245.333 6  24828245.996 8 130473264.770 6  98702217.534 8
E34  24362226.062 8  24362228.723 9 128024336.227 8  96849607.124 9
E36  23687095.674 8  23687098.047 8 124476532.429 8  94165696.996 8
G01  21133553.927 7                  21133559.417 8 111057680.894 7                  86538408.646 8
G02  20668168.823 8  20668170.100 6                 108612079.911 8  84632703.853 6
G03  22554151.916 7                  22554160.193 6 118523044.530 7                  92355534.256 6
G08  21697258.146 7                  21697265.942 7 114019930.716 7                  88846678.878 7
G10  23291651.222 6                  23291655.785 5 122398577.566 6                  95375472.057 5
G27  24281124.842 5                  24281136.893 6 127598284.874 5                  99427186.775 6
G32  21890863.307 8                  21890870.206 7 115037183.222 8                  89639464.355 7
R01  21810290.886 7                 116588567.267 7
R02  19405065.878 8  19405069.802 7 103549257.346 8  80538242.632 7
R03  21280127.032 8  21280132.084 7 113914502.846 8  88599898.177 7
R17  19344194.151 8  19344198.510 7 103514908.102 8  80511448.511 7
R18  20063049.827 8  20063052.994 7 107097954.587 8  83298370.797 7
> 2025 06 15 11 49  0.0000000  0 21
C19  22253935.599 7                 115882149.317 7
C20  25218166.201 5                 131317785.854 5
C22  22782767.696 7                 118635818.942 7
E04  26428865.946 7  26428867.521 8 138884606.878 7 105065328.713 8
E05  24885659.141 7  24885664.184 8 130775051.005 7  98930486.044 8
E06  25090826.052 7  25090828.729 8 131853146.313 7  99746090.136 8
E09  24826214.405 5  24826215.058 8 130462592.087 5  98694143.745 8
E34  24359568.943 8  24359571.559 8 128010372.846 8  96839043.924 8
E36  23686758.326 8  23686760.808 9 124474760.313 8  94164356.399 9
G01  21130479.845 7                  21130485.312 8 111041524.551 7                  86525819.294 8
G02  20666879.992 8  20666881.210 6                 108605307.429 8  84627426.606 6
G03  22549981.196 6                  22549990.133 6 118501132.792 6                  92338460.191 6
G08  21698763.851 7                  21698771.330 7 114027841.731 7                  88852843.286 7
G10  23293316.002 6                  23293321.476 5 122407331.753 6                  95382293.456 5
G27  24283702.820 5                  24283712.654 6 127611819.926 5                  99437733.540 6
G32  21890174.942 8                  21890181.613 7 115033565.390 8                  89636645.260 7
R01  21812610.545 7                 116600968.216 7
R02  19404076.577 8  19404079.416 7 103543970.701 8  80534130.770 7
R03  21275476.894 8  21275483.221 7 113889617.445 8  88580542.904 7
R17  19344062.017 8  19344065.973 7 103514198.727 8  80510896.788 7
R18  20059666.323 8  20059669.978 7 107079896.383 8  83284325.511 7
> 2025 06 15 11 49  5.0000000  0 21
C19  22253522.089 7                 115879993.783 7
C20  25219925.731 5                 131326958.276 5
C22  22779265.853 7                 118617588.481 7
E04  26429386.630 7  26429388.030 8 138887341.982 7 105067397.787 8
E05  24881625.741 7  24881630.413 8 130753853.620 7  98914450.377 8
E06  25090108.551 7  25090110.721 8 131849373.029 7  99743235.674 8
E09  24824185.198 5  24824186.783 8 130451933.256 5  98686080.448 8
E34  24356913.034 8  24356915.524 9 127996415.582 8  96828485.343 9
E36  23686422.568 8  23686425.061 9 124472996.098 8  94163021.792 9
G01  21127407.684 7                  21127412.644 8 111025377.896 7                  86513237.489 8
G02  20665592.677 8  20665594.803 6                 108598546.398 8  84622158.249 6
G03  22545813.678 6                  22545822.263 6 118479229.668 6                  92321392.786 6
G08  21700272.236 8                  21700279.361 7 114035765.104 8                  88859017.333 7
G10  23294981.980 6                  23294988.522 6 122416091.656 6                  95389119.347 6
G27  24286280.079 6                  24286288.960 6 127625358.914 6                  99448283.371 6
G32  21889489.793 8                  21889496.449 7 115029965.196 8                  89633839.914 7
R01  21814932.777 7                 116613380.960 7
R02  19403089.362 8  19403093.167 7 103538707.777 8  80530037.403 7
R03  21270832.415 8  21270836.582 7 113864745.190 8  88561197.798 7
R17  19343932.913 8  19343936.538 7 103513507.406 8  80510359.080 7
R18  20056286.306 8  20056289.379 7 107061850.954 8  83270290.162 7
> 2025 06 15 11 49 10.0000000  0 21
C19  22253110.184 7                 115877852.303 7
C20  25221689.752 6                 131336136.920 6
C22  22775767.058 7                 118599368.852 7
E04  26429909.503 7  26429910.619 8 138890088.221 7 105069475.288 8
E05  24877593.677 7  24877597.673 8 130732661.366 7  98898418.590 8
E06  25089392.707 7  25089395.318 8 131845613.253 7  99740391.414 8
E09  24822158.430 6  24822160.935 8 130441287.651 6  98678027.170 8
E34  24354257.901 8  24354260.619 8 127982463.954 8  96817931.032 8
E36  23686088.750 8  23686090.749 9 124471239.369 8  94161692.833 9
G01  21124336.060 7                  21124340.984 8 111009240.469 7                  86500662.881 8
G02  20664308.593 8  20664310.247 6                 108591796.401 8  84616898.526 6
G03  22541647.339 7                  22541656.020 6 118457334.587 7                  92304331.728 6
G08  21701781.261 7                  21701789.230 7 114043700.380 7                  88865200.666 7
G10  23296648.513 6                  23296656.640 5 122424856.940 6                  95395949.467 5
G27  24288856.730 6                  24288866.374 6 127638901.317 6                  99458835.820 6
G32  21888807.486 8                  21888814.432 7 115026382.193 8                  89631047.967 7
R01  21817256.597 7                 116625805.157 7
R02  19402107.080 8  19402111.438 7 103533467.630 8  80525961.731 7
R03  21266187.525 8  21266192.227 7 113839885.957 8  88541862.857 7
R17  19343806.383 7  19343810.620 7 103512833.497 7  80509834.939 7
R18  20052907.837 8  20052910.909 7 107043817.917 8  83256264.493 7
> 2025 06 15 11 49 15.0000000  0 21
C19  22252702.388 7                 115875724.976 7
C20  25223453.242 6                 131345321.947 6
C22  22772270.141 7                 118581160.218 7
E04  26430434.452 7  26430435.377 8 138892845.781 7 105071561.350 8
E05  24873561.232 8  24873565.945 8 130711474.423 8  98882390.823 8
E06  25088679.495 7  25088682.382 8 131841867.106 7  99737557.485 8
E09  24820137.677 6  24820137.692 8 130430655.507 6  98669984.031 8
E34  24351603.970 8  24351606.776 9 127968518.108 8  96807381.098 9
E36  23685755.756 8  23685757.888 9 124469490.254 8  94160369.637 9
G01  21121267.186 7                  21121271.778 7 110993112.483 7                  86488095.604 7
G02  20663026.409 8  20663028.109 6                 108585057.574 8  84611647.491 6
G03  22537482.939 6                  22537490.612 6 118435447.811 6                  92287277.096 6
G08  21703293.899 7                  21703301.681 7 114051647.702 7                  88871393.389 7
G10  23298318.020 6                  23298324.256 5 122433627.675 6                  95402783.800 5
G27  24291433.831 6                  24291444.756 6 127652447.195 6                  99469391.017 6
G32  21888128.885 7                  21888136.057 7 115022816.532 7                  89628269.530 7
R01  21819583.238 7                 116638240.758 7
R02  19401129.583 8  19401133.792 7 103528250.767 8  80521904.167 7
R03  21261546.473 8  21261551.002 7 113815039.950 8  88522538.246 7
R17  19343684.949 8  19343688.284 7 103512177.362 8  80509324.602 7
R18  20049531.630 8  20049535.140 7 107025797.374 8  83242248.517 7
> 2025 06 15 11 49 20.0000000  0 21
C19  22252296.067 7                 115873611.356 7
C20  25225217.244 6                 131354512.819 6
C22  22768775.486 7                 118562962.101 7
E04  26430961.280 7  26430962.170 8 138895614.115 7 105073655.562 8
E05  24869530.268 7  24869535.148 8 130690292.300 7  98866366.700 8
E06  25087968.773 7  25087972.080 8 131838134.124 7  99734733.503 8
E09  24818115.916 6  24818116.953 8 130420036.415 6  98661950.754 8
E34  24348951.011 8  24348953.974 9 127954577.579 8  96796835.180 9
E36  23685424.388 8  23685426.370 9 124467748.283 8  94159051.846 9
G01  21118200.002 7                  21118204.432 7 110976993.418 7                  86475535.303 7
G02  20661745.808 8  20661747.889 6                 108578329.407 8  84606404.757 6
G03  22533319.139 6                  22533326.614 6 118413568.782 6                  92270228.491 6
G08  21704808.068 7                  21704815.786 7 114059606.562 7                  88877595.091 7
G10  23299987.795 5                  23299992.886 5 122442403.468 5                  95409621.999 5
G27  24294013.446 6                  24294022.714 6 127665996.145 6                  99479948.604 6
G32  21887453.967 7                  21887460.770 7 115019267.718 7                  89625504.244 7
R01  21821912.707 7                 116650687.257 7
R02  19400156.725 8  19400160.331 7 103523056.827 8  80517864.431 7
R03  21256907.199 8  21256912.259 6 113790206.476 8  88503223.320 6
R17  19343564.590 8  19343568.877 7 103511538.482 8  80508827.688 7
R18  20046158.053 8  20046161.645 7 107007788.864 8  83228241.913 7
> 2025 06 15 11 49 25.0000000  0 21
C19  22251892.963 7                 115871510.335 7
C20  25226982.290 6                 131363708.430 6
C22  22765282.565 7                 118544773.423 7
E04  26431489.776 7  26431490.830 8 138898392.158 7 105075757.135 8
E05  24865500.311 7  24865505.049 8 130669113.913 7  98850345.413 8
E06  25087260.605 7  25087263.969 8 131834413.210 7  99731918.663 8
E09  24816097.488 6  24816098.328 8 130409429.178 6  98653926.439 8
E34  24346299.153 8  24346301.925 9 127940641.232 8  96786292.442 9
E36  23685094.068 8  23685096.026 9 124466012.317 8  94157738.596 9
G01  21115134.251 7                  21115138.674 8 110960882.173 7                  86462981.088 8
G02  20660467.341 8  20660469.415 6                 108571610.771 8  84601169.457 6
G03  22529155.576 6                  22529164.625 6 118391696.375 6                  92253185.135 6
G08  21706324.610 7                  21706332.722 7 114067575.842 7                  88883804.929 7
G10  23301658.706 6                  23301665.542 5 122451183.097 6                  95416463.220 5
G27  24296591.411 6                  24296601.218 6 127679547.014 6                  99490507.656 6
G32  21886780.910 7                  21886788.556 7 115015734.638 7                  89622751.192 7
R01  21824242.349 7                 116663143.494 7
R02  19399187.224 8  19399190.720 7 103517884.135 8  80513841.222 7
R03  21252270.438 8  21252275.347 6 113765384.526 8  88483917.380 6
R17  19343447.350 8  19343452.472 7 103510915.584 8  80508343.206 7
R18  20042786.568 8  20042790.300 7 106989791.230 8  83214243.752 7
> 2025 06 15 11 49 30.0000000  0 22
C19  22251491.782 7                 115869422.542 7
C20  25228750.107 6                 131372909.404 6
C22  22761791.291 7                 118526594.788 7
E04  26432019.970 7  26432021.422 8 138901180.482 7 105077866.479 8
E05  24861471.473 7  24861475.815 8 130647939.886 7  98834327.411 8
E06  25086555.001 7  25086558.324 8 131830704.947 7  99729113.382 8
E09  24814080.829 6  24814082.114 8 130398834.436 6  98645911.585 8
E30  26992958.544 4                 141848963.04914
E34  24343648.481 8  24343650.824 8 127926709.722 8  96775753.349 8
E36  23684765.085 8  23684766.941 9 124464283.009 8  94156430.383 9
G01  21112070.741 8                  21112074.667 8 110944779.379 8                  86450433.466 8
G02  20659191.082 8  20659192.481 6                 108564902.341 8  84595942.101 6
G03  22524994.756 6                  22525003.385 6 118369831.364 6                  92236147.443 6
G08  21707843.673 7                  21707851.403 7 114075556.149 7                  88890023.324 7
G10  23303329.331 5                  23303335.501 5 122459967.219 5                  95423307.979 5
G27  24299170.045 6                  24299180.623 6 127693100.414 6                  99501068.704 6
G32  21886112.366 8                  21886119.283 7 115012217.928 8                  89620010.890 7
R01  21826574.475 7                 116675610.253 7
R02  19398222.015 8  19398225.601 7 103512733.678 8  80509835.327 7
R03  21247634.063 8  21247640.697 7 113740574.722 8  88464620.894 7
R17  19343334.810 8  19343339.044 7 103510309.427 8  80507871.729 7
R18  20039416.811 8  20039421.053 7 106971805.199 8  83200254.627 7
> 2025 06 15 11 49 35.0000000  0 22
C19  22251093.154 7                 115867346.334 7
C20  25230516.960 6                 131382114.180 6
C22  22758301.660 7                 118508424.625 7
E04  26432552.433 7  26432553.695 8 138903977.530 7 105079982.416 8
E05  24857442.196 7  24857447.096 8 130626768.601 7  98818311.483 8
E06  25085851.372 7  25085854.714 8 131827007.721 7  99726316.466 8
E09  24812066.494 6  24812067.988 8 130388250.553 6  98637904.940 8
E30  26993434.150 5  26993417.174 5 141851437.662 5 107309599.05215
E34  24340997.632 8  24341000.368 8 127912781.426 8  96765216.691 8
E36  23684436.435 8  23684438.844 9 124462558.731 8  94155125.975 9
G01  21109007.384 8                  21109011.671 8 110928683.425 8                  86437891.172 8
G02  20657915.883 8  20657917.315 6                 108558202.479 8  84590721.434 6
G03  22520836.144 6                  22520844.174 6 118347971.966 6                  92219114.152 6
G08  21709364.515 7                  21709371.601 7 114083545.885 7                  88896249.078 7
G10  23305003.590 5                  23305009.590 5 122468754.302 5                  95430155.000 5
G27  24301749.386 6                  24301759.805 6 127706654.735 6                  99511630.471 6
G32  21885445.377 8                  21885452.770 7 115008715.957 8                  89617282.075 7
R01  21828907.381 7                 116688085.730 7
R02  19397260.185 8  19397264.876 7 103507603.879 8  80505845.465 7
R03  21243003.153 8  21243007.881 7 113715775.646 8  88445332.725 7
R17  19343223.869 8  19343228.542 7 103509718.392 8  80507412.043 7
R18  20036049.747 8  20036053.299 7 106953829.082 8  83186273.221 7
> 2025 06 15 11 49 40.0000000  0 22
C19  22250696.402 7                 115865280.543 7
C20  25232284.722 6                 131391321.500 6
C22  22754813.972 7                 118490261.729 7
E04  26433086.593 7  26433087.426 8 138906782.052 7 105082104.023 8
E05  24853414.064 7  24853418.681 8 130605598.902 7  98802296.765 8
E06  25085150.124 7  25085153.008 8 131823320.384 7  99723527.029 8
E09  24810054.632 6  24810055.821 8 130377676.344 6  98629905.646 8
E30  26993908.095 4  26993879.835 5 141853919.554 4 107311475.95715
E34  24338347.968 8  24338350.236 8 127898855.172 8  96754681.576 8
E36  23684109.204 8  23684111.457 9 124460838.300 8  94153824.478 9
G01  21105945.141 8                  21105949.679 8 110912593.154 8                  86425353.304 8
G02  20656643.016 8  20656643.697 6                 108551510.031 8  84585506.534 6
G03  22516676.875 6                  22516685.485 6 118326117.117 6                  92202084.442 6
G08  21710886.081 7                  21710893.496 7 114091543.822 7                  88902481.239 7
G10  23306676.827 6                  23306682.727 5 122477542.949 6                  95437003.272 5
G27  24304327.864 6                  24304338.897 6 127720208.671 6                  99522192.001 6
G32  21884782.095 8                  21884789.299 7 115005227.552 8                  89614563.836 7
R01  21831243.015 7                 116700568.740 7
R02  19396302.322 8  19396306.747 7 103502493.329 8  80501870.595 7
R03  21238371.628 8  21238376.782 7 113690985.908 8  88426051.833 7
R17  19343116.581 7  19343120.555 7 103509141.224 7  80506963.118 7
R18  20032683.614 8  20032687.805 7 106935861.729 8  83172298.608 7
> 2025 06 15 11 49 45.0000000  0 22
C19  22250302.719 7                 115863227.972 7
C20  25234054.078 6                 131400534.225 6
C22  22751328.097 7                 118472108.931 7
E04  26433621.816 7  26433623.129 8 138909596.886 7 105084233.440 8
E05  24849386.527 7  24849391.080 8 130584433.599 7  98786285.348 8
E06  25084450.676 7  25084453.769 8 131819645.745 7  99720747.180 8
E09  24808043.781 6  24808046.028 8 130367114.668 6  98621915.820 8
E30  26994379.119 4  26994353.694 5 141856411.79914 107313361.38015
E34  24335698.398 8  24335701.006 8 127884933.764 8  96744150.135 8
E36  23683782.836 8  23683785.345 9 124459124.538 8  94152528.021 9
G01  21102885.263 8                  21102889.413 8 110896511.379 8                  86412822.060 8
G02  20655370.515 8  20655371.991 6                 108544827.798 8  84580299.592 6
G03  22512519.814 6                  22512527.845 6 118304269.645 6                  92185060.430 6
G08  21712410.076 7                  21712417.329 7 114099552.799 7                  88908721.979 7
G10  23308350.039 6                  23308356.431 5 122486336.189 6                  95443855.115 5
G27  24306907.834 6                  24306918.433 6 127733765.188 6                  99532755.470 6
G32  21884121.627 8                  21884128.667 8 115001755.499 8                  89611858.339 8
R01  21833579.965 7                 116713062.037 7
R02  19395349.033 8  19395353.284 7 103497404.980 8  80497912.979 7
R03  21233742.688 8  21233748.251 7 113666208.297 8  88406780.366 7
R17  19343012.581 8  19343016.202 7 103508580.851 8  80506527.266 7
R18  20029320.531 8  20029323.642 7 106917905.982 8  83158333.021 7
> 2025 06 15 11 49 50.0000000  0 21
C19  22249910.302 7                 115861187.278 7
C20  25235823.637 6                 131409750.942 6
C22  22747844.183 7                 118453964.917 7
E04  26434158.751 7  26434160.555 8 138912420.673 7 105086369.613 8
E05  24845360.204 7  24845364.051 8 130563271.396 7  98770276.294 8
E06  25083753.514 7  25083756.668 8 131815982.461 7  99717975.925 8
E09  24806035.016 6  24806038.330 8 130356564.163 6  98613934.479 8
E34  24333049.969 8  24333052.436 8 127871015.892 8  96733621.353 8
E36  23683457.680 8  23683460.257 9 124457416.120 8  94151235.606 9
G01  21099826.764 8                  21099830.549 8 110880436.763 8                  86400296.395 8
G02  20654100.857 8  20654101.975 6                 108538154.387 8  84575099.533 6
G03  22508364.088 6                  22508372.245 6 118282428.197 6                  92168041.127 6
G08  21713935.866 7                  21713943.290 7 114107571.451 7                  88914970.279 7
G10  23310023.534 6                  23310030.200 5 122495132.561 6                  95450709.400 5
G27  24309487.918 6                  24309498.207 6 127747322.886 6                  99543319.856 6
G32  21883464.389 8                  21883471.071 8 114998298.484 8                  89609164.565 8
R01  21835918.969 7                 116725564.351 7
R02  19394398.573 8  19394403.667 7 103492337.604 8  80493971.718 7
R03  21229116.658 8  21229122.369 7 113641441.617 8  88387517.424 7
R17  19342909.849 8  19342914.104 7 103508035.796 8  80506103.338 7
R18  20025958.175 8  20025961.912 7 106899960.542 8  83144375.427 7
> 2025 06 15 11 49 55.0000000  0 21
C19  22249521.212 7                 115859159.232 7
C20  25237594.819 6                 131418972.486 6
C22  22744360.864 7                 118435830.427 7
E04  26434697.806 7  26434699.784 8 138915254.210 7 105088513.172 8
E05  24841333.479 7  24841337.752 8 130542113.028 7  98754270.146 8
E06  25083059.646 7  25083061.839 8 131812331.274 7  99715213.828 8
E09  24804029.528 7  24804032.888 8 130346025.619 7  98605962.172 8
E34  24330402.306 8  24330404.728 8 127857102.329 8  96723095.838 8
E36  23683134.233 8  23683136.334 9 124455713.811 8  94149947.820 9
G01  21096769.207 8                  21096773.320 8 110864370.095 8                  86387776.913 8
G02  20652833.099 7  20652833.663 6                 108531490.631 7  84569907.001 6
G03  22504209.721 7                  22504216.962 6 118260593.528 7                  92151027.123 6
G08  21715463.036 7                  21715471.092 7 114115600.563 7                  88921226.724 7
G10  23311698.846 6                  23311704.527 5 122503932.813 6                  95457566.736 5
G27  24312068.173 6                  24312078.584 6 127760882.545 6                  99553885.812 6
G32  21882808.948 8                  21882816.080 8 114994857.283 8                  89606483.099 8
R01  21838258.552 7                 116738076.527 7
R02  19393453.493 8  19393458.399 7 103487291.683 8  80490047.110 7
R03  21224491.588 8  21224497.702 7 113616686.305 8  88368263.315 7
R17  19342811.168 8  19342815.252 7 103507506.896 8  80505691.975 7
R18  20022599.271 8  20022602.462 7 106882026.150 8  83130426.456 7
> 2025 06 15 11 50  0.0000000  0 21
C19  22249134.160 7                 115857146.025 7
C20  25239366.791 6                 131428200.952 6
C22  22740881.074 7                 118417707.685 7
E04  26435239.476 7  26435241.310 8 138918099.717 7 105090665.768 8
E05  24837307.935 7  24837312.596 8 130520960.744 7  98738268.602 8
E06  25082367.478 7  25082369.734 8 131808694.439 7  99712462.586 8
E09  24802027.391 7  24802030.185 8 130335501.281 7  98598000.592 8
E34  24327756.159 8  24327758.252 8 127843195.294 8  96712575.255 8
E36  23682811.651 8  23682813.994 9 124454019.821 8  94148666.327 9
G01  21093713.640 8                  21093718.039 8 110848313.598 8                  86375265.346 8
G02  20651567.173 8  20651567.816 6                 108524838.759 8  84564723.729 6
G03  22500056.095 7                  22500063.963 6 118238767.882 7                  92134020.136 6
G08  21716994.059 7                  21717001.878 7 114123642.325 7                  88927493.022 7
G10  23313374.332 6                  23313380.730 5 122512739.231 6                  95464428.875 5
G27  24314649.542 6                  24314659.846 6 127774446.336 6                  99564454.942 6
G32  21882157.050 8                  21882163.989 7 114991434.122 8                  89603815.676 7
R01  21840602.233 7                 116750600.712 7
R02  19392512.550 8  19392516.693 7 103482269.714 8  80486141.145 7
R03  21219869.425 8  21219875.136 7 113591945.306 8  88349020.296 7
R17  19342716.122 8  19342719.743 7 103506996.447 8  80505294.950 7
R18  20019241.929 8  20019245.571 7 106864105.095 8  83116487.854 7
> 2025 06 15 11 50  5.0000000  0 21
C19  22248750.182 7                 115855145.739 7
C20  25241140.208 5                 131437434.499 5
C22  22737402.887 7                 118399594.794 7
E04  26435782.889 7  26435784.683 8 138920955.210 7 105092825.925 8
E05  24833283.050 7  24833288.216 8 130499812.623 7  98722270.205 8
E06  25081677.505 7  25081680.003 8 131805070.006 7  99709720.724 8
E09  24800027.934 7  24800029.779 8 130324989.259 7  98590048.303 8
E34  24325110.746 8  24325112.684 8 127829292.858 8  96702058.155 8
E36  23682490.679 8  23682492.872 9 124452332.239 8  94147389.678 9
G01  21090659.743 8                  21090664.151 8 110832265.343 8                  86362760.215 8
G02  20650303.005 8  20650303.892 6                 108518196.825 8  84559548.205 6
G03  22495903.536 7                  22495911.781 6 118216949.278 7                  92117018.669 6
G08  21718526.422 7                  21718533.851 7 114131694.785 7                  88933767.665 7
G10  23315051.467 6                  23315057.341 5 122521549.848 6                  95471294.254 5
G27  24317230.469 6                  24317241.155 6 127788012.358 6                  99575025.838 6
G32  21881508.744 8                  21881515.357 7 114988027.046 8                  89601160.822 7
R01  21842946.992 7                 116763134.876 7
R02  19391575.026 8  19391579.756 7 103477269.698 8  80482252.247 7
R03  21215250.997 8  21215256.212 7 113567216.311 8  88329786.648 7
R17  19342623.507 8  19342627.634 7 103506502.601 8  80504910.842 7
R18  20015886.941 8  20015890.249 7 106846195.402 8  83102558.096 7
> 2025 06 15 11 50 10.0000000  0 21
C19  22248368.585 7                 115853158.339 7
C20  25242914.978 5                 131446673.100 5
C22  22733926.427 7                 118381491.753 7
E04  26436327.152 7  26436329.976 8 138923820.706 7 105094993.651 8
E05  24829259.691 7  24829264.605 8 130478668.665 7  98706274.957 8
E06  25080989.969 7  25080992.632 8 131801457.962 7  99706988.242 8
E09  24798030.062 7  24798031.683 8 130314489.467 7  98582105.257 8
E34  24322466.236 8  24322467.970 8 127815395.002 8  96691544.517 8
E36  23682170.970 8  23682172.966 9 124450651.047 8  94146117.858 9
G01  21087607.259 8                  21087611.917 8 110816225.334 8                  86350261.507 8
G02  20649041.142 8  20649041.810 6                 108511564.869 8  84554380.445 6
G03  22491752.754 7                  22491760.738 6 118195137.802 7                  92100022.729 6
G08  21720060.731 7                  21720068.207 7 114139757.921 7                  88940050.629 7
G10  23316728.566 6                  23316734.015 5 122530364.618 6                  95478162.896 5
G27  24319812.390 6                  24319822.757 6 127801580.524 6                  99585598.407 6
G32  21880864.000 8                  21880870.379 7 114984636.020 8                  89598518.465 7
R01  21845293.389 7                 116775679.047 7
R02  19390642.457 8  19390646.997 7 103472291.537 8  80478380.336 7
R03  21210633.038 8  21210639.353 7 113542499.273 8  88310562.314 7
R17  19342534.329 8  19342538.261 7 103506025.057 8  80504539.418 7
R18  20012534.020 8  20012537.221 7 106828297.153 8  83088637.248 7
> 2025 06 15 11 50 15.0000000  0 21
C19  22247989.473 7                 115851183.430 7
C20  25244691.233 5                 131455916.260 5
C22  22730451.172 7                 118363398.117 7
E04  26436874.746 7  26436877.091 8 138926695.747 7 105097168.590 8
E05  24825236.681 7  24825241.747 8 130457528.424 7  98690282.519 8
E06  25080305.064 7  25080307.599 8 131797857.861 7  99704264.776 8
E09  24796033.578 7  24796035.840 8 130304001.447 7  98574171.137 8
E34  24319822.536 8  24319824.061 9 127801501.277 8  96681034.011 9
E36  23681851.954 8  23681854.214 8 124448975.796 8  94144850.536 8
G01  21084556.320 8                  21084561.601 8 110800193.118 8                  86337768.893 8
G02  20647780.903 8  20647781.810 6                 108504942.434 8  84549220.092 6
G03  22487603.286 7                  22487611.717 6 118173332.979 7                  92083031.963 6
G08  21721596.765 7                  21721605.379 7 114147831.309 7                  88946341.572 7
G10  23318407.468 6                  23318411.520 5 122539183.162 6                  95485034.493 5
G27  24322394.985 6                  24322405.296 6 127815150.430 6                  99596172.323 6
G32  21880222.051 8                  21880228.186 7 114981260.625 8                  89595888.280 7
R01  21847642.242 7                 116788232.717 7
R02  19389713.341 8  19389717.740 7 103467334.723 8  80474525.032 7
R03  21206017.523 8  21206024.132 7 113517793.860 8  88291347.011 7
R17  19342448.490 8  19342451.766 7 103505563.500 8  80504180.431 7
R18  20009182.128 8  20009186.418 7 106810409.826 8  83074724.895 7
> 2025 06 15 11 50 20.0000000  0 21
C19  22247612.633 7                 115849220.553 7
C20  25246467.107 5                 131465163.581 5
C22  22726978.786 7                 118345313.479 7
E04  26437423.509 7  26437425.929 8 138929579.929 7 105099350.442 8
E05  24821214.540 7  24821219.454 8 130436391.519 7  98674292.605 8
E06  25079621.779 7  25079624.744 8 131794269.307 7  99701550.062 8
E09  24794039.775 7  24794042.208 8 130293524.883 7  98566245.684 8
E34  24317179.936 8  24317180.913 8 127787611.326 8  96670526.348 8
E36  23681534.479 8  23681536.504 9 124447306.099 8  94143587.420 9
G01  21081506.640 7                  21081512.102 8 110784168.295 7                  86325282.023 8
G02  20646522.562 7  20646523.460 6                 108498329.066 7  84544066.815 6
G03  22483455.466 7                  22483462.795 6 118151534.395 7                  92066046.053 6
G08  21723135.248 7                  21723143.389 8 114155914.534 7                  88952640.170 8
G10  23320086.176 6                  23320090.371 5 122548004.998 6                  95491908.660 5
G27  24324977.171 6                  24324987.422 6 127828721.677 6                  99606747.295 6
G32  21879582.302 8                  21879588.578 7 114977900.444 8                  89593269.960 7
R01  21849992.493 7                 116800795.529 7
R02  19388788.760 8  19388792.800 7 103462398.900 8  80470686.060 7
R03  21201404.408 8  21201410.660 7 113493099.786 8  88272140.521 7
R17  19342365.117 8  19342368.439 7 103505117.521 8  80503833.557 7
R18  20005833.911 8  20005836.962 7 106792533.063 8  83060820.759 7
> 2025 06 15 11 50 25.0000000  0 21
C19  22247237.994 7                 115847269.914 7
C20  25248243.773 6                 131474415.313 6
C22  22723506.996 7                 118327238.049 7
E04  26437974.416 7  26437976.512 8 138932473.441 7 105101539.354 8
E05  24817193.852 7  24817197.888 8 130415258.147 7  98658305.363 8
E06  25078941.562 7  25078944.096 8 131790692.482 7  99698844.212 8
E09  24792048.409 7  24792050.785 8 130283059.899 7  98558328.981 8
E34  24314537.005 8  24314538.475 8 127773725.294 8  96660021.661 8
E36  23681217.713 8  23681219.872 9 124445642.102 8  94142328.619 9
G01  21078458.851 7                  21078463.650 8 110768151.069 7                  86312801.077 8
G02  20645265.485 8  20645266.964 6                 108491725.012 8  84538920.812 6
G03  22479309.535 7                  22479316.685 6 118129742.291 7                  92049065.194 6
G08  21724674.593 7                  21724683.442 7 114164007.745 7                  88958946.559 7
G10  23321765.041 6                  23321769.987 5 122556830.324 6                  95498785.514 5
G27  24327560.523 6                  24327570.846 6 127842294.409 6                  99617323.396 6
G32  21878945.186 8                  21878951.957 7 114974555.662 8                  89590663.645 7
R01  21852345.045 7                 116813367.592 7
R02  19387867.222 8  19387871.969 7 103457484.397 8  80466863.652 7
R03  21196793.747 8  21196800.019 7 113468416.970 8  88252942.793 7
R17  19342284.642 8  19342288.294 7 103504687.384 8  80503499.015 7
R18  20002486.517 8  20002490.601 7 106774667.114 8  83046925.028 7
> 2025 06 15 11 50 30.0000000  0 21
C19  22246865.825 7                 115845331.852 7
C20  25250020.949 6                 131483671.687 6
C22  22720036.891 7                 118309172.167 7
E04  26438526.505 7  26438528.974 8 138935376.579 7 105103735.548 8
E05  24813171.815 7  24813177.040 8 130394128.642 7  98642321.041 8
E06  25078263.071 7  25078265.747 8 131787127.688 7  99696147.471 8
E09  24790058.731 7  24790061.623 8 130272606.859 7  98550421.329 8
E34  24311895.208 8  24311896.891 8 127759843.545 8  96649520.215 8
E36  23680902.011 8  23680904.420 9 124443984.181 8  94141074.415 9
G01  21075411.926 7                  21075417.026 8 110752141.795 7                  86300326.331 8
G02  20644010.735 8  20644012.141 6                 108485130.599 8  84533782.296 6
G03  22475162.180 7                  22475171.335 7 118107956.946 7                  92032089.594 7
G08  21726217.528 7                  21726224.998 7 114172111.286 7                  88965260.986 7
G10  23323447.187 6                  23323449.510 5 122565659.514 6                  95505665.406 5
G27  24330144.449 6                  24330154.806 6 127855868.967 6                  99627900.920 6
G32  21878312.317 8                  21878318.813 7 114971226.626 8                  89588069.589 7
R01  21854698.120 7                 116825949.343 7
R02  19386950.876 8  19386954.842 7 103452591.347 8  80463057.947 7
R03  21192183.629 8  21192191.017 7 113443745.962 8  88233754.260 7
R17  19342207.086 8  19342211.132 7 103504273.370 8  80503176.984 7
R18  19999141.884 8  19999145.531 7 106756812.235 8  83033037.902 7
> 2025 06 15 11 50 35.0000000  0 21
C19  22246495.975 7                 115843407.291 7
C20  25251800.113 6                 131492933.702 6
C22  22716569.860 7                 118291116.800 7
E04  26439081.169 7  26439083.439 8 138938290.332 7 105105939.769 8
E05  24809152.183 7  24809157.148 8 130373003.980 7  98626340.392 8
E06  25077586.970 7  25077589.880 8 131783575.943 7  99693460.602 8
E09  24788072.895 7  24788074.933 8 130262166.709 7  98542523.439 8
E34  24309254.609 8  24309256.306 8 127745967.061 8  96639022.740 8
E36  23680587.956 8  23680590.271 9 124442333.320 8  94139825.549 9
G01  21072367.324 7                  21072372.329 8 110736141.439 7                  86287858.550 8
G02  20642757.896 8  20642759.528 6                 108478546.803 8  84528652.064 6
G03  22471018.608 7                  22471027.438 6 118086179.373 7                  92015120.067 6
G08  21727761.698 7                  21727769.353 7 114180226.115 7                  88971584.224 7
G10  23325127.940 6                  23325130.398 5 122574493.488 6                  95512548.969 5
G27  24332727.233 6                  24332737.826 6 127869446.308 6                  99638480.641 6
G32  21877681.238 8                  21877688.380 7 114967914.306 8                  89585488.549 7
R01  21857054.212 7                 116838541.666 7
R02  19386038.471 8  19386042.140 7 103447720.914 8  80459269.833 7
R03  21187576.999 8  21187585.383 7 113419087.695 8  88214575.620 7
R17  19342132.964 8  19342137.041 7 103503876.476 8  80502868.287 7
R18  19995799.049 8  19995802.874 7 106738969.456 8  83019160.209 7
> 2025 06 15 11 50 40.0000000  0 21
C19  22246128.907 7                 115841495.138 7
C20  25253579.894 6                 131502200.224 6
C22  22713103.271 7                 118273070.854 7
E04  26439637.521 7  26439639.732 8 138941213.573 7 105108151.164 8
E05  24805132.823 7  24805137.973 8 130351883.084 7  98610362.594 8
E06  25076913.202 7  25076916.249 8 131780036.089 7  99690782.740 8
E09  24786087.392 7  24786090.405 8 130251738.359 7  98534634.487 8
E34  24306614.647 8  24306616.548 8 127732094.708 8  96628528.395 8
E36  23680274.862 8  23680277.270 9 124440688.367 8  94138581.150 9
G01  21069323.872 7                  21069329.379 8 110720148.897 7                  86275396.834 8
G02  20641506.976 8  20641508.931 6                 108471972.521 8  84523529.254 6
G03  22466876.687 7                  22466884.664 6 118064408.426 7                  91998155.717 6
G08  21729307.359 7                  21729315.570 7 114188351.084 7                  88977915.370 7
G10  23326809.561 6                  23326812.905 5 122583331.161 6                  95519435.452 5
G27  24335310.969 6                  24335322.128 6 127883025.285 6                  99649061.615 6
G32  21877054.473 8                  21877061.057 7 114964617.559 8                  89582919.669 7
R01  21859411.041 7                 116851143.272 7
R02  19385129.257 8  19385133.758 7 103442871.841 8  80455498.349 7
R03  21182972.933 8  21182980.281 7 113394440.933 8  88195405.929 7
R17  19342061.346 8  19342065.598 7 103503495.617 8  80502572.077 7
R18  19992457.981 8  19992462.386 8 106721137.695 8  83005291.069 8
> 2025 06 15 11 50 45.0000000  0 21
C19  22245764.232 7                 115839595.650 7
C20  25255360.103 5                 131511471.545 5
C22  22709640.227 7                 118255034.540 7
E04  26440195.708 7  26440197.834 8 138944146.535 7 105110369.935 8
E05  24801114.392 7  24801119.619 8 130330766.172 7  98594387.811 8
E06  25076241.429 7  25076244.944 8 131776508.402 7  99688114.065 8
E09  24784105.453 7  24784108.201 8 130241322.093 7  98526754.652 8
E34  24303975.646 8  24303977.623 8 127718226.747 8  96618037.365 8
E36  23679963.093 8  23679965.424 9 124439049.602 8  94137341.438 9
G01  21066282.443 7                  21066287.316 8 110704164.434 7                  86262941.405 8
G02  20640257.499 7  20640259.643 6                 108465407.992 7  84518414.043 6
G03  22462734.584 7                  22462743.008 6 118042644.442 7                  91981196.773 6
G08  21730855.165 7                  21730863.646 7 114196486.462 7                  88984254.609 7
G10  23328491.795 6                  23328495.060 5 122592172.720 6                  95526324.968 5
G27  24337895.803 6                  24337906.605 6 127896606.138 6                  99659644.072 6
G32  21876430.014 8                  21876436.699 7 114961336.658 8                  89580363.126 7
R01  21861771.200 7                 116863754.578 7
R02  19384224.324 8  19384228.822 7 103438044.233 8  80451743.531 7
R03  21178371.283 8  21178378.667 7 113369806.433 8  88176245.752 7
R17  19341993.495 8  19341997.280 7 103503130.903 8  80502288.417 7
R18  19989119.938 8  19989124.227 7 106703317.202 8  82991430.691 7
> 2025 06 15 11 50 50.0000000  0 21
C19  22245402.354 7                 115837708.938 7
C20  25257141.822 5                 131520747.715 5
C22  22706179.163 7                 118237008.047 7
E04  26440756.011 7  26440757.855 8 138947089.349 7 105112596.149 8
E05  24797097.026 7  24797102.030 8 130309653.417 7  98578416.162 8
E06  25075572.365 7  25075576.013 8 131772993.025 7  99685454.704 8
E09  24782125.480 7  24782128.340 8 130230918.003 7  98518884.036 8
E34  24301337.576 8  24301339.554 8 127704363.309 8  96607549.766 8
E36  23679652.515 8  23679654.766 9 124437417.132 8  94136106.479 9
G01  21063242.149 7                  21063247.277 8 110688188.157 7                  86250492.348 8
G02  20639010.283 7  20639012.435 6                 108458853.335 7  84513306.521 6
G03  22458594.515 7                  22458602.660 6 118020887.493 7                  91964243.349 6
G08  21732405.578 7                  21732413.570 7 114204632.373 7                  88990602.058 7
G10  23330173.804 6                  23330178.468 5 122601018.306 6                  95533217.638 5
G27  24340480.009 6                  24340491.203 6 127910189.062 6                  99670228.146 6
G32  21875807.869 7                  21875815.051 7 114958071.741 7                  89577819.020 7
R01  21864131.808 7                 116876375.682 7
R02  19383324.997 8  19383327.857 7 103433238.545 8  80448005.783 7
R03  21173771.283 8  21173778.365 7 113345183.817 8  88157094.843 7
R17  19341927.495 7  19341932.095 7 103502782.574 7  80502017.503 7
R18  19985784.618 8  19985788.303 7 106685508.113 8  82977579.172 7
> 2025 06 15 11 50 55.0000000  0 21
C19  22245042.194 7                 115835834.671 7
C20  25258924.135 5                 131530028.440 5
C22  22702718.673 7                 118218991.051 7
E04  26441317.568 7  26441319.674 8 138950041.703 7 105114829.573 8
E05  24793080.074 7  24793085.169 8 130288544.479 7  98562447.406 8
E06  25074905.691 7  25074909.346 8 131769489.586 7  99682804.373 8
E09  24780148.057 7  24780150.743 8 130220525.794 7  98511022.391 8
E34  24298700.088 8  24298702.301 8 127690504.076 8  96597065.353 8
E36  23679343.278 8  23679345.248 9 124435790.645 8  94134876.053 9
G01  21060203.902 7                  21060208.726 8 110672219.765 7                  86238049.445 8
G02  20637765.203 8  20637766.802 6                 108452308.222 8  84508206.436 6
G03  22454455.143 7                  22454463.601 7 117999137.286 7                  91947295.141 7
G08  21733957.617 7                  21733965.838 7 114212788.479 7                  88996957.442 7
G10  23331858.033 6                  23331862.331 5 122609867.591 6                  95540113.158 5
G27  24343065.841 6                  24343076.644 6 127923773.640 6                  99680813.492 6
G32  21875190.046 7                  21875197.285 7 114954822.433 7                  89575287.101 7
R01  21866494.640 7                 116889006.243 7
R02  19382428.282 8  19382431.579 7 103428454.294 8  80444284.696 7
R03  21169174.180 7  21169180.028 7 113320572.907 7  88137953.025 7
R17  19341866.350 7  19341870.372 7 103502450.442 7  80501759.179 7
R18  19982450.469 8  19982454.157 8 106667710.119 8  82963736.295 8
> 2025 06 15 11 51  0.0000000  0 21
C19  22244684.736 7                 115833972.927 7
C20  25260707.393 6                 131539313.805 6
C22  22699260.340 7                 118200983.623 7
E04  26441881.747 7  26441883.337 8 138953003.648 7 105117070.266 8
E05  24789064.103 7  24789069.060 8 130267439.465 7  98546481.613 8
E06  25074242.347 7  25074244.876 8 131765998.189 7  99680163.151 8
E09  24778173.203 7  24778175.429 8 130210145.528 7  98503169.787 8
E34  24296063.258 8  24296065.892 8 127676649.124 8  96586584.168 8
E36  23679034.604 8  23679036.893 9 124434170.234 8  94133650.216 9
G01  21057166.588 7                  21057171.571 8 110656259.351 7                  86225612.771 8
G02  20636521.287 8  20636523.073 6                 108445772.795 8  84503113.896 6
G03  22450317.536 7                  22450326.058 7 117977393.889 7                  91930352.240 7
G08  21735511.653 7                  21735519.298 7 114220954.827 7                  89003320.807 7
G10  23333541.452 5                  23333547.320 5 122618720.671 5                  95547011.658 5
G27  24345650.867 6                  24345662.142 6 127937359.932 6                  99691400.196 6
G32  21874574.898 7                  21874581.726 7 114951588.864 7                  89572767.416 7
R01  21868858.031 7                 116901646.190 7
R02  19381535.020 8  19381539.193 7 103423691.470 8  80440580.281 7
R03  21164579.268 7  21164584.619 7 113295973.813 7  88118820.370 7
R17  19341807.015 7  19341811.609 7 103502134.350 7  80501513.307 7
R18  19979118.002 8  19979122.028 7 106649923.310 8  82949902.121 7
> 2025 06 15 11 51  5.0000000  0 21
C19  22244329.523 7                 115832123.726 7
C20  25262490.963 6                 131548603.764 6
C22  22695803.979 7                 118182985.810 7
E04  26442447.059 7  26442448.852 8 138955975.204 7 105119318.228 8
E05  24785048.376 7  24785053.721 8 130246338.401 7  98530518.813 8
E06  25073580.274 7  25073582.801 8 131762518.891 7  99677531.073 8
E09  24776201.038 7  24776202.450 8 130199777.255 7  98495326.251 8
E34  24293427.914 8  24293430.293 9 127662798.493 8  96576106.267 9
E36  23678727.546 8  23678729.704 9 124432555.895 8  94132428.986 9
G01  21054130.939 7                  21054135.576 8 110640306.946 7                  86213182.317 8
G02  20635279.839 8  20635280.953 7                 108439247.009 8  84498028.868 7
G03  22446182.097 7                  22446189.886 7 117955657.330 7                  91913414.667 7
G08  21737067.802 7                  21737074.867 7 114229131.459 7                  89009692.203 7
G10  23335227.044 5                  23335232.867 5 122627577.526 5                  95553913.148 5
G27  24348236.038 6                  24348247.663 6 127950948.050 6                  99701988.306 6
G32  21873962.687 7                  21873968.993 7 114948371.014 7                  89570260.011 7
R01  21871224.067 7                 116914295.764 7
R02  19380647.040 8  19380650.601 7 103418950.286 8  80436892.682 7
R03  21159986.364 8  21159991.435 7 113271386.633 8  88099697.015 7
R17  19341750.953 7  19341756.102 7 103501834.433 7  80501280.037 7
R18  19975788.472 8  19975791.428 7 106632147.757 8  82936076.693 7
> 2025 06 15 11 51 10.0000000  0 21
C19  22243977.015 7                 115830287.881 7
C20  25264276.570 6                 131557899.202 6
C22  22692349.605 7                 118164998.383 7
E04  26443014.972 7  26443016.297 8 138958957.186 7 105121574.080 8
E05  24781034.172 7  24781039.178 8 130225242.095 7  98514559.617 8
E06  25072920.538 7  25072923.131 8 131759052.406 7  99674908.714 8
E09  24774230.483 7  24774231.918 8 130189421.756 7  98487492.380 8
E34  24290793.534 8  24290795.594 8 127648953.007 8  96565632.250 8
E36  23678421.146 8  23678423.810 9 124430948.461 8  94131212.969 9
G01  21051097.284 8                  21051101.459 8 110624363.341 8                  86200758.726 8
G02  20634040.298 8  20634041.090 6                 108432731.699 8  84492951.998 6
G03  22442046.624 7                  22442054.892 6 117933928.478 7                  91896483.072 6
G08  21738625.222 7                  21738633.465 7 114237319.122 7                  89016072.225 7
G10  23336914.256 6                  23336919.823 6 122636438.959 6                  95560818.167 6
G27  24350822.800 6                  24350833.825 6 127964538.701 6                  99712578.398 6
G32  21873353.863 8                  21873360.018 7 114945169.693 8                  89567765.464 7
R01  21873593.257 7                 116926955.640 7
R02  19379762.729 8  19379766.226 7 103414231.349 8  80433222.393 7
R03  21155395.823 8  21155400.312 7 113246812.229 8  88080583.575 7
R17  19341698.063 8  19341702.645 7 103501551.365 8  80501059.858 7
R18  19972460.279 8  19972463.970 7 106614384.268 8  82922260.647 7
> 2025 06 15 11 51 15.0000000  0 22
C12  23827106.464 5                 124074023.13415
C19  22243627.212 7                 115828465.634 7
C20  25266062.614 6                 131567200.290 6
C22  22688898.121 7                 118147021.652 7
E04  26443584.242 7  26443585.810 8 138961949.871 7 105123838.031 8
E05  24777020.070 7  24777025.614 8 130204150.846 7  98498604.248 8
E06  25072263.236 7  25072266.025 8 131755599.080 7  99672296.299 8
E09  24772262.177 7  24772263.881 8 130179079.343 7  98479668.396 8
E34  24288159.400 8  24288161.875 8 127635112.922 8  96555162.320 8
E36  23678116.774 8  23678119.292 9 124429348.199 8  94130002.388 9
G01  21048065.019 7                  21048068.930 8 110608428.847 7                  86188342.241 8
G02  20632801.768 8  20632802.878 6                 108426227.162 8  84487883.518 6
G03  22437913.251 7                  22437921.412 6 117912207.538 7                  91879557.672 6
G08  21740187.079 7                  21740193.756 7 114245518.157 7                  89022461.069 7
G10  23338602.468 6                  23338607.095 5 122645305.321 6                  95567726.977 5
G27  24353409.798 6                  24353421.093 6 127978132.197 6                  99723170.718 6
G32  21872747.862 8                  21872754.103 7 114941985.219 8                  89565284.053 7
R01  21875963.285 7                 116939626.008 7
R02  19378882.033 8  19378885.937 7 103409535.124 8  80429569.776 7
R03  21150806.788 8  21150812.761 7 113222250.737 8  88061480.224 7
R17  19341647.864 8  19341652.533 7 103501285.627 8  80500853.176 7
R18  19969135.028 8  19969138.542 7 106596633.101 8  82908454.196 7
> 2025 06 15 11 51 20.0000000  0 22
C12  23823480.487 5  23823476.736 6 124055144.813 5  95927268.24916
C19  22243279.202 7                 115826656.344 7
C20  25267850.870 6                 131576506.433 6
C22  22685447.115 7                 118129054.979 7
E04  26444155.907 7  26444157.156 8 138964952.556 7 105126109.545 8
E05  24773007.071 7  24773012.939 8 130183063.994 7  98482652.198 8
E06  25071607.887 7  25071611.303 8 131752158.237 7  99669693.333 8
E09  24770296.112 7  24770298.216 8 130168749.328 7  98471853.813 8
E34  24285526.733 8  24285529.122 9 127621277.587 8  96544695.978 9
E36  23677813.417 8  23677816.026 9 124427754.495 8  94128796.750 9
G01  21045033.480 7                  21045038.070 7 110592502.803 7                  86175932.337 7
G02  20631566.462 8  20631567.152 6                 108419732.713 8  84482822.912 6
G03  22433781.909 7                  22433789.203 6 117890493.906 7                  91862637.961 6
G08  21741748.114 7                  21741755.505 7 114253727.854 7                  89028858.215 7
G10  23340290.588 6                  23340294.696 6 122654175.919 6                  95574639.115 6
G27  24355996.513 6                  24356007.925 6 127991727.859 6                  99733764.705 6
G32  21872143.892 8                  21872150.940 7 114938816.876 8                  89562815.227 7
R01  21878336.740 7                 116952306.299 7
R02  19378006.403 8  19378010.015 7 103404860.716 8  80425934.116 7
R03  21146221.454 8  21146227.081 7 113197701.615 8  88042386.484 7
R17  19341600.493 7  19341605.984 7 103501036.604 7  80500659.500 7
R18  19965812.189 8  19965814.875 7 106578893.684 8  82894656.872 7
> 2025 06 15 11 51 25.0000000  0 22
C12  23819856.661 5  23819852.263 6 124036271.957 5  95912674.533 6
C19  22242933.703 7                 115824859.313 7
C20  25269636.869 5                 131585816.931 5
C22  22681998.817 7                 118111097.647 7
E04  26444728.429 7  26444730.349 8 138967964.583 7 105128388.122 8
E05  24768996.271 7  24769000.839 8 130161980.859 7  98466702.961 8
E06  25070955.501 7  25070958.750 8 131748729.188 7  99667099.267 8
E09  24768332.793 7  24768334.740 8 130158431.031 7  98464048.085 8
E34  24282894.945 8  24282897.210 9 127607446.298 8  96534232.701 9
E36  23677511.274 8  23677513.865 9 124426166.604 8  94127595.508 9
G01  21042005.019 7                  21042009.284 7 110576584.522 7                  86163528.490 7
G02  20630332.153 8  20630333.327 6                 108413247.689 8  84477769.646 6
G03  22429650.385 7                  22429658.925 6 117868786.868 7                  91845723.402 6
G08  21743311.954 7                  21743319.945 7 114261947.490 7                  89035263.122 7
G10  23341977.735 5                  23341983.321 5 122663049.939 5                  95581553.943 5
G27  24358584.577 6                  24358595.321 6 128005324.984 6                  99744359.816 6
G32  21871544.211 7                  21871550.866 7 114935664.012 7                  89560358.438 7
R01  21880709.324 7                 116964995.718 7
R02  19377134.637 8  19377138.064 7 103400207.595 8  80422315.032 7
R03  21141636.517 8  21141643.387 7 113173164.152 8  88023301.826 7
R17  19341557.937 7  19341562.508 7 103500803.446 7  80500478.128 7
R18  19962490.923 8  19962493.759 7 106561165.204 8  82880868.028 7
> 2025 06 15 11 51 30.0000000  0 22
C12  23816232.842 5  23816228.717 6 124017405.072 5  95898085.459 6
C19  22242591.049 7                 115823075.267 7
C20  25271427.116 6                 131595132.466 6
C22  22678552.210 7                 118093150.424 7
E04  26445303.715 7  26445305.400 8 138970986.668 7 105130674.305 8
E05  24764985.100 7  24764989.705 8 130140902.178 7  98450757.096 8
E06  25070305.784 7  25070308.614 8 131745312.643 7  99664514.684 8
E09  24766371.729 7  24766373.654 8 130148125.200 7  98456251.799 8
E34  24280263.641 8  24280266.075 8 127593619.852 8  96523773.075 8
E36  23677210.707 8  23677212.907 9 124424585.266 8  94126399.234 9
G01  21038977.473 8                  21038981.878 7 110560674.743 8                  86151131.259 7
G02  20629100.269 8  20629101.143 6                 108406772.821 8  84472724.284 6
G03  22425520.399 7                  22425529.236 6 117847087.176 7                  91828814.584 6
G08  21744878.343 7                  21744886.165 7 114270177.811 7                  89041676.369 7
G10  23343668.927 5                  23343674.059 5 122671928.265 5                  95588472.115 5
G27  24361173.148 6                  24361183.533 6 128018924.321 6                  99754956.644 6
G32  21870947.376 7                  21870954.040 7 114932527.336 7                  89557914.281 7
R01  21883085.550 7                 116977695.003 7
R02  19376266.061 8  19376270.369 7 103395576.421 8  80418712.998 7
R03  21137056.108 8  21137062.146 7 113148639.178 8  88004226.861 7
R17  19341518.619 7  19341522.222 7 103500586.902 7  80500309.710 7
R18  19959172.644 8  19959174.853 7 106543448.548 8  82867088.398 7
> 2025 06 15 11 51 35.0000000  0 22
C12  23812610.624 5  23812607.034 6 123998543.803 5  95883500.714 6
C19  22242250.734 7                 115821303.725 7
C20  25273218.598 6                 131604452.558 6
C22  22675107.182 7                 118075212.849 7
E04  26445880.193 7  26445882.244 8 138974018.337 7 105132967.739 8
E05  24760974.624 7  24760979.281 8 130119827.517 7  98434814.276 8
E06  25069658.127 7  25069660.722 8 131741908.154 7  99661939.211 8
E09  24764412.872 7  24764414.820 8 130137831.378 7  98448464.587 8
E34  24277633.702 8  24277635.856 8 127579797.705 8  96513316.717 8
E36  23676910.717 8  23676913.133 9 124423010.037 8  94125207.575 9
G01  21035951.835 7                  21035955.815 8 110544773.018 7                  86138740.293 8
G02  20627869.978 8  20627871.480 6                 108400307.639 8  84467686.492 6
G03  22421392.857 7                  22421401.565 6 117825394.376 7                  91811911.147 6
G08  21746446.456 7                  21746454.473 7 114278418.387 7                  89048097.592 7
G10  23345356.868 5                  23345364.006 5 122680810.317 5                  95595393.158 5
G27  24363760.305 6                  24363771.509 6 128032525.301 6                  99765554.772 6
G32  21870353.633 7                  21870359.950 7 114929406.376 7                  89555482.350 7
R01  21885463.619 7                 116990403.718 7
R02  19375402.655 8  19375406.427 7 103390966.745 8  80415127.706 7
R03  21132475.627 7  21132482.951 7 113124126.069 7  87985161.166 7
R17  19341481.493 8  19341485.100 7 103500386.520 8  80500153.872 7
R18  19955855.979 8  19955858.230 7 106525743.174 8  82853317.563 7
> 2025 06 15 11 51 40.0000000  0 22
C12  23808989.177 5  23808985.774 5 123979688.746 5  95868920.814 5
C19  22241913.788 7                 115819545.335 7
C20  25275008.899 6                 131613777.933 6
C22  22671665.061 7                 118057285.564 7
E04  26446459.614 7  26446461.060 8 138977060.257 7 105135268.921 8
E05  24756963.890 7  24756969.910 8 130098757.537 7  98418874.986 8
E06  25069011.952 7  25069015.324 8 131738516.382 7  99659373.369 8
E09  24762456.484 7  24762458.381 8 130127550.206 7  98440686.959 8
E34  24275003.687 8  24275006.552 8 127565980.579 8  96502864.146 8
E36  23676612.199 8  23676614.677 9 124421441.560 8  94124021.033 9
G01  21032927.204 8                  21032931.447 8 110528879.994 8                  86126356.107 8
G02  20626641.170 8  20626642.979 6                 108393852.797 8  84462656.755 6
G03  22417267.472 7                  22417274.681 7 117803709.130 7                  91795013.560 7
G08  21748016.358 7                  21748024.878 7 114286669.792 7                  89054527.244 7
G10  23347050.245 5                  23347055.405 6 122689696.802 5                  95602317.716 6
G27  24366349.322 6                  24366360.406 6 128046128.666 6                  99776154.751 6
G32  21869762.482 8                  21869769.754 7 114926301.786 8                  89553063.195 7
R01  21887841.860 7                 117003122.459 7
R02  19374542.805 8  19374546.770 7 103386379.292 8  80411559.682 7
R03  21127899.892 7  21127905.518 7 113099625.569 7  87966105.244 7
R17  19341445.170 8  19341449.978 7 103500202.975 8  80500011.072 7
R18  19952540.477 8  19952544.100 7 106508049.802 8  82839556.039 7
> 2025 06 15 11 51 45.0000000  0 22
C12  23805368.637 5  23805366.376 5 123960840.402 5  95854346.057 5
C19  22241578.303 7                 115817800.496 7
C20  25276800.801 6                 131623108.876 6
C22  22668224.480 7                 118039368.948 7
E04  26447040.446 7  26447041.838 8 138980112.757 7 105137578.119 8
E05  24752955.699 7  24752961.341 8 130077692.583 7  98402939.507 8
E06  25068369.297 7  25068372.377 8 131735137.651 7  99656817.399 8
E09  24760502.179 7  24760504.264 8 130117282.067 7  98432919.184 8
E34  24272375.472 8  24272378.269 8 127552168.807 8  96492415.641 8
E36  23676314.825 8  23676317.560 9 124419880.203 8  94122839.875 9
G01  21029904.533 7                  21029908.786 8 110512996.039 7                  86113979.009 8
G02  20625414.623 7  20625416.860 6                 108387408.685 7  84457635.361 6
G03  22413141.662 7                  22413149.264 7 117782031.792 7                  91778122.141 7
G08  21749589.419 7                  21749597.044 7 114294932.426 7                  89060965.642 7
G10  23348741.619 5                  23348748.023 5 122698588.025 5                  95609245.918 5
G27  24368938.941 6                  24368949.587 6 128059734.742 6                  99786756.855 6
G32  21869176.322 8                  21869182.160 7 114923213.983 8                  89550657.096 7
R01  21890223.063 7                 117015851.607 7
R02  19373687.190 8  19373691.417 7 103381814.236 8  80408009.099 7
R03  21123326.332 7  21123330.871 7 113075138.347 7  87947059.620 7
R17  19341415.035 8  19341419.892 7 103500036.573 8  80499881.660 7
R18  19949228.872 8  19949231.649 7 106490368.849 8  82825804.180 7
> 2025 06 15 11 51 50.0000000  0 22
C12  23801750.368 5  23801747.501 5 123941998.679 5  95839776.455 5
C19  22241246.318 7                 115816069.196 7
C20  25278593.769 6                 131632445.451 6
C22  22664785.866 7                 118021463.061 7
E04  26447623.392 7  26447624.684 8 138983175.911 7 105139895.381 8
E05  24748947.672 7  24748953.717 8 130056632.723 7  98387007.878 8
E06  25067729.535 7  25067731.920 8 131731772.065 7  99654271.356 8
E09  24758550.961 7  24758552.727 8 130107027.037 7  98425161.324 8
E34  24269748.206 8  24269750.948 9 127538362.470 8  96481971.236 9
E36  23676019.097 8  23676021.818 9 124418326.023 8  94121664.151 9
G01  21026883.706 8                  21026888.550 8 110497121.239 8                  86101609.054 8
G02  20624190.356 8  20624192.429 6                 108380975.323 8  84452622.351 6
G03  22409017.416 7                  22409026.146 6 117760362.512 7                  91761236.995 6
G08  21751164.144 7                  21751172.133 7 114303206.309 7                  89067412.840 7
G10  23350435.930 6                  23350440.540 6 122707484.097 6                  95616177.869 6
G27  24371528.741 6                  24371539.621 6 128073343.574 6                  99797361.108 6
G32  21868590.920 7                  21868597.743 7 114920142.928 7                  89548264.071 7
R01  21892604.831 7                 117028591.162 7
R02  19372836.207 8  19372839.817 7 103377271.810 8  80404476.102 7
R03  21118753.748 7  21118758.733 7 113050664.206 7  87928024.182 7
R17  19341387.266 8  19341391.628 7 103499887.392 8  80499765.649 7
R18  19945918.581 8  19945921.886 7 106472700.250 8  82812061.924 7
> 2025 06 15 11 51 55.0000000  0 22
C12  23798134.638 5  23798130.078 5 123923164.115 5  95825212.414 5
C19  22240915.787 7                 115814351.983 7
C20  25280386.712 5                 131641788.125 5
C22  22661348.988 7                 118003568.410 7
E04  26448208.131 7  26448209.668 8 138986250.213 7 105142221.053 8
E05  24744941.126 7  24744947.206 8 130035578.508 7  98371080.516 8
E06  25067091.876 7  25067094.125 8 131728420.119 7  99651735.618 8
E09  24756601.950 7  24756603.807 8 130096785.572 7  98417413.710 8
E34  24267122.254 8  24267124.826 9 127524562.056 8  96471531.321 9
E36  23675725.213 8  23675727.537 9 124416779.516 8  94120494.232 9
G01  21023864.477 7                  21023869.517 8 110481256.066 7                  86089246.586 8
G02  20622968.102 8  20622970.066 6                 108374553.242 8  84447618.132 6
G03  22404896.753 7                  22404904.133 7 117738701.674 7                  91744358.427 7
G08  21752740.251 7                  21752748.680 7 114311491.925 7                  89073869.142 7
G10  23352129.189 6                  23352134.938 6 122716385.477 6                  95623114.032 6
G27  24374119.693 6                  24374129.990 6 128086955.668 6                  99807967.885 6
G32  21868008.833 7                  21868016.079 7 114917089.129 7                  89545884.493 7
R01  21894992.213 7                 117041341.645 7
R02  19371989.602 8  19371992.944 7 103372752.328 8  80400960.939 7
R03  21114184.339 7  21114189.323 7 113026203.633 7  87908999.322 7
R17  19341363.113 8  19341366.889 7 103499756.054 8  80499663.464 7
R18  19942610.877 8  19942614.614 7 106455044.631 8  82798329.815 7
> 2025 06 15 11 52  0.0000000  0 22
C12  23794519.233 5  23794514.494 6 123904336.126 5  95810653.389 6
C19  22240588.962 7                 115812648.125 7
C20  25282183.208 5                 131651136.194 5
C22  22657914.089 7                 117985684.306 7
E04  26448795.272 7  26448796.663 8 138989334.920 7 105144554.593 8
E05  24740935.776 7  24740941.544 8 130014529.185 7  98355156.871 8
E06  25066456.478 7  25066458.627 8 131725081.077 7  99649209.664 8
E09  24754654.629 7  24754657.372 8 130086556.966 7  98409675.852 8
E34  24264496.601 8  24264499.625 9 127510766.865 8  96461095.374 9
E36  23675431.735 8  23675434.565 9 124415239.989 8  94119329.585 9
G01  21020846.998 7                  21020852.091 8 110465399.850 7                  86076891.086 8
G02  20621748.543 8  20621750.250 6                 108368141.785 8  84442622.197 6
G03  22400775.582 7                  22400783.949 6 117717048.630 7                  91727485.904 6
G08  21754318.823 7                  21754327.301 7 114319788.607 7                  89080334.101 7
G10  23353824.009 5                  23353829.660 6 122725291.483 5                  95630053.765 6
G27  24376709.345 6                  24376720.163 6 128100570.252 6                  99818576.640 6
G32  21867431.496 7                  21867438.653 7 114914051.959 7                  89543517.888 7
R01  21897377.500 7                 117054102.269 7
R02  19371146.185 8  19371150.288 7 103368255.365 8  80397463.311 7
R03  21109617.673 8  21109622.681 7 113001756.031 8  87889984.521 7
R17  19341341.319 7  19341345.574 7 103499641.813 7  80499574.590 7
R18  19939304.805 8  19939308.888 7 106437401.305 8  82784607.236 7
> 2025 06 15 11 52  5.0000000  0 22
C12  23790903.548 5  23790900.120 6 123885513.555 5  95796098.546 6
C19  22240263.954 7                 115810956.539 7
C20  25283978.226 5                 131660488.656 5
C22  22654481.470 7                 117967809.680 7
E04  26449384.134 7  26449385.442 8 138992428.963 7 105146895.225 8
E05  24736931.378 7  24736936.736 8 129993483.755 7  98339236.159 8
E06  25065823.096 7  25065825.605 8 131721753.903 7  99646692.681 8
E09  24752710.485 7  24752713.202 8 130076340.260 7  98401946.965 8
E34  24261872.196 8  24261875.283 8 127496975.854 8  96450662.566 8
E36  23675140.097 8  23675142.738 9 124413706.396 8  94118169.422 9
G01  21017831.077 8                  21017835.550 8 110449551.529 8                  86064541.763 8
G02  20620530.556 8  20620532.084 6                 108361739.828 8  84437633.661 6
G03  22396656.426 7                  22396664.543 6 117695402.364 7                  91710618.683 6
G08  21755899.725 7                  21755907.925 7 114328095.235 7                  89086806.779 7
G10  23355520.649 6                  23355525.134 6 122734201.027 6                  95636996.257 6
G27  24379300.085 6                  24379311.465 6 128114186.286 6                  99829186.533 6
G32  21866855.747 7                  21866863.465 7 114911030.282 7                  89541163.325 7
R01  21899767.282 7                 117066872.056 7
R02  19370307.666 8  19370311.401 7 103363779.573 8  80393982.137 7
R03  21105052.504 8  21105057.540 7 112977320.247 8  87870978.899 7
R17  19341324.650 7  19341327.017 7 103499543.457 7  80499498.067 7
R18  19936001.751 8  19936005.607 7 106419769.168 8  82770893.353 7
> 2025 06 15 11 52 10.0000000  0 22
C12  23787290.416 5  23787287.423 6 123866697.927 5  95781549.131 6
C19  22239942.151 7                 115809278.749 7
C20  25285775.702 6                 131669846.918 6
C22  22651051.393 7                 117949946.007 7
E04  26449974.523 7  26449976.246 8 138995533.856 7 105149244.062 8
E05  24732927.223 7  24732932.882 8 129972443.669 7  98323319.484 8
E06  25065191.925 7  25065194.992 8 131718440.038 7  99644185.741 8
E09  24750768.434 7  24750771.537 8 130066136.807 7  98394228.135 8
E34  24259248.815 8  24259251.965 9 127483190.509 8  96440234.043 9
E36  23674849.548 8  23674852.282 9 124412180.165 8  94117014.840 9
G01  21014816.850 7                  21014821.554 8 110433712.604 7                  86052199.732 8
G02  20619314.247 8  20619315.430 6                 108355348.860 8  84432653.679 6
G03  22392537.734 7                  22392546.584 7 117673764.239 7                  91693757.863 7
G08  21757483.287 7                  21757490.760 7 114336413.298 7                  89093288.354 7
G10  23357216.067 5                  23357222.243 6 122743115.599 5                  95643942.628 6
G27  24381892.287 6                  24381902.833 6 128127805.278 6                  99839798.681 6
G32  21866284.406 7                  21866292.136 7 114908025.604 7                  89538822.034 7
R01  21902158.405 7                 117079652.393 7
R02  19369473.453 8  19369477.238 7 103359326.636 8  80390518.753 7
R03  21100489.064 7  21100495.095 7 112952897.822 7  87851983.686 7
R17  19341308.624 7  19341312.009 7 103499462.590 7  80499435.184 7
R18  19932701.241 8  19932704.641 7 106402149.699 8  82757189.341 7
> 2025 06 15 11 52 15.0000000  0 22
C12  23783677.806 5  23783675.603 5 123847888.110 5  95767004.194 5
C19  22239622.301 7                 115807613.573 7
C20  25287573.432 5                 131679209.835 5
C22  22647622.818 7                 117932092.191 7
E04  26450567.890 7  26450568.949 8 138998648.493 7 105151600.229 8
E05  24728924.599 7  24728929.855 8 129951407.809 7  98307406.037 8
E06  25064563.687 7  25064566.700 8 131715138.378 7  99641688.060 8
E09  24748830.304 7  24748832.364 8 130055945.543 7  98386518.523 8
E34  24256626.791 8  24256629.462 9 127469409.668 8  96429808.947 9
E36  23674560.158 8  23674563.079 9 124410660.231 8  94115865.017 9
G01  21011804.068 7                  21011809.799 8 110417881.929 7                  86039864.154 8
G02  20618100.113 8  20618101.259 6                 108348967.803 8  84427681.407 6
G03  22388422.410 7                  22388430.615 6 117652133.301 7                  91676902.603 6
G08  21759067.859 7                  21759075.931 7 114344741.639 7                  89099777.953 7
G10  23358913.695 5                  23358918.832 6 122752033.984 5                  95650892.050 6
G27  24384483.212 6                  24384494.527 6 128141426.059 6                  99850412.256 6
G32  21865715.238 7                  21865723.430 7 114905036.781 7                  89536493.058 7
R01  21904550.471 7                 117092442.066 7
R02  19368643.854 8  19368646.663 7 103354895.315 8  80387072.143 7
R03  21095931.088 8  21095935.111 7 112928487.742 8  87832998.069 7
R17  19341296.460 8  19341299.891 7 103499398.044 8  80499385.006 7
R18  19929403.436 8  19929406.687 7 106384541.873 8  82743494.358 7
> 2025 06 15 11 52 20.0000000  0 22
C12  23780066.617 5  23780063.895 5 123829084.761 5  95752464.175 5
C19  22239304.959 7                 115805961.576 7
C20  25289372.814 6                 131688577.980 6
C22  22644196.001 7                 117914248.792 7
E04  26451162.409 7  26451163.581 8 139001773.324 7 105153964.131 8
E05  24724919.822 7  24724927.610 8 129930376.770 7  98291496.192 8
E06  25063937.367 7  25063940.732 8 131711849.466 7  99639200.024 8
E09  24746893.627 7  24746895.590 8 130045767.043 7  98378818.543 8
E34  24254005.558 8  24254007.963 9 127455633.927 8  96419387.688 9
E36  23674272.605 8  23674275.145 9 124409147.117 8  94114720.363 9
G01  21008792.869 7                  21008798.864 8 110402060.065 7                  86027535.454 8
G02  20616887.730 8  20616889.084 6                 108342597.138 8  84422717.272 6
G03  22384308.152 7                  22384316.224 7 117630510.018 7                  91660053.292 7
G08  21760654.013 7                  21760662.812 7 114353080.833 7                  89106276.029 7
G10  23360608.801 4                  23360616.618 6 122760956.772 4                  95657844.872 6
G27  24387076.001 6                  24387086.863 6 128155049.126 6                  99861027.601 6
G32  21865150.741 7                  21865157.409 7 114902064.417 7                  89534176.927 7
R01  21906944.944 7                 117105241.774 7
R02  19367816.842 8  19367820.524 7 103350486.264 8  80383642.872 7
R03  21091372.179 8  21091377.329 7 112904090.365 8  87814022.406 7
R17  19341286.695 8  19341291.056 7 103499350.430 8  80499347.977 7
R18  19926106.941 8  19926110.363 7 106366946.165 8  82729808.810 7
> 2025 06 15 11 52 25.0000000  0 22
C12  23776456.109 6  23776453.133 5 123810287.479 6  95737928.938 5
C19  22238989.929 7                 115804322.519 7
C20  25291174.568 5                 131697951.034 5
C22  22640771.290 7                 117896415.584 7
E04  26451757.789 7  26451760.148 8 139004908.188 7 105156335.630 8
E05  24720919.159 6  24720926.283 8 129909350.268 6  98275589.815 8
E06  25063313.484 7  25063317.226 8 131708573.033 7  99636721.431 8
E09  24744958.592 7  24744961.101 8 130035601.078 7  98371128.053 8
E34  24251385.059 8  24251387.541 9 127441863.031 8  96408970.091 9
E36  23673985.727 8  23673988.436 9 124407640.588 8  94113580.673 9
G01  21005784.773 7                  21005789.204 8 110386246.786 7                  86015213.414 8
G02  20615676.583 8  20615678.984 6                 108336236.665 8  84417761.057 6
G03  22380193.950 7                  22380202.658 7 117608894.055 7                  91643209.695 7
G08  21762243.247 7                  21762251.875 7 114361430.632 7                  89112782.372 7
G10  23362305.797 4                  23362315.253 6 122769883.781 4                  95664800.977 6
G27  24389669.154 6                  24389679.948 6 128168674.307 6                  99871644.569 6
G32  21864587.507 7                  21864594.918 7 114899108.216 7                  89531873.365 7
R01  21909341.256 7                 117118051.308 7
R02  19366994.150 8  19366998.264 7 103346099.058 8  80380230.609 7
R03  21086817.187 7  21086822.465 7 112879705.670 7  87795056.512 7
R17  19341280.601 7  19341285.216 7 103499319.491 7  80499323.927 7
R18  19922812.017 8  19922816.643 7 106349362.353 8  82716132.513 7
> 2025 06 15 11 52 30.0000000  0 22
C12  23772848.204 5  23772842.600 5 123791494.800 5  95723397.297 5
C19  22238677.780 7                 115802694.879 7
C20  25292975.001 6                 131707327.623 6
C22  22637347.069 7                 117878591.032 7
E04  26452356.961 7  26452358.333 8 139008051.479 7 105158713.499 8
E05  24716919.763 6  24716925.709 8 129888326.771 6  98259685.715 8
E06  25062692.962 7  25062695.909 8 131705307.610 7  99634251.136 8
E09  24743026.773 7  24743028.721 8 130025446.017 7  98363445.817 8
E34  24248765.036 8  24248767.573 9 127428095.456 8  96398555.009 9
E36  23673700.729 7  23673702.730 9 124406139.096 7  94112444.784 9
G01  21002777.066 7                  21002781.629 8 110370440.563 7                  86002896.873 8
G02  20614468.555 8  20614470.355 6                 108329884.902 8  84412811.606 6
G03  22376081.897 7                  22376090.538 7 117587284.081 7                  91626370.770 7
G08  21763833.889 7                  21763842.343 7 114369789.429 7                  89119295.679 7
G10  23364007.577 4                                                                
G27  24392261.706 6                  24392272.765 6 128182300.064 6                  99882261.979 6
G32  21864027.251 7                  21864035.275 7 114896166.595 7                  89529581.206 7
R01  21911739.688 7                 117130868.839 7
R02  19366175.749 8  19366179.948 7 103341732.121 8  80376834.135 7
R03  21082263.605 8  21082269.319 7 112855331.874 8  87776099.141 7
R17  19341278.288 8  19341282.066 7 103499303.600 8  80499311.535 7
R18  19919521.033 8  19919524.888 8 106331788.934 8  82702464.309 8
> 2025 06 15 11 52 35.0000000  0 22
C12  23769240.291 5  23769233.900 5 123772707.491 5  95708869.671 5
C19  22238367.345 7                 115801079.296 7
C20  25294774.259 5                 131716708.304 5
C22  22633926.476 7                 117860775.771 7
E04  26452956.896 7  26452958.289 8 139011203.869 7 105161098.255 8
E05  24712919.047 6  24712925.710 8 129867307.056 6  98243784.460 8
E06  25062073.965 7  25062076.762 8 131702053.815 7  99631789.654 8
E09  24741096.519 7  24741098.398 8 130015302.623 7  98355772.418 8
E34  24246145.842 8  24246148.309 9 127414331.867 8  96388142.947 9
E36  23673415.356 8  23673418.085 9 124404643.312 8  94111313.239 9
G01  20999770.368 8                  20999775.049 8 110354642.065 8                  85990586.359 8
G02  20613261.966 8  20613263.280 7                 108323542.432 8  84407869.443 7
G03  22371970.510 7                  22371979.312 7 117565680.650 7                  91609536.980 7
G08  21765427.405 7                  21765434.606 7 114378157.950 7                  89125816.592 7
G10  23365707.757 4                  23365713.531 6 122787746.33914                  95678719.91016
G27  24394856.087 6                  24394866.172 6 128195926.979 6                  99892880.331 6
G32  21863470.209 7                  21863478.544 7 114893240.305 7                  89527300.976 7
R01  21914139.145 7                 117143695.228 7
R02  19365361.424 8  19365365.544 7 103337386.312 8  80373454.054 7
R03  21077713.597 8  21077718.586 7 112830970.097 8  87757151.097 7
R17  19341278.188 8  19341282.385 7 103499303.526 8  80499311.464 7
R18  19916230.345 8  19916234.639 7 106314226.604 8  82688804.723 7
> 2025 06 15 11 52 40.0000000  0 22
C12  23765632.414 6  23765627.521 5 123753926.435 6  95694346.989 5
C19  22238060.189 7                 115799476.726 7
C20  25296576.871 5                 131726093.962 5
C22  22630507.764 7                 117842970.836 7
E04  26453558.744 7  26453560.088 8 139014366.354 7 105163490.646 8
E05  24708920.511 6  24708926.624 8 129846292.020 6  98227886.739 8
E06  25061457.461 7  25061460.075 8 131698812.628 7  99629337.704 8
E09  24739168.400 7  24739170.586 8 130005171.852 7  98348108.563 8
E34  24243527.554 8  24243530.108 9 127400573.244 8  96377734.642 9
E36  23673132.036 8  23673134.758 9 124403154.210 8  94110186.746 9
G01  20996765.900 7                  20996770.927 8 110338852.292 7                  85978282.647 8
G02  20612056.835 8  20612058.026 6                 108317210.286 8  84402935.312 6
G03  22367861.290 7                  22367869.330 6 117544084.790 7                  91592709.051 6
G08  21767021.501 7                  21767029.151 7 114386537.115 7                  89132345.798 7
G10  23367409.765 5                  23367414.471 6 122796683.554 5                  95685683.948 6
G27  24397449.231 6                  24397459.852 6 128209556.010 6                  99903500.347 6
G32  21862916.839 7                  21862924.548 7 114890330.234 7                  89525033.381 7
R01  21916540.555 7                 117156531.303 7
R02  19364551.734 8  19364555.161 7 103333062.484 8  80370091.056 7
R03  21073164.155 8  21073170.249 7 112806620.970 8  87738212.933 7
R17  19341282.023 8  19341285.163 7 103499320.201 8  80499324.424 7
R18  19912943.175 8  19912947.056 7 106296676.299 8  82675154.490 7
> 2025 06 15 11 52 45.0000000  0 22
C12  23762026.525 5  23762024.660 5 123735152.063 5  95679829.443 5
C19  22237754.848 7                 115797887.589 7
C20  25298381.210 5                 131735485.151 5
C22  22627090.247 7                 117825176.593 7
E04  26454162.706 7  26454163.944 8 139017539.338 7 105165890.968 8
E05  24704922.162 6  24704928.556 8 129825282.072 6  98211992.883 8
E06  25060843.130 7  25060845.776 8 131695584.418 7  99626895.587 8
E09  24737243.525 7  24737245.235 8 129995054.103 7  98340454.553 8
E34  24240910.449 8  24240912.941 9 127386819.978 8  96367330.389 9
E36  23672849.999 8  23672852.792 9 124401672.217 8  94109065.632 9
G01  20993762.727 7                  20993767.790 8 110323071.616 7                  85965986.007 8
G02  20610853.685 8  20610854.892 6                 108310888.840 8  84398009.510 6
G03  22363753.523 7                  22363761.590 7 117522496.889 7                  91575887.295 7
G08  21768618.340 7                  21768625.908 7 114394927.333 7                  89138883.609 7
G10  23369109.841 5                  23369116.474 6 122805625.43815                  95692651.57516
G27  24400042.891 6                  24400053.150 6 128223187.596 6                  99914122.347 6
G32  21862366.476 7                  21862373.812 7 114887436.824 7                  89522778.818 7
R01  21918942.704 7                 117169377.512 7
R02  19363745.265 8  19363749.036 7 103328761.217 8  80366745.627 7
R03  21068618.010 8  21068624.625 7 112782285.098 8  87719285.058 7
R17  19341286.926 8  19341292.094 7 103499354.050 8  80499350.768 7
R18  19909657.205 8  19909661.291 7 106279138.487 8  82661513.979 7
> 2025 06 15 11 52 50.0000000  0 22
C12  23758421.937 5  23758419.836 5 123716384.388 5  95665317.077 5
C19  22237451.549 7                 115796311.852 7
C20  25300184.736 5                 131744881.672 5
C22  22623674.535 7                 117807393.056 7
E04  26454768.090 7  26454769.805 8 139020722.743 7 105168299.198 8
E05  24700925.497 6  24700931.443 8 129804277.240 6  98196102.883 8
E06  25060230.352 7  25060234.001 8 131692369.177 7  99624463.290 8
E09  24735320.034 7  24735322.277 8 129984949.370 7  98332810.366 8
E34  24238294.682 8  24238296.794 9 127373072.061 8  96356930.188 9
E36  23672569.119 8  23672572.124 9 124400197.292 8  94107949.862 9
G01  20990762.396 7                  20990766.285 8 110307300.053 7                  85953696.497 8
G02  20609652.910 8  20609654.028 7                 108304578.107 8  84393092.045 7
G03  22359647.279 7                  22359655.217 7 117500916.913 7                  91559071.745 7
G08  21770217.028 7                  21770224.788 7 114403328.575 7                  89145430.019 7
G10  23370813.490 5                                                                
G27  24402639.259 6                  24402648.172 6 128236821.745 6                  99924746.318 6
G32  21861818.611 7                  21861826.438 7 114884560.073 7                  89520537.219 7
R01  21921348.160 7                 117182233.965 7
R02  19362942.806 8  19362947.106 7 103324482.145 8  80363417.451 7
R03  21064074.172 8  21064080.893 7 112757962.205 8  87700367.271 7
R17  19341296.107 7  19341301.284 7 103499405.057 7  80499390.445 7
R18  19906374.712 8  19906378.658 7 106261613.186 8  82647883.191 7
> 2025 06 15 11 52 55.0000000  0 22
C12  23754819.290 5  23754816.281 5 123697623.116 5  95650809.731 5
C19  22237151.849 7                 115794749.280 7
C20  25301991.009 5                 131754283.423 5
C22  22620261.658 7                 117789620.007 7
E04  26455375.734 7  26455377.626 8 139023916.387 7 105170715.157 8
E05  24696929.098 6  24696935.260 8 129783277.336 6  98180216.581 8
E06  25059621.215 7  25059624.575 8 131689166.744 7  99622040.670 8
E09  24733399.657 7  24733401.794 8 129974857.435 7  98325175.893 8
E34  24235680.145 8  24235681.654 9 127359329.288 8  96346533.866 9
E36  23672290.025 8  23672292.801 9 124398729.246 8  94106839.286 9
G01  20987761.974 7                  20987766.986 8 110291537.407 7                  85941413.908 8
G02  20608454.131 7  20608454.570 6                 108298277.866 7  84388182.769 6
G03  22355542.143 7                  22355549.913 7 117479344.730 7                  91542262.231 7
G08  21771818.478 7                  21771825.409 7 114411740.600 7                  89151984.839 7
G10  23372514.770 4                  23372522.218 6 122823522.77114                  95706597.49616
G27  24405232.357 6                  24405242.883 6 128250458.216 6                  99935372.093 6
G32  21861274.184 7                  21861282.097 7 114881699.788 7                  89518308.427 7
R01  21923755.982 7                 117195100.224 7
R02  19362145.605 8  19362149.249 7 103320225.333 8  80360106.599 7
R03  21059532.327 8  21059539.529 7 112733652.321 8  87681459.603 7
R17  19341308.913 7  19341314.075 7 103499472.916 7  80499443.229 7
R18  19903094.514 8  19903097.573 7 106244100.140 8  82634261.947 7
> 2025 06 15 11 53  0.0000000  0 22
C12  23751217.761 5  23751214.134 5 123678868.359 5  95636307.264 5
C19  22236854.057 7                 115793199.899 7
C20  25303795.311 5                 131763690.367 5
C22  22616850.998 7                 117771857.407 7
E04  26455985.882 7  26455987.291 8 139027120.274 7 105173138.879 8
E05  24692933.941 6  24692940.004 8 129762282.275 6  98164333.994 8
E06  25059014.704 7  25059017.559 8 131685977.042 7  99619627.692 8
E09  24731482.191 7  24731483.740 8 129964778.292 7  98317551.110 8
E34  24233065.196 8  24233067.459 9 127345591.664 8  96336141.456 9
E36  23672011.965 8  23672014.772 9 124397268.070 8  94105733.915 9
G01  20984764.443 7                  20984769.333 8 110275783.636 7                  85929138.255 8
G02  20607257.478 8  20607258.215 6                 108291988.100 8  84383281.657 6
G03  22351438.073 7                  22351446.694 7 117457780.282 7                  91525458.796 7
G08  21773421.369 7                  21773428.066 7 114420163.434 7                  89158548.094 7
G10  23374221.262 4                  23374225.955 5 122832477.968 4                  95713575.615 5
G27  24407828.700 6                  24407838.679 6 128264096.960 6                  99945999.651 6
G32  21860733.449 7                  21860740.973 7 114878855.911 7                  89516092.392 7
R01  21926164.391 7                 117207976.391 7
R02  19361351.895 8  19361355.718 7 103315990.822 8  80356813.085 7
R03  21054993.706 8  21054999.946 7 112709355.431 8  87662562.015 7
R17  19341325.844 7  19341329.922 7 103499557.749 7  80499509.216 7
R18  19899815.168 8  19899819.095 7 106226599.440 8  82620650.294 7
> 2025 06 15 11 53  5.0000000  0 21
C12  23747617.862 5  23747613.377 5 123660119.280 5  95621809.358 5
C19  22236558.846 7                 115791662.866 7
C20  25305604.420 5                 131773101.641 5
C22  22613442.073 7                 117754104.529 7
E04  26456596.915 7  26456598.760 8 139030333.572 7 105175569.716 8
E05  24688938.652 6  24688945.582 8 129741291.323 6  98148454.506 8
E06  25058410.040 7  25058412.831 8 131682799.305 7  99617223.752 8
E09  24729567.140 7  24729567.988 8 129954711.144 7  98309935.385 8
E34  24230452.320 8  24230454.183 9 127331858.402 8  96325752.328 9
E36  23671735.726 8  23671737.853 9 124395812.936 8  94104633.116 9
G01  20981767.521 8                  20981772.664 8 110260037.985 8                  85916868.898 8
G02  20606061.359 8  20606063.065 6                 108285708.034 8  84378388.102 6
G03  22347336.502 7                  22347344.083 7 117436222.730 7                  91508660.731 7
G08  21775025.434 7                  21775032.491 7 114428596.260 7                  89165119.098 7
G27  24410422.280 6                  24410434.244 6 128277737.154 6                  99956628.343 6
G32  21860195.971 7                  21860202.391 7 114876027.626 7                  89513888.522 7
R01  21928574.557 7                 117220861.527 7
R02  19360561.755 8  19360566.050 7 103311777.443 8  80353536.028 7
R03  21050457.870 8  21050463.067 7 112685070.774 8  87643673.963 7
R17  19341344.480 7  19341348.923 7 103499658.688 7  80499587.684 7
R18  19896538.049 8  19896543.032 8 106209110.207 8  82607047.565 8
> 2025 06 15 11 53 10.0000000  0 22
C12  23744017.836 5  23744013.159 5 123641375.849 5  95607315.759 5
C19  22236266.532 7                 115790138.104 7
C20  25307414.784 5                 131782517.204 5
C22  22610033.467 7                 117736361.290 7
E04  26457210.456 7  26457211.966 8 139033556.192 7 105178007.608 8
E05  24684944.823 6  24684951.944 8 129720304.433 6  98132578.073 8
E06  25057807.631 7  25057810.499 8 131679633.460 7  99614828.807 8
E09  24727652.615 7  24727654.553 8 129944655.909 7  98302328.651 8
E34  24227839.933 8  24227841.646 9 127318129.395 8  96315366.418 9
E36  23671459.829 8  23671462.062 9 124394363.787 8  94103536.830 9
G01  20978773.228 7                  20978777.927 8 110244300.367 7                  85904605.822 8
G02  20604869.061 8  20604870.314 6                 108279437.580 8  84373502.033 6
G03  22343235.025 7                  22343243.634 7 117414672.070 7                  91491868.031 7
G08  21776632.049 7                  21776639.833 7 114437038.914 7                  89171697.791 7
G10  23377632.558 4                  23377636.157 5 122850402.23014                
G27  24413018.925 6                  24413030.292 6 128291378.670 6                  99967258.086 6
G32  21859660.641 8                  21859668.227 7 114873214.899 8                  89511696.797 7
R01  21930985.176 7                 117233755.646 7
R02  19359776.982 8  19359780.689 7 103307585.452 8  80350275.580 7
R03  21045922.988 8  21045929.134 7 112660798.083 8  87624795.218 7
R17  19341366.146 8  19341370.584 7 103499775.714 8  80499678.680 7
R18  19893264.420 8  19893268.554 8 106191632.351 8  82593453.658 8
> 2025 06 15 11 53 15.0000000  0 21
C12  23740420.768 5  23740414.991 5 123622638.176 5  95592826.642 5
C19  22235976.772 7                 115788625.750 7
C20  25309222.632 5                 131791937.247 5
C22  22606627.667 7                 117718627.779 7
E04  26457825.590 7  26457827.059 8 139036788.249 7 105180452.631 8
E05  24680951.619 6  24680959.010 8 129699321.684 6  98116704.780 8
E06  25057207.842 7  25057210.347 8 131676479.619 7  99612442.931 8
E09  24725741.288 7  24725743.340 8 129934612.764 7  98294731.097 8
E34  24225227.622 8  24225230.061 9 127304404.769 8  96304983.824 9
E36  23671185.188 8  23671187.477 9 124392920.741 8  94102445.183 9
G01  20975779.724 7                  20975784.884 8 110228570.914 7                  85892349.110 8
G02  20603676.805 8  20603679.018 7                 108273176.871 8  84368623.558 7
G03  22339135.278 7                  22339143.686 7 117393128.456 7                  91475080.804 7
G08  21778240.174 7                  21778247.701 7 114445491.559 7                  89178284.270 7
G27  24415616.169 6                  24415626.759 6 128305021.741 6                  99977888.999 6
G32  21859128.987 8                  21859135.746 7 114870417.796 8                  89509517.240 7
R01  21933399.114 7                 117246658.774 7
R02  19358995.214 8  19358998.834 7 103303414.747 8  80347031.694 7
R03  21041391.647 8  21041397.192 7 112636537.693 8  87605926.031 7
R17  19341391.640 8  19341395.504 7 103499908.916 8  80499782.270 7
R18  19889992.417 8  19889996.570 8 106174166.095 8  82579868.804 8
> 2025 06 15 11 53 20.0000000  0 21
C12  23736825.583 5  23736819.096 4 123603907.548 5  95578342.964 4
C19  22235688.986 7                 115787127.175 7
C20  25311031.546 5                 131801363.000 5
C22  22603225.219 7                 117700905.377 7
E04  26458442.826 7  26458444.147 8 139040031.148 7 105182905.864 8
E05  24676960.719 6  24676967.213 8 129678344.479 6  98100835.724 8
E06  25056609.044 7  25056612.722 8 131673339.112 7  99610067.163 8
E09  24723833.051 7  24723834.699 8 129924583.021 7  98287143.672 8
E34  24222617.108 8  24222619.554 9 127290685.931 8  96294605.611 9
E36  23670911.626 8  23670914.281 9 124391485.176 8  94101359.182 9
G01  20972788.072 7                  20972793.276 8 110212850.990 7                  85880099.840 8
G02  20602487.622 7  20602489.685 6                 108266927.264 7  84363753.725 6
G03  22335037.278 7                  22335045.610 7 117371593.198 7                  91458300.093 7
G08  21779850.499 7                  21779858.250 7 114453955.597 7                  89184879.645 7
G27  24418212.106 6                  24418223.956 6 128318667.667 6                  99988522.170 6
G32  21858599.978 8                  21858606.754 7 114867637.710 8                  89507350.944 7
R01  21935816.867 7                 117259572.316 7
R02  19358218.727 8  19358221.590 7 103299266.843 8  80343805.550 7
R03  21036861.676 8  21036867.612 7 112612290.997 8  87587067.492 7
R17  19341418.474 8  19341424.160 7 103500059.744 8  80499899.619 7
R18  19886723.780 8  19886727.021 8 106156712.841 8  82566294.029 8
> 2025 06 15 11 53 25.0000000  0 22
C12  23733228.073 5  23733223.613 5 123585182.177 5  95563863.368 5
C19  22235402.952 7                 115785640.405 7
C20  25312843.842 5                 131810792.536 5
C22  22599823.335 7                 117683192.174 7
E04  26459061.412 7  26459062.941 8 139043282.868 7 105185365.758 8
E05  24672969.243 6  24672976.125 8 129657370.896 6  98084969.338 8
E06  25056014.100 7  25056017.318 8 131670210.037 7  99607700.038 8
E09  24721926.424 7  24721928.236 8 129914564.739 7  98279564.901 8
E34  24220007.385 8  24220009.566 9 127276970.882 8  96284230.270 9
E36  23670639.066 8  23670642.166 9 124390055.120 8  94100277.352 9
G01  20969798.245 7                  20969803.819 8 110197138.645 7                  85867856.464 8
G02  20601300.458 8  20601302.263 6                 108260686.783 8  84358891.015 6
G03  22330939.712 7                  22330948.393 7 117350064.321 7                  91441524.367 7
G08  21781463.431 7                  21781471.268 7 114462429.028 7                  89191482.284 7
G10  23382749.122 4                                 122877312.33014                
G27  24420809.543 6                  24420821.030 6 128332314.502 6                  99999155.954 6
G32  21858073.481 8                  21858080.875 7 114864872.673 8                  89505196.376 7
R01  21938234.011 7                 117272494.297 7
R02  19357445.200 8  19357448.297 7 103295139.738 8  80340595.578 7
R03  21032333.410 8  21032339.450 7 112588055.978 8  87568218.043 7
R17  19341450.243 8  19341454.522 7 103500226.027 8  80500028.944 7
R18  19883455.319 8  19883459.411 7 106139270.494 8  82552727.755 7
> 2025 06 15 11 53 30.0000000  0 21
C12  23729632.962 5  23729628.125 5 123566463.771 5  95549389.066 5
C19  22235119.779 7                 115784167.146 7
C20  25314654.966 5                 131820227.643 5
C22  22596424.468 7                 117665489.884 7
E04  26459682.076 7  26459683.846 8 139046545.177 7 105187833.670 8
E05  24668981.327 6  24668985.911 8 129636402.636 6  98069106.981 8
E06  25055421.319 7  25055424.259 8 131667094.087 7  99605342.825 8
E09  24720022.622 7  24720024.346 8 129904559.617 7  98271996.116 8
E34  24217398.695 8  24217400.786 9 127263261.388 8  96273859.139 9
E36  23670368.769 8  23670371.446 9 124388632.321 8  94099201.008 9
G01  20966809.899 7                  20966815.604 8 110181435.647 7                  85855620.351 8
G02  20600115.519 8  20600116.843 6                 108254457.218 8  84354036.790 6
G03  22326844.597 7                  22326852.799 6 117328543.648 7                  91424755.002 6
G08  21783078.311 7                  21783085.390 7 114470913.554 7                  89198093.604 7
G27  24423406.088 6                  24423418.248 6 128345963.908 6                 100009791.895 6
G32  21857549.756 8                  21857557.218 7 114862124.421 8                  89503054.903 7
R01  21940654.406 7                 117285426.432 7
R02  19356675.479 8  19356679.219 7 103291035.152 8  80337403.102 7
R03  21027808.241 8  21027815.535 7 112563834.442 8  87549379.120 7
R17  19341484.608 8  19341489.494 7 103500409.625 8  80500171.737 7
R18  19880190.405 8  19880194.132 7 106121840.911 8  82539171.422 7
> 2025 06 15 11 53 35.0000000  0 21
C12  23726038.542 5  23726034.229 5 123547751.237 5  95534919.354 5
C19  22234838.706 7                 115782706.374 7
C20  25316467.395 5                 131829667.227 5
C22  22593026.989 7                 117647797.463 7
E04  26460304.161 7  26460306.507 8 139049817.006 7 105190308.777 8
E05  24664991.095 7  24664996.582 8 129615438.672 7  98053247.924 8
E06  25054830.574 7  25054833.610 8 131663990.234 7  99602994.791 8
E09  24718120.724 7  24718122.750 8 129894566.674 7  98264436.543 8
E34  24214790.502 8  24214792.888 9 127249556.432 8  96263491.419 9
E36  23670099.094 8  23670101.873 9 124387215.742 8  94098129.376 9
G01  20963823.673 7                  20963828.707 8 110165740.953 7                  85843390.722 8
G02  20598931.820 8  20598933.569 6                 108248237.494 8  84349190.263 6
G03  22322750.139 6                  22322759.336 7 117307030.084 6                  91407991.229 7
G08  21784695.347 7                  21784702.563 7 114479408.139 7                  89204712.744 7
G27  24426004.609 6                  24426016.082 6 128359614.877 6                 100020428.981 6
G32  21857029.735 8                  21857037.603 7 114859391.940 8                  89500925.692 7
R01  21943074.766 7                 117298367.689 7
R02  19355910.548 8  19355914.129 7 103286951.998 8  80334227.305 7
R03  21023285.497 7  21023292.762 7 112539625.261 7  87530549.735 7
R17  19341522.412 7  19341527.077 7 103500609.582 7  80500327.250 7
R18  19876927.343 8  19876931.290 7 106104423.135 8  82525624.267 7
> 2025 06 15 11 53 40.0000000  0 21
C12  23722447.419 5  23722441.861 5 123529045.175 5  95520454.597 5
C19  22234561.257 7                 115781258.699 7
C20  25318281.056 5                 131839111.843 5
C22  22589631.903 7                 117630115.555 7
E04  26460928.588 7  26460931.059 8 139053099.005 7 105192791.590 8
E05  24661003.027 7  24661008.166 8 129594479.630 7  98037392.563 8
E06  25054242.371 7  25054245.305 8 131660899.123 7  99600656.384 8
E09  24716221.431 7  24716223.591 8 129884586.563 7  98256886.657 8
E34  24212183.417 8  24212185.906 9 127235856.601 8  96253127.593 9
E36  23669831.050 8  23669833.633 9 124385806.014 8  94097062.924 9
G01  20960839.213 7                  20960843.638 8 110150055.167 7                  85831168.034 8
G02  20597749.976 8  20597751.835 6                 108242028.262 8  84344351.900 6
G03  22318658.340 6                  22318667.306 7 117285524.332 6                  91391233.484 7
G08  21786312.580 7                  21786321.182 7 114487913.405 7                  89211340.208 7
G27  24428602.401 6                  24428614.106 6 128373268.011 6                 100031067.745 6
G32  21856513.387 8                  21856520.590 7 114856675.843 8                  89498809.254 7
R01  21945497.561 7                 117311318.458 7
R02  19355148.903 8  19355152.554 7 103282890.970 8  80331068.754 7
R03  21018767.300 8  21018772.076 7 112515429.340 8  87511730.698 7
R17  19341563.307 7  19341567.575 7 103500826.329 7  80500495.804 7
R18  19873666.289 8  19873670.260 7 106087017.700 8  82512086.709 7
> 2025 06 15 11 53 45.0000000  0 21
C12  23718856.624 5  23718850.216 5 123510345.783 5  95505995.077 5
C19  22234285.442 7                 115779824.246 7
C20  25320095.576 5                 131848561.664 5
C22  22586238.199 7                 117612444.299 7
E04  26461555.434 7  26461557.636 8 139056391.257 7 105195282.143 8
E05  24657014.852 7  24657020.798 8 129573525.736 7  98021541.086 8
E06  25053656.985 7  25053659.478 8 131657820.807 7  99598327.674 8
E09  24714325.207 7  24714326.929 8 129874619.376 7  98249346.540 8
E34  24209577.485 8  24209580.059 9 127222162.045 8  96242767.749 9
E36  23669563.831 8  23669566.678 9 124384403.245 8  94096001.730 9
G01  20957856.069 7                  20957860.153 8 110134378.435 7                  85818952.412 8
G02  20596570.248 8  20596572.637 7                 108235829.608 8  84339521.779 7
G03  22314567.267 6                  22314576.491 7 117264026.464 6                  91374481.930 7
G08  21787933.428 7                  21787941.542 7 114496429.462 7                  89217976.078 7
G27  24431200.991 6                  24431212.382 6 128386923.446 6                 100041708.275 6
G32  21855999.637 8                  21856006.593 7 114853976.231 8                  89496705.639 7
R01  21947922.299 7                 117324279.154 7
R02  19354392.558 8  19354396.072 7 103278852.045 8  80327927.386 7
R03  21014249.818 8  21014254.858 7 112491246.571 8  87492921.869 7
R17  19341606.717 8  19341611.008 7 103501060.128 8  80500677.645 7
R18  19870407.902 8  19870412.064 7 106069624.750 8  82498558.874 7
> 2025 06 15 11 53 50.0000000  0 21
C12  23715265.914 5  23715260.757 5 123491652.654 5  95491540.337 5
C19  22234012.631 7                 115778402.589 7
C20  25321912.556 5                 131858016.281 5
C22  22582846.361 7                 117594783.284 7
E04  26462184.028 7  26462186.001 8 139059693.350 7 105197780.146 8
E05  24653028.491 7  24653034.230 8 129552576.445 7  98005693.100 8
E06  25053073.424 7  25053076.083 8 131654754.911 7  99596008.353 8
E09  24712431.321 7  24712432.677 8 129864664.677 7  98241815.884 8
E34  24206972.289 8  24206974.989 9 127208472.347 8  96232411.582 9
E36  23669298.140 7  23669301.001 9 124383007.029 7  94094945.499 9
G01  20954873.463 7                  20954878.663 8 110118710.360 7                  85806743.517 8
G02  20595392.962 8  20595394.416 6                 108229641.163 8  84334699.622 6
G03  22310477.702 6                  22310486.664 7 117242536.062 6                  91357736.178 7
G08  21789555.630 7                  21789564.102 7 114504955.870 7                  89224620.031 7
G27  24433799.918 6                  24433811.907 6 128400580.734 6                 100052350.335 6
G32  21855489.271 8                  21855496.359 7 114851292.683 8                  89494614.558 7
R01  21950347.835 6                 117337249.130 6
R02  19353639.573 8  19353643.608 7 103274835.059 8  80324803.054 7
R03  21009733.754 8  21009739.524 7 112467076.535 8  87474123.002 7
R17  19341653.824 8  19341657.877 7 103501310.536 8  80500872.394 7
R18  19867151.676 8  19867156.090 7 106052243.879 8  82485040.427 7
> 2025 06 15 11 53 55.0000000  0 21
C12  23711676.580 5  23711672.768 5 123472965.955 5  95477090.600 5
C19  22233742.329 7                 115776993.918 7
C20  25323729.227 5                 131867475.836 5
C22  22579456.036 7                 117577132.679 7
E04  26462814.529 7  26462816.288 8 139063005.465 7 105200285.728 8
E05  24649043.260 7  24649048.637 8 129531632.029 7  97989848.805 8
E06  25052491.855 7  25052495.074 8 131651701.663 7  99593698.577 8
E09  24710538.830 7  24710540.759 8 129854722.694 7  98234294.844 8
E34  24204367.985 8  24204370.903 9 127194787.704 8  96222059.237 9
E36  23669034.010 7  23669036.554 9 124381617.542 7  94093894.371 9
G01  20951894.211 7                  20951898.429 8 110103051.122 7                  85794541.491 8
G02  20594217.128 8  20594218.503 6                 108223463.104 8  84329885.542 6
G03  22306389.061 6                  22306398.423 7 117221053.355 6                  91340996.410 7
G08  21791180.455 7                  21791189.278 7 114513492.823 7                  89231272.200 7
G27  24436399.075 6                  24436411.424 6 128414240.054 6                 100062993.898 6
G32  21854981.882 8                  21854988.902 7 114848625.389 8                  89492536.126 7
R01  21952775.381 6                 117350228.676 6
R02  19352890.297 8  19352894.665 7 103270839.988 8  80321695.766 7
R03  21005220.897 8  21005227.002 7 112442919.529 8  87455334.245 7
R17  19341703.582 8  19341707.819 7 103501577.763 8  80501080.253 7
R18  19863898.812 8  19863902.698 7 106034875.367 8  82471531.598 7
> 2025 06 15 11 54  0.0000000  0 22
C12  23708088.664 5  23708085.910 5 123454284.688 5  95462645.102 5
C19  22233474.598 7                 115775597.206 7
C20  25325546.652 5                 131876939.359 5
C22  22576068.536 7                 117559491.488 7
E04  26463446.567 7  26463448.278 8 139066326.558 7 105202798.110 8
E05  24645057.926 7  24645063.708 8 129510691.459 7  97974007.427 8
E06  25051914.167 7  25051916.267 8 131648659.981 7  99591397.559 8
E09  24708648.894 7  24708651.010 8 129844792.367 7  98226782.617 8
E34  24201764.399 8  24201767.578 9 127181107.080 8  96211709.947 9
E36  23668771.103 7  23668773.246 9 124380233.780 7  94092847.554 9
G01  20948916.339 7                  20948920.007 8 110087399.714 7                  85782345.575 8
G02  20593043.264 8  20593044.410 6                 108217294.401 8  84325078.756 6
G03  22302303.469 7                  22302311.809 7 117199577.308 7                  91324261.832 7
G08  21792806.861 7                  21792815.613 7 114522039.279 7                  89237931.770 7
G10  23394753.764 5                                 122940241.80115                
G27  24438998.877 6                  24439011.014 6 128427900.384 6                 100073638.272 6
G32  21854477.742 8                  21854484.358 7 114845973.285 8                  89490469.558 7
R01  21955205.253 6                 117363216.609 6
R02  19352146.270 8  19352149.930 7 103266865.800 8  80318604.705 7
R03  21000710.578 8  21000717.481 7 112418774.475 8  87436554.764 7
R17  19341756.428 8  19341760.518 7 103501860.804 8  80501300.369 7
R18  19860646.636 8  19860650.644 7 106017518.113 8  82458031.501 7
> 2025 06 15 11 54  5.0000000  0 22
C12  23704502.885 5  23704499.393 5 123435609.626 5  95448204.346 5
C19  22233209.261 7                 115774213.170 7
C20  25327364.906 5                 131886407.489 5
C22  22572682.380 8                 117541860.471 8
E04  26464080.589 7  26464082.083 8 139069657.380 7 105205317.861 8
E05  24641073.468 7  24641079.653 8 129489755.496 7  97958169.523 8
E06  25051337.182 7  25051339.884 8 131645630.613 7  99589105.865 8
E09  24706761.440 7  24706763.675 8 129834874.470 7  98219279.798 8
E34  24199161.822 8  24199165.112 9 127167431.226 8  96201364.260 9
E36  23668508.730 7  23668511.138 9 124378856.479 7  94091805.632 9
G01  20945939.572 8                  20945943.635 8 110071756.859 8                  85770156.356 8
G02  20591871.245 8  20591872.384 6                 108211135.811 8  84320279.859 6
G03  22298218.742 7                  22298226.846 7 117178108.678 7                  91307533.058 7
G08  21794434.949 7                  21794443.276 7 114530595.965 7                  89244599.303 7
G10  23396460.047 5                  23396452.833 5 122949248.404 5                  95804565.68915
G27  24441597.868 6                  24441610.904 6 128441562.482 6                 100084284.035 6
G32  21853975.208 8                  21853982.179 7 114843337.172 8                  89488415.428 7
R01  21957634.989 6                 117376213.873 6
R02  19351406.360 8  19351409.521 7 103262913.411 8  80315530.633 7
R03  20996201.889 8  20996208.943 7 112394642.161 8  87417785.229 7
R17  19341811.513 8  19341816.573 7 103502160.339 8  80501533.346 7
R18  19857397.595 8  19857401.924 7 106000172.886 8  82444540.770 7
> 2025 06 15 11 54 10.0000000  0 22
C12  23700917.216 5  23700913.323 5 123416940.544 5  95433768.251 5
C19  22232944.631 7                 115772841.680 7
C20  25329184.444 5                 131895880.142 5
C22  22569298.227 7                 117524239.438 7
E04  26464716.377 7  26464717.743 8 139072997.771 7 105207844.834 8
E05  24637090.423 7  24637096.510 8 129468823.963 7  97942334.967 8
E06  25050763.077 7  25050765.797 8 131642613.384 7  99586823.357 8
E09  24704876.300 7  24704878.621 8 129824968.850 7  98211786.265 8
E34  24196560.438 8  24196563.518 9 127153759.998 8  96191022.066 9
E36  23668247.721 7  23668250.228 9 124377485.482 7  94090768.474 9
G01  20942964.676 7                  20942968.204 8 110056122.446 7                  85757973.681 8
G02  20590701.357 7  20590702.575 7                 108204987.188 7  84315488.727 7
G03  22294134.375 7                  22294143.165 7 117156647.276 7                  91290809.915 7
G08  21796065.116 7                  21796073.053 7 114539162.753 7                  89251274.697 7
G10  23398167.200 5                  23398168.238 5 122958258.762 5                  95811586.724 5
G27  24444198.562 6                  24444210.993 6 128455226.141 6                 100094930.997 6
G32  21853476.609 8                  21853483.466 7 114840716.893 8                  89486373.633 7
R01  21960069.790 6                 117389220.305 6
R02  19350669.618 8  19350672.343 7 103258982.477 8  80312473.244 7
R03  20991695.371 8  20991703.258 7 112370522.349 8  87399025.366 7
R17  19341871.104 8  19341875.006 7 103502476.213 8  80501779.019 7
R18  19854150.747 8  19854154.399 7 105982839.534 8  82431059.284 7
> 2025 06 15 11 54 15.0000000  0 22
C12  23697332.943 5  23697328.664 5 123398278.331 5  95419337.431 5
C19  22232684.299 7                 115771483.502 7
C20  25331004.747 5                 131905358.085 5
C22  22565916.366 7                 117506629.200 7
E04  26465353.735 7  26465355.305 8 139076348.510 7 105210379.645 8
E05  24633109.367 7  24633114.266 8 129447897.704 7  97926504.387 8
E06  25050190.443 7  25050194.199 8 131639609.100 7  99584550.653 8
E09  24702994.024 7  24702996.061 8 129815076.273 7  98204302.585 8
E34  24193959.910 8  24193962.959 9 127140094.175 8  96180683.960 9
E36  23667988.143 8  23667990.652 9 124376121.552 8  94089736.677 9
G01  20939991.171 7                  20939994.810 8 110040497.227 7                  85745798.193 8
G02  20589533.435 8  20589534.497 7                 108198849.310 8  84310705.961 7
G03  22290051.026 7                  22290060.732 7 117135193.935 7                  91274093.067 7
G08  21797698.021 7                  21797704.914 7 114547740.321 7                  89257958.495 7
G10  23399878.259 5                  23399885.408 5 122967273.594 5                  95818611.242 5
G27  24446799.425 6                  24446810.809 6 128468892.127 6                 100105579.785 6
G32  21852981.017 8                  21852988.507 7 114838113.153 8                  89484344.749 7
R01  21962504.207 6                 117402236.370 6
R02  19349937.356 8  19349939.903 7 103255073.735 8  80309433.119 7
R03  20987193.822 8  20987199.950 7 112346416.298 8  87380276.209 7
R17  19341934.049 8  19341937.793 7 103502809.240 8  80502038.034 7
R18  19850905.767 8  19850909.633 7 105965518.900 8  82417587.694 7
> 2025 06 15 11 54 20.0000000  0 22
C12  23693749.744 5  23693745.546 5 123379622.724 5  95404911.773 5
C19  22232425.933 7                 115770138.408 7
C20  25332823.612 5                 131914841.187 5
C22  22562536.731 7                 117489029.579 7
E04  26465993.338 7  26465994.835 8 139079709.396 7 105212922.128 8
E05  24629127.980 7  24629133.048 8 129426976.482 7  97910677.639 8
E06  25049621.335 7  25049625.004 8 131636617.592 7  99582287.596 8
E09  24701114.109 7  24701115.986 8 129805196.556 7  98196828.658 8
E34  24191360.141 8  24191363.373 9 127126433.567 8  96170349.813 9
E36  23667729.600 8  23667732.403 9 124374764.541 8  94088710.099 9
G01  20937019.012 7                  20937023.159 8 110024881.053 7                  85733629.748 8
G02  20588367.803 8  20588369.057 6                 108192722.063 8  84305931.473 6
G03  22285969.995 7                  22285979.480 7 117113748.465 7                  91257382.333 7
G08  21799332.008 7                  21799339.452 7 114556328.581 7                  89264650.661 7
G10  23401591.593 5                  23401604.649 4 122976292.744 5                  95825639.187 4
G27  24449401.405 6                  24449412.083 6 128482560.245 6                 100116230.223 6
G32  21852489.273 8                  21852495.925 7 114835525.820 8                  89482328.664 7
R01  21964940.453 7                 117415262.132 7
R02  19349209.141 8  19349212.039 7 103251187.213 8  80306410.268 7
R03  20982691.082 8  20982699.003 7 112322323.107 8  87361537.109 7
R17  19341999.296 8  19342002.967 7 103503159.187 8  80502310.201 7
R18  19847663.706 8  19847667.223 7 105948210.807 8  82404125.856 7
> 2025 06 15 11 54 25.0000000  0 22
C12  23690169.100 5  23690165.231 5 123360972.856 5  95390490.517 5
C19  22232169.922 7                 115768805.536 7
C20  25334645.043 5                 131924328.338 5
C22  22559158.824 7                 117471439.684 7
E04  26466634.694 7  26466636.057 8 139083079.543 7 105215471.614 8
E05  24625147.159 7  24625152.599 8 129406059.427 7  97894854.041 8
E06  25049054.350 7  25049058.049 8 131633637.944 7  99580033.507 8
E09  24699235.288 7  24699238.232 8 129795328.831 7  98189363.803 8
E34  24188761.690 8  24188764.657 9 127112777.305 8  96160018.940 9
E36  23667472.512 8  23667475.278 9 124373413.535 8  94087688.077 9
G01  20934048.480 7                  20934053.176 8 110009273.022 7                  85721467.650 8
G02  20587203.496 8  20587205.082 6                 108186604.450 8  84301164.487 6
G03  22281890.950 7                  22281899.945 7 117092309.983 7                  91240677.029 7
G08  21800968.604 7                  21800975.215 7 114564926.572 7                  89271350.374 7
G10  23403309.126 6                  23403322.847 4 122985315.281 6                  95832669.737 4
G27  24452003.215 6                  24452013.343 6 128496229.650 6                 100126881.660 6
G32  21851999.601 8                  21852006.639 7 114832953.973 8                  89480324.641 7
R01  21967380.813 7                 117428296.521 7
R02  19348483.903 8  19348487.927 7 103247321.913 8  80303403.927 7
R03  20978193.545 7  20978200.655 7 112298242.381 7  87342807.660 7
R17  19342067.237 8  19342071.478 7 103503525.300 8  80502594.957 7
R18  19844423.226 8  19844426.584 8 105930914.363 8  82390673.054 8
> 2025 06 15 11 54 30.0000000  0 22
C12  23686587.557 5  23686585.346 5 123342329.531 5  95376074.295 5
C19  22231916.764 7                 115767485.605 7
C20  25336466.393 4                 131933820.438 4
C22  22555783.013 7                 117453860.219 7
E04  26467277.792 7  26467279.223 8 139086459.658 7 105218028.642 8
E05  24621167.036 7  24621173.126 8 129385147.310 7  97879034.169 8
E06  25048490.270 7  25048493.461 8 131630670.851 7  99577788.919 8
E09  24697360.978 7  24697362.870 8 129785473.802 7  98181908.518 8
E34  24186163.994 8  24186166.893 9 127099126.070 8  96149691.883 9
E36  23667216.922 8  23667219.438 9 124372069.255 8  94086671.137 9
G01  20931079.621 7                  20931084.494 8 109993673.858 7                  85709312.451 8
G02  20586041.184 8  20586042.935 6                 108180497.201 8  84296405.594 6
G03  22277813.205 7                  22277821.333 7 117070879.198 7                  91223977.717 7
G08  21802606.161 7                  21802613.515 7 114573535.030 7                  89278058.236 7
G10  23405026.064 5                  23405044.281 4 122994341.997 5                  95839703.559 4
G27  24454604.749 6                  24454615.229 6 128509900.967 6                 100137534.606 6
G32  21851513.282 8                  21851520.719 7 114830398.349 8                  89478333.247 7
R01  21969820.887 7                 117441340.371 7
R02  19347764.026 8  19347767.230 7 103243478.471 8  80300414.584 7
R03  20973698.427 8  20973704.552 7 112274174.851 8  87324088.469 7
R17  19342138.094 8  19342143.373 7 103503908.149 8  80502892.726 7
R18  19841185.706 8  19841189.184 7 105913630.261 8  82377229.874 7
> 2025 06 15 11 54 35.0000000  0 22
C12  23683008.767 5  23683007.676 5 123323692.695 5  95361663.118 5
C19  22231665.841 7                 115766178.658 7
C20  25338291.100 4                 131943317.404 4
C22  22552409.263 7                 117436291.284 7
E04  26467922.133 7  26467924.299 8 139089849.759 7 105220593.232 8
E05  24617189.585 7  24617194.659 8 129364240.124 7  97863218.045 8
E06  25047927.865 7  25047931.307 8 131627716.420 7  99575553.913 8
E09  24695488.032 7  24695489.940 8 129775631.567 7  98174462.933 8
E34  24183567.199 8  24183570.076 9 127085479.984 8  96139368.711 9
E36  23666962.477 8  23666964.945 8 124370731.769 8  94085659.330 8
G01  20928113.273 7                  20928117.617 8 109978083.627 7                  85697164.227 8
G02  20584880.647 8  20584882.562 6                 108174400.383 8  84291654.828 6
G03  22273737.189 7                  22273744.400 6 117049456.222 7                  91207284.477 6
G08  21804245.970 7                  21804253.648 7 114582153.964 7                  89284774.273 7
G10  23406744.652 5                  23406765.967 3 123003372.865 5                  95846740.715 3
G27  24457204.113 6                  24457217.225 6 128523574.265 6                 100148189.087 6
G32  21851030.038 8                  21851037.025 7 114827858.968 8                  89476354.521 7
R01  21972261.816 7                 117454393.585 7
R02  19347047.395 8  19347051.119 7 103239657.058 8  80297442.361 7
R03  20969203.456 8  20969210.523 7 112250120.365 8  87305379.440 7
R17  19342212.998 7  19342217.615 7 103504307.805 7  80503203.574 7
R18  19837949.954 8  19837953.462 7 105896358.601 8  82363796.356 7
> 2025 06 15 11 54 40.0000000  0 22
C12  23679430.505 5  23679429.638 5 123305061.983 5  95347256.691 5
C19  22231416.947 7                 115764884.268 7
C20  25340117.695 5                 131952818.917 5
C22  22549037.437 7                 117418732.444 7
E04  26468569.001 7  26468571.266 8 139093249.484 7 105223165.093 8
E05  24613212.073 7  24613217.035 8 129343337.540 7  97847405.399 8
E06  25047367.910 7  25047371.368 8 131624774.166 7  99573328.120 8
E09  24693617.776 7  24693619.432 8 129765801.663 7  98167026.669 8
E34  24180971.080 8  24180974.138 9 127071838.604 8  96129049.101 9
E36  23666708.847 8  23666711.637 9 124369400.657 8  94084652.359 9
G01  20925147.978 7                  20925152.768 8 109962501.920 7                  85685022.640 8
G02  20583722.734 8  20583724.137 6                 108168313.622 8  84286911.908 6
G03  22269661.742 7                  22269669.466 6 117028040.548 7                  91190596.958 6
G08  21805888.171 7                  21805895.876 7 114590782.972 7                  89291498.185 7
G10  23408462.950 5                                 123012407.512 5                
G27  24459806.966 6                  24459819.925 5 128537249.229 6                 100158844.887 5
G32  21850549.675 8                  21850556.267 7 114825335.466 8                  89474388.140 7
R01  21974706.642 7                 117467455.816 7
R02  19346334.820 8  19346338.797 7 103235857.079 8  80294486.834 7
R03  20964711.523 7  20964719.357 7 112226078.628 7  87286680.352 7
R17  19342291.723 8  19342295.284 7 103504723.853 8  80503527.164 7
R18  19834716.684 8  19834719.906 7 105879098.979 8  82350372.218 7
> 2025 06 15 11 54 45.0000000  0 22
C12  23675852.895 5  23675853.651 5 123286437.027 5  95332854.653 5
C19  22231170.515 7                 115763601.969 7
C20  25341944.044 5                 131962324.479 5
C22  22545667.120 7                 117401183.257 7
E04  26469218.346 7  26469220.012 8 139096658.323 7 105225743.840 8
E05  24609235.275 7  24609240.199 8 129322439.039 7  97831595.820 8
E06  25046810.793 7  25046813.706 8 131621843.659 7  99571111.222 8
E09  24691749.383 7  24691751.072 8 129755983.603 7  98159599.375 8
E34  24178376.534 8  24178378.990 9 127058201.462 8  96118732.689 9
E36  23666456.347 8  23666459.458 9 124368075.441 8  94083649.847 9
G01  20922184.375 7                  20922189.432 8 109946928.289 7                  85672887.379 8
G02  20582565.989 8  20582567.435 6                 108162236.406 8  84282176.432 6
G03  22265587.211 7                  22265595.234 6 117006631.822 7                  91173914.842 6
G08  21807532.111 7                  21807539.548 7 114599421.561 7                  89298229.548 7
G10  23410185.540 6                                 123021445.494 6                
G27  24462409.348 6                  24462421.839 5 128550925.170 6                 100169501.431 5
G32  21850072.683 8                  21850079.513 7 114822827.332 8                  89472433.767 7
R01  21977151.277 7                 117480526.466 7
R02  19345627.499 8  19345630.757 7 103232078.178 8  80291547.686 7
R03  20960223.863 7  20960230.892 7 112202049.349 7  87267990.881 7
R17  19342372.120 8  19342375.961 7 103505155.913 8  80503863.206 7
R18  19831485.321 8  19831488.703 7 105861850.908 8  82336957.066 7
> 2025 06 15 11 54 50.0000000  0 22
C12  23672280.483 5  23672277.180 4 123267819.611 5  95318458.471 4
C19  22230927.031 7                 115762333.639 7
C20  25343770.485 5                 131971835.967 5
C22  22542298.945 7                 117383645.630 7
E04  26469869.641 7  26469870.764 8 139100078.151 7 105228330.930 8
E05  24605259.571 7  24605264.533 8 129301546.576 7  97815790.834 8
E06  25046255.474 7  25046258.619 9 131618926.795 7  99568904.622 9
E09  24689883.902 7  24689885.421 8 129746179.326 7  98152182.513 8
E34  24175782.599 8  24175785.071 9 127044570.448 8  96108420.917 9
E36  23666206.007 8  23666208.764 9 124366758.051 8  94082653.238 9
G01  20919223.131 7                  20919227.524 8 109931364.589 7                  85660759.822 8
G02  20581412.371 8  20581412.891 6                 108156170.731 8  84277449.919 6
G03  22261514.747 7                  22261523.239 7 116985231.866 7                  91157239.585 7
G08  21809178.318 7                  21809185.551 7 114608071.661 7                  89304969.881 7
G10  23411905.674 6                  23411913.391 4 123030488.677 6                  95867869.64614
G27  24465013.075 6                  24465024.456 5 128564604.149 6                 100180160.346 5
G32  21849598.740 8                  21849605.524 7 114820336.462 8                  89470492.828 7
R01  21979595.669 7                 117493607.547 7
R02  19344923.124 8  19344926.984 7 103228322.376 8  80288626.509 7
R03  20955737.496 8  20955744.188 7 112178034.270 8  87249312.512 7
R17  19342456.018 7  19342460.135 7 103505605.833 7  80504213.151 7
R18  19828256.435 8  19828260.279 7 105844616.396 8  82323552.420 7
> 2025 06 15 11 54 55.0000000  0 22
C12  23668707.180 5  23668702.166 4 123249210.652 5  95304068.874 4
C19  22230686.089 7                 115761080.085 7
C20  25345597.251 5                 131981354.155 5
C22  22538933.329 7                 117366120.346 7
E04  26470522.340 7  26470523.897 8 139103509.834 7 105230926.963 8
E05  24601284.906 7  24601290.120 8 129280660.923 7  97799990.980 8
E06  25045703.384 7  25045706.313 8 131616024.395 7  99566708.982 8
E09  24688019.698 7  24688022.613 8 129736389.727 7  98144776.731 8
E34  24173190.112 8  24173192.443 9 127030946.424 8  96098114.431 9
E36  23665957.434 8  23665959.698 9 124365449.287 8  94081663.165 9
G01  20916263.956 7                  20916268.302 8 109915811.760 7                  85648640.736 8
G02  20580259.963 8  20580261.056 6                 108150117.336 8  84272732.994 6
G03  22257443.830 7                  22257452.879 7 116963841.557 7                  91140571.822 7
G08  21810827.201 7                  21810834.281 7 114616734.051 7                  89311719.777 7
G10  23413623.393 5                                                                
G27  24467616.928 6                  24467627.834 5 128578286.955 6                 100190822.214 5
G32  21849127.515 8                  21849135.097 7 114817863.688 8                  89468565.999 7
R01  21982046.161 7                 117506700.025 7
R02  19344224.370 8  19344227.536 7 103224590.187 8  80285723.699 7
R03  20951252.515 7  20951260.798 7 112154034.308 7  87230645.893 7
R17  19342543.401 8  19342548.418 7 103506074.438 8  80504577.630 7
R18  19825031.249 8  19825034.184 7 105827396.258 8  82310158.964 7
> 2025 06 15 11 55  0.0000000  0 22
C12  23665134.779 5  23665127.783 3 123230609.892 5  95289685.626 3
C19  22230448.578 7                 115759841.110 7
C20  25347427.045 5                 131990878.831 5
C22  22535569.555 7                 117348607.224 7
E04  26471177.488 7  26471179.265 8 139106953.108 7 105233531.784 8
E05  24597311.776 7  24597317.014 8 129259781.945 7  97784196.202 8
E06  25045153.906 7  25045156.703 8 131613136.210 7  99564524.094 8
E09  24686159.332 7  24686162.437 8 129726614.504 7  98137381.849 8
E34  24170598.837 8  24170601.146 9 127017329.142 8  96087813.048 9
E36  23665709.992 8  23665712.255 9 124364148.928 8  94080679.447 9
G01  20913305.852 7                  20913310.463 8 109900269.488 7                  85636529.868 8
G02  20579110.226 8  20579111.528 6                 108144076.039 8  84268025.486 6
G03  22253374.408 7                  22253384.521 7 116942460.661 7                  91123911.394 7
G08  21812477.213 7                  21812484.873 7 114625408.498 7                  89318479.059 7
G10  23415344.405 5                  23415360.588 4 123048592.75215                  95881976.63814
G27  24470221.487 6                  24470232.822 5 128591973.311 6                 100201486.934 5
G32  21848660.708 8                  21848667.931 7 114815408.832 8                  89466653.127 7
R01  21984496.934 7                 117519803.483 7
R02  19343529.147 8  19343532.587 7 103220881.719 8  80282839.339 7
R03  20946773.171 7  20946780.358 7 112130049.001 7  87211990.649 7
R17  19342633.935 8  19342639.228 7 103506561.581 8  80504956.496 7
R18  19821808.094 8  19821811.019 7 105810190.296 8  82296776.543 7
> 2025 06 15 11 55  5.0000000  0 22
C12  23661563.929 5  23661556.436 4 123212015.904 5  95275307.653 4
C19  22230212.855 7                 115758615.224 7
C20  25349258.531 5                 132000408.579 5
C22  22532208.574 7                 117331104.815 7
E04  26471834.341 7  26471836.506 8 139110406.539 7 105236144.268 8
E05  24593339.242 7  24593344.842 8 129238908.146 7  97768405.320 8
E06  25044606.424 7  25044609.559 8 131610260.813 7  99562348.886 8
E09  24684302.157 7  24684304.701 8 129716852.193 7  98129996.729 8
E34  24168008.904 8  24168010.923 9 127003717.187 8  96077515.691 9
E36  23665463.665 8  23665466.145 9 124362855.539 8  94079701.001 9
G01  20910350.126 7                  20910354.859 8 109884736.344 7                  85624426.108 8
G02  20577962.405 8  20577963.706 6                 108138045.353 8  84263326.242 6
G03  22249308.179 7                  22249317.077 7 116921087.765 7                  91107257.200 7
G08  21814130.054 7                  21814137.848 7 114634093.535 7                  89325246.630 7
G10  23417072.023 5                  23417081.532 3 123057652.106 5                  95889035.903 3
G27  24472827.075 6                  24472837.446 5 128605661.742 6                 100212153.105 5
G32  21848196.677 8                  21848204.061 7 114812970.334 8                  89464753.017 7
R01  21986949.578 7                 117532916.400 7
R02  19342838.194 8  19342841.609 7 103217195.331 8  80279972.140 7
R03  20942294.505 8  20942302.144 7 112106077.068 8  87193345.839 7
R17  19342728.026 8  19342733.234 7 103507065.791 8  80505348.664 7
R18  19818586.824 8  19818590.489 7 105792996.979 8  82283403.986 7
> 2025 06 15 11 55 10.0000000  0 22
C12  23657995.350 5  23657987.554 4 123193428.373 5  95260934.601 4
C19  22229979.817 7                 115757402.222 7
C20  25351089.442 5                 132009943.100 5
C22  22528849.572 8                 117313612.880 8
E04  26472494.207 7  26472495.565 8 139113869.886 7 105238764.260 8
E05  24589369.334 7  24589373.689 8 129218039.281 7  97752618.183 8
E06  25044061.552 7  25044064.752 8 131607397.987 7  99560183.183 8
E09  24682446.503 7  24682449.473 8 129707102.635 7  98122621.236 8
E34  24165419.067 8  24165421.620 9 126990110.291 8  96067222.173 9
E36  23665219.712 8  23665221.287 9 124361568.877 8  94078727.654 9
G01  20907396.383 7                  20907400.764 8 109869212.146 7                  85612329.330 8
G02  20576816.642 8  20576817.743 6                 108132025.104 8  84258635.156 6
G03  22245242.134 7                  22245251.332 7 116899722.607 7                  91090609.008 7
G08  21815784.585 7                  21815792.114 7 114642788.936 7                  89332022.265 7
G10  23418797.566 5                  23418806.030 3 123066715.341 5                  95896098.074 3
G27  24475429.631 5                  24475440.118 5 128619352.101 5                 100222820.881 5
G32  21847735.301 8                  21847742.792 7 114810548.046 8                  89462865.478 7
R01  21989405.962 7                 117546038.623 7
R02  19342151.583 8  19342154.819 7 103213530.902 8  80277122.033 7
R03  20937819.946 8  20937827.124 7 112082118.592 8  87174711.466 7
R17  19342825.140 8  19342830.718 7 103507586.722 8  80505753.844 7
R18  19815368.274 8  19815371.986 7 105775816.142 8  82270041.113 7
> 2025 06 15 11 55 15.0000000  0 22
C12  23654426.406 5  23654420.683 4 123174847.565 5  95246566.656 4
C19  22229748.913 7                 115756202.202 7
C20  25352920.595 5                 132019482.541 5
C22  22525493.070 7                 117296131.522 7
E04  26473154.277 7  26473156.569 8 139117343.218 7 105241391.801 8
E05  24585398.290 7  24585403.391 8 129197175.533 7  97736834.908 8
E06  25043519.039 7  25043522.411 8 131604547.801 7  99558027.036 8
E09  24680594.045 7  24680596.619 8 129697365.849 7  98115255.432 8
E34  24162831.060 8  24162833.316 9 126976508.581 8  96056932.566 9
E36  23664975.058 8  23664977.798 9 124360289.040 8  94077759.471 9
G01  20904443.975 7                  20904448.823 8 109853696.973 7                  85600239.577 8
G02  20575673.084 8  20575673.831 6                 108126015.383 8  84253952.243 6
G03  22241178.319 7                  22241186.880 6 116878365.350 7                  91073967.004 6
G08  21817440.907 7                  21817449.097 7 114651494.815 7                  89338806.055 7
G10  23420520.290 4                  23420532.715 5 123075782.808 4                  95903163.760 5
G27  24478037.165 6                  24478046.742 5 128633044.398 6                 100233490.093 5
G32  21847278.380 8                  21847284.805 7 114808142.024 8                  89460990.671 7
R01  21991862.430 7                 117559170.225 7
R02  19341468.426 8  19341472.095 7 103209888.238 8  80274288.861 7
R03  20933347.030 8  20933353.572 7 112058173.340 8  87156087.403 7
R17  19342926.698 8  19342931.003 7 103508124.617 8  80506172.178 7
R18  19812152.826 8  19812156.086 7 105758647.902 8  82256688.041 7
> 2025 06 15 11 55 20.0000000  0 21
C12  23650859.989 5  23650854.594 4 123156272.841 5  95232203.405 4
C19  22229520.862 7                 115755014.602 7
C20  25354753.593 5                 132029026.349 5
C22  22522137.306 7                 117278660.271 7
E04  26473817.385 7  26473819.392 8 139120825.986 7 105244026.477 8
E05  24581427.915 7  24581434.022 8 129176316.289 7  97721055.045 8
E06  25042979.339 7  25042982.345 8 131601709.727 7  99555880.028 8
E09  24678744.148 7  24678746.156 8 129687641.373 7  98107898.915 8
E34  24160243.325 8  24160245.897 9 126962911.505 8  96046646.479 9
E36  23664733.138 8  23664735.409 8 124359015.482 8  94076796.032 8
G01  20901492.598 7                  20901497.697 8 109838190.256 7                  85588156.426 8
G02  20574531.262 8  20574532.320 6                 108120015.638 8  84249277.116 6
G03  22237116.189 7                  22237124.396 7 116857015.345 7                  91057330.656 7
G08  21819099.353 7                  21819107.804 7 114660210.578 7                  89345597.545 7
G27  24480642.991 5                  24480653.073 5 128646738.063 5                 100244160.439 5
G32  21846823.531 8                  21846830.203 7 114805751.737 8                  89459128.129 7
R01  21994320.510 7                 117572310.451 7
R02  19340789.822 8  19340793.676 7 103206266.952 8  80271472.296 7
R03  20928876.344 8  20928882.941 7 112034240.993 8  87137473.386 7
R17  19343029.553 8  19343034.697 7 103508678.781 8  80506603.203 7
R18  19808939.029 8  19808941.561 7 105741491.727 8  82243344.376 7
> 2025 06 15 11 55 25.0000000  0 21
C12  23647292.597 5  23647289.352 3 123137704.588 5  95217845.231 3
C19  22229295.550 7                 115753839.675 7
C20  25356585.654 5                 132038574.668 5
C22  22518784.661 8                 117261199.316 8
E04  26474481.787 7  26474483.990 8 139124318.428 7 105246668.485 8
E05  24577460.112 7  24577465.507 8 129155461.854 7  97705278.826 8
E06  25042442.255 7  25042444.584 8 131598883.967 7  99553742.369 8
E09  24676895.721 7  24676897.975 8 129677929.426 7  98100551.905 8
E34  24157656.672 8  24157659.484 9 126949319.331 8  96036364.080 9
E36  23664491.612 8  23664494.266 9 124357748.472 8  94075837.549 9
G01  20898543.611 7                  20898548.730 8 109822692.278 7                  85576080.100 8
G02  20573391.553 7  20573393.179 6                 108114026.101 7  84244609.932 6
G03  22233054.884 7                  22233062.882 7 116835672.918 7                  91040700.204 7
G08  21820760.307 7                  21820767.752 7 114668936.490 7                  89352396.896 7
G27  24483248.524 6                  24483260.054 5 128660433.394 6                 100254832.101 5
G32  21846371.876 8                  21846378.437 7 114803377.410 8                  89457277.999 7
R01  21996778.905 7                 117585459.786 7
R02  19340115.655 8  19340119.595 7 103202667.551 8  80268672.761 7
R03  20924407.039 7  20924414.080 7 112010321.640 7  87118869.440 7
R17  19343137.775 7  19343141.723 7 103509249.533 7  80507047.121 7
R18  19805726.685 8  19805730.050 7 105724347.849 8  82230010.240 7
> 2025 06 15 11 55 30.0000000  0 22
C12  23643727.277 5  23643722.698 4 123119142.366 5  95203491.846 4
C19  22229071.780 7                 115752677.132 7
C20  25358419.820 5                 132048127.358 5
C22  22515433.300 8                 117243748.393 8
E04  26475148.253 7  26475150.421 8 139127820.322 7 105249317.631 8
E05  24573492.173 7  24573497.893 8 129134611.957 7  97689506.037 8
E06  25041905.743 7  25041909.173 8 131596070.280 7  99551613.832 8
E09  24675050.737 7  24675052.216 8 129668229.699 7  98093214.120 8
E34  24155071.733 8  24155073.888 9 126935731.770 8  96026085.176 9
E36  23664251.341 8  23664254.384 9 124356487.728 8  94074883.797 9
G01  20895596.169 7                  20895600.812 8 109807202.749 7                  85564010.337 8
G02  20572254.364 7  20572255.030 6                 108108046.479 7  84239950.488 6
G03  22228994.877 7                  22229003.370 7 116814337.809 7                  91024075.486 7
G08  21822421.709 7                  21822430.134 7 114677672.225 7                  89359203.978 7
G10  23425706.292 5                                                                
G27  24485855.488 6                  24485865.621 5 128674129.964 6                 100265504.760 5
G32  21845922.772 8                  21845929.740 7 114801018.789 8                  89455440.117 7
R01  21999239.843 7                 117598617.751 7
R02  19339444.404 8  19339448.596 7 103199089.294 8  80265889.681 7
R03  20919942.093 8  20919947.918 7 111986414.997 8  87100275.397 7
R17  19343247.045 8  19343251.067 7 103509836.684 8  80507503.778 7
R18  19802517.056 8  19802520.690 7 105707215.970 8  82216685.457 7
> 2025 06 15 11 55 35.0000000  0 22
C12  23640165.905 6  23640158.281 4 123100585.653 6  95189142.657 4
C19  22228850.253 7                 115751526.387 7
C20  25360256.053 5                 132057683.699 5
C22  22512083.159 7                 117226306.949 7
E04  26475816.939 7  26475818.462 8 139131331.003 7 105251973.424 8
E05  24569525.965 7  24569530.996 8 129113765.987 7  97673736.219 8
E06  25041372.286 7  25041375.911 8 131593268.054 7  99549493.967 8
E09  24673206.899 7  24673208.603 8 129658541.616 7  98085885.174 8
E34  24152486.697 8  24152488.976 9 126922148.216 8  96015809.304 9
E36  23664013.403 8  23664015.557 9 124355232.637 8  94073934.332 9
G01  20892650.149 7                  20892655.026 8 109791721.147 7                  85551946.750 8
G02  20571118.586 8  20571119.132 6                 108102076.239 8  84235298.346 6
G03  22224935.823 7                  22224944.884 7 116793009.387 7                  91007455.931 7
G08  21824086.648 7                  21824094.011 7 114686417.186 7                  89366018.236 7
G10  23427433.846 4                                                                
G27  24488463.086 6                  24488472.750 5 128687827.402 6                 100276178.054 5
G32  21845476.664 8                  21845483.645 7 114798675.217 8                  89453613.978 7
R01  22001705.994 7                 117611783.910 7
R02  19338778.742 8  19338782.017 7 103195531.818 8  80263122.742 7
R03  20915479.250 8  20915484.152 7 111962520.700 8  87081690.937 7
R17  19343359.035 8  19343363.380 7 103510439.436 8  80507972.594 7
R18  19799310.106 8  19799312.975 7 105690095.631 8  82203369.644 7
> 2025 06 15 11 55 40.0000000  0 21
C12  23636603.472 5  23636594.779 4 123082035.334 5  95174798.283 4
C19  22228632.475 7                 115750388.253 7
C20  25362093.648 5                 132067244.643 5
C22  22508736.384 7                 117208875.794 7
E04  26476486.168 7  26476488.330 8 139134851.317 7 105254636.510 8
E05  24565559.592 7  24565564.972 8 129092924.814 7  97657970.028 8
E06  25040842.749 7  25040845.032 8 131590478.177 7  99547383.415 8
E09  24671365.525 7  24671367.373 8 129648866.119 7  98078565.705 8
E34  24149902.725 8  24149905.097 9 126908569.559 8  96005537.135 9
E36  23663776.377 8  23663777.931 9 124353984.059 8  94072989.797 9
G01  20889704.896 7                  20889710.352 8 109776248.256 7                  85539889.952 8
G02  20569984.383 8  20569985.628 6                 108096116.169 8  84230654.146 6
G03  22220877.176 7                  22220887.490 7 116771688.524 7                  90990842.283 7
G08  21825752.639 7                  21825760.646 7 114695172.235 7                  89372840.332 7
G27  24491068.605 6                  24491079.854 5 128701526.393 6                 100286852.620 5
G32  21845033.658 8                  21845040.992 7 114796347.611 8                  89451800.265 7
R01  22004169.334 7                 117624958.978 7
R02  19338115.177 8  19338119.643 7 103191995.865 8  80260372.576 7
R03  20911018.032 8  20911022.705 7 111938639.284 8  87063116.525 7
R17  19343474.758 8  19343479.009 7 103511058.735 8  80508454.271 7
R18  19796104.835 8  19796108.056 7 105672987.555 8  82190063.359 7
> 2025 06 15 11 55 45.0000000  0 21
C12  23633040.497 6  23633034.994 5 123063491.504 6  95160459.127 5
C19  22228416.427 7                 115749262.784 7
C20  25363931.450 5                 132076810.126 5
C22  22505389.808 7                 117191454.989 7
E04  26477158.116 7  26477160.046 8 139138381.315 7 105257306.941 8
E05  24561594.083 7  24561599.969 8 129072088.511 7  97642207.525 8
E06  25040314.134 7  25040316.487 8 131587700.615 7  99545282.207 8
E09  24669525.890 7  24669528.486 8 129639203.162 7  98071255.732 8
E34  24147319.658 8  24147322.113 9 126894995.821 8  95995268.706 9
E36  23663539.611 8  23663541.594 9 124352742.063 8  94072050.231 9
G01  20886762.603 7                  20886767.441 7 109760784.142 7                  85527840.022 7
G02  20568851.133 8  20568853.470 7                 108090166.321 8  84226017.896 7
G03  22216822.513 7                  22216830.866 7 116750375.297 7                  90974234.570 7
G08  21827420.363 7                  21827428.562 7 114703937.412 7                  89379670.327 7
G27  24493676.553 6                  24493687.499 5 128715227.022 6                 100297528.379 5
G32  21844593.439 8                  21844600.899 7 114794036.011 8                  89449998.989 7
R01  22006636.419 7                 117638142.864 7
R02  19337456.596 8  19337460.446 7 103188481.722 8  80257639.355 7
R03  20906558.868 8  20906564.008 7 111914770.953 8  87044552.292 7
R17  19343593.898 7  19343598.534 7 103511694.648 7  80508948.845 7
R18  19792902.011 8  19792905.542 7 105655891.914 8  82176766.739 7
> 2025 06 15 11 55 50.0000000  0 21
C12  23629480.820 5  23629475.584 5 123044953.135 5  95146124.088 5
C19  22228202.821 7                 115748149.058 7
C20  25365769.851 5                 132086379.258 5
C22  22502047.008 7                 117174043.635 7
E04  26477831.429 7  26477833.405 8 139141920.055 7 105259983.968 8
E05  24557630.870 7  24557635.661 8 129051256.142 7  97626448.000 8
E06  25039787.740 8  25039790.118 8 131584934.479 8  99543189.648 8
E09  24667688.635 7  24667691.889 8 129629551.813 7  98063954.556 8
E34  24144737.384 8  24144739.882 9 126881426.081 8  95985003.275 9
E36  23663304.085 8  23663306.291 9 124351505.677 8  94071114.903 9
G01  20883821.515 7                  20883826.422 7 109745327.880 7                  85515796.181 7
G02  20567720.842 7  20567723.086 6                 108084225.778 7  84221388.903 6
G03  22212767.830 7                  22212775.926 7 116729068.780 7                  90957632.093 7
G08  21829090.756 7                  21829097.858 7 114712711.734 7                  89386507.449 7
G27  24496283.288 6                  24496295.526 5 128728928.338 6                 100308204.712 5
G32  21844156.734 8                  21844163.601 7 114791739.431 8                  89448209.447 7
R01  22009104.041 7                 117651334.804 7
R02  19336801.641 8  19336806.157 7 103184988.169 8  80254922.127 7
R03  20902101.850 8  20902107.671 7 111890915.026 8  87025997.692 7
R17  19343716.548 7  19343720.094 7 103512346.290 7  80509455.695 7
R18  19789701.695 8  19789705.100 7 105638807.740 8  82163479.050 7
> 2025 06 15 11 55 55.0000000  0 21
C12  23625920.837 5  23625918.191 5 123026420.536 5  95131793.522 5
C19  22227991.452 7                 115747047.266 7
C20  25367607.155 5                 132095952.277 5
C22  22498705.160 8                 117156641.961 8
E04  26478506.194 7  26478508.449 8 139145467.771 7 105262667.788 8
E05  24553666.673 7  24553672.154 8 129030427.926 7  97610691.599 8
E06  25039263.117 8  25039265.903 8 131582179.989 8  99541105.901 8
E09  24665855.291 7  24665857.483 8 129619912.312 7  98056662.337 8
E34  24142156.045 8  24142158.488 9 126867860.563 8  95974741.046 9
E36  23663069.821 8  23663072.129 9 124350275.147 8  94070184.017 9
G01  20880881.494 7                  20880886.619 8 109729879.731 7                  85503758.657 8
G02  20566592.418 7  20566594.553 6                 108078294.803 7  84216767.368 6
G03  22208715.509 7                  22208723.653 7 116707769.173 7                  90941035.003 7
G08  21830762.793 7                  21830769.480 7 114721495.432 7                  89393351.883 7
G27  24498891.292 6                  24498901.254 5 128742630.498 6                 100318881.641 5
G32  21843722.943 8                  21843729.384 7 114789458.117 8                  89446431.818 7
R01  22011573.583 7                 117664535.049 7
R02  19336151.888 8  19336155.208 7 103181515.585 8  80252221.223 7
R03  20897646.418 7  20897653.383 7 111867071.319 7  87007452.601 7
R17  19343841.248 8  19343844.937 7 103513013.750 8  80509974.841 7
R18  19786503.432 8  19786507.469 7 105621735.240 8  82150200.431 7
> 2025 06 15 11 56  0.0000000  0 21
C12  23622364.913 6  23622360.107 5 123007892.882 6  95117466.750 5
C19  22227782.017 7                 115745956.681 7
C20  25369444.650 5                 132105528.366 5
C22  22495364.951 7                 117139249.186 7
E04  26479182.961 7  26479185.108 8 139149023.675 7 105265357.809 8
E05  24549704.436 7  24549709.320 8 129009603.107 7  97594937.776 8
E06  25038741.009 8  25038743.770 8 131579436.372 8  99539030.367 8
E09  24664023.194 7  24664025.267 8 129610283.922 7  98049378.516 8
E34  24139575.426 8  24139577.769 9 126854298.497 8  95964481.438 9
E36  23662836.596 8  23662838.982 9 124349049.703 8  94069256.976 9
G01  20877943.712 7                  20877948.074 8 109714438.915 7                  85491726.862 8
G02  20565466.073 8  20565467.722 7                 108072372.618 8  84212152.673 7
G03  22204663.253 7                  22204671.539 7 116686475.695 7                  90924442.689 7
G08  21832435.301 7                  21832442.870 7 114730287.764 7                  89400203.051 7
G27  24501498.260 5                  24501506.516 4 128756332.792 5                 100329558.680 4
G32  21843291.817 8                  21843298.106 7 114787191.303 8                  89444665.456 7
R01  22014044.791 7                 117677742.562 7
R02  19335504.743 8  19335508.533 7 103178063.297 8  80249536.115 7
R03  20893195.475 7  20893201.206 7 111843239.429 7  86988916.687 7
R17  19343968.069 8  19343972.543 7 103513696.283 8  80510505.684 7
R18  19783306.974 8  19783311.310 7 105604673.663 8  82136930.325 7
> 2025 06 15 11 56  5.0000000  0 21
C12  23618807.121 6  23618802.873 5 122989370.718 6  95103144.220 5
C19  22227575.186 7                 115744877.709 7
C20  25371285.819 5                 132115107.926 5
C22  22492026.844 7                 117121865.769 7
E04  26479861.336 7  26479863.424 8 139152588.229 7 105268054.354 8
E05  24545741.777 7  24545747.208 8 128988782.148 7  97579186.889 8
E06  25038220.998 8  25038223.737 8 131576704.064 8  99536963.401 8
E09  24662192.048 7  24662195.273 8 129600667.054 7  98042103.434 8
E34  24136995.133 8  24136997.766 9 126840740.361 8  95954224.801 9
E36  23662604.216 8  23662606.865 9 124347829.810 8  94068334.127 9
G01  20875007.216 7                  20875011.485 8 109699005.884 7                  85479701.125 8
G02  20564340.382 8  20564342.175 7                 108066459.658 8  84207545.183 7
G03  22200612.088 7                  22200620.677 7 116665188.857 7                  90907855.599 7
G08  21834110.496 7                  21834117.466 7 114739089.126 7                  89407061.231 7
G27  24504104.849 5                  24504114.357 5 128770035.604 5                 100340236.199 5
G32  21842862.791 8                  21842869.504 7 114784939.426 8                  89442910.754 7
R01  22016517.900 7                 117690957.987 7
R02  19334861.136 8  19334865.096 7 103174631.346 8  80246866.812 7
R03  20888746.230 7  20888752.389 7 111819419.719 7  86970390.272 7
R17  19344097.824 8  19344103.332 7 103514394.438 8  80511048.700 7
R18  19780112.969 8  19780117.206 7 105587623.516 8  82123669.109 7
> 2025 06 15 11 56 10.0000000  0 21
C12  23615251.573 5  23615247.233 5 122970854.823 5  95088826.626 5
C19  22227370.559 7                 115743811.186 7
C20  25373125.540 5                 132124691.823 5
C22  22488690.702 7                 117104492.541 7
E04  26480540.791 7  26480543.426 8 139156162.196 7 105270758.040 8
E05  24541780.690 7  24541786.014 8 128967965.884 7  97563439.525 8
E06  25037703.814 8  25037706.099 8 131573983.907 8  99534905.615 8
E09  24660364.487 7  24660367.555 8 129591062.539 7  98034837.710 8
E34  24134415.932 8  24134418.559 9 126827186.938 8  95943971.729 9
E36  23662373.503 8  23662375.981 9 124346616.260 8  94067416.083 9
G01  20872071.224 7                  20872076.044 8 109683581.451 7                  85467682.071 8
G02  20563217.394 8  20563218.727 6                 108060556.757 8  84202945.522 6
G03  22196563.084 7                  22196571.713 7 116643909.473 7                  90891274.264 7
G08  21835786.320 7                  21835794.153 7 114747900.322 7                  89413927.082 7
G27  24506713.093 5                  24506720.012 4 128783739.840 5                 100350914.719 4
G32  21842437.495 8                  21842444.237 7 114782703.290 8                  89441168.299 7
R01  22018991.194 7                 117704182.128 7
R02  19334222.109 7  19334226.004 7 103171220.918 7  80244214.279 7
R03  20884297.287 7  20884304.849 7 111795612.959 7  86951873.954 7
R17  19344231.736 8  19344236.169 7 103515109.016 8  80511604.467 7
R18  19776921.312 8  19776925.186 7 105570585.566 8  82110417.387 7
> 2025 06 15 11 56 15.0000000  0 21
C12  23611695.490 5  23611693.067 5 122952345.665 5  95074514.151 5
C19  22227168.314 7                 115742757.511 7
C20  25374966.321 5                 132134280.546 5
C22  22485355.186 7                 117087129.940 7
E04  26481222.935 7  26481225.400 8 139159746.025 7 105273469.188 8
E05  24537820.416 7  24537825.809 8 128947154.745 7  97547696.063 8
E06  25037188.738 7  25037190.812 8 131571276.302 7  99532857.327 8
E09  24658539.529 7  24658542.297 8 129581470.844 7  98027581.639 8
E34  24131838.067 8  24131840.430 8 126813638.687 8  95933722.572 8
E36  23662143.929 8  23662146.382 9 124345409.509 8  94066503.179 9
G01  20869138.018 7                  20869142.890 8 109668166.078 7                  85455670.080 8
G02  20562095.958 8  20562097.089 6                 108054664.353 8  84198354.043 6
G03  22192515.663 7                  22192523.857 7 116622637.918 7                  90874699.033 7
G08  21837466.318 7                  21837472.686 7 114756721.831 7                  89420800.938 7
G27  24509321.581 5                  24509327.118 4 128797445.854 5                 100361594.702 4
G32  21842015.265 8                  21842021.985 7 114780483.348 8                  89439438.481 7
R01  22021466.800 7                 117717415.284 7
R02  19333586.931 8  19333591.187 7 103167832.239 8  80241578.613 7
R03  20879853.227 7  20879859.427 7 111771819.544 7  86933367.985 7
R17  19344369.588 8  19344373.658 7 103515840.380 8  80512173.291 7
R18  19773731.694 8  19773736.489 7 105553560.297 8  82097175.505 7
> 2025 06 15 11 56 20.0000000  0 21
C12  23608141.588 5  23608140.510 5 122933842.496 5  95060206.299 5
C19  22226967.708 7                 115741715.996 7
C20  25376808.720 5                 132143873.265 5
C22  22482024.009 7                 117069777.242 7
E04  26481907.449 7  26481909.081 8 139163339.025 7 105276187.283 8
E05  24533862.150 7  24533866.467 8 128926348.046 7  97531955.942 8
E06  25036675.557 8  25036677.831 8 131568580.544 8  99530818.022 8
E09  24656716.765 7  24656719.341 8 129571891.251 7  98020334.754 8
E34  24129260.637 8  24129263.157 9 126800094.900 8  95923476.789 9
E36  23661915.529 8  23661917.917 9 124344208.848 8  94065594.878 9
G01  20866206.445 7                  20866210.927 8 109652759.035 7                  85443664.602 8
G02  20560976.461 8  20560977.827 7                 108048781.724 8  84193770.179 7
G03  22188468.972 7                  22188477.634 7 116601373.602 7                  90858129.436 7
G08  21839145.182 7                  21839153.154 7 114765552.861 7                  89427682.267 7
G27  24511929.797 5                  24511936.061 4 128811152.857 5                 100372275.454 4
G32  21841595.103 8                  21841602.267 7 114778278.870 8                  89437720.702 7
R01  22023941.952 7                 117730656.829 7
R02  19332956.538 8  19332960.070 7 103164464.588 8  80238959.338 7
R03  20875410.754 7  20875417.702 7 111748038.973 7  86914871.978 7
R17  19344508.830 8  19344512.784 7 103516587.873 8  80512754.678 7
R18  19770544.374 8  19770549.285 8 105536547.081 8  82083943.004 8
> 2025 06 15 11 56 25.0000000  0 22
C12  23604589.273 5  23604588.208 5 122915344.536 5  95045902.493 5
C19  22226769.324 7                 115740685.808 7
C20  25378650.491 4                 132153469.136 4
C22  22478693.300 7                 117052433.648 7
E04  26482592.441 7  26482594.342 8 139166940.364 7 105278911.656 8
E05  24529903.537 7  24529907.767 8 128905544.946 7  97516218.556 8
E06  25036163.603 7  25036166.978 8 131565895.829 7  99528787.057 8
E09  24654895.764 7  24654898.571 8 129562322.896 7  98013096.370 8
E34  24126683.839 8  24126686.533 8 126786554.762 8  95913233.771 8
E36  23661687.989 8  23661690.423 9 124343013.444 8  94064690.561 9
G01  20863276.609 7                  20863280.635 8 109637359.524 7                  85431665.001 8
G02  20559858.720 8  20559860.013 7                 108042908.080 8  84189193.303 7
G03  22184423.651 7                  22184431.821 7 116580115.583 7                  90841564.780 7
G08  21840828.366 7                  21840835.823 7 114774392.632 7                  89434570.405 7
G10  23444766.305 5                                 123203083.33015                
G27  24514540.169 5                  24514545.773 4 128824860.112 5                 100382956.386 4
G32  21841178.251 8                  21841185.414 7 114776089.036 8                  89436014.334 7
R01  22026420.769 6                 117743905.772 6
R02  19332329.496 8  19332332.760 7 103161117.364 8  80236355.964 7
R03  20870970.489 7  20870976.586 7 111724270.181 7  86896385.141 7
R17  19344651.807 8  19344655.550 7 103517350.632 8  80513347.935 7
R18  19767359.389 8  19767363.892 7 105519545.041 8  82070719.218 7
> 2025 06 15 11 56 30.0000000  0 22
C12  23601039.366 5  23601037.567 5 122896852.528 5  95031603.332 5
C19  22226574.082 7                 115739667.707 7
C20  25380493.888 5                 132163069.043 5
C22  22475363.699 7                 117035099.979 7
E04  26483278.839 7  26483281.345 8 139170550.822 7 105281642.924 8
E05  24525945.535 7  24525949.856 8 128884746.242 7  97500484.492 8
E06  25035655.736 7  25035658.266 8 131563222.906 7  99526765.000 8
E09  24653075.712 7  24653080.164 8 129552766.626 7  98005867.132 8
E34  24124108.020 8  24124110.775 8 126773019.071 8  95902994.103 8
E36  23661462.216 8  23661464.141 9 124341824.084 8  94063790.813 9
G01  20860347.418 7                  20860351.999 8 109621968.328 7                  85419671.860 8
G02  20558742.856 8  20558744.299 6                 108037044.174 8  84184624.033 6
G03  22180379.437 7                  22180387.554 6 116558864.736 7                  90825005.688 6
G08  21842511.938 7                  21842519.407 7 114783241.877 7                  89441465.904 7
G10  23446498.196 5                                 123212200.77915                
G27  24517147.268 5                                                                
G32  21840764.674 8                  21840771.766 7 114773914.607 8                  89434319.971 7
R01  22028900.469 6                 117757163.068 6
R02  19331704.864 8  19331709.471 7 103157791.125 8  80233768.890 7
R03  20866532.029 8  20866539.809 7 111700514.100 8  86877908.206 7
R17  19344796.655 8  19344801.134 7 103518129.465 8  80513953.700 7
R18  19764176.717 8  19764181.073 7 105502554.969 8  82057504.726 7
> 2025 06 15 11 56 35.0000000  0 22
C12  23597489.380 5  23597488.043 6 122878366.857 5  95017309.014 6
C19  22226381.944 7                 115738661.988 7
C20  25382338.985 5                 132172673.206 5
C22  22472037.018 7                 117017776.467 7
E04  26483967.909 7  26483970.194 8 139174170.677 7 105284381.313 8
E05  24521988.527 7  24521992.930 8 128863952.272 7  97484754.004 8
E06  25035149.276 7  25035151.965 8 131560562.099 7  99524752.128 8
E09  24651261.494 7  24651263.962 8 129543222.707 7  97998647.191 8
E34  24121533.275 8  24121535.844 9 126759488.119 8  95892758.028 9
E36  23661236.649 8  23661239.005 9 124340641.063 8  94062895.869 9
G01  20857419.930 7                  20857425.116 8 109606585.797 7                  85407685.484 8
G02  20557628.971 7  20557630.060 6                 108031190.342 7  84180062.595 6
G03  22176336.975 7                  22176344.732 7 116537621.334 7                  90808452.383 7
G08  21844198.115 7                  21844205.139 7 114792100.907 7                  89448369.048 7
G10  23448236.994 5                                                                
G27  24519755.861 5                  24519766.623 5 128852278.07715                 100404320.91115
G32  21840353.787 8                  21840361.100 7 114771755.915 8                  89432637.882 7
R01  22031382.390 6                 117770428.938 6
R02  19331086.776 8  19331090.770 7 103154486.180 8  80231198.360 7
R03  20862096.451 8  20862103.488 7 111676771.027 8  86859441.397 7
R17  19344946.232 8  19344949.410 7 103518924.738 8  80514572.229 7
R18  19760996.109 8  19761001.028 7 105485577.168 8  82044299.771 7
> 2025 06 15 11 56 40.0000000  0 21
C12  23593940.539 5  23593939.366 5 122859887.885 5  95003019.963 5
C19  22226190.892 7                 115737669.082 7
C20  25384186.870 5                 132182281.997 5
C22  22468713.079 7                 117000463.576 7
E04  26484658.597 7  26484660.828 8 139177800.349 7 105287127.138 8
E05  24518031.419 7  24518036.902 8 128843163.440 7  97469027.428 8
E06  25034645.057 7  25034647.874 8 131557913.845 7  99522748.725 8
E09  24649447.730 7  24649450.277 8 129533691.600 7  97991436.975 8
E34  24118959.692 8  24118962.041 9 126745962.330 8  95882525.854 9
E36  23661012.761 8  23661015.211 9 124339464.814 8  94062006.044 9
G01  20854494.963 8                  20854499.396 8 109591212.319 8                  85395706.143 8
G02  20556516.588 8  20556518.327 6                 108025346.984 8  84175509.337 6
G03  22172296.915 7                  22172304.189 7 116516385.829 7                  90791905.243 7
G08  21845885.640 7                  21845893.274 7 114800970.144 7                  89455280.110 7
G27  24522364.214 5                  24522376.378 5 128865989.337 5                 100415005.023 5
G32  21839946.627 8                  21839953.028 7 114769613.361 8                  89430968.368 7
R01  22033864.742 6                 117783703.713 6
R02  19330471.236 8  19330475.198 7 103151203.040 8  80228644.806 7
R03  20857663.390 7  20857670.677 7 111653041.381 7  86840985.041 7
R17  19345096.697 8  19345101.790 7 103519736.806 8  80515203.840 7
R18  19757818.933 8  19757822.420 7 105468612.144 8  82031104.738 7
> 2025 06 15 11 56 45.0000000  0 21
C12  23590393.044 5  23590392.123 6 122841414.377 5  94988735.111 6
C19  22226002.025 7                 115736687.716 7
C20  25386031.369 5                 132191894.313 5
C22  22465389.854 7                 116983160.054 7
E04  26485351.581 7  26485353.269 8 139181438.514 7 105289879.369 8
E05  24514077.218 7  24514081.654 8 128822378.476 7  97453303.762 8
E06  25034143.700 7  25034146.125 8 131555276.818 7  99520753.819 8
E09  24647636.395 7  24647638.731 8 129524171.981 7  97984235.444 8
E34  24116386.704 8  24116388.898 9 126732440.408 8  95872296.612 9
E36  23660790.178 8  23660792.461 9 124338294.061 8  94061120.366 9
G01  20851570.766 7                  20851575.569 8 109575846.627 7                  85383732.888 8
G02  20555406.148 7  20555407.606 6                 108019512.814 7  84170963.232 6
G03  22168257.059 7                  22168264.167 7 116495156.942 7                  90775363.242 7
G08  21847575.886 7                  21847582.662 7 114809848.256 7                  89462198.127 7
G27  24524969.978 4                  24524985.084 5 128879701.02514                 100425689.41215
G32  21839541.364 8                  21839548.502 7 114767485.657 8                  89429310.397 7
R01  22036349.285 6                 117796986.229 6
R02  19329859.193 8  19329863.490 7 103147940.478 8  80226107.287 7
R03  20853233.915 7  20853240.071 7 111629324.073 7  86822538.252 7
R17  19345251.175 7  19345256.198 7 103520564.283 7  80515847.435 7
R18  19754642.950 8  19754646.681 7 105451658.488 8  82017918.571 7
> 2025 06 15 11 56 50.0000000  0 21
C12  23586846.746 5  23586846.254 5 122822946.527 5  94974454.599 5
C19  22225815.751 7                 115735717.984 7
C20  25387877.679 5                 132201510.082 5
C22  22462068.522 7                 116965866.021 7
E04  26486045.662 7  26486047.232 8 139185085.359 7 105292638.181 8
E05  24510122.087 7  24510127.128 8 128801597.527 7  97437583.128 8
E06  25033644.335 7  25033646.545 8 131552651.159 7  99518767.513 8
E09  24645826.943 7  24645829.409 8 129514664.027 7  97977042.729 8
E34  24113814.369 8  24113816.541 9 126718922.532 8  95862070.433 9
E36  23660567.930 8  23660570.758 9 124337128.932 8  94060238.948 9
G01  20848647.938 7                  20848653.227 8 109560488.832 7                  85371765.779 8
G02  20554298.171 7  20554299.496 6                 108013688.017 7  84166424.428 6
G03  22164218.065 7                  22164226.189 7 116473934.761 7                  90758826.509 7
G08  21849266.688 7                  21849273.927 7 114818735.411 7                  89469123.190 7
G27  24527581.444 4                  24527594.056 5 128893413.32914                 100436374.38215
G32  21839139.945 8                  21839146.389 7 114765372.947 8                  89427664.130 7
R01  22038835.656 6                 117810276.389 6
R02  19329251.587 8  19329255.949 7 103144698.346 8  80223585.637 7
R03  20848805.899 8  20848811.958 7 111605619.097 8  86804101.066 7
R17  19345409.307 8  19345413.370 7 103521407.431 8  80516503.221 7
R18  19751468.735 8  19751472.338 7 105434716.478 8  82004741.443 7
> 2025 06 15 11 56 55.0000000  0 21
C12  23583300.095 5  23583300.659 6 122804485.061 5  94960179.056 6
C19  22225632.083 7                 115734760.763 7
C20  25389724.333 5                 132211130.240 5
C22  22458749.661 7                 116948582.336 7
E04  26486741.490 7  26486743.046 8 139188741.715 7 105295404.167 8
E05  24506168.519 7  24506173.550 8 128780821.469 7  97421866.196 8
E06  25033147.123 7  25033149.249 8 131550037.718 7  99516790.466 8
E09  24644018.891 7  24644022.436 8 129505168.521 7  97969859.476 8
E34  24111242.962 8  24111245.024 9 126705409.529 8  95851847.934 9
E36  23660347.509 8  23660350.289 9 124335970.287 8  94059362.434 9
G01  20845727.343 7                  20845732.235 8 109545139.852 7                  85359805.540 8
G02  20553191.697 7  20553193.496 6                 108007873.457 7  84161893.590 6
G03  22160180.751 7                  22160188.963 7 116452720.213 7                  90742295.736 7
G08  21850959.676 7                  21850966.878 7 114827632.454 7                  89476055.926 7
G27  24530193.011 4                  24530203.769 5 128907127.027 4                 100447060.240 5
G32  21838740.073 8                  21838747.477 7 114763276.081 8                  89426030.208 7
R01  22041323.977 7                 117823575.220 7
R02  19328648.047 8  19328652.304 7 103141477.653 8  80221080.642 7
R03  20844379.428 7  20844385.909 7 111581927.276 7  86785674.096 7
R17  19345570.126 8  19345574.463 7 103522267.082 8  80517171.812 7
R18  19748297.234 8  19748301.003 7 105417786.920 8  81991574.046 7
> 2025 06 15 11 57  0.0000000  0 21
C12  23579755.902 5  23579757.314 6 122786030.373 5  94945908.770 6
C19  22225450.854 7                 115733816.364 7
C20  25391572.130 5                 132220755.096 5
C22  22455432.578 8                 116931309.336 8
E04  26487438.990 7  26487440.643 8 139192407.879 7 105298177.580 8
E05  24502215.609 7  24502220.974 8 128760050.637 7  97406153.218 8
E06  25032651.913 7  25032654.388 8 131547436.848 7  99514822.919 8
E09  24642214.673 7  24642217.902 8 129495685.895 7  97962685.915 8
E34  24108672.303 8  24108674.546 9 126691901.737 8  95841629.380 9
E36  23660128.761 8  23660131.095 9 124334818.459 8  94058491.077 9
G01  20842808.340 7                  20842813.362 8 109529799.976 7                  85347852.409 8
G02  20552087.077 8  20552089.009 6                 108002069.379 8  84157370.932 6
G03  22156145.552 7                  22156153.351 7 116431513.622 7                  90725771.124 7
G08  21852654.643 7                  21852662.013 7 114836539.686 7                  89482996.611 7
G27  24532804.189 5                  24532813.387 5 128920842.413 5                 100457747.470 5
G32  21838343.794 8                  21838351.265 7 114761195.344 8                  89424408.841 7
R01  22043813.301 6                 117836883.087 6
R02  19328048.838 8  19328052.985 7 103138278.869 8  80218592.693 7
R03  20839956.041 8  20839962.716 7 111558248.957 8  86767257.623 7
R17  19345733.293 8  19345737.762 7 103523143.524 8  80517853.484 7
R18  19745127.761 8  19745131.853 7 105400870.222 8  81978416.596 7
> 2025 06 15 11 57  5.0000000  0 21
C12  23576213.082 5  23576214.963 6 122767581.653 5  94931643.051 6
C19  22225271.464 7                 115732883.897 7
C20  25393426.385 5                 132230383.756 5
C22  22452117.785 7                 116914046.140 7
E04  26488137.900 7  26488140.045 8 139196082.979 7 105300957.767 8
E05  24498264.040 7  24498269.219 8 128739284.139 7  97390443.533 8
E06  25032159.768 7  25032161.737 8 131544847.654 7  99512864.215 8
E09  24640413.585 7  24640415.593 8 129486215.242 7  97955521.419 8
E34  24106102.712 8  24106104.933 9 126678398.281 8  95831414.107 9
E36  23659910.329 8  23659913.007 9 124333672.560 8  94057624.217 9
G01  20839890.914 7                  20839895.646 8 109514468.347 7                  85335905.686 8
G02  20550984.750 8  20550986.229 6                 107996274.928 8  84152855.775 6
G03  22152111.728 7                  22152119.227 7 116410314.093 7                  90709252.028 7
G08  21854351.056 7                  21854358.360 7 114845456.204 7                  89489944.534 7
G27  24535418.934 5                  24535424.503 5 128934558.564 5                 100468435.298 5
G32  21837951.150 8                  21837957.976 7 114759129.889 8                  89422799.410 7
R01  22046304.807 6                 117850198.980 6
R02  19327452.990 8  19327457.123 7 103135100.813 8  80216120.878 7
R03  20835534.674 7  20835541.106 7 111534583.335 7  86748851.022 7
R17  19345899.572 8  19345904.665 7 103524035.951 8  80518547.620 7
R18  19741961.254 8  19741965.118 7 105383965.441 8  81965268.428 7
> 2025 06 15 11 57 10.0000000  0 21
C12  23572673.389 6  23572673.295 6 122749138.846 6  94917381.906 6
C19  22225094.298 7                 115731963.301 7
C20  25395277.243 5                 132240016.084 5
C22  22448803.642 8                 116896792.720 8
E04  26488840.001 7  26488841.141 8 139199766.960 7 105303744.652 8
E05  24494313.053 7  24494318.320 8 128718521.931 7  97374737.065 8
E06  25031669.239 7  25031671.175 8 131542270.029 7  99510914.252 8
E09  24638613.712 7  24638615.643 8 129476756.438 7  97948365.896 8
E34  24103534.059 8  24103536.118 9 126664899.099 8  95821202.069 9
E36  23659693.143 8  23659696.039 9 124332532.514 8  94056761.775 9
G01  20836974.493 7                  20836979.141 8 109499144.914 7                  85323965.354 8
G02  20549883.297 7  20549885.672 6                 107990490.081 7  84148348.094 6
G03  22148077.886 7                  22148086.225 7 116389121.567 7                  90692738.390 7
G08  21856049.408 7                  21856057.310 7 114854381.969 7                  89496899.658 7
G27  24538024.678 4                  24538035.345 5 128948275.490 4                 100479123.795 5
G32  21837561.720 8                  21837568.169 7 114757079.645 8                  89421201.810 7
R01  22048797.821 7                 117863522.690 7
R02  19326861.432 8  19326865.378 7 103131943.642 8  80213665.303 7
R03  20831117.426 7  20831122.892 7 111510930.393 7  86730454.301 7
R17  19346070.321 8  19346074.504 7 103524944.357 8  80519254.141 7
R18  19738796.881 8  19738800.458 7 105367072.556 8  81952129.521 7
> 2025 06 15 11 57 15.0000000  0 21
C12  23569132.744 6  23569132.352 6 122730702.104 6  94903125.475 6
C19  22224919.689 7                 115731054.801 7
C20  25397122.222 5                 132249652.343 5
C22  22445491.816 8                 116879549.284 8
E04  26489542.253 7  26489543.915 8 139203460.029 7 105306538.430 8
E05  24490363.477 7  24490368.252 8 128697764.265 7  97359034.060 8
E06  25031180.243 7  25031182.890 8 131539704.281 7  99508973.277 8
E09  24636816.380 7  24636817.990 8 129467309.791 7  97941219.568 8
E34  24100965.840 8  24100968.147 9 126651404.449 8  95810993.450 9
E36  23659477.508 8  23659480.225 9 124331398.563 8  94055903.953 9
G01  20834060.091 7                  20834065.057 8 109483829.916 7                  85312031.580 8
G02  20548784.526 7  20548786.885 6                 107984715.053 7  84143848.070 6
G03  22144046.752 7                  22144055.311 7 116367936.296 7                  90676230.424 7
G08  21857749.717 7                  21857757.541 7 114863317.150 7                  89503862.140 7
G27  24540633.005 4                  24540644.812 5 128961993.259 4                 100489812.901 5
G32  21837173.558 8                  21837180.672 7 114755044.848 8                  89419616.256 7
R01  22051291.698 7                 117876854.558 7
R02  19326274.339 8  19326277.803 7 103128807.428 8  80211226.033 7
R03  20826700.715 8  20826706.782 7 111487290.406 8  86712067.705 7
R17  19346243.003 8  19346247.285 7 103525868.788 8  80519973.134 7
R18  19735634.313 8  19735638.400 7 105350191.842 8  81939000.091 7
> 2025 06 15 11 57 20.0000000  0 21
C12  23565593.979 6  23565592.991 6 122712271.488 6  94888873.744 6
C19  22224747.434 7                 115730158.354 7
C20  25398973.062 4                 132259292.634 4
C22  22442182.092 7                 116862315.823 7
E04  26490247.082 7  26490248.442 8 139207162.121 7 105309339.053 8
E05  24486414.364 7  24486419.083 8 128677011.125 7  97343334.440 8
E06  25030694.089 7  25030696.932 8 131537150.303 7  99507041.217 8
E09  24635021.126 7  24635022.614 8 129457875.217 7  97934082.386 8
E34  24098399.000 8  24098401.093 9 126637914.301 8  95800788.229 9
E36  23659263.188 8  23659265.592 9 124330270.705 8  94055050.731 9
G01  20831147.999 7                  20831152.334 8 109468523.321 7                  85300104.370 8
G02  20547687.412 7  20547689.932 6                 107978949.846 7  84139355.690 6
G03  22140016.713 7                  22140025.418 7 116346758.258 7                  90659728.047 7
G08  21859451.691 7                  21859459.640 7 114872261.781 7                  89510831.952 7
G10  23463869.945 5                                 123303583.99315                
G32  21836789.211 7                  21836796.428 7 114753025.460 7                  89418042.713 7
R01  22053787.455 7                 117890194.680 7
R02  19325690.235 8  19325694.207 7 103125692.329 8  80208803.148 7
R03  20822286.399 8  20822293.629 7 111463663.154 8  86693690.981 7
R17  19346418.645 8  19346423.105 7 103526809.393 8  80520704.709 7
R18  19732474.782 8  19732478.236 7 105333323.303 8  81925880.109 7
> 2025 06 15 11 57 25.0000000  0 21
C12  23562055.368 6  23562054.432 6 122693847.006 6  94874626.756 6
C19  22224577.904 7                 115729274.021 7
C20  25400822.933 4                 132268936.909 4
C22  22438875.035 8                 116845092.346 8
E04  26490952.799 7  26490954.764 8 139210873.320 7 105312146.561 8
E05  24482466.527 7  24482470.712 8 128656262.512 7  97327638.270 8
E06  25030210.956 7  25030213.197 8 131534608.177 7  99505118.113 8
E09  24633227.130 7  24633229.604 8 129448452.794 7  97926954.394 8
E34  24095832.820 8  24095834.821 9 126624428.648 8  95790586.428 9
E36  23659049.901 8  23659052.115 9 124329148.967 8  94054202.138 9
G01  20828236.718 7                  20828241.167 8 109453225.176 7                  85288183.724 8
G02  20546592.545 7  20546594.113 6                 107973194.473 7  84134870.986 6
G03  22135987.579 7                  22135997.009 7 116325587.520 7                  90643231.359 7
G08  21861155.614 7                  21861163.357 7 114881215.834 7                  89517809.123 7
G10  23465612.030 5                                 123312738.09215                
G32  21836407.807 7                  21836415.086 7 114751021.500 7                  89416481.183 7
R01  22056284.290 6                 117903542.991 6
R02  19325110.545 8  19325114.682 7 103122598.242 8  80206396.641 7
R03  20817875.915 8  20817881.814 7 111440048.970 8  86675324.383 7
R17  19346596.727 8  19346602.252 7 103527766.027 8  80521448.767 7
R18  19729316.676 8  19729320.583 7 105316466.909 8  81912769.583 7
> 2025 06 15 11 57 30.0000000  0 21
C12  23558518.841 6  23558517.255 6 122675429.102 6  94860384.859 6
C19  22224410.522 7                 115728402.214 7
C20  25402676.979 4                 132278585.390 4
C22  22435569.138 8                 116827879.340 8
E04  26491660.507 7  26491662.920 8 139214594.074 7 105314961.267 8
E05  24478518.804 7  24478523.393 8 128635518.938 7  97311945.911 8
E06  25029728.688 7  25029731.769 8 131532078.320 7  99503204.308 8
E09  24631437.588 7  24631439.020 8 129439042.982 7  97919835.919 8
E34  24093267.258 8  24093269.538 9 126610947.966 8  95780388.400 9
E36  23658837.804 8  23658839.862 9 124328033.776 8  94053358.501 9
G01  20825327.201 7                  20825331.588 8 109437935.927 7                  85276270.028 8
G02  20545499.428 7  20545500.858 7                 107967449.366 7  84130394.290 7
G03  22131960.997 7                  22131968.689 7 116304424.488 7                  90626740.671 7
G08  21862861.246 7                  21862869.188 7 114890179.732 7                  89524793.992 7
G10  23467353.975 5                                 123321895.97715                
G32  21836030.317 8                  21836036.984 7 114749033.422 8                  89414932.021 7
R01  22058783.052 7                 117916899.803 7
R02  19324535.139 8  19324538.560 7 103119525.806 8  80204006.979 7
R03  20813466.897 8  20813473.166 7 111416448.278 8  86656968.305 7
R17  19346779.275 8  19346783.901 7 103528739.279 8  80522205.711 7
R18  19726161.503 8  19726164.803 7 105299623.172 8  81899668.911 7
> 2025 06 15 11 57 35.0000000  0 20
C12  23554982.528 6  23554981.302 6 122657017.196 6  94846147.609 6
C19  22224245.370 7                 115727542.346 7
C20  25404530.758 4                 132288237.813 4
C22  22432265.828 8                 116810676.223 8
E04  26492370.300 7  26492372.625 8 139218323.734 7 105317782.723 8
E05  24474571.830 7  24474576.914 8 128614779.787 7  97296256.893 8
E06  25029249.124 7  25029252.622 8 131529560.122 7  99501299.319 8
E09  24629649.090 7  24629650.679 8 129429645.185 7  97912726.549 8
E34  24090702.794 8  24090705.071 9 126597471.697 8  95770193.681 9
E36  23658626.429 8  23658628.761 9 124326924.553 8  94052519.384 9
G01  20822418.946 7                  20822423.215 8 109422655.000 7                  85264362.808 8
G02  20544407.813 8  20544408.877 6                 107961713.961 8  84125925.149 6
G03  22127935.217 7                  22127942.490 6 116283268.586 7                  90610255.563 6
G08  21864569.125 7                  21864576.378 7 114899152.933 7                  89531786.058 7
G32  21835655.453 8                  21835661.569 7 114747060.626 8                  89413394.762 7
R01  22061282.798 7                 117930264.636 7
R02  19323963.115 8  19323967.072 7 103116474.128 8  80201633.437 7
R03  20809060.266 7  20809066.995 7 111392860.201 7  86638622.017 7
R17  19346963.941 8  19346968.904 7 103529728.553 8  80522975.116 7
R18  19723008.010 8  19723011.699 7 105282791.447 8  81886577.563 7
> 2025 06 15 11 57 40.0000000  0 21
C12  23551448.521 6  23551446.249 6 122638611.888 6  94831915.459 6
C19  22224082.657 7                 115726694.933 7
C20  25406384.964 4                 132297894.532 4
C22  22428963.650 7                 116793483.519 7
E04  26493081.849 7  26493084.151 8 139222062.865 7 105320611.353 8
E05  24470626.142 7  24470631.336 8 128594045.631 7  97280571.642 8
E06  25028772.505 7  25028775.760 8 131527054.201 7  99499403.600 8
E09  24627862.754 7  24627864.725 8 129420259.893 7  97905626.635 8
E34  24088138.951 8  24088141.545 9 126584000.339 8  95760002.701 9
E36  23658416.918 8  23658418.904 9 124325821.842 8  94051685.179 9
G01  20819512.776 7                  20819517.035 7 109407382.932 7                  85252462.517 7
G02  20543317.859 7  20543319.477 6                 107955988.800 7  84121463.981 6
G03  22123910.606 7                  22123918.448 6 116262120.345 7                  90593776.408 6
G08  21866278.506 7                  21866285.903 7 114908135.910 7                  89538785.763 7
G10  23470841.236 5                                 123340213.52715                
G32  21835282.007 8                  21835289.701 7 114745103.657 8                  89411869.850 7
R01  22063784.701 7                 117943637.905 7
R02  19323394.580 8  19323398.832 7 103113443.816 8  80199276.524 7
R03  20804657.025 7  20804662.731 7 111369285.714 7  86620286.338 7
R17  19347152.102 8  19347157.125 7 103530734.313 8  80523757.393 7
R18  19719857.366 8  19719860.724 7 105265972.343 8  81873496.056 7
> 2025 06 15 11 57 45.0000000  0 21
C12  23547915.166 6  23547912.416 6 122620212.576 6  94817688.002 6
C19  22223922.128 7                 115725859.424 7
C20  25408240.724 5                 132307554.829 5
C22  22425663.999 7                 116776300.679 7
E04  26493795.435 7  26493797.345 8 139225810.896 7 105323446.710 8
E05  24466680.467 7  24466686.535 8 128573315.856 7  97264889.728 8
E06  25028298.071 7  25028301.034 8 131524559.926 7  99497516.687 8
E09  24626079.960 7  24626081.079 8 129410886.611 7  97898535.802 8
E34  24085576.567 8  24085578.827 9 126570533.357 8  95749815.026 9
E36  23658208.140 8  23658210.198 9 124324725.076 8  94050855.490 9
G01  20816608.376 7                  20816612.084 7 109392119.178 7                  85240568.699 7
G02  20542230.873 8  20542231.681 6                 107950273.325 8  84117010.375 6
G03  22119887.707 7                  22119895.287 6 116240979.247 7                  90577302.842 6
G08  21867990.145 7                  21867997.090 7 114917128.091 7                  89545792.662 7
G10  23472586.774 5                                 123349381.21715                
G32  21834912.591 7                  21834920.238 8 114743161.950 7                  89410356.829 8
R01  22066288.961 7                 117957019.013 7
R02  19322830.606 8  19322834.971 7 103110434.345 8  80196935.835 7
R03  20800256.309 8  20800261.146 7 111345723.899 8  86601960.442 7
R17  19347343.054 8  19347347.427 7 103531756.008 8  80524552.042 7
R18  19716707.703 8  19716712.406 7 105249165.279 8  81860423.898 7
> 2025 06 15 11 57 50.0000000  0 21
C12  23544381.203 6  23544380.363 6 122601819.375 6  94803465.195 6
C19  22223763.807 7                 115725035.901 7
C20  25410092.450 5                 132317219.101 5
C22  22422366.673 7                 116759127.790 7
E04  26494510.527 7  26494512.253 8 139229567.908 7 105326288.850 8
E05  24462737.635 7  24462742.550 8 128552590.634 7  97249211.242 8
E06  25027825.723 7  25027828.576 8 131522077.391 7  99495638.662 8
E09  24624297.567 7  24624299.702 8 129401525.366 7  97891454.085 8
E34  24083014.331 8  24083016.943 9 126557070.851 8  95739630.729 9
E36  23658000.151 8  23658002.615 9 124323634.343 8  94050030.357 9
G01  20813705.465 7                  20813708.973 7 109376863.829 7                  85228681.395 7
G02  20541144.971 8  20541146.333 7                 107944567.647 8  84112564.391 7
G03  22115866.493 7                  22115873.623 6 116219845.368 7                  90560834.899 6
G08  21869703.854 7                  21869710.414 7 114926129.626 7                  89552806.805 7
G10  23474330.005 5                                 123358552.10215                
G32  21834546.675 8                  21834553.405 8 114741235.558 8                  89408855.735 8
R01  22068793.967 7                 117970408.159 7
R02  19322270.715 8  19322274.692 7 103107445.780 8  80194611.411 7
R03  20795857.305 8  20795861.898 7 111322175.021 8  86583644.671 7
R17  19347537.163 7  19347541.646 7 103532793.764 7  80525359.154 7
R18  19713561.310 8  19713565.896 7 105232370.412 8  81847361.227 7
> 2025 06 15 11 57 55.0000000  0 21
C12  23540850.500 6  23540849.178 6 122583433.267 6  94789247.867 6
C19  22223608.335 7                 115724225.339 7
C20  25411951.712 5                 132326888.114 5
C22  22419070.791 8                 116741965.840 8
E04  26495226.885 7  26495229.058 8 139233334.858 7 105329138.528 8
E05  24458795.308 7  24458799.732 8 128531870.936 7  97233536.932 8
E06  25027355.484 7  25027358.577 8 131519607.579 7  99493770.259 8
E09  24622519.172 7  24622520.855 8 129392177.211 7  97884382.270 8
E34  24080453.566 8  24080456.124 9 126543613.820 8  95729450.572 9
E36  23657793.900 8  23657796.385 9 124322550.650 8  94049210.542 9
G01  20810803.396 7                  20810807.590 7 109361617.867 7                  85216801.421 7
G02  20540061.161 7  20540062.703 6                 107938872.767 7  84108126.818 6
G03  22111845.906 7                  22111853.489 6 116198719.713 7                  90544373.379 6
G08  21871418.754 7                  21871424.884 7 114935141.406 7                  89559828.968 7
G10  23476077.188 4                                 123367727.122 4                
G32  21834182.778 7                  21834189.911 8 114739325.483 7                  89407367.383 8
R01  22071301.095 7                 117983806.313 7
R02  19321714.355 8  19321718.804 7 103104479.062 8  80192303.944 7
R03  20791460.517 7  20791464.979 7 111298640.215 7  86565339.801 7
R17  19347734.313 8  19347738.536 7 103533848.587 8  80526179.595 7
R18  19710417.949 8  19710422.320 7 105215588.726 8  81834308.821 7
> 2025 06 15 11 58  0.0000000  0 20
C12  23537322.200 6  23537319.420 6 122565054.464 6  94775036.222 6
C19  22223455.654 7                 115723427.933 7
C20  25413807.953 4                 132336562.183 4
C22  22415776.750 8                 116724815.058 8
E04  26495945.978 7  26495947.873 8 139237111.992 7 105331995.889 8
E05  24454853.043 7  24454857.987 8 128511156.944 7  97217866.950 8
E06  25026888.141 7  25026891.049 8 131517150.690 7  99491911.647 8
E09  24620742.640 7  24620744.463 8 129382842.333 7  97877320.494 8
E34  24077893.875 8  24077896.391 9 126530162.426 8  95719274.673 9
E36  23657589.687 8  23657591.508 9 124321474.177 8  94048396.198 9
G01  20807904.692 7                  20807908.804 7 109346381.503 7                  85204928.942 7
G02  20538980.296 8  20538981.172 6                 107933188.837 8  84103697.777 6
G03  22107827.319 7                  22107835.715 6 116177602.469 7                  90527918.385 6
G08  21873135.039 7                  21873141.683 7 114944163.664 7                  89566859.294 7
G32  21833822.438 8                  21833829.600 8 114737431.928 8                  89405891.904 8
R01  22073808.264 7                 117997213.536 7
R02  19321163.036 8  19321167.415 7 103101534.491 8  80190013.726 7
R03  20787066.674 7  20787071.300 7 111275119.461 7  86547045.913 7
R17  19347935.421 8  19347938.819 7 103534920.699 8  80527013.439 7
R18  19707276.680 8  19707280.963 8 105198820.420 8  81821266.796 8
> 2025 06 15 11 58  5.0000000  0 20
C12  23533794.117 6  23533791.658 6 122546683.011 6  94760830.255 6
C19  22223304.503 7                 115722643.736 7
C20  25415668.007 5                 132346241.261 5
C22  22412485.987 8                 116707675.488 8
E04  26496666.594 7  26496668.591 8 139240899.307 7 105334860.968 8
E05  24450911.602 7  24450917.325 8 128490448.762 7  97202201.365 8
E06  25026423.161 7  25026425.970 8 131514706.795 7  99490062.865 8
E09  24618968.542 7  24618970.639 8 129373520.780 7  97870268.803 8
E34  24075335.713 8  24075337.762 8 126516716.771 8  95709103.129 8
E36  23657385.783 8  23657388.024 9 124320404.998 8  94047587.362 9
G01  20805007.086 7                  20805011.368 7 109331154.853 7                  85193064.011 7
G02  20537900.252 8  20537901.951 6                 107927515.920 8  84099277.333 6
G03  22103809.857 7                  22103817.889 6 116156493.723 7                  90511469.993 6
G08  21874853.430 7                  21874861.091 7 114953196.453 7                  89573897.837 7
G32  21833465.300 8                  21833472.246 7 114735554.990 8                  89404429.338 7
R01  22076318.331 7                 118010629.990 7
R02  19320615.618 8  19320619.213 7 103098612.284 8  80187740.883 7
R03  20782675.361 7  20782680.229 7 111251612.841 7  86528763.015 7
R17  19348137.913 8  19348142.318 7 103536010.002 8  80527860.672 7
R18  19704138.330 8  19704142.586 7 105182065.564 8  81808235.261 7
> 2025 06 15 11 58 10.0000000  0 20
C12  23530267.265 6  23530264.939 6 122528318.256 6  94746629.461 6
C19  22223156.347 7                 115721872.044 7
C20  25417529.789 5                 132355924.654 5
C22  22409196.610 8                 116690546.433 8
E04  26497389.570 7  26497391.092 8 139244696.110 7 105337733.229 8
E05  24446972.150 7  24446977.580 8 128469745.652 7  97186539.612 8
E06  25025959.953 7  25025963.300 8 131512275.164 7  99488223.350 8
E09  24617196.492 7  24617199.196 8 129364211.798 7  97863226.641 8
E34  24072778.481 8  24072780.070 8 126503276.132 8  95698935.373 8
E36  23657183.802 8  23657185.809 9 124319342.386 8  94046783.505 9
G01  20802111.212 7                  20802115.076 7 109315937.137 7                  85181206.068 7
G02  20536822.170 8  20536824.871 6                 107921853.352 8  84094864.951 6
G03  22099794.493 7                  22099803.326 6 116135392.761 7                  90495027.704 6
G08  21876574.342 7                  21876581.453 7 114962239.005 7                  89580943.970 7
G32  21833111.395 8                  21833118.025 7 114733693.891 8                  89402979.118 7
R01  22078830.683 7                 118024054.856 7
R02  19320071.539 8  19320076.168 7 103095711.263 8  80185484.548 7
R03  20778286.270 8  20778291.484 7 111228119.907 8  86510490.711 7
R17  19348344.493 8  19348349.188 7 103537115.914 8  80528720.830 7
R18  19701001.869 8  19701006.149 7 105165323.506 8  81795213.663 7
> 2025 06 15 11 58 15.0000000  0 20
C12  23526742.303 6  23526739.312 6 122509959.841 6  94732433.566 6
C19  22223011.042 7                 115721112.478 7
C20  25419391.491 5                 132365612.031 5
C22  22405908.463 8                 116673427.568 8
E04  26498113.422 7  26498115.373 8 139248502.072 7 105340612.412 8
E05  24443033.338 7  24443038.846 8 128449047.305 7  97170881.474 8
E06  25025499.998 7  25025502.890 8 131509855.499 7  99486392.882 8
E09  24615428.281 7  24615430.087 8 129354915.107 7  97856193.785 8
E34  24070221.436 8  24070223.269 8 126489840.164 8  95688771.159 8
E36  23656982.712 8  23656984.775 9 124318286.024 8  94045984.378 9
G01  20799216.819 7                  20799221.074 7 109300728.063 7                  85169354.847 7
G02  20535746.947 8  20535749.115 7                 107916200.760 8  84090460.325 7
G03  22095781.616 7                  22095789.291 6 116114299.285 7                  90478591.254 6
G08  21878297.189 7                  21878304.251 7 114971291.027 7                  89587997.480 7
G32  21832760.901 8                  21832766.945 7 114731848.300 8                  89401540.990 7
R01  22081342.321 7                 118037488.061 7
R02  19319532.738 8  19319536.381 7 103092831.535 8  80183244.749 7
R03  20773899.437 8  20773905.449 7 111204640.065 8  86492228.651 7
R17  19348555.028 8  19348558.851 7 103538238.142 8  80529593.653 7
R18  19697867.997 8  19697872.226 7 105148593.854 8  81782201.723 7
> 2025 06 15 11 58 20.0000000  0 21
C12  23523216.821 6  23523215.294 6 122491607.998 6  94718242.771 6
C19  22222866.916 7                 115720365.351 7
C20  25421251.062 5                 132375303.562 5
C22  22402622.950 8                 116656319.162 8
E04  26498839.240 7  26498841.463 8 139252317.420 7 105343498.693 8
E05  24439096.260 7  24439101.059 8 128428354.000 7  97155227.135 8
E06  25025042.258 7  25025044.804 8 131507448.008 7  99484571.620 8
E09  24613660.714 7  24613663.382 8 129345630.995 7  97849170.425 8
E34  24067665.131 8  24067667.423 9 126476409.150 8  95678610.679 9
E36  23656782.531 8  23656784.984 9 124317236.157 8  94045190.158 9
G01  20796324.977 7                  20796328.604 7 109285527.886 7                  85157510.569 7
G02  20534673.010 7  20534675.466 6                 107910558.456 7  84086063.724 6
G03  22091768.425 7                  22091776.931 6 116093213.479 7                  90462160.767 6
G08  21880021.513 7                  21880028.761 7 114980352.699 7                  89595058.519 7
G10  23484839.329 5                                 123413494.41715                
G32  21832411.983 8                  21832418.545 7 114730018.457 8                  89400115.149 7
R01  22083857.132 7                 118050929.452 7
R02  19318996.008 8  19319000.881 7 103089973.025 8  80181021.479 7
R03  20769515.759 8  20769522.058 7 111181173.895 8  86473977.210 7
R17  19348767.632 8  19348771.081 7 103539376.918 8  80530479.368 7
R18  19694736.503 8  19694740.613 7 105131876.972 8  81769199.698 7
> 2025 06 15 11 58 25.0000000  0 21
C12  23519693.829 6  23519692.641 6 122473262.447 6  94704056.808 6
C19  22222725.491 7                 115719630.254 7
C20  25423111.290 5                 132384999.044 5
C22  22399339.638 8                 116639220.832 8
E04  26499567.251 7  26499569.214 8 139256141.791 7 105346391.794 8
E05  24435159.491 7  24435164.092 8 128407665.356 7  97139576.332 8
E06  25024586.252 7  25024588.969 8 131505052.292 7  99482759.275 8
E09  24611896.435 7  24611898.995 8 129336359.074 7  97842156.281 8
E34  24065110.108 8  24065112.496 9 126462982.704 8  95668453.667 9
E36  23656583.540 8  23656586.367 9 124316192.422 8  94044400.579 9
G01  20793433.834 8                  20793438.187 8 109270336.262 8                  85145672.937 8
G02  20533601.548 8  20533603.200 6                 107904925.996 8  84081674.796 6
G03  22087756.691 7                  22087765.418 6 116072135.039 7                  90445735.986 6
G08  21881746.343 7                  21881755.048 7 114989423.762 7                  89602126.862 7
G10  23486603.017 5                                 123422691.964 5                
G32  21832066.284 8                  21832072.967 7 114728204.053 8                  89398701.316 7
R01  22086372.878 7                 118064378.724 7
R02  19318464.936 8  19318468.841 7 103087135.456 8  80178814.483 7
R03  20765134.468 8  20765140.930 7 111157720.710 8  86455735.870 7
R17  19348983.946 7  19348987.021 7 103540531.737 7  80531377.569 7
R18  19691607.673 8  19691610.875 7 105115172.354 8  81756207.212 7
> 2025 06 15 11 58 30.0000000  0 21
C12  23516172.006 6  23516170.565 6 122454923.512 6  94689875.967 6
C19  22222587.388 7                 115718907.539 7
C20  25424974.180 5                 132394698.706 5
C22  22396058.258 8                 116622132.971 8
E04  26500296.467 7  26500298.716 8 139259975.566 7 105349292.011 8
E05  24431223.733 7  24431228.185 8 128386981.786 7  97123929.370 8
E06  25024132.782 7  25024135.406 8 131502668.800 7  99480956.182 8
E09  24610133.979 7  24610136.973 8 129327099.686 7  97835151.633 8
E34  24062555.847 8  24062558.523 9 126449561.246 8  95658300.413 9
E36  23656386.285 8  23656388.954 9 124315155.224 8  94043615.938 9
G01  20790544.474 8                  20790549.084 8 109255153.556 8                  85133842.257 8
G02  20532531.851 8  20532532.497 7                 107899303.795 8  84077293.870 7
G03  22083746.664 7                  22083755.786 6 116051064.381 7                  90429317.310 6
G08  21883475.100 7                  21883483.329 7 114998504.499 7                  89609202.733 7
G10  23488351.796 5                                                                
G32  21831724.092 8                  21831730.621 7 114726405.411 8                  89397299.785 7
R01  22088891.709 7                 118077836.432 7
R02  19317937.021 8  19317941.281 7 103084319.274 8  80176624.103 7
R03  20760756.622 8  20760762.520 7 111134280.989 8  86437504.970 7
R17  19349203.104 8  19349205.938 7 103541703.073 8  80532288.615 7
R18  19688480.300 8  19688484.306 7 105098480.521 8  81743224.700 7
> 2025 06 15 11 58 35.0000000  0 21
C12  23512651.727 6  23512649.997 6 122436591.722 6  94675700.635 6
C19  22222450.083 7                 115718197.722 7
C20  25426840.431 5                 132404403.059 5
C22  22392779.179 8                 116605056.076 8
E04  26501028.343 7  26501030.145 8 139263819.220 7 105352199.706 8
E05  24427288.135 7  24427293.234 8 128366303.729 7  97108286.581 8
E06  25023682.081 7  25023684.282 8 131500297.969 7  99479162.658 8
E09  24608375.067 7  24608377.454 8 129317853.377 7  97828156.842 8
E34  24060003.091 8  24060005.657 8 126436145.231 8  95648151.284 8
E36  23656190.838 8  23656192.907 8 124314124.984 8  94042836.570 8
G01  20787657.291 7                  20787662.109 8 109239980.282 7                  85122018.915 8
G02  20531463.985 7  20531465.168 7                 107893692.367 7  84072921.319 7
G03  22079739.245 7                  22079747.801 7 116030001.885 7                  90412904.992 7
G08  21885205.161 7                  21885214.309 7 115007595.373 7                  89616286.521 7
G10  23490082.443 4                                                                
G32  21831384.637 7                  21831391.210 7 114724623.001 7                  89395910.883 7
R01  22091410.053 7                 118091302.810 7
R02  19317413.286 8  19317417.550 7 103081524.902 8  80174450.687 7
R03  20756381.255 8  20756386.385 7 111110855.208 8  86419284.910 7
R17  19349423.738 8  19349428.310 7 103542891.342 8  80533212.805 7
R18  19685355.616 8  19685359.591 7 105081801.913 8  81730252.450 7
> 2025 06 15 11 58 40.0000000  0 20
C12  23509132.212 6  23509130.419 6 122418266.720 6  94661530.575 6
C19  22222316.884 7                 115717500.416 7
C20  25428703.399 5                 132414111.788 5
C22  22389501.904 8                 116587989.793 8
E04  26501760.875 7  26501763.375 8 139267672.358 7 105355114.558 8
E05  24423354.262 7  24423359.367 8 128345630.926 7  97092647.762 8
E06  25023233.088 7  25023235.439 8 131497939.438 7  99477378.454 8
E09  24606619.196 7  24606620.341 8 129308619.771 7  97821171.674 8
E34  24057450.954 8  24057453.670 9 126422734.315 8  95638006.021 9
E36  23655995.666 8  23655998.138 9 124313101.440 8  94042062.258 9
G01  20784772.206 8                  20784776.346 8 109224816.062 8                  85110202.644 8
G02  20530398.159 8  20530399.148 7                 107888091.333 8  84068556.882 7
G03  22075732.719 7                  22075741.740 7 116008947.325 7                  90396498.859 7
G08  21886937.194 7                  21886946.226 7 115016696.039 7                  89623377.949 7
G32  21831048.151 7                  21831054.891 7 114722856.523 7                  89394534.417 7
R01  22093930.650 7                 118104777.679 7
R02  19316894.426 8  19316897.539 7 103078752.122 8  80172294.102 7
R03  20752006.126 8  20752012.129 7 111087443.040 8  86401075.467 7
R17  19349649.439 8  19349653.420 7 103544096.353 8  80534150.016 7
R18  19682233.592 8  19682237.483 7 105065136.255 8  81717290.249 7
> 2025 06 15 11 58 45.0000000  0 20
C12  23505614.631 6  23505612.524 6 122399948.694 6  94647365.909 6
C19  22222185.058 7                 115716815.834 7
C20  25430569.891 4                 132423825.040 4
C22  22386225.699 8                 116570934.328 8
E04  26502496.669 7  26502498.510 8 139271535.247 7 105358036.795 8
E05  24419421.895 7  24419426.457 8 128324963.527 7  97077013.026 8
E06  25022786.670 7  25022788.997 8 131495593.457 7  99475603.729 8
E09  24604864.280 7  24604865.651 8 129299399.060 7  97814196.266 8
E34  24054899.817 8  24054902.689 9 126409328.697 8  95627864.760 9
E36  23655802.376 8  23655804.639 8 124312084.713 8  94041293.112 8
G01  20781888.028 8                  20781892.904 8 109209661.124 8                  85098393.607 8
G02  20529334.534 8  20529335.733 7                 107882500.961 8  84064200.744 7
G03  22071727.649 7                  22071736.902 7 115987900.827 7                  90380098.980 7
G08  21888670.857 7                  21888680.272 7 115025806.663 7                  89630477.141 7
G32  21830714.944 7                  21830721.690 7 114721106.120 7                  89393170.459 7
R01  22096452.880 7                 118118261.192 7
R02  19316378.845 8  19316382.322 7 103076001.005 8  80170154.333 7
R03  20747634.655 8  20747641.483 7 111064044.849 8  86382876.895 7
R17  19349877.697 8  19349881.749 7 103545318.226 8  80535100.365 7
R18  19679113.112 8  19679117.755 7 105048483.672 8  81704338.249 7
> 2025 06 15 11 58 50.0000000  0 20
C12  23502098.221 6  23502095.201 6 122381637.499 6  94633206.567 6
C19  22222055.654 7                 115716143.783 7
C20  25432429.968 4                 132433542.600 4
C22  22382952.756 8                 116553889.507 8
E04  26503233.369 7  26503235.449 8 139275407.617 7 105360966.203 8
E05  24415490.067 7  24415494.600 8 128304301.386 7  97061382.258 8
E06  25022341.962 7  25022344.875 8 131493259.784 7  99473838.320 8
E09  24603111.559 7  24603113.458 8 129290191.035 7  97807230.472 8
E34  24052349.979 8  24052352.697 9 126395928.228 8  95617727.395 9
E36  23655609.778 8  23655612.423 9 124311074.654 8  94040529.008 9
G01  20779005.936 7                  20779010.475 8 109194515.298 7                  85086591.663 8
G02  20528272.397 8  20528274.098 7                 107876920.997 8  84059852.728 7
G03  22067724.404 7                  22067733.235 7 115966862.239 7                  90363705.339 7
G08  21890406.858 7                  21890414.620 7 115034927.152 7                  89637583.994 7
G32  21830385.786 8                  21830391.867 7 114719371.665 8                  89391818.930 7
R01  22098976.087 7                 118131752.981 7
R02  19315866.818 8  19315870.733 7 103073271.147 8  80168031.111 7
R03  20743267.021 8  20743272.603 7 111040660.381 8  86364688.991 7
R17  19350109.148 8  19350112.960 7 103546556.811 8  80536063.713 7
R18  19675996.490 8  19676001.009 7 105031844.054 8  81691396.327 7
> 2025 06 15 11 58 55.0000000  0 20
C12  23498582.920 6  23498580.421 6 122363333.015 6  94619052.403 6
C19  22221930.066 7                 115715484.200 7
C20  25434300.651 4                 132443264.45514
C22  22379681.679 8                 116536855.254 8
E04  26503972.287 7  26503974.043 8 139279289.463 7 105363902.784 8
E05  24411559.314 7  24411563.570 8 128283644.399 7  97045755.401 8
E06  25021900.196 7  25021903.087 8 131490938.370 7  99472082.194 8
E09  24601360.670 7  24601363.671 8 129280995.677 7  97800274.245 8
E34  24049801.460 8  24049803.609 9 126382532.795 8  95607593.845 9
E36  23655419.271 8  23655421.504 8 124310071.195 8  94039769.905 8
G01  20776125.412 8                  20776130.118 8 109179378.495 8                  85074796.761 8
G02  20527212.356 8  20527213.836 7                 107871351.427 8  84055512.795 7
G03  22063722.863 7                  22063731.230 7 115945831.538 7                  90347317.730 7
G08  21892144.511 7                  21892152.284 7 115044057.348 7                  89644698.415 7
G32  21830059.808 8                  21830064.894 7 114717653.013 8                  89390479.710 7
R01  22101501.532 7                 118145253.183 7
R02  19315359.420 8  19315362.620 7 103070562.828 8  80165924.652 7
R03  20738901.169 8  20738906.944 7 111017289.631 8  86346511.734 7
R17  19350344.579 8  19350347.463 7 103547811.967 8  80537039.924 7
R18  19672882.180 8  19672886.151 7 105015217.323 8  81678464.422 7
> 2025 06 15 11 59  0.0000000  0 20
C12  23495069.685 6  23495066.590 6 122345034.730 6  94604902.970 6
C19  22221805.320 7                 115714836.444 7
C20  25436164.487 4                 132452989.78914
C22  22376411.961 8                 116519830.970 8
E04  26504712.350 7  26504714.458 8 139283180.084 7 105366846.013 8
E05  24407629.243 7  24407633.595 8 128262991.987 7  97030132.021 8
E06  25021460.825 8  25021463.575 8 131488628.597 8  99470334.864 8
E09  24599613.678 7  24599616.122 8 129271812.341 7  97793327.131 8
E34  24047253.065 8  24047255.394 9 126369141.832 8  95597463.669 9
E36  23655229.358 8  23655231.677 9 124309073.729 8  94039015.330 9
G01  20773246.806 7                  20773251.154 8 109164250.127 7                  85063008.430 8
G02  20526155.226 8  20526155.802 7                 107865791.572 8  84051180.447 7
G03  22059722.189 7                  22059729.722 7 115924808.018 7                  90330935.778 7
G08  21893883.623 7                  21893890.993 7 115053196.605 7                  89651819.866 7
G32  21829734.716 8                  21829740.432 7 114715949.571 8                  89389152.371 7
R01  22104028.574 7                 118158761.088 7
R02  19314855.785 8  19314859.847 7 103067875.290 8  80163834.327 7
R03  20734538.664 8  20734543.261 7 110993932.037 8  86328344.753 7
R17  19350580.900 8  19350585.797 7 103549083.004 8  80538028.530 7
R18  19669769.634 8  19669773.963 8 104998602.925 8  81665542.104 8
> 2025 06 15 11 59  5.0000000  0 20
C12  23491557.277 6  23491553.961 6 122326743.931 6  94590759.412 6
C19  22221684.100 7                 115714201.803 7
C20  25438034.386 4                 132462720.13514
C22  22373144.973 8                 116502817.970 8
E04  26505454.769 7  26505456.809 8 139287080.862 7 105369796.908 8
E05  24403699.523 7  24403704.782 8 128242345.477 7  97014513.076 8
E06  25021023.476 8  25021026.486 8 131486331.750 8  99468597.324 8
E09  24597868.825 7  24597871.091 8 129262642.378 7  97786390.122 8
E34  24044706.913 8  24044708.257 8 126355756.621 8  95587337.842 8
E36  23655041.052 8  23655043.259 9 124308083.556 8  94038266.261 9
G01  20770369.390 7                  20770374.527 8 109149131.503 7                  85051227.683 8
G02  20525098.606 8  20525099.925 7                 107860242.774 8  84046856.712 7
G03  22055722.960 7                  22055730.917 6 115903793.073 7                  90314560.572 6
G08  21895624.692 7                  21895631.915 7 115062346.193 7                  89658949.420 7
G32  21829412.845 7                  21829419.647 7 114714262.643 7                  89387837.885 7
R01  22106557.202 7                 118172277.887 7
R02  19314356.469 8  19314360.553 7 103065209.763 8  80161761.131 7
R03  20730176.458 8  20730183.051 7 110970588.541 8  86310188.716 7
R17  19350821.738 8  19350825.860 7 103550371.361 8  80539030.578 7
R18  19666659.673 8  19666664.123 8 104982002.117 8  81652630.382 8
> 2025 06 15 11 59 10.0000000  0 20
C12  23488045.658 6  23488042.450 6 122308459.512 6  94576620.737 6
C19  22221564.357 7                 115713579.206 7
C20  25439906.681 5                 132472454.328 5
C22  22369880.306 8                 116485815.146 8
E04  26506198.558 7  26506200.773 8 139290990.609 7 105372754.618 8
E05  24399771.789 7  24399776.717 8 128221703.742 7  96998897.757 8
E06  25020588.740 7  25020591.644 8 131484046.747 7  99466868.743 8
E09  24596126.293 7  24596128.467 8 129253484.652 7  97779462.371 8
E34  24042160.094 8  24042161.992 9 126342376.078 8  95577215.545 9
E36  23654854.156 8  23654855.964 9 124307099.564 8  94037521.873 9
G01  20767494.116 7                  20767499.181 8 109134021.508 7                  85039453.687 8
G02  20524044.857 8  20524045.721 7                 107854703.931 8  84042540.726 7
G03  22051725.269 7                  22051733.466 7 115882785.604 7                  90298191.100 7
G08  21897367.248 7                  21897374.861 7 115071505.108 7                  89666086.235 7
G32  21829094.337 7                  21829101.484 7 114712591.129 7                  89386535.411 7
R01  22109088.055 7                 118185802.695 7
R02  19313860.329 8  19313864.544 7 103062565.100 8  80159704.164 7
R03  20725817.803 8  20725824.418 7 110947258.537 8  86292043.184 7
R17  19351065.707 8  19351069.585 7 103551675.926 8  80540045.230 7
R18  19663551.848 8  19663556.348 7 104965413.795 8  81639728.366 7
> 2025 06 15 11 59 15.0000000  0 20
C12  23484534.555 6  23484531.909 6 122290181.687 6  94562487.163 6
C19  22221446.582 7                 115712968.852 7
C20  25441777.971 4                 132482192.60414
C22  22366617.090 8                 116468822.721 8
E04  26506943.827 7  26506946.492 8 139294909.610 7 105375719.305 8
E05  24395844.777 7  24395849.687 8 128201067.033 7  96983286.241 8
E06  25020156.516 7  25020159.068 8 131481773.791 7  99465149.267 8
E09  24594386.235 7  24594388.146 8 129244339.393 7  97772544.053 8
E34  24039614.601 8  24039616.672 9 126329000.404 8  95567096.940 9
E36  23654668.127 8  23654669.950 9 124306121.976 8  94036782.333 9
G01  20764620.571 7                  20764625.512 8 109118920.394 7                  85027686.589 8
G02  20522993.066 8  20522993.859 6                 107849175.257 8  84038232.659 6
G03  22047729.562 7                  22047738.505 7 115861785.804 7                  90281827.606 7
G08  21899111.326 7                  21899118.949 7 115080673.464 7                  89673230.384 7
G32  21828779.906 7                  21828786.452 7 114710935.253 7                  89385245.087 7
R01  22111619.216 7                 118199335.537 7
R02  19313368.918 8  19313373.051 7 103059941.754 8  80157663.799 7
R03  20721463.004 8  20721468.183 7 110923941.938 8  86273908.091 7
R17  19351313.031 8  19351316.378 7 103552996.898 8  80541072.655 7
R18  19660446.497 8  19660451.252 7 104948838.221 8  81626836.275 7
> 2025 06 15 11 59 20.0000000  0 21
C12  23481025.484 6  23481023.104 6 122271909.729 6  94548358.125 6
C19  22221332.190 7                 115712370.050 7
C20  25443648.052 4                 132491934.148 4
C22  22363355.587 8                 116451840.037 8
E04  26507691.260 7  26507693.836 8 139298837.112 7 105378690.420 8
E05  24391918.282 7  24391923.430 8 128180434.679 7  96967678.015 8
E06  25019726.441 7  25019728.646 8 131479512.213 7  99463438.386 8
E09  24592648.524 7  24592650.097 8 129235205.897 7  97765634.643 8
E34  24037069.916 8  24037072.166 9 126315628.942 8  95556981.511 9
E36  23654483.085 8  23654485.001 8 124305150.108 8  94036047.117 8
G01  20761748.331 8                  20761753.345 8 109103827.452 8                  85015925.862 8
G02  20521941.648 8  20521943.631 6                 107843656.053 8  84033931.991 6
G03  22043734.071 7                  22043742.949 7 115840793.009 7                  90265469.574 7
G08  21900858.471 7                  21900865.896 7 115089850.626 7                  89680381.406 7
G10  23505867.043 5                                 123524110.42915                
G32  21828467.319 7                  21828474.164 7 114709294.279 7                  89383966.417 7
R01  22114151.927 7                 118212875.542 7
R02  19312881.005 8  19312885.066 7 103057338.949 8  80155639.389 7
R03  20717110.006 8  20717114.861 7 110900638.242 8  86255782.980 7
R17  19351562.058 8  19351566.698 7 103554333.630 8  80542112.320 7
R18  19657344.013 8  19657348.074 8 104932274.738 8  81613953.572 8
> 2025 06 15 11 59 25.0000000  0 21
C12  23477518.387 6  23477515.594 6 122253643.937 6  94534233.860 6
C19  22221219.168 7                 115711782.940 7
C20  25445520.864 5                 132501679.293 5
C22  22360096.138 8                 116434867.267 8
E04  26508440.639 7  26508442.886 8 139302773.315 7 105381668.129 8
E05  24387993.575 7  24387998.142 8 128159806.839 7  96952073.208 8
E06  25019298.694 7  25019300.394 8 131477262.170 7  99461736.225 8
E09  24590911.439 7  24590914.302 8 129226084.390 7  97758734.288 8
E34  24034526.452 8  24034528.381 9 126302261.837 8  95546869.381 9
E36  23654299.318 8  23654301.165 8 124304184.118 8  94035316.356 8
G01  20758877.579 7                  20758882.408 8 109088742.900 7                  85004171.646 8
G02  20520893.913 7  20520895.416 7                 107838146.512 7  84029638.834 7
G03  22039740.796 7                  22039749.297 6 115819807.347 7                  90249117.132 6
G08  21902606.179 7                  21902613.933 7 115099036.698 7                  89687539.389 7
G10  23507625.476 4                                 123533350.030 4                
G32  21828158.515 7                  21828165.850 7 114707668.423 7                  89382699.540 7
R01  22116686.357 7                 118226423.147 7
R02  19312398.216 8  19312401.236 7 103054756.604 8  80153630.892 7
R03  20712758.286 8  20712763.525 7 110877347.496 8  86237667.959 7
R17  19351815.796 8  19351819.357 7 103555686.206 8  80543164.322 7
R18  19654243.154 8  19654247.275 7 104915723.521 8  81601080.393 7
> 2025 06 15 11 59 30.0000000  0 21
C12  23474012.435 6  23474009.655 6 122235384.756 6  94520114.725 6
C19  22221108.797 7                 115711208.083 7
C20  25447393.882 5                 132511428.440 5
C22  22356838.372 8                 116417904.933 8
E04  26509191.228 7  26509193.652 8 139306718.716 7 105384652.789 8
E05  24384068.818 7  24384073.725 8 128139184.073 7  96936472.234 8
E06  25018872.160 7  25018874.538 8 131475024.168 7  99460043.183 8
E09  24589179.849 7  24589180.949 8 129216975.380 7  97751843.361 8
E34  24031983.746 8  24031985.652 9 126288899.622 8  95536760.953 9
E36  23654116.383 8  23654118.621 8 124303224.553 8  94034590.455 8
G01  20756008.899 7                  20756013.619 8 109073667.230 7                  84992424.405 8
G02  20519846.846 7  20519848.843 6                 107832647.178 7  84025353.641 6
G03  22035748.948 7                  22035756.941 6 115798829.387 7                  90232770.733 6
G08  21904355.724 7                  21904364.606 7 115108232.261 7                  89694704.777 7
G10  23509389.306 5                                 123542593.316 5                
G32  21827851.870 7                  21827858.992 7 114706058.184 7                  89381444.802 7
R01  22119221.719 7                 118239978.740 7
R02  19311917.631 8  19311921.010 7 103052195.449 8  80151638.910 7
R03  20708409.870 8  20708415.255 7 110854070.377 8  86219563.555 7
R17  19352071.373 8  19352075.038 7 103557055.108 8  80544229.031 7
R18  19651144.902 8  19651149.046 7 104899185.052 8  81588217.136 7
> 2025 06 15 11 59 35.0000000  0 21
C12  23470507.613 6  23470503.838 6 122217132.315 6  94506000.802 6
C19  22221001.152 7                 115710645.554 7
C20  25449263.915 4                 132521181.65014
C22  22353582.975 7                 116400953.105 7
E04  26509943.388 7  26509946.218 8 139310673.436 7 105387644.506 8
E05  24380146.242 7  24380150.212 8 128118566.444 7  96920875.135 8
E06  25018449.267 7  25018450.932 8 131472798.278 7  99458359.335 8
E09  24587448.224 7  24587449.962 8 129207878.918 7  97744961.965 8
E34  24029441.629 8  24029443.822 9 126275542.433 8  95526656.318 9
E36  23653934.766 8  23653937.261 8 124302271.506 8  94033869.478 8
G01  20753141.604 8                  20753146.817 8 109058600.560 8                  84980684.146 8
G02  20518802.397 8  20518804.116 6                 107827158.066 8  84021076.427 6
G03  22031758.902 7                  22031766.396 6 115777859.256 7                  90216430.344 6
G08  21906107.319 7                  21906115.656 7 115117437.327 7                  89701877.529 7
G10  23511149.956 4                  23511160.882 4 123551839.974 4                  96274271.72214
G32  21827548.550 7                  21827555.228 7 114704463.654 7                  89380202.281 7
R01  22121759.570 7                 118253542.381 7
R02  19311441.066 8  19311444.833 7 103049655.449 8  80149663.345 7
R03  20704064.994 8  20704070.023 7 110830807.146 8  86201469.946 7
R17  19352329.745 8  19352334.250 7 103558440.507 8  80545306.583 7
R18  19648049.013 8  19648053.563 7 104882659.486 8  81575363.916 7
> 2025 06 15 11 59 40.0000000  0 21
C12  23467003.599 6  23467000.193 6 122198885.957 6  94491891.564 6
C19  22220895.768 7                 115710094.639 7
C20  25451138.748 5                 132530938.254 5
C22  22350329.496 7                 116384011.142 7
E04  26510697.773 7  26510700.413 8 139314636.729 7 105390642.704 8
E05  24376223.135 7  24376227.690 8 128097953.294 7  96905281.445 8
E06  25018027.208 7  25018029.557 8 131470583.876 7  99456684.138 8
E09  24585719.627 7  24585721.249 8 129198794.338 7  97738089.546 8
E34  24026901.055 8  24026902.818 9 126262189.531 8  95516554.936 9
E36  23653754.357 8  23653757.002 9 124301324.269 8  94033152.907 9
G01  20750275.846 8                  20750281.068 8 109043542.212 8                  84968950.375 8
G02  20517759.559 7  20517761.153 6                 107821678.574 7  84016806.693 6
G03  22027769.891 7                  22027777.189 6 115756896.243 7                  90200095.560 6
G08  21907860.751 7                  21907868.564 7 115126651.222 7                  89709057.186 7
G10  23512910.777 4                  23512921.052 5 123561089.370 4                  96281478.940 5
G32  21827248.054 7                  21827254.633 7 114702884.127 7                  89378971.489 7
R01  22124298.592 7                 118267113.444 7
R02  19310969.262 8  19310973.093 7 103047136.104 8  80147703.826 7
R03  20699719.666 7  20699726.946 7 110807556.723 7  86183386.284 7
R17  19352591.630 8  19352595.830 7 103559841.825 8  80546396.462 7
R18  19644955.951 8  19644959.480 7 104866146.214 8  81562520.274 7
> 2025 06 15 11 59 45.0000000  0 20
C12  23463500.687 6  23463497.450 6 122180645.739 6  94477787.092 6
C19  22220791.317 7                 115709555.414 7
C20  25453013.094 5                 132540698.465 5
C22  22347078.260 8                 116367079.111 8
E04  26511454.469 7  26511456.293 8 139318608.719 7 105393647.473 8
E05  24372301.155 7  24372305.995 8 128077344.711 7  96889691.200 8
E06  25017608.010 7  25017610.374 8 131468380.973 7  99455017.654 8
E09  24583992.792 7  24583994.786 8 129189721.729 7  97731226.194 8
E34  24024360.868 8  24024362.574 8 126248841.007 8  95506456.884 8
E36  23653575.467 8  23653577.890 9 124300382.964 8  94032440.804 9
G01  20747412.335 8                  20747416.765 8 109028492.269 8                  84957223.131 8
G02  20516718.502 7  20516720.651 6                 107816208.768 7  84012544.508 6
G03  22023781.368 7                  22023789.535 6 115735940.435 7                  90183766.400 6
G08  21909615.592 7                  21909624.313 7 115135874.038 7                  89716243.772 7
G32  21826949.651 7                  21826957.180 7 114701319.701 7                  89377752.446 7
R01  22126839.046 7                 118280691.831 7
R02  19310501.233 8  19310504.736 7 103044637.235 8  80145760.298 7
R03  20695380.105 7  20695385.553 7 110784319.390 7  86165312.793 7
R17  19352856.771 8  19352860.859 7 103561258.977 8  80547498.677 7
R18  19641864.394 8  19641868.362 7 104849645.191 8  81549686.149 7
> 2025 06 15 11 59 50.0000000  0 20
C12  23459999.203 7  23459995.762 6 122162410.967 7  94463686.806 6
C19  22220689.867 7                 115709027.175 7
C20  25454887.872 5                 132550461.294 5
C22  22343828.800 7                 116350156.287 7
E04  26512211.750 7  26512213.599 8 139322588.628 7 105396658.255 8
E05  24368380.812 7  24368385.006 8 128056739.965 7  96874103.857 8
E06  25017191.037 7  25017193.329 8 131466188.862 7  99453359.332 8
E09  24582267.930 7  24582270.481 8 129180660.352 7  97724371.328 8
E34  24021821.413 8  24021823.137 9 126235496.160 8  95496361.604 9
E36  23653397.448 8  23653399.739 9 124299446.811 8  94031732.610 9
G01  20744549.866 8                  20744554.348 8 109013449.977 8                  84945501.885 8
G02  20515679.494 7  20515681.627 6                 107810747.924 7  84008289.304 6
G03  22019793.971 7                  22019803.544 7 115714991.122 7                  90167442.226 7
G08  21911372.681 7                  21911380.293 7 115145105.018 7                  89723436.714 7
G32  21826654.932 7                  21826662.243 7 114699769.632 7                  89376544.570 7
R01  22129379.785 7                 118294277.047 7
R02  19310036.408 8  19310040.052 7 103042158.426 8  80143832.334 7
R03  20691041.414 8  20691047.405 7 110761094.373 8  86147248.904 7
R17  19353124.311 8  19353128.026 7 103562691.180 8  80548612.623 7
R18  19638775.775 8  19638779.509 7 104833155.725 8  81536861.011 7
> 2025 06 15 11 59 55.0000000  0 20
C12  23456499.584 7  23456495.303 6 122144182.647 7  94449591.498 6
C19  22220591.802 7                 115708510.910 7
C20  25456764.408 5                 132560227.904 5
C22  22340580.896 7                 116333243.720 7
E04  26512970.787 7  26512972.668 8 139326577.479 7 105399675.795 8
E05  24364460.600 7  24364464.947 8 128036140.099 7  96858520.207 8
E06  25016775.248 7  25016778.446 8 131464008.557 7  99451709.943 8
E09  24580546.300 7  24580548.469 8 129171611.278 7  97717525.766 8
E34  24019282.870 8  24019284.589 8 126222155.987 8  95486269.861 8
E36  23653220.532 8  23653222.773 9 124298516.863 8  94031029.102 9
G01  20741689.155 8                  20741693.167 8 108998416.387 8                  84933787.396 8
G02  20514642.604 8  20514644.456 7                 107805297.056 8  84004041.877 7
G03  22015809.301 7                  22015818.233 6 115694049.321 7                  90151123.938 6
G08  21913130.801 7                  21913138.425 7 115154345.151 7                  89730636.800 7
G32  21826362.853 7                  21826370.000 7 114698234.911 7                  89375348.684 7
R01  22131922.816 7                 118307869.836 7
R02  19309575.784 8  19309578.922 7 103039700.319 8  80141920.485 7
R03  20686704.125 8  20686710.539 7 110737882.842 8  86129195.529 7
R17  19353395.137 8  19353399.532 7 103564139.587 8  80549739.163 7
R18  19635689.543 8  19635692.244 7 104816678.871 8  81524045.676 7
> 2025 06 15 12 00  0.0000000  0 21
C12  23452999.943 7  23452995.751 6 122125960.564 7  94435501.040 6
C19  22220493.766 7                 115708006.392 7
C20  25458643.116 4                 132569998.016 4
C22  22337334.513 7                 116316341.146 7
E04  26513731.631 7  26513733.321 8 139330575.039 7 105402699.914 8
E05  24360541.667 7  24360545.824 8 128015544.855 7  96842940.065 8
E06  25016362.415 7  25016365.820 8 131461839.806 7  99450069.310 8
E09  24578826.697 7  24578828.770 8 129162574.212 7  97710689.276 8
E34  24016744.687 8  24016746.914 9 126208820.290 8  95476181.492 9
E36  23653044.709 8  23653046.957 9 124297592.866 8  94030330.100 9
G01  20738830.045 7                  20738834.155 8 108983391.291 7                  84922079.517 8
G02  20513607.372 8  20513609.259 6                 107799855.934 8  83999802.021 6
G03  22011825.975 7                  22011833.931 6 115673114.751 7                  90134811.287 6
G08  21914891.753 7                  21914898.965 7 115163594.211 7                  89737843.807 7
G10  23519951.594 4                                 123598114.11614                
G32  21826074.237 8                  21826080.696 7 114696715.308 8                  89374164.605 7
R01  22134467.349 7                 118321470.068 7
R02  19309119.073 8  19309122.294 7 103037262.888 8  80140024.691 7
R03  20682371.832 8  20682377.400 7 110714684.505 8  86111152.398 7
R17  19353669.176 8  19353672.795 7 103565603.978 8  80550878.122 7
R18  19632603.651 8  19632608.804 7 104800214.431 8  81511239.991 7
> 2025 06 15 12 00  5.0000000  0 20
C12  23449500.785 6  23449498.095 6 122107745.961 6  94421416.359 6
C19  22220399.355 7                 115707514.851 7
C20  25460520.254 5                 132579773.009 5
C22  22334091.382 7                 116299449.854 7
E04  26514494.526 7  26514495.967 8 139334582.560 7 105405731.580 8
E05  24356623.913 7  24356627.755 8 127994955.524 7  96827364.391 8
E06  25015952.411 7  25015955.526 8 131459683.906 7  99448438.383 8
E09  24577108.861 7  24577111.530 8 129153550.449 7  97703862.870 8
E34  24014208.085 8  24014210.351 9 126195490.313 8  95466097.455 9
E36  23652870.449 8  23652872.539 9 124296676.100 8  94029636.563 9
G01  20735972.539 8                  20735976.984 8 108968375.940 8                  84910379.236 8
G02  20512574.266 8  20512575.522 6                 107794425.816 8  83995570.771 6
G03  22007844.484 7                  22007852.007 6 115652188.752 7                  90118505.365 6
G08  21916653.524 7                  21916661.190 7 115172853.449 7                  89745058.802 7
G32  21825787.376 7                  21825794.604 7 114695212.109 7                  89372993.269 7
R01  22137012.554 7                 118335079.027 7
R02  19308666.117 8  19308669.768 7 103034847.287 8  80138145.894 7
R03  20678040.853 8  20678046.595 7 110691500.556 8  86093120.451 7
R17  19353945.258 8  19353950.234 7 103567085.442 8  80552030.366 7
R18  19629522.807 8  19629526.801 7 104783763.669 8  81498444.943 7
> 2025 06 15 12 00 10.0000000  0 21
C12  23446004.445 6  23446001.950 6 122089539.029 6  94407337.637 6
C19  22220307.796 7                 115707036.454 7
C20  25462398.583 5                 132589552.821 5
C22  22330849.737 8                 116282570.004 8
E04  26515258.887 7  26515260.438 8 139338600.207 7 105408770.906 8
E05  24352707.026 7  24352710.863 8 127974372.307 7  96811793.331 8
E06  25015544.262 7  25015547.699 8 131457540.995 7  99446817.292 8
E09  24575395.044 7  24575396.946 8 129144540.137 7  97697046.650 8
E34  24011672.508 8  24011674.886 9 126182166.262 8  95456017.903 9
E36  23652697.284 8  23652699.507 9 124295766.728 8  94028948.628 9
G01  20733117.367 8                  20733121.581 8 108953370.514 8                  84898686.712 8
G02  20511542.912 8  20511544.386 7                 107789006.875 8  83991348.215 7
G03  22003863.647 7                  22003871.698 7 115631271.492 7                  90102206.217 7
G08  21918417.665 7                  21918425.230 7 115182123.047 7                  89752281.865 7
G10  23523483.041 5                                                                
G32  21825505.283 7                  21825511.635 7 114693725.475 7                  89371834.843 7
R01  22139558.766 7                 118348696.884 7
R02  19308217.346 8  19308221.326 7 103032453.809 8  80136284.302 7
R03  20673712.145 8  20673718.226 7 110668331.321 8  86075099.948 7
R17  19354226.235 8  19354230.750 7 103568584.328 8  80553196.161 7
R18  19626442.727 8  19626448.044 7 104767326.834 8  81485660.747 7
> 2025 06 15 12 00 15.0000000  0 21
C12  23442509.112 6  23442506.076 6 122071338.973 6  94393264.218 6
C19  22220218.507 7                 115706570.404 7
C20  25464277.781 5                 132599336.752 5
C22  22327609.636 8                 116265700.796 8
E04  26516024.487 7  26516026.719 8 139342627.161 7 105411817.272 8
E05  24348790.539 7  24348794.946 8 127953794.356 7  96796226.272 8
E06  25015138.931 7  25015142.190 8 131455410.270 7  99445205.417 8
E09  24573683.367 7  24573684.745 8 129135542.503 7  97690239.997 8
E34  24009138.188 8  24009140.384 8 126168847.294 8  95445942.184 8
E36  23652525.592 8  23652527.736 9 124294863.947 8  94028265.680 9
G01  20730263.330 7                  20730267.448 8 108938374.215 7                  84887001.273 8
G02  20510513.253 7  20510514.958 6                 107783598.319 7  83987133.742 6
G03  21999884.741 7                  21999892.993 6 115610362.158 7                  90085913.223 6
G08  21920182.707 7                  21920190.979 7 115191402.139 7                  89759512.311 7
G10  23525241.204 4                  23525245.783 4 123625920.36114                  96331943.51714
G32  21825224.710 7                  21825231.162 7 114692254.543 7                  89370688.658 7
R01  22142107.548 7                 118362322.668 7
R02  19307773.253 8  19307776.755 7 103030081.587 8  80134439.232 7
R03  20669386.804 8  20669392.622 7 110645175.759 8  86057090.077 7
R17  19354508.580 8  19354513.209 7 103570099.895 8  80554374.923 7
R18  19623365.922 7  19623371.949 7 104750903.097 7  81472886.727 7
> 2025 06 15 12 00 20.0000000  0 20
C12  23738808.706 6  23738805.287 6 123614246.963 6  95586338.549 6
C19  22519922.995 7                 117267214.309 7
C20  25765948.556 5                 134170220.364 5
C22  22624164.848 8                 117809943.113 8
E04  26816584.845 7  26816586.958 8 140922082.133 7 106606664.695 8
E05  24644669.596 7  24644673.226 8 129508645.352 7  97972460.974 8
E06  25314528.701 7  25314531.467 8 133028711.665 7 100635397.705 8
E09  24871765.947 7  24871767.680 8 130701978.839 7  98875238.928 8
E34  24306397.051 8  24306399.726 8 127730955.582 8  96627666.970 8
E36  23952147.482 8  23952149.593 9 125869387.441 8  95219382.470 9
G01  21027204.604 8                  21027208.648 8 110498809.539 8                  86102924.891 8
G02  20809278.719 7  20809280.213 6                 109353620.744 7  85210527.837 6
G03  22295700.552 7                  22295708.945 7 117164884.448 7                  91297229.295 7
G08  22221742.584 7                  22221750.735 7 116776108.392 7                  90994348.367 7
G32  22124740.114 7                  22124746.829 7 116266219.187 7                  90597154.636 7
R01  22444450.436 7                 119978515.837 7
R02  19607124.520 8  19607128.629 7 104627480.432 8  81376860.582 7
R03  20964857.876 8  20964862.505 7 112226850.943 8  87287281.877 7
R17  19654587.198 8  19654591.647 7 105175881.150 8  81803315.900 7
R18  19920085.419 7  19920090.456 7 106334807.709 7  82704812.546 7
> 2025 06 15 12 00 25.0000000  0 20
C12  23735316.016 6  23735312.284 6 123596059.526 6  95572274.870 6
C19  22519837.889 7                 117266771.787 7
C20  25767826.866 4                 134180011.344 4
C22  22620929.711 8                 117793094.058 8
E04  26817354.676 7  26817356.617 8 140926126.555 7 106609724.277 8
E05  24640755.039 7  24640759.139 8 129488076.889 7  97956901.098 8
E06  25314127.727 7  25314130.365 8 133026604.207 7 100633803.412 8
E09  24870058.170 7  24870060.122 8 130693005.398 7  98868450.578 8
E34  24303864.393 8  24303866.966 8 127717645.677 8  96617598.111 8
E36  23951977.855 8  23951980.106 9 125868496.702 8  95218708.631 9
G01  21024354.399 7                  21024358.039 8 110483830.338 7                  86091252.794 8
G02  20808253.536 7  20808254.791 6                 109348231.812 7  85206328.682 6
G03  22291724.307 7                  22291732.811 7 117143989.839 7                  91280947.788 7
G08  22223511.230 7                  22223519.666 7 116785405.354 7                  91001592.737 7
G32  22124465.612 7                  22124473.099 7 116264778.644 7                  90596032.097 7
R01  22447003.323 7                 119992156.551 7
R02  19606687.574 8  19606691.635 7 104625149.598 8  81375047.704 7
R03  20960537.010 8  20960541.864 7 112203721.970 8  87269292.702 7
R17  19654876.435 8  19654881.364 7 105177428.624 8  81804519.476 7
R18  19917013.634 8  19917018.567 8 106318408.979 8  82692058.000 8
> 2025 06 15 12 00 30.0000000  0 20
C12  23731824.247 6  23731821.009 6 123577879.169 6  95558216.639 6
C19  22519755.774 7                 117266341.712 7
C20  25769705.975 4                 134189806.52714
C22  22617694.853 7                 117776255.813 7
E04  26818126.044 7  26818128.044 8 140930180.447 7 106612791.005 8
E05  24636841.540 7  24636846.047 8 129467513.898 7  97941345.333 8
E06  25313729.053 7  25313731.672 8 133024509.038 7 100632218.417 8
E09  24868353.061 7  24868354.985 8 130684044.783 7  98861671.942 8
E34  24301332.393 8  24301335.219 9 127704340.998 8  96607533.218 9
E36  23951809.630 8  23951811.888 8 125867612.675 8  95218039.865 8
G01  21021505.138 7                  21021509.099 7 110468860.411 7                  86079587.918 7
G02  20807229.832 7  20807231.228 6                 109342853.398 7  85202137.715 6
G03  22287749.429 7                  22287757.668 7 117123103.273 7                  91264672.577 7
G08  22225282.325 7                  22225290.649 7 116794711.947 7                  91008844.648 7
G32  22124194.595 7                  22124201.935 7 116263353.944 7                  90594921.949 7
R01  22449557.114 7                 120005805.400 7
R02  19606254.826 8  19606258.727 7 104622839.956 8  81373251.298 7
R03  20956217.771 8  20956224.283 7 112180607.271 8  87251314.643 7
R17  19655168.712 8  19655172.924 7 105178992.743 8  81805736.016 7
R18  19913943.749 8  19913949.009 8 106302023.520 8  82679313.779 8
> 2025 06 15 12 00 35.0000000  0 21
C12  23728333.749 6  23728330.760 6 123559705.346 6  95544163.511 6
C19  22519675.452 7                 117265923.619 7
C20  25771590.732 4                 134199605.495 4
C22  22614463.338 8                 117759427.894 8
E04  26818898.384 7  26818901.195 8 140934243.228 7 106615864.467 8
E05  24632929.914 7  24632933.942 8 129446955.866 7  97925793.336 8
E06  25313332.228 7  25313335.119 8 133022425.680 7 100630642.364 8
E09  24866649.940 7  24866652.222 8 130675096.466 7  98854902.594 8
E34  24298801.635 8  24298804.345 9 127691041.077 8  96597471.919 9
E36  23951642.741 8  23951644.852 8 125866734.885 8  95217375.829 8
G01  21018657.536 7                  21018662.181 7 110453899.277 7                  86067929.910 7
G02  20806208.614 8  20806209.790 6                 109337485.015 8  85197954.556 6
G03  22283776.657 6                  22283784.879 7 117102224.325 6                  91248403.264 7
G08  22227055.766 7                  22227063.767 7 116804027.666 7                  91016103.639 7
G10  23832126.387 4                                 125238457.40814                
G32  22123926.499 7                  22123933.403 7 116261944.600 7                  90593823.762 7
R01  22452111.477 7                 120019461.855 7
R02  19605826.745 8  19605829.999 7 104620551.213 8  81371471.172 7
R03  20951903.350 8  20951909.057 7 112157506.065 8  87233347.037 7
R17  19655463.777 8  19655468.732 7 105180573.118 8  81806965.197 7
R18  19910876.496 8  19910881.658 8 106285650.815 8  82666579.468 8
> 2025 06 15 12 00 40.0000000  0 22
C12  23724845.321 6  23724841.822 6 123541538.436 6  95530115.729 6
C19  22519597.516 7                 117265517.825 7
C20  25773473.974 5                 134209408.489 5
C22  22611234.097 7                 117742610.598 7
E04  26819673.467 7  26819676.128 8 140938315.292 7 106618944.948 8
E05  24629019.296 7  24629022.843 8 129426403.169 7  97910245.369 8
E06  25312938.304 7  25312940.953 8 133020354.486 7 100629075.521 8
E09  24864949.022 7  24864951.814 8 130666160.787 7  98848142.820 8
E30  27372092.646 5                 143841460.90415
E34  24296271.808 8  24296274.425 9 127677746.252 8  96587414.476 9
E36  23951476.621 8  23951479.067 8 125865863.682 8  95216716.769 8
G01  21015812.469 7                  21015817.135 7 110438947.284 7                  86056278.997 7
G02  20805188.930 8  20805190.290 7                 109332126.994 8  85193779.488 7
G03  22279804.809 6                  22279813.337 7 117081353.313 6                  91232140.140 7
G08  22228829.904 7                  22228837.423 7 116813352.837 7                  91023369.985 7
G10  23833897.433 4                  23833867.348 4 125247746.089 4                  97595705.29514
G32  22123662.130 7                  22123668.569 7 116260550.980 7                  90592737.841 7
R01  22454667.111 7                 120033126.229 7
R02  19605400.618 8  19605404.735 7 104618283.823 8  81369707.662 7
R03  20947590.519 8  20947596.003 7 112134418.726 8  87215390.234 7
R17  19655761.185 8  19655767.344 7 105182170.044 8  81808207.257 7
R18  19907811.732 8  19907816.612 8 106269291.271 8  82653855.379 8
> 2025 06 15 12 00 45.0000000  0 21
C12  23721356.997 6  23721354.431 6 123523378.534 6  95516073.322 6
C19  22519521.737 7                 117265124.401 7
C20  25775356.080 5                 134219215.659 5
C22  22608006.629 7                 117725804.083 7
E04  26820450.425 7  26820452.825 8 140942396.714 7 106622032.508 8
E05  24625108.415 7  24625112.786 8 129405855.906 7  97894701.514 8
E06  25312546.062 7  25312549.153 8 133018295.539 7 100627517.930 8
E09  24863251.582 7  24863253.823 8 130657237.891 7  98841392.720 8
E30  27372797.588 5  27372798.813 5 143845195.617 5 108817828.95715
E34  24293742.798 8  24293745.503 9 127664456.628 8  96577360.966 9
E36  23951312.106 8  23951314.514 8 125864999.149 8  95216062.760 8
G01  21012969.127 7                  21012973.936 7 110424004.516 7                  86044635.324 7
G02  20804171.649 8  20804172.403 7                 109326779.502 8  85189612.594 7
G03  22275835.046 7                  22275843.275 7 117060490.308 7                  91215883.274 7
G08  22230606.159 7                  22230614.089 7 116822687.531 7                  91030643.758 7
G32  22123399.923 8                  22123406.610 7 116259173.155 8                  90591664.199 7
R01  22457225.857 7                 120046798.683 7
R02  19604980.292 8  19604983.367 7 104616037.631 8  81367960.610 7
R03  20943279.340 8  20943285.905 7 112111345.541 8  87197444.436 7
R17  19656063.791 8  19656068.371 7 105183783.664 8  81809462.292 7
R18  19904749.939 8  19904754.121 7 106252945.002 8  82641141.603 7
