     3.04           OBSERVATION DATA    Mixed(MIXED)        RINEX VERSION / TYPE
cnvtToRINEX 3.14.0  convertToRINEX OPR  20250615 162725 UTC PGM / RUN BY / DATE 
----------------------------------------------------------- COMMENT             
34K                                                         MARKER NAME         
34K                                                         MARKER NUMBER       
GEODETIC                                                    MARKER TYPE         
GNSS Observer       Trimble                                 OBSERVER / AGENCY   
6203S17886          Geo Explorer 3      5.53                REC # / TYPE / VERS 
                    UNKNOWN EXT     NONE                    ANT # / TYPE        
  3913945.1160  1190294.6585  4877824.9388                  APPROX POSITION XYZ 
        1.3130        0.0000        0.0000                  ANTENNA: DELTA H/E/N
G    6 C1C C2W C2X L1C L2W L2X                              SYS / # / OBS TYPES 
R    4 C1C C2C L1C L2C                                      SYS / # / OBS TYPES 
C    4 C2I C7I L2I L7I                                      SYS / # / OBS TYPES 
E    4 C1X C8X L1X L8X                                      SYS / # / OBS TYPES 
     5.000                                                  INTERVAL            
  2025     6    15     8    28   15.0000000     GPS         TIME OF FIRST OBS   
  2025     6    15     9    38   40.0000000     GPS         TIME OF LAST OBS    
     0                                                      RCV CLOCK OFFS APPL 
  9 R01  1 R07  5 R08  6 R14 -7 R15  0 R16 -1 R17  4 R23  3 GLONASS SLOT / FRQ #
    R24  2                                                  GLONASS SLOT / FRQ #
G L2X -0.25000                                              SYS / PHASE SHIFT   
R L2C -0.25000                                              SYS / PHASE SHIFT   
    18                                                      LEAP SECONDS        
    32                                                      # OF SATELLITES     
   C13   311   302   308   302                              PRN / # OF OBS      
   C19   149     0   148     0                              PRN / # OF OBS      
   C20   453     0   453     0                              PRN / # OF OBS      
   C24   212     0   212     0                              PRN / # OF OBS      
   C26   388     0   388     0                              PRN / # OF OBS      
   C29   453     0   453     0                              PRN / # OF OBS      
   C30   246     0   246     0                              PRN / # OF OBS      
   E02   453   453   453   453                              PRN / # OF OBS      
   E10   453   453   453   453                              PRN / # OF OBS      
   E11   453   453   453   453                              PRN / # OF OBS      
   E12   231   225   226   225                              PRN / # OF OBS      
   E16   452   452   452   452                              PRN / # OF OBS      
   E24   136   132   134   132                              PRN / # OF OBS      
   E25   453   453   453   453                              PRN / # OF OBS      
   E30     1     1     1     1                              PRN / # OF OBS      
   E36   453   453   453   453                              PRN / # OF OBS      
   G02   164    28     0   151    28     0                  PRN / # OF OBS      
   G08   453     0   453   453     0   453                  PRN / # OF OBS      
   G10   453     0   453   453     0   453                  PRN / # OF OBS      
   G16   453   453     0   453   453     0                  PRN / # OF OBS      
   G18   452     0   452   452     0   452                  PRN / # OF OBS      
   G23   453     0   453   453     0   453                  PRN / # OF OBS      
   G27   453     0   453   453     0   453                  PRN / # OF OBS      
   R01    29     0    28     0                              PRN / # OF OBS      
   R07   173   107   160    97                              PRN / # OF OBS      
   R08   453   453   453   453                              PRN / # OF OBS      
   R14   453   453   453   453                              PRN / # OF OBS      
   R15   453   453   453   453                              PRN / # OF OBS      
   R16     1     1     1     1                              PRN / # OF OBS      
   R17   424   406   420   398                              PRN / # OF OBS      
   R23   448     0   447     0                              PRN / # OF OBS      
   R24   453   453   453   453                              PRN / # OF OBS      
DBHZ                                                        SIGNAL STRENGTH UNIT
                                                            END OF HEADER       
>                              2  1
              *** Start of Kinematic Data ***               COMMENT             
> 2025 06 15 08 28 15.0000000  0 26
C13  37780256.355 5  37780258.991 5 196731771.45615 152125450.45415
C20  24401977.004 6                 127067653.20516
C26  24539662.570 6                 127784473.57316
C29  21509466.547 7                 112005462.59117
C30  24217382.612 7                 126106364.56317
E02  24790717.978 7  24790719.279 8 130276127.51417  98553033.81818
E10  24507913.707 7  24507915.846 8 128789948.40117  97428771.86618
E11  23523554.776 7  23523551.982 8 123617294.43317  93515534.38318
E12  26711406.965 5  26711406.143 6 140369431.16715 106188528.95716
E16  25477239.951 7  25477241.997 8 133883762.92317 101282227.52318
E24  27451708.226 5  27451710.775 6 144259830.91415 109131534.56316
E25  24279934.523 8  24279936.889 9 127591895.41818  96522467.50219
E36  25142471.913 7  25142474.580 8 132124751.02117  99951403.99318
G08  22874601.552 6                  22874610.305 6 120207004.16016                  93667721.33916
G10  22077750.934 7                  22077757.876 7 116019457.87217                  90404731.85417
G16  21185468.042 7  21185471.020 6                 111330393.73617  86750966.24216
G18  22236091.490 7                  22236097.720 7 116851611.83317                  91053105.38017
G23  20960300.753 8                  20960305.991 8 110147152.38018                  85828958.14618
G27  20541532.266 8                  20541537.334 7 107946612.63118                  84114185.66117
R07  22366834.354 5                 119731334.34115
R08  21443841.161 7  21443846.816 7 114831010.75617  89312864.41017
R14  20736647.321 7  20736652.405 7 110538066.09017  85973961.12217
R15  21710631.859 7  21710634.232 6 116015152.62417  90233953.39616
R17  23405917.947 5  23405922.390 5 125249790.10015  97416523.29915
R23  20988569.510 7                 112274777.68417
R24  19853655.288 7  19853659.136 7 106166597.13917  82573905.34817
> 2025 06 15 08 28 20.0000000  0 26
C13  37779663.204 5  37779667.206 5 196728691.267 5 152123068.650 5
C20  24398262.409 6                 127048296.948 6
C26  24538770.998 6                 127779835.848 6
C29  21508516.067 7                 112000512.865 7
C30  24218659.496 7                 126113014.244 7
E02  24788413.875 7  24788415.543 8 130264021.381 7  98543875.607 8
E10  24508328.979 7  24508330.147 9 128792125.455 7  97430418.784 9
E11  23522694.589 7  23522692.035 8 123612775.596 7  93512115.905 8
E12  26712564.744 5  26712562.554 6 140375508.031 5 106193126.061 6
E16  25478691.199 7  25478693.103 8 133891388.376 7 101287996.124 8
E24  27453608.789 5  27453612.336 6 144269823.161 5 109139093.591 6
E25  24280430.363 8  24280432.092 9 127594497.993 8  96524436.320 9
E36  25139381.745 7  25139384.678 8 132108513.597 7  99939120.493 8
G08  22870479.783 5                  22870489.242 6 120185347.771 5                  93650846.244 6
G10  22074138.486 8                  22074145.165 7 116000474.204 8                  90389939.396 7
G16  21186122.156 7  21186124.482 5                 111333828.298 7  86753642.509 5
G18  22237352.544 7                  22237358.639 7 116858236.584 7                  91058267.516 7
G23  20959219.373 8                  20959225.107 8 110141471.866 8                  85824531.783 8
G27  20538995.365 8                  20539001.012 8 107933283.504 8                  84103799.337 8
R07  22367335.668 5                 119734031.255 5
R08  21440909.801 8  21440915.119 7 114815312.662 8  89300654.809 7
R14  20737380.450 7  20737385.404 7 110541972.123 7  85976999.125 7
R15  21707571.194 7  21707573.531 6 115998797.484 7  90221232.711 6
R17  23401600.324 5  23401602.748 5 125226679.438 5  97398548.264 5
R23  20989802.405 7                 112281363.563 7
R24  19851329.448 7  19851332.788 7 106154155.608 7  82564228.567 7
>                              3  5
              *** Start of Occupation ***                   COMMENT             
34K                                                         MARKER NAME         
34K                                                         MARKER NUMBER       
  3913945.1160  1190294.6585  4877824.9388                  APPROX POSITION XYZ 
        1.3130        0.0000        0.0000                  ANTENNA: DELTA H/E/N
> 2025 06 15 08 28 25.0000000  0 26
C13  37779071.940 5  37779076.740 5 196725614.677 5 152120689.672 5
C20  24394547.048 6                 127028949.964 6
C26  24537882.580 6                 127775212.757 6
C29  21507567.128 7                 111995571.902 7
C30  24219937.402 7                 126119668.228 7
E02  24786112.447 7  24786113.899 8 130251926.354 7  98534725.806 8
E10  24508744.462 7  24508745.473 9 128794308.298 7  97432070.092 9
E11  23521836.467 7  23521833.673 8 123608264.862 7  93508703.572 8
E12  26713722.137 5  26713719.486 6 140381587.748 5 106197725.296 6
E16  25480143.758 7  25480145.511 8 133899020.645 7 101293769.872 8
E24  27455510.946 5  27455514.243 6 144279817.666 5 109146654.342 6
E25  24280927.360 8  24280929.424 9 127597111.127 8  96526413.133 9
E36  25136292.570 7  25136295.972 8 132092282.461 7  99926841.741 8
G08  22866361.028 5                  22866368.879 6 120163696.919 5                  93633975.421 6
G10  22070528.438 7                  22070535.205 7 115981502.287 7                  90375156.094 7
G16  21186777.834 7  21186781.091 6                 111337278.342 7  86756330.860 6
G18  22238615.955 7                  22238620.765 7 116864868.299 7                  91063435.069 7
G23  20958141.797 8                  20958147.016 8 110135808.631 8                  85820118.877 8
G27  20536460.994 8                  20536467.064 8 107919966.857 8                  84093422.729 8
R07  22367842.506 4                 119736749.372 4
R08  21437981.837 8  21437987.348 7 114799635.349 8  89288461.365 7
R14  20738117.319 8  20738122.340 7 110545899.092 8  85980053.453 7
R15  21704513.340 7  21704516.779 6 115982462.876 7  90208528.015 6
R17  23397282.780 5  23397284.937 5 125203572.172 5  97380575.937 5
R23  20991033.576 7                 112287956.603 7
R24  19849004.888 8  19849007.607 7 106141725.311 8  82554560.573 7
> 2025 06 15 08 28 30.0000000  0 24
C13  37778482.880 5  37778486.808 5 196722541.716 5 152118313.473 5
C20  24390834.232 6                 127009612.374 6
C26  24536998.634 6                 127770604.243 6
C29  21506620.577 7                 111990639.708 7
C30  24221215.829 7                 126126326.473 7
E02  24783812.924 7  24783814.392 8 130239842.485 7  98525584.438 8
E10  24509160.895 7  24509161.981 9 128796496.997 7  97433725.813 9
E11  23520979.363 7  23520976.867 8 123603762.313 7  93505297.426 8
E12  26714877.019 5  26714876.910 7 140387670.366 5 106202326.768 7
E16  25481597.859 7  25481599.217 8 133906659.737 7 101299548.781 8
E24  27457414.210 5  27457416.662 6 144289814.421 5 109154216.813 6
E25  24281426.729 8  24281428.689 9 127599734.836 8  96528397.943 9
E36  25133205.130 7  25133208.480 8 132076057.606 7  99914567.756 8
G08  22862241.467 5                  22862249.830 6 120142051.681 5                  93617109.019 6
G10  22066919.888 7                  22066926.866 7 115962542.147 7                  90360381.987 7
G16  21187437.505 7  21187441.018 6                 111340743.951 7  86759031.328 6
G18  22239878.767 7                  22239883.997 7 116871506.968 7                  91068608.048 7
G23  20957066.859 7                  20957072.450 8 110130162.710 7                  85815719.447 8
G27  20533929.338 8                  20533935.243 8 107906662.706 8                  84083055.857 8
R08  21435058.473 7  21435064.029 7 114783978.689 7  89276283.988 7
R14  20738857.589 8  20738862.684 7 110549846.729 8  85983123.821 7
R15  21701461.657 7  21701463.910 6 115966148.966 7  90195839.426 6
R23  20992268.039 7                 112294556.930 7
R24  19846682.993 8  19846685.911 7 106129306.376 8  82544901.385 7
> 2025 06 15 08 28 35.0000000  0 24
C13  37777893.817 5  37777897.405 5 196719471.951 5 152115939.719 5
C20  24387122.145 6                 126990283.620 6
C26  24536116.330 6                 127766009.813 6
C29  21505675.102 7                 111985715.761 7
C30  24222495.595 7                 126132988.476 7
E02  24781515.424 7  24781516.968 9 130227769.246 7  98516451.105 9
E10  24509578.526 7  24509579.564 9 128798691.008 7  97435385.532 9
E11  23520123.816 7  23520121.525 8 123599267.409 7  93501897.068 8
E12  26716036.543 6  26716034.857 7 140393755.329 6 106206930.011 7
E16  25483052.078 7  25483054.067 8 133914305.155 7 101305332.483 8
E24  27459315.157 5  27459319.379 6 144299812.994 5 109161780.625 6
E25  24281928.286 7  24281929.885 9 127602368.607 7  96530390.365 9
E36  25130118.698 7  25130122.122 8 132059838.547 7  99902298.153 8
G08  22858123.506 5                  22858131.746 6 120120411.482 5                  93600246.539 6
G10  22063313.886 7                  22063321.197 7 115943593.298 7                  90345616.672 7
G16  21188099.780 7  21188103.432 6                 111344224.558 7  86761743.483 6
G18  22241143.058 7                  22241149.081 7 116878152.094 7                  91073786.084 7
G23  20955996.625 7                  20956001.276 8 110124533.583 7                  85811333.103 8
G27  20531400.210 7                  20531405.918 7 107893370.572 7                  84072698.344 7
R08  21432138.672 8  21432143.792 7 114768342.241 8  89264122.315 7
R14  20739602.631 8  20739607.117 7 110553814.640 8  85986209.979 7
R15  21698412.994 7  21698414.520 6 115949855.083 7  90183166.373 6
R23  20993504.059 7                 112301164.162 7
R24  19844362.094 8  19844365.052 7 106116898.200 8  82535250.586 7
> 2025 06 15 08 28 40.0000000  0 26
C13  37777302.761 5  37777308.449 5 196716405.515 5 152113568.553 5
C20  24383412.875 6                 126970963.922 6
C26  24535236.859 6                 127761429.729 6
C29  21504731.026 7                 111980800.359 7
C30  24223775.841 7                 126139654.526 7
E02  24779220.223 7  24779221.550 8 130215706.897 7  98507326.024 8
E10  24509997.218 7  24509998.076 9 128800890.551 7  97437049.472 9
E11  23519270.360 7  23519267.686 8 123594780.416 7  93498502.684 8
E12  26717194.613 6  26717193.375 7 140399842.959 6 106211535.272 7
E16  25484507.970 7  25484510.173 8 133921957.113 7 101311121.120 8
E24  27461219.378 5  27461222.490 6 144309813.586 5 109169345.974 6
E25  24282431.466 7  24282433.033 9 127605012.672 7  96532390.580 9
E36  25127033.589 7  25127036.891 8 132043625.531 7  99890033.126 8
G08  22854006.884 6                  22854014.861 6 120098776.644 6                  93583388.229 6
G10  22059710.847 7                  22059717.491 7 115924656.041 7                  90330860.356 7
G16  21188765.157 7  21188768.413 6                 111347720.438 7  86764467.524 6
G18  22242409.038 7                  22242414.649 7 116884803.919 7                  91078969.333 7
G23  20954927.854 7                  20954933.199 8 110118921.466 7                  85806960.020 8
G27  20528873.526 8                  20528879.085 8 107880090.664 8                  84062350.360 8
R07  22369375.860 5                                
R08  21429222.780 8  21429227.418 7 114752726.352 8  89251976.632 7
R14  20740351.301 8  20740355.669 7 110557803.099 8  85989312.108 7
R15  21695367.227 7  21695369.462 6 115933581.513 7  90170509.145 6
R17  23384336.392 5                 125134269.22615
R23  20994740.713 7                 112307778.429 7
R24  19842043.532 8  19842046.792 7 106104501.022 8  82525608.355 7
> 2025 06 15 08 28 45.0000000  0 26
C13  37776714.591 5  37776720.565 5 196713342.677 5 152111200.160 5
C20  24379704.715 6                 126951653.539 6
C26  24534360.321 6                 127756864.106 6
C29  21503788.796 7                 111975893.595 7
C30  24225056.174 7                 126146324.685 7
E02  24776926.701 7  24776928.312 8 130203655.590 7  98498209.296 8
E10  24510416.639 7  24510417.814 9 128803095.771 7  97438717.695 9
E11  23518418.180 7  23518415.363 8 123590301.438 7  93495114.361 8
E12  26718352.141 6  26718352.479 7 140405933.323 6 106216142.585 7
E16  25485965.773 7  25485967.572 8 133929615.781 7 101316914.834 8
E24  27463122.064 5  27463125.888 6 144319816.250 5 109176912.931 6
E25  24282936.813 8  24282938.134 9 127607667.178 8  96534398.685 9
E36  25123949.398 7  25123952.802 8 132027418.696 7  99877772.765 8
G08  22849890.212 6                  22849898.777 6 120077147.325 6                  93566534.224 6
G10  22056109.729 7                  22056116.275 7 115905730.477 7                  90316113.177 7
G16  21189433.320 7  21189437.069 6                 111351231.659 7  86767203.544 6
G18  22243676.524 8                  22243681.630 7 116891462.592 8                  91084157.892 7
G23  20953864.120 7                  20953868.615 8 110113326.537 7                  85802600.339 8
G27  20526348.006 7                  20526354.107 8 107866823.154 7                  84052012.055 8
R07  22369895.198 5                 119747825.50215
R08  21426309.303 7  21426314.978 7 114737131.047 7  89239846.976 7
R14  20741103.171 8  20741107.900 7 110561812.069 8  85992430.206 7
R15  21692324.864 7  21692328.356 6 115917328.557 7  90157867.951 6
R17  23380031.830 4  23380018.886 5 125111174.151 4  97308717.25415
R23  20995976.645 7                 112314399.773 7
R24  19839727.557 8  19839730.637 7 106092115.085 8  82515974.847 7
> 2025 06 15 08 28 50.0000000  0 25
C13  37776127.866 5  37776133.001 5 196710283.093 5 152108834.285 5
C20  24375998.486 5                 126932352.077 5
C26  24533488.133 6                 127752312.710 6
C29  21502848.516 7                 111970995.234 7
C30  24226338.874 7                 126152998.755 7
E02  24774635.588 7  24774637.034 8 130191615.052 7  98489100.706 8
E10  24510837.825 8  24510838.501 8 128805306.412 8  97440390.031 8
E11  23517566.848 7  23517564.525 8 123585830.202 7  93491731.905 8
E12  26719511.663 6  26719511.997 7 140412026.199 6 106220751.789 7
E16  25487423.758 7  25487426.265 8 133937280.829 7 101322713.381 8
E24  27465027.815 6  27465029.748 6 144329820.858 6 109184481.288 6
E25  24283443.344 7  24283445.194 9 127610331.851 7  96536414.482 9
E36  25120866.262 7  25120869.860 8 132011217.773 7  99865516.868 8
G08  22845774.969 6                  22845783.855 6 120055523.220 6                  93549684.310 6
G10  22052510.884 7                  22052517.230 7 115886816.366 7                  90301374.922 7
G16  21190104.667 7  21190107.932 6                 111354758.012 7  86769951.352 6
G18  22244944.887 8                  22244950.290 7 116898127.800 8                  91089351.561 7
G23  20952802.455 7                  20952806.636 8 110107748.478 7                  85798253.824 8
G27  20523825.901 8                  20523832.140 8 107853567.804 8                  84041683.196 8
R07  22370414.188 5  22370432.299 4 119750647.606 5  93139414.32014
R08  21423401.243 7  21423406.782 7 114721556.217 7  89227733.238 7
R14  20741858.541 8  20741863.404 7 110565841.491 8  85995564.203 7
R15  21689287.331 7  21689290.019 6 115901095.813 7  90145242.490 6
R23  20997215.648 7                 112321028.024 7
R24  19837413.223 8  19837416.598 7 106079740.132 8  82506349.879 7
> 2025 06 15 08 28 55.0000000  0 25
C13  37775539.574 5  37775546.765 5 196707226.053 5 152106470.452 5
C20  24372294.595 6                 126913059.088 6
C26  24532618.462 6                 127747774.869 6
C29  21501908.808 7                 111966104.614 7
C30  24227620.777 7                 126159676.073 7
E02  24772346.249 7  24772347.696 8 130179584.661 7  98479999.796 8
E10  24511258.895 8  24511260.163 9 128807521.814 8  97442065.963 9
E11  23516717.727 7  23516715.042 8 123581366.075 7  93488354.811 8
E12  26720671.877 6  26720671.817 7 140418120.906 6 106225362.385 7
E16  25488883.595 7  25488886.020 8 133944951.671 7 101328516.303 8
E24  27466929.133 5  27466933.780 6 144339826.599 5 109192050.577 6
E25  24283952.127 8  24283954.062 9 127613006.057 8  96538437.496 9
E36  25117784.387 7  25117787.916 8 131995022.122 7  99853264.969 8
G08  22841660.888 6                  22841669.782 6 120033903.662 6                  93532837.898 6
G10  22048913.758 8                  22048919.809 7 115867913.055 8                  90286645.078 7
G16  21190778.143 7  21190782.347 6                 111358298.797 7  86772710.409 6
G18  22246214.345 8                  22246219.798 7 116904798.929 8                  91094549.854 7
G23  20951744.490 7                  20951748.459 8 110102186.696 7                  85793919.969 8
G27  20521305.233 8                  20521311.762 7 107840323.942 8                  84031363.309 7
R07  22370945.260 5  22370964.538 4 119753489.768 5  93141624.834 4
R08  21420496.061 7  21420501.740 7 114706001.152 7  89215634.882 7
R14  20742618.232 8  20742623.146 7 110569890.486 8  85998713.377 7
R15  21686253.978 7  21686256.753 6 115884882.695 7  90132632.291 6
R23  20998456.800 7                 112327662.504 7
R24  19835101.117 8  19835104.382 7 106067375.430 8  82496732.883 7
> 2025 06 15 08 29  0.0000000  0 25
C13  37774955.396 5  37774959.656 5 196704171.957 5 152104108.827 5
C20  24368589.658 6                 126893774.684 6
C26  24531748.440 5                 127743250.945 5
C29  21500971.057 7                 111961221.988 7
C30  24228904.206 7                 126166356.864 7
E02  24770058.610 7  24770060.356 9 130167564.634 7  98470906.732 9
E10  24511681.212 8  24511682.786 8 128809742.219 8  97443745.687 8
E11  23515869.694 7  23515866.972 8 123576909.301 7  93484983.300 8
E12  26721831.719 6  26721832.060 7 140424217.726 6 106229974.563 7
E16  25490344.249 7  25490346.938 8 133952628.486 7 101334323.758 8
E24  27468834.066 6  27468838.149 6 144349833.844 6 109199620.924 6
E25  24284462.460 8  24284464.791 9 127615690.011 8  96540467.883 9
E36  25114703.944 7  25114707.031 8 131978831.990 7  99841017.249 8
G08  22837547.500 6                  22837556.570 6 120012288.977 6                  93515995.302 6
G10  22045318.041 8                  22045325.209 7 115849020.800 8                  90271923.840 7
G16  21191454.765 7  21191458.545 6                 111361854.305 7  86775480.926 6
G18  22247485.267 8                  22247490.132 7 116911476.191 8                  91099752.910 7
G23  20950689.309 7                  20950693.355 8 110096641.440 7                  85789598.979 8
G27  20518787.594 8                  20518793.548 8 107827091.815 8                  84021052.571 8
R07  22371478.067 5  22371495.580 4 119756352.169 5  93143851.119 4
R08  21417595.036 8  21417600.749 7 114690466.123 8  89203552.097 7
R14  20743381.150 8  20743386.299 7 110573959.396 8  86001878.084 7
R15  21683223.283 7  21683226.355 7 115868689.375 7  90120037.521 7
R23  20999698.297 7                 112334303.339 7
R24  19832791.429 8  19832793.931 7 106055021.271 8  82487124.105 7
> 2025 06 15 08 29  5.0000000  0 26
C13  37774369.046 5  37774374.004 5 196701121.570 5 152101750.083 5
C20  24364887.813 6                 126874499.792 6
C26  24530881.136 5                 127738741.622 5
C29  21500035.436 7                 111956348.215 7
C30  24230188.101 7                 126173041.998 7
E02  24767773.881 7  24767775.115 8 130155555.884 7  98461822.206 8
E10  24512105.106 8  24512106.406 8 128811968.521 8  97445429.870 8
E11  23515022.520 7  23515020.414 8 123572460.736 7  93481617.984 8
E12  26722992.234 6  26722992.951 7 140430317.464 6 106234588.983 7
E16  25491806.732 7  25491809.145 8 133960312.158 7 101340136.397 8
E24  27470740.914 6  27470742.876 6 144359843.437 6 109207193.104 6
E25  24284975.357 8  24284977.561 9 127618384.604 8  96542506.315 9
E36  25111623.963 7  25111627.338 8 131962648.263 7  99828774.361 8
G08  22833435.740 6                  22833444.524 6 119990680.096 6                  93499157.292 6
G10  22041724.942 8                  22041732.103 7 115830140.495 8                  90257211.917 7
G16  21192134.353 7  21192138.116 5                 111365425.354 7  86778263.558 5
G18  22248756.868 8                  22248762.195 7 116918160.471 8                  91104961.443 7
G23  20949637.158 7                  20949641.242 8 110091113.537 7                  85785291.521 8
G27  20516271.607 8                  20516277.969 7 107813872.347 8                  84010751.697 7
R07  22372015.927 5  22372030.316 5 119759235.520 5  93146093.694 5
R08  21414698.437 7  21414703.987 7 114674951.956 7  89191485.523 7
R14  20744148.542 8  20744153.673 7 110578049.153 8  86005058.997 7
R15  21680195.784 7  21680200.383 7 115852516.894 7  90107458.934 7
R17  23362764.500 5                 125018821.84515
R23  21000941.017 7                 112340951.558 7
R24  19830482.096 8  19830485.628 7 106042678.495 8  82477524.164 7
> 2025 06 15 08 29 10.0000000  0 26
C13  37773785.408 5  37773789.542 5 196698074.318 5 152099393.774 5
C20  24361187.716 6                 126855233.839 6
C26  24530016.422 5                 127734246.522 5
C29  21499100.846 7                 111951482.777 7
C30  24231473.141 7                 126179730.933 7
E02  24765490.749 7  24765491.967 8 130143557.859 7  98452745.777 8
E10  24512529.846 8  24512531.163 8 128814200.136 8  97447118.075 8
E11  23514177.369 7  23514175.365 8 123568019.852 7  93478258.483 8
E12  26724153.614 5  26724154.228 7 140436419.651 5 106239205.212 7
E16  25493269.616 7  25493272.484 8 133968002.171 7 101345953.818 8
E24  27472646.025 5  27472648.026 6 144369854.824 5 109214766.587 6
E25  24285490.067 8  24285492.247 9 127621089.258 8  96544552.366 9
E36  25108545.636 7  25108548.780 8 131946470.353 7  99816535.893 8
G08  22829324.825 6                  22829333.552 6 119969076.309 6                  93482323.165 6
G10  22038134.956 8                  22038141.660 7 115811271.626 8                  90242508.918 7
G16  21192816.840 7  21192820.029 5                 111369011.401 7  86781057.864 5
G18  22250029.917 8                  22250035.285 7 116924851.209 8                  91110175.011 7
G23  20948588.514 8                  20948593.049 8 110085602.465 8                  85780997.205 8
G27  20513758.207 8                  20513764.992 8 107800664.956 8                  84000460.227 8
R07  22372566.343 6  22372569.646 4 119762139.490 6  93148352.339 4
R08  21411804.932 7  21411809.768 7 114659458.165 7  89179434.849 7
R14  20744920.082 8  20744924.719 7 110582159.229 8  86008255.713 7
R15  21677174.894 7  21677177.929 7 115836364.615 7  90094896.044 7
R17  23358442.305 5  23358446.286 5 124995740.689 5  97218923.94615
R23  21002184.010 7                 112347606.542 7
R24  19828175.805 8  19828179.369 7 106030346.473 8  82467932.597 7
> 2025 06 15 08 29 15.0000000  0 26
C13  37773200.285 5  37773205.067 5 196695030.276 5 152097039.926 5
C20  24357489.118 6                 126835976.831 6
C26  24529157.188 5                 127729765.430 5
C29  21498167.638 7                 111946625.598 7
C30  24232758.575 7                 126186423.592 7
E02  24763209.385 7  24763210.813 8 130131570.522 7  98443677.433 8
E10  24512955.595 8  24512956.793 9 128816437.010 8  97448810.249 9
E11  23513333.625 7  23513331.730 8 123563586.560 7  93474904.729 8
E12  26725315.933 5  26725315.883 7 140442524.151 5 106243823.194 7
E16  25494733.915 7  25494736.988 8 133975698.428 7 101351775.964 8
E24  27474552.142 5  27474553.568 6 144379867.838 5 109222341.353 6
E25  24286006.700 8  24286008.840 9 127623803.938 8  96546606.002 9
E36  25105467.435 7  25105471.339 8 131930298.240 7  99804301.800 8
G08  22825214.784 6                  22825223.890 6 119947477.733 6                  93465493.090 6
G10  22034546.350 7                  22034553.037 7 115792414.114 7                  90227814.747 7
G16  21193502.162 7  21193505.086 5                 111372612.380 7  86783863.824 5
G18  22251304.202 8                  22251309.799 7 116931548.359 8                  91115393.550 7
G23  20947542.931 8                  20947547.178 8 110080108.135 8                  85776715.913 8
G27  20511248.009 8                  20511254.209 8 107787469.590 8                  83990178.128 8
R07  22373122.220 5  22373113.826 3 119765063.953 5  93150626.817 3
R08  21408914.470 8  21408920.691 6 114643984.806 8  89167400.024 6
R14  20745694.802 8  20745699.493 7 110586289.420 8  86011468.053 7
R15  21674153.445 6  21674159.521 7 115820232.600 6  90082348.930 7
R17  23354125.742 5  23354132.924 5 124972662.49715  97200974.23515
R23  21003429.569 6                 112354268.313 6
R24  19825872.188 8  19825875.455 7 106018025.326 8  82458349.479 7
> 2025 06 15 08 29 20.0000000  0 25
C13  37772614.509 5  37772620.114 5 196691988.488 5 152094687.769 5
C20  24353794.101 6                 126816727.936 6
C26  24528298.187 5                 127725297.592 5
C29  21497236.469 7                 111941775.859 7
C30  24234044.434 7                 126193119.194 7
E02  24760929.996 7  24760931.540 8 130119593.035 7  98434616.536 8
E10  24513381.647 8  24513383.272 9 128818678.348 8  97450505.798 9
E11  23512491.478 7  23512489.395 8 123559160.063 7  93471556.111 8
E12  26726478.482 6  26726477.809 7 140448630.145 6 106248442.313 7
E16  25496200.188 7  25496202.632 8 133983400.091 7 101357602.204 8
E24  27476458.254 5  27476459.217 6 144389881.736 5 109229916.788 6
E25  24286525.137 8  24286527.187 9 127626527.806 8  96548666.577 9
E36  25102391.573 7  25102394.830 8 131914131.107 7  99792071.479 8
G08  22821106.799 6                  22821114.161 6 119925883.478 6                  93448666.355 6
G10  22030960.322 8                  22030966.521 7 115773567.151 8                  90213128.790 7
G16  21194190.065 7  21194192.823 5                 111376227.455 7  86786680.759 5
G18  22252580.030 8                  22252584.950 7 116938251.078 8                  91120616.424 7
G23  20946500.283 8                  20946504.832 8 110074629.763 8                  85772447.042 8
G27  20508738.706 8                  20508744.945 8 107774285.452 8                  83979904.776 8
R08  21406028.357 7  21406034.531 6 114628530.809 7  89155380.247 6
R14  20746473.523 8  20746478.132 7 110590438.863 8  86014695.376 7
R15  21671138.219 6  21671143.946 7 115804119.810 6  90069816.772 7
R17  23349811.315 5  23349821.084 5 124949586.164 5  97183025.980 5
R23  21004677.389 7                 112360935.867 7
R24  19823569.554 8  19823573.498 7 106005714.156 8  82448774.145 7
> 2025 06 15 08 29 25.0000000  0 25
C13  37772031.243 5  37772035.596 4 196688949.031 5 152092337.525 4
C20  24350098.967 6                 126797487.179 6
C26  24527442.288 5                 127720843.101 5
C29  21496306.319 7                 111936933.630 7
C30  24235330.330 7                 126199817.795 7
E02  24758653.448 7  24758654.173 8 130107625.464 7  98425563.150 8
E10  24513809.555 8  24513810.609 8 128820924.150 8  97452204.729 8
E11  23511650.180 7  23511648.354 8 123554740.408 7  93468212.666 8
E12  26727640.383 6  26727640.001 7 140454737.742 6 106253062.648 7
E16  25497666.425 7  25497669.280 8 133991107.231 7 101363432.594 8
E24  27478362.278 6  27478365.059 6 144399896.604 6 109237492.932 6
E25  24287045.318 8  24287047.282 9 127629260.923 8  96550734.160 9
E36  25099316.008 7  25099319.299 8 131897968.987 7  99779844.948 8
G08  22816997.424 6                  22817005.511 6 119904293.613 6                  93431843.110 6
G10  22027375.931 8                  22027382.113 7 115754730.804 8                  90198451.107 7
G16  21194880.347 7  21194883.261 5                 111379856.678 7  86789508.726 5
G18  22253856.560 7                  22253861.429 7 116944959.410 7                  91125843.680 7
G23  20945460.655 8                  20945465.706 8 110069167.388 8                  85768190.648 8
G27  20506232.663 8                  20506238.362 8 107761112.617 8                  83969640.225 8
R08  21403147.843 8  21403151.598 6 114613096.541 8  89143375.828 6
R14  20747254.906 8  20747260.092 7 110594607.693 8  86017937.801 7
R15  21668127.121 6  21668132.408 7 115788026.492 6  90057299.804 7
R17  23345499.560 4                                
R23  21005924.258 7                 112367609.454 7
R24  19821269.471 8  19821273.403 7 105993412.950 8  82439206.555 7
> 2025 06 15 08 29 30.0000000  0 25
C13  37771447.031 5  37771452.688 4 196685912.707 5 152089989.611 4
C20  24346406.418 6                 126778255.444 6
C26  24526588.982 6                 127716402.644 6
C29  21495377.281 7                 111932099.627 7
C30  24236617.160 7                 126206520.077 7
E02  24756377.655 7  24756378.847 8 130095668.556 7  98416517.818 8
E10  24514237.584 8  24514238.999 8 128823175.182 8  97453907.624 8
E11  23510811.195 7  23510808.780 8 123550328.311 7  93464874.932 8
E12  26728803.072 6  26728802.672 7 140460847.630 6 106257684.729 7
E16  25499134.362 7  25499137.120 8 133998820.550 7 101369267.660 8
E24  27480270.487 5  27480271.120 6 144409913.104 5 109245070.319 6
E25  24287567.175 8  24287569.318 9 127632004.002 8  96552809.276 9
E36  25096241.221 7  25096244.813 8 131881812.641 7  99767622.789 8
G08  22812890.837 6                  22812897.956 6 119882708.879 6                  93415023.839 6
G10  22023793.231 8                  22023799.921 7 115735905.808 8                  90183782.278 7
G16  21195573.734 7  21195577.008 5                 111383500.780 7  86792348.287 5
G18  22255133.872 7                  22255139.719 7 116951674.067 7                  91131075.889 7
G23  20944423.923 7                  20944429.527 8 110063721.746 7                  85763947.287 8
G27  20503727.734 8                  20503733.583 8 107747951.800 8                  83959385.046 8
R08  21400268.856 8  21400273.336 7 114597682.584 8  89131387.188 7
R14  20748040.594 7  20748045.821 7 110598796.394 7  86021195.686 7
R15  21665118.998 6  21665123.964 7 115771953.417 6  90044798.517 7
R17  23341190.469 5  23341197.424 5 124903440.39615  97147134.78815
R23  21007172.684 7                 112374289.658 7
R24  19818970.783 8  19818974.953 7 105981122.583 8  82429647.397 7
> 2025 06 15 08 29 35.0000000  0 25
C13  37770862.868 5  37770869.991 5 196682879.480 5 152087644.118 5
C20  24342715.095 6                 126759032.658 6
C26  24525740.039 6                 127711976.240 6
C29  21494450.702 7                 111927273.873 7
C30  24237904.856 7                 126213226.100 7
E02  24754104.208 7  24754105.493 8 130083722.331 7  98407480.575 8
E10  24514666.797 8  24514668.336 9 128825431.446 8  97455614.473 9
E11  23509973.111 7  23509970.595 8 123545923.823 7  93461542.965 8
E12  26729966.236 6  26729965.802 7 140466959.809 6 106262308.543 7
E16  25500602.929 7  25500606.124 8 134006540.099 7 101375107.443 8
E24  27482174.952 5  27482177.495 7 144419931.272 5 109252648.952 7
E25  24288091.092 8  24288093.290 9 127634757.079 8  96554891.965 9
E36  25093167.817 7  25093171.466 8 131865662.078 7  99755405.005 8
G08  22808783.703 6                  22808791.376 6 119861129.316 6                  93398208.592 6
G10  22020213.758 8                  22020219.545 7 115717092.223 8                  90169122.357 7
G16  21196270.482 7  21196273.557 5                 111387159.754 7  86795199.420 5
G18  22256413.598 7                  22256418.226 7 116958395.095 7                  91136313.047 7
G23  20943391.185 8                  20943396.349 8 110058292.861 8                  85759716.979 8
G27  20501225.907 8                  20501231.116 8 107734803.045 8                  83949139.269 8
R08  21397393.098 8  21397398.432 6 114582288.968 8  89119414.388 6
R14  20748829.640 7  20748835.602 7 110603005.159 7  86024469.172 7
R15  21662115.860 7  21662120.499 7 115755900.547 7  90032312.958 7
R17  23336883.804 6  23336885.847 5 124880371.655 6  97129192.472 5
R23  21008422.012 7                 112380976.479 7
R24  19816674.192 8  19816678.785 7 105968842.935 8  82420096.563 7
> 2025 06 15 08 29 40.0000000  0 25
C13  37770279.834 4  37770287.836 4 196679848.593 4 152085300.493 4
C20  24339024.824 6                 126739818.118 6
C26  24524892.001 6                 127707563.210 6
C29  21493525.371 7                 111922455.673 7
C30  24239193.289 7                 126219935.106 7
E02  24751833.026 7  24751834.085 8 130071786.083 7  98398450.884 8
E10  24515097.127 8  24515098.515 8 128827692.233 8  97457324.731 8
E11  23509135.744 7  23509133.752 8 123541526.178 7  93458216.180 8
E12  26731129.847 6  26731129.247 7 140473073.599 6 106266933.579 7
E16  25502073.052 7  25502076.188 8 134014265.157 7 101380951.384 8
E24  27484083.092 5  27484083.992 7 144429950.408 5 109260228.321 7
E25  24288616.897 8  24288618.984 9 127637519.421 8  96556981.654 9
E36  25090094.931 7  25090099.075 8 131849516.580 7  99743191.056 8
G08  22804677.447 6                  22804685.266 6 119839554.244 6                  93381396.841 6
G10  22016635.453 8                  22016641.410 7 115698289.295 8                  90154470.747 7
G16  21196969.397 7  21196972.746 6                 111390832.907 7  86798061.616 6
G18  22257693.359 7                  22257698.393 8 116965121.760 7                  91141554.606 8
G23  20942361.229 7                  20942366.410 8 110052879.996 7                  85755499.167 8
G27  20498725.828 8                  20498731.340 8 107721665.659 8                  83938902.336 8
R08  21394522.610 7  21394527.687 7 114566915.043 7  89107456.892 7
R14  20749623.744 8  20749628.870 7 110607233.393 8  86027757.798 7
R15  21659114.976 6  21659119.579 7 115739867.153 6  90019842.555 7
R17  23332572.762 5  23332574.882 5 124857305.071 5  97111251.827 5
R23  21009673.503 7                 112387669.274 7
R24  19814380.012 8  19814383.773 7 105956573.332 8  82410553.527 7
> 2025 06 15 08 29 45.0000000  0 25
C13  37769700.957 4  37769706.850 4 196676821.00714 152082959.37014
C20  24335333.994 6                 126720612.788 6
C26  24524047.031 6                 127703164.327 6
C29  21492602.057 7                 111917645.906 7
C30  24240482.847 7                 126226648.019 7
E02  24749563.961 7  24749564.752 8 130059860.712 7  98389429.407 8
E10  24515528.650 8  24515529.717 9 128829958.422 8  97459039.086 9
E11  23508300.848 7  23508298.381 8 123537136.310 7  93454895.275 8
E12  26732293.912 6  26732293.237 7 140479189.861 6 106271560.471 7
E16  25503544.486 7  25503547.407 8 134021996.569 7 101386800.130 8
E24  27485988.334 5  27485990.924 7 144439971.348 5 109267809.076 7
E25  24289144.404 8  24289146.610 9 127640291.944 8  96559079.055 9
E36  25087023.990 7  25087027.856 8 131833377.077 7  99730981.637 8
G08  22800574.423 6                  22800581.174 6 119817984.538 6                  93364589.286 6
G10  22013059.275 8                  22013065.591 7 115679497.954 8                  90139828.178 7
G16  21197670.894 7  21197674.618 5                 111394521.101 7  86800935.539 5
G18  22258974.289 7                  22258979.785 7 116971854.938 7                  91146801.245 7
G23  20941334.470 7                  20941339.242 8 110047484.058 7                  85751294.526 8
G27  20496228.326 8                  20496234.049 8 107708540.501 8                  83928674.940 8
R08  21391655.175 7  21391660.863 7 114551561.650 7  89095515.369 7
R14  20750420.091 8  20750425.323 7 110611481.705 8  86031062.025 7
R15  21656119.302 7  21656123.354 7 115723854.298 7  90007388.092 7
R17  23328262.770 5  23328265.589 5 124834241.438 5  97093313.423 5
R23  21010926.387 7                 112394368.850 7
R24  19812087.573 8  19812090.927 7 105944314.802 8  82401019.108 7
> 2025 06 15 08 29 50.0000000  0 25
C13  37769121.656 4  37769126.324 5 196673796.750 4 152080620.856 5
C20  24331647.215 6                 126701416.675 6
C26  24523206.617 6                 127698779.814 6
C29  21491680.125 7                 111912844.596 7
C30  24241772.675 7                 126233364.855 7
E02  24747296.608 7  24747297.530 8 130047946.263 7  98380416.199 8
E10  24515961.124 8  24515961.961 9 128832230.061 8  97460757.556 9
E11  23507466.959 7  23507464.546 8 123532754.271 7  93451580.294 8
E12  26733457.936 6  26733457.657 7 140485308.613 6 106276189.256 7
E16  25505016.599 7  25505019.911 8 134029734.419 7 101392653.733 8
E24  27487895.684 5  27487898.290 7 144449994.172 5 109275391.247 7
E25  24289673.942 7  24289676.156 9 127643074.642 7  96561184.147 9
E36  25083954.606 7  25083957.760 8 131817243.577 7  99718776.743 8
G08  22796471.221 6                  22796477.378 6 119796420.216 6                  93347785.949 6
G10  22009486.011 8                  22009492.123 7 115660718.271 8                  90125194.686 7
G16  21198375.779 7  21198379.706 6                 111398224.397 7  86803821.219 6
G18  22260257.094 7                  22260262.376 7 116978594.688 7                  91152052.984 7
G23  20940310.867 7                  20940315.726 8 110042105.106 7                  85747103.110 8
G27  20493733.112 8                  20493738.790 8 107695427.650 8                  83918457.141 8
R08  21388792.710 7  21388797.695 7 114536228.972 7  89083589.954 7
R14  20751221.546 8  20751226.208 7 110615750.410 8  86034382.130 7
R15  21653126.432 7  21653130.372 7 115707861.810 7  89994949.479 7
R17  23323955.883 5  23323956.554 5 124811180.741 5  97075377.331 5
R23  21012180.989 7                 112401075.443 7
R24  19809796.788 8  19809800.995 7 105932067.240 8  82391493.232 7
> 2025 06 15 08 29 55.0000000  0 25
C13  37768542.191 5  37768545.873 4 196670775.293 5 152078284.472 4
C20  24327962.998 6                 126682229.181 6
C26  24522366.074 5                 127694408.948 5
C29  21490759.390 7                 111908051.186 7
C30  24243063.292 7                 126240085.071 7
E02  24745031.503 7  24745032.251 8 130036042.153 7  98371410.810 8
E10  24516394.194 8  24516395.140 9 128834506.557 8  97462479.707 9
E11  23506634.007 7  23506632.049 8 123528379.419 7  93448270.754 8
E12  26734622.812 6  26734622.437 7 140491429.339 6 106280819.537 7
E16  25506490.824 7  25506493.505 8 134037478.076 7 101398511.737 8
E24  27489805.599 5  27489806.058 6 144460018.279 5 109282974.364 6
E25  24290205.610 8  24290207.470 9 127645866.977 8  96563296.520 9
E36  25080885.667 7  25080888.691 8 131801115.498 7  99706575.967 8
G08  22792367.264 6                  22792374.528 6 119774860.715 6                  93330986.360 6
G10  22005913.795 8                  22005920.633 7 115641949.682 8                  90110569.810 7
G16  21199083.245 7  21199087.308 6                 111401942.194 7  86806718.188 6
G18  22261540.504 7                  22261545.815 7 116985340.406 7                  91157309.380 7
G23  20939290.422 7                  20939295.086 8 110036742.510 7                  85742924.465 8
G27  20491239.818 8                  20491245.731 8 107682326.534 8                  83908248.483 8
R08  21385933.055 7  21385938.339 7 114520916.358 7  89071680.156 7
R14  20752026.215 8  20752030.926 7 110620038.665 8  86037717.419 7
R15  21650137.162 7  21650141.333 7 115691889.308 7  89982526.409 7
R17  23319650.294 5  23319647.144 5 124788122.565 5  97057443.125 5
R23  21013435.777 8                 112407788.214 8
R24  19807508.767 8  19807512.244 7 105919830.158 8  82381975.491 7
> 2025 06 15 08 30  0.0000000  0 25
C13  37767964.246 5  37767966.152 4 196667755.736 5 152075949.578 4
C20  24324281.920 6                 126663049.573 6
C26  24521528.801 5                 127690051.001 5
C29  21489840.411 7                 111903264.926 7
C30  24244353.814 7                 126246807.884 7
E02  24742767.952 7  24742768.826 8 130024147.646 7  98362412.694 8
E10  24516828.440 8  24516829.168 8 128836787.140 8  97464204.957 8
E11  23505802.793 7  23505800.812 8 123524011.031 7  93444966.097 8
E12  26735787.788 6  26735787.426 7 140497551.248 6 106285450.711 7
E16  25507965.591 7  25507968.113 8 134045226.800 7 101404373.584 8
E24  27491711.732 5  27491713.826 7 144470042.914 5 109290557.914 7
E25  24290738.375 7  24290740.506 9 127648668.154 7  96565415.582 9
E36  25077817.699 7  25077820.522 8 131784992.105 7  99694378.736 8
G08  22788265.313 6                  22788272.394 6 119753305.352 6                  93314189.992 6
G10  22002345.181 8                  22002351.274 7 115623191.396 8                  90095952.983 7
G16  21199793.693 7  21199797.403 5                 111405673.736 7  86809625.877 5
G18  22262824.781 7                  22262830.725 7 116992091.340 7                  91162569.850 7
G23  20938273.207 7                  20938277.519 8 110031395.529 7                  85738757.986 8
G27  20488748.767 8                  20488754.654 8 107669236.386 8                  83898048.386 8
R08  21383077.223 7  21383082.839 7 114505623.004 7  89059785.342 7
R14  20752834.010 8  20752838.904 7 110624345.957 8  86041067.550 7
R15  21647153.442 7  21647156.013 7 115675935.984 7  89970118.277 7
R17  23315334.362 5  23315338.983 5 124765066.147 5  97039510.375 5
R23  21014691.079 7                 112414506.580 7
R24  19805222.329 8  19805226.136 7 105907602.712 8  82372465.263 7
> 2025 06 15 08 30  5.0000000  0 25
C13  37767385.680 5  37767386.350 4 196664740.021 5 152073617.661 4
C20  24320602.001 6                 126643879.705 6
C26  24520692.388 5                 127685707.907 5
C29  21488922.570 7                 111898487.682 7
C30  24245645.757 7                 126253535.166 7
E02  24740506.832 7  24740507.565 8 130012264.604 7  98353423.247 8
E10  24517263.364 8  24517264.317 8 128839073.706 8  97465934.724 8
E11  23504973.263 7  23504971.087 8 123519650.960 7  93441667.733 8
E12  26736952.949 6  26736952.991 7 140503676.221 6 106290084.204 7
E16  25509441.560 7  25509443.977 8 134052982.454 7 101410240.671 8
E24  27493618.955 5  27493622.028 7 144480069.874 5 109298143.222 7
E25  24291273.417 8  24291275.601 9 127651480.065 8  96567542.770 9
E36  25074750.032 7  25074753.597 8 131768875.267 7  99682186.451 8
G08  22784163.562 6                  22784172.478 6 119731755.924 6                  93297398.256 6
G10  21998777.279 8                  21998784.422 7 115604445.313 8                  90081345.658 7
G16  21200506.405 7  21200510.317 6                 111409420.828 7  86812545.682 6
G18  22264110.655 7                  22264117.110 7 116998849.352 7                  91167835.813 7
G23  20937259.617 7                  20937263.454 8 110026066.043 7                  85734605.143 8
G27  20486260.295 8                  20486266.012 7 107656159.090 8                  83887858.295 7
R07  22378781.998 5                 119795353.99415
R08  21380224.463 7  21380230.083 7 114490350.870 7  89047907.031 7
R14  20753645.469 8  20753650.986 7 110628673.909 8  86044433.721 7
R15  21644171.810 7  21644174.446 7 115660003.591 7  89957726.424 7
R23  21015948.516 7                 112421232.434 7
R24  19802938.014 8  19802941.476 7 105895386.745 8  82362963.945 7
> 2025 06 15 08 30 10.0000000  0 25
C13  37766806.827 5  37766807.505 4 196661726.798 5 152071287.617 4
C20  24316920.824 6                 126624718.251 6
C26  24519859.396 4                 127681378.146 4
C29  21488006.919 7                 111893717.978 7
C30  24246938.167 7                 126260265.453 7
E02  24738247.708 7  24738248.207 8 130000391.592 7  98344441.393 8
E10  24517699.168 8  24517700.260 8 128841364.776 8  97467667.897 8
E11  23504144.776 7  23504142.734 8 123515297.767 7  93438374.574 8
E12  26738119.405 6  26738118.873 7 140509802.742 6 106294718.866 7
E16  25510918.590 7  25510920.892 8 134060743.598 7 101416111.905 8
E24  27495528.423 5  27495530.298 7 144490097.831 5 109305729.267 7
E25  24291810.040 7  24291812.440 9 127654301.227 7  96569676.950 9
E36  25071683.811 7  25071687.645 8 131752763.522 7  99669998.032 8
G08  22780064.666 6                  22780072.237 6 119710211.070 6                  93280610.056 6
G10  21995212.294 8                  21995219.203 7 115585709.998 8                  90066746.714 7
G16  21201221.860 7  21201225.950 6                 111413182.046 7  86815476.497 6
G18  22265398.259 7                  22265404.247 8 117005612.967 7                  91173106.169 8
G23  20936247.841 8                  20936251.666 8 110020752.612 8                  85730464.823 8
G27  20483774.090 8                  20483780.198 8 107643093.215 8                  83877677.093 8
R07  22379371.505 5                 119798499.426 5
R08  21377377.115 8  21377381.970 7 114475098.516 8  89036044.090 7
R14  20754461.513 8  20754466.333 7 110633021.173 8  86047814.921 7
R15  21641193.133 7  21641196.406 7 115644090.911 7  89945349.912 7
R23  21017206.981 7                 112427964.166 7
R24  19800655.165 8  19800659.229 7 105883180.913 8  82353470.524 7
> 2025 06 15 08 30 15.0000000  0 25
C13  37766228.494 5  37766228.963 4 196658716.771 5 152068960.048 4
C20  24313241.793 5                 126605566.024 5
C26  24519031.716 4                 127677062.589 4
C29  21487092.430 7                 111888956.646 7
C30  24248232.052 7                 126266999.550 7
E02  24735990.316 7  24735990.910 8 129988529.409 7  98335467.734 8
E10  24518136.213 8  24518137.256 8 128843661.177 8  97469405.099 8
E11  23503317.977 7  23503315.833 8 123510952.252 7  93435087.218 8
E12  26739285.526 6  26739285.156 7 140515931.695 6 106299355.371 7
E16  25512396.724 7  25512398.977 8 134068510.999 7 101421987.886 8
E24  27497437.353 5  27497438.883 7 144500127.437 5 109313316.594 7
E25  24292349.079 7  24292351.197 9 127657132.461 7  96571818.756 9
E36  25068619.005 7  25068622.827 8 131736657.695 7  99657814.095 8
G08  22775965.521 6                  22775973.449 6 119688671.520 6                  93263826.011 6
G10  21991649.530 8                  21991656.194 7 115566986.275 8                  90052156.787 7
G16  21201940.019 7  21201944.772 5                 111416958.173 7  86818418.930 5
G18  22266686.158 7                  22266692.125 8 117012383.017 7                  91178381.508 8
G23  20935240.026 8                  20935244.143 8 110015456.020 8                  85726337.616 8
G27  20481289.785 8                  20481296.096 7 107630039.537 8                  83867505.398 7
R07  22379964.430 5  22379979.866 4 119801665.243 5  93179163.51914
R08  21374531.727 8  21374537.465 7 114459866.739 8  89024197.152 7
R14  20755280.135 8  20755285.489 7 110637388.345 8  86051211.625 7
R15  21638219.071 7  21638222.716 6 115628198.676 7  89932989.305 6
R23  21018466.955 7                 112434702.671 7
R24  19798375.124 8  19798377.993 7 105870986.085 8  82343985.657 7
> 2025 06 15 08 30 20.0000000  0 25
C13  37765649.380 5  37765650.835 4 196655709.715 5 152066634.778 4
C20  24309561.225 5                 126586422.716 5
C26  24518205.402 5                 127672760.891 5
C29  21486179.326 7                 111884203.461 7
C30  24249526.158 7                 126273737.243 7
E02  24733735.187 7  24733735.627 8 129976677.849 7  98326502.112 8
E10  24518574.251 8  24518575.224 8 128845962.629 8  97471146.137 8
E11  23502492.438 7  23502490.293 8 123506614.177 7  93431805.491 8
E12  26740451.530 6  26740451.873 7 140522062.784 6 106303993.476 7
E16  25513875.706 7  25513878.207 8 134076284.418 7 101427868.418 8
E24  27499345.825 5  27499347.782 7 144510158.540 5 109320905.046 7
E25  24292889.699 7  24292891.824 9 127659973.521 7  96573967.997 9
E36  25065555.354 7  25065559.062 8 131720557.526 7  99645634.433 8
G08  22771868.321 6                  22771875.173 6 119667137.140 6                  93247045.984 6
G10  21988088.912 8                  21988095.217 7 115548273.908 8                  90037575.725 7
G16  21202661.770 7  21202665.861 6                 111420748.991 7  86821372.819 6
G18  22267975.905 7                  22267981.845 8 117019159.245 7                  91183661.671 8
G23  20934234.447 8                  20934239.317 8 110010176.058 8                  85722223.373 8
G27  20478807.694 8                  20478814.335 7 107616997.870 8                  83857343.068 7
R07  22380558.276 4                                
R08  21371691.425 7  21371697.237 7 114444655.379 7  89012366.107 7
R14  20756102.473 7  20756108.456 7 110641775.327 7  86054623.736 7
R15  21635248.006 7  21635252.213 7 115612326.632 7  89920644.378 7
R23  21019728.118 7                 112441447.665 7
R24  19796096.061 8  19796100.164 7 105858802.045 8  82334509.180 7
> 2025 06 15 08 30 25.0000000  0 25
C13  37765072.569 4  37765074.150 4 196652705.662 4 152064311.826 4
C20  24305889.406 5                 126567288.436 5
C26  24517382.726 5                 127668473.181 5
C29  21485268.228 7                 111879458.484 7
C30  24250820.960 7                 126280478.560 7
E02  24731481.818 7  24731482.369 8 129964836.971 7  98317544.574 8
E10  24519013.379 8  24519014.142 8 128848269.237 8  97472891.071 8
E11  23501668.747 7  23501666.204 8 123502283.604 7  93428529.438 8
E12  26741619.025 6  26741618.978 7 140528196.123 6 106308633.309 7
E16  25515356.179 7  25515358.577 8 134084063.945 7 101433753.572 8
E24  27501252.610 5  27501256.944 7 144520191.199 5 109328494.697 7
E25  24293431.979 7  24293434.349 9 127662824.492 7  96576124.719 9
E36  25062492.800 7  25062496.376 8 131704463.120 7  99633459.125 8
G08  22767770.699 6                  22767778.456 6 119645607.933 6                  93230270.006 6
G10  21984529.782 8                  21984536.609 7 115529572.975 8                  90023003.565 7
G16  21203386.536 7  21203389.968 5                 111424554.622 7  86824338.236 5
G18  22269266.576 7                  22269272.954 7 117025941.686 7                  91188946.691 7
G23  20933233.541 8                  20933238.043 8 110004912.770 8                  85718122.109 8
G27  20476328.753 8                  20476334.824 7 107603968.279 8                  83847190.141 7
R07  22381161.638 5  22381165.748 3 119808057.47515  93184135.26213
R08  21368855.574 7  21368860.322 7 114429464.544 7  89000551.014 7
R14  20756929.237 7  20756935.273 7 110646182.322 7  86058051.391 7
R15  21632282.188 7  21632285.267 6 115596474.777 7  89908315.146 6
R23  21020989.677 7                 112448199.246 7
R24  19793819.859 8  19793823.767 7 105846628.665 8  82325041.000 7
> 2025 06 15 08 30 30.0000000  0 25
C13  37764494.955 5  37764497.430 4 196649704.584 5 152061991.186 4
C20  24302216.369 6                 126548163.103 6
C26  24516561.608 5                 127664199.479 5
C29  21484359.338 7                 111874721.669 7
C30  24252116.710 7                 126287223.512 7
E02  24729230.656 7  24729231.160 8 129953006.748 7  98308595.086 8
E10  24519453.118 8  24519454.036 8 128850580.945 8  97474639.858 8
E11  23500846.537 7  23500843.509 8 123497960.521 7  93425259.054 8
E12  26742786.735 6  26742786.507 7 140534331.616 6 106313274.766 7
E16  25516837.328 7  25516840.122 8 134091849.526 7 101439643.307 8
E24  27503159.793 4  27503166.422 7 144530225.378 4 109336085.480 7
E25  24293976.479 8  24293978.746 9 127665685.323 8  96578288.914 9
E36  25059431.747 7  25059434.797 8 131688374.425 7  99621288.151 8
G08  22763675.045 6                  22763682.879 5 119624083.895 6                  93213498.021 5
G10  21980973.113 8                  21980980.149 7 115510883.458 8                  90008440.326 7
G16  21204112.890 7  21204116.875 5                 111428374.923 7  86827315.089 5
G18  22270558.719 7                  22270564.618 8 117032730.342 7                  91194236.546 8
G23  20932234.700 7                  20932239.578 8 109999666.126 7                  85714033.818 8
G27  20473850.666 7                  20473857.528 7 107590950.729 7                  83837046.602 7
R07  22381767.906 5  22381764.269 3 119811283.973 5  93186644.869 3
R08  21366022.967 8  21366027.342 7 114414294.142 8  88988751.813 7
R14  20757760.511 7  20757765.365 7 110650609.233 7  86061494.534 7
R15  21629319.514 6  21629323.338 6 115580643.355 6  89896001.829 6
R23  21022253.177 7                 112454957.368 7
R24  19791546.009 8  19791548.817 7 105834465.898 8  82315581.078 7
> 2025 06 15 08 30 35.0000000  0 26
C13  37763919.767 5  37763921.316 5 196646706.135 5 152059672.577 5
C20  24298544.507 6                 126529046.334 6
C26  24515742.933 5                 127659939.227 5
C29  21483451.214 7                 111869992.584 7
C30  24253411.912 7                 126293971.630 7
E02  24726981.925 7  24726981.890 8 129941186.752 7  98299653.339 8
E10  24519893.921 8  24519894.831 8 128852897.299 8  97476392.162 8
E11  23500024.505 7  23500022.180 8 123493644.446 7  93421993.970 8
E12  26743954.242 6  26743954.393 7 140540468.839 6 106317917.520 7
E16  25518320.596 7  25518322.748 8 134099640.707 7 101445537.277 8
E24  27505068.167 4  27505076.018 7 144540260.646 4 109343677.077 7
E25  24294523.113 7  24294524.932 9 127668555.565 7  96580460.224 9
E36  25056370.702 7  25056374.224 8 131672290.990 7  99609121.148 8
G08  22759580.762 6                  22759587.486 6 119602564.599 6                  93196729.737 6
G10  21977418.314 8                  21977425.130 7 115492204.914 8                  89993885.614 7
G16  21204842.907 7  21204846.795 5                 111432209.507 7  86830303.059 5
G18  22271852.074 7                  22271857.564 8 117039524.750 7                  91199530.878 8
G23  20931239.417 7                  20931244.154 8 109994435.672 7                  85709958.140 8
G27  20471376.205 7                  20471382.645 7 107577944.803 7                  83826912.114 7
R07  22382386.432 5                 119814530.294 5
R08  21363192.869 7  21363198.208 7 114399143.652 7  88976968.117 7
R14  20758595.159 7  20758599.479 7 110655055.336 7  86064952.601 7
R15  21626360.376 7  21626363.728 6 115564831.660 7  89883703.862 6
R17  23285186.751 4  23285195.539 5 124603745.78814
R23  21023516.805 7                 112461721.480 7
R24  19789271.921 8  19789276.405 7 105822313.478 8  82306129.209 7
> 2025 06 15 08 30 40.0000000  0 24
C13  37763345.554 5  37763346.265 5 196643710.729 5 152057356.331 5
C20  24294876.010 6                 126509938.708 6
C26  24514928.640 5                 127655693.009 5
C29  21482545.073 7                 111865271.792 7
C30  24254708.114 7                 126300723.490 7
E02  24724733.842 7  24724734.666 8 129929377.555 7  98290719.755 8
E10  24520335.887 8  24520336.612 8 128855218.859 8  97478148.418 8
E11  23499204.900 7  23499202.293 8 123489335.959 7  93418734.622 8
E12  26745122.110 6  26745122.632 7 140546608.405 6 106322562.047 7
E16  25519803.899 7  25519806.547 8 134107438.063 7 101451435.909 8
E25  24295071.373 8  24295073.028 9 127671435.749 8  96582639.063 9
E36  25053311.406 7  25053314.741 8 131656213.419 7  99596958.573 8
G08  22755486.700 6                  22755493.720 6 119581050.608 6                  93179965.585 6
G10  21973865.517 7                  21973873.312 7 115473537.921 7                  89979339.914 7
G16  21205575.470 7  21205579.487 5                 111436058.902 7  86833302.576 5
G18  22273146.639 8                  22273151.395 8 117046325.475 8                  91204830.114 8
G23  20930247.134 7                  20930252.228 7 109989221.968 7                  85705895.537 7
G27  20468904.221 7                  20468910.057 8 107564951.072 7                  83816787.119 8
R08  21360367.687 7  21360372.478 7 114384013.927 7  88965200.580 7
R14  20759433.126 7  20759437.392 7 110659521.504 7  86068426.262 7
R15  21623404.610 7  21623408.564 6 115549040.365 7  89871421.779 6
R17  23280881.092 4  23280890.422 5 124580711.444 4  96896138.52915
R23  21024782.082 7                 112468492.409 7
R24  19787002.002 8  19787006.072 7 105810172.025 8  82296685.858 7
> 2025 06 15 08 30 45.0000000  0 24
C13  37762771.167 4  37762772.049 5 196640718.647 4 152055042.628 5
C20  24291209.275 6                 126490840.461 6
C26  24514115.433 5                 127651461.113 5
C29  21481640.437 7                 111860559.488 7
C30  24256004.231 7                 126307479.298 7
E02  24722488.876 7  24722489.553 8 129917579.357 7  98281794.500 8
E10  24520778.583 8  24520779.424 8 128857545.856 8  97479908.775 8
E11  23498386.132 7  23498383.868 8 123485035.271 7  93415481.180 8
E12  26746291.262 6  26746291.369 7 140552750.455 6 106327208.460 7
E16  25521289.052 7  25521291.557 8 134115241.773 7 101457339.355 8
E25  24295621.702 8  24295623.090 9 127674326.145 8  96584825.624 9
E36  25050253.135 7  25050256.432 8 131640141.893 7  99584800.570 8
G08  22751393.904 6                  22751400.679 5 119559542.122 6                  93163205.713 5
G10  21970316.550 7                  21970323.077 7 115454882.721 7                  89964803.414 7
G16  21206311.014 7  21206314.779 5                 111439923.312 7  86836313.792 5
G18  22274441.946 8                  22274446.647 7 117053132.688 8                  91210134.438 7
G23  20929258.644 7                  20929263.622 8 109984025.243 7                  85701846.145 8
G27  20466433.645 7                  20466439.745 7 107551969.710 7                  83806671.766 7
R08  21357546.119 7  21357550.813 7 114368904.811 7  88953449.063 7
R14  20760274.003 7  20760279.013 7 110664007.848 7  86071915.614 7
R15  21620453.116 7  21620456.891 6 115533269.731 7  89859155.766 6
R17  23276577.764 4  23276586.066 5 124557680.33014  96878225.45815
R23  21026048.405 7                 112475270.142 7
R24  19784733.771 8  19784737.655 7 105798041.563 8  82287251.059 7
> 2025 06 15 08 30 50.0000000  0 25
C13  37762196.889 5  37762197.332 4 196637728.55515 152052730.49514
C20  24287544.426 6                 126471750.242 6
C26  24513305.449 5                 127647242.137 5
C29  21480737.031 7                 111855854.359 7
C30  24257302.442 7                 126314237.676 7
E02  24720245.480 7  24720246.322 8 129905790.848 7  98272876.573 8
E10  24521221.817 8  24521223.002 8 128859876.914 8  97481672.207 8
E11  23497569.179 7  23497566.688 8 123480741.005 7  93412232.596 8
E12  26747459.766 6  26747460.365 7 140558893.651 6 106331855.750 7
E16  25522774.920 7  25522777.532 8 134123050.512 7 101463246.608 8
E24  27510798.538 5                 144570378.30215
E25  24296173.543 8  24296174.860 8 127677225.351 8  96587018.850 8
E36  25047195.801 7  25047198.996 8 131624075.082 7  99572646.132 8
G08  22747301.066 6                  22747308.061 6 119538037.847 6                  93146449.143 6
G10  21966768.278 7                  21966775.173 7 115436237.940 7                  89950275.022 7
G16  21207048.795 7  21207053.153 5                 111443801.362 7  86839335.647 5
G18  22275737.997 8                  22275743.060 7 117059945.041 8                  91215442.772 7
G23  20928272.139 7                  20928277.558 8 109978844.121 7                  85697808.919 8
G27  20463965.492 7                  20463971.548 8 107538999.396 7                  83796565.039 8
R08  21354728.078 7  21354732.589 7 114353815.121 7  88941712.657 7
R14  20761119.803 8  20761124.685 7 110668512.773 8  86075419.465 7
R15  21617505.149 7  21617509.632 6 115517518.522 7  89846904.850 6
R17  23272271.050 5  23272282.928 4 124534650.831 5  96860313.776 4
R23  21027317.324 7                 112482053.284 7
R24  19782465.980 8  19782470.999 7 105785920.807 8  82277823.813 7
> 2025 06 15 08 30 55.0000000  0 25
C13  37761621.861 5  37761623.126 4 196634739.933 5 152050419.505 4
C20  24283879.897 6                 126452667.511 6
C26  24512499.083 5                 127643035.447 5
C29  21479834.765 7                 111851155.823 7
C30  24258600.737 7                 126320998.078 7
E02  24718003.869 7  24718004.781 8 129894011.389 7  98263965.486 8
E10  24521666.164 8  24521667.291 8 128862211.480 8  97483438.275 8
E11  23496752.971 7  23496750.623 8 123476452.584 7  93408988.439 8
E12  26748628.251 6  26748629.527 7 140565037.407 6 106336503.452 7
E16  25524261.596 7  25524264.385 8 134130863.660 7 101469157.197 8
E24  27512707.474 5  27512716.369 7 144580417.339 5 109374056.98817
E25  24296726.706 8  24296728.158 9 127680132.777 8  96589218.305 9
E36  25044139.057 7  25044142.371 8 131608012.360 7  99560494.795 8
G08  22743209.340 6                  22743216.813 5 119516537.201 6                  93129695.399 5
G10  21963222.280 7                  21963228.847 7 115417603.021 7                  89935754.303 7
G16  21207789.816 7  21207793.750 5                 111447692.496 7  86842367.694 5
G18  22277035.345 8                  22277039.844 7 117066761.994 8                  91220754.681 7
G23  20927289.068 7                  20927294.252 8 109973678.048 7                  85693783.405 8
G27  20461499.134 7                  20461505.667 8 107526039.581 7                  83786466.486 8
R08  21351913.251 7  21351918.641 7 114338744.485 7  88929991.039 7
R14  20761968.764 8  20761972.840 7 110673036.050 8  86078937.562 7
R15  21614561.061 7  21614565.389 6 115501785.878 7  89834668.349 6
R17  23267972.762 5                 124511622.524 5
R23  21028586.492 7                 112488841.388 7
R24  19780201.917 8  19780205.753 7 105773809.120 8  82268403.601 7
> 2025 06 15 08 31  0.0000000  0 25
C13  37761048.533 5  37761049.446 4 196631753.972 5 152048110.572 4
C20  24280216.984 6                 126433593.557 6
C26  24511695.584 5                 127638842.463 5
C29  21478933.949 7                 111846465.200 7
C30  24259899.437 7                 126327761.806 7
E02  24715764.425 7  24715765.297 8 129882242.377 7  98255062.300 8
E10  24522111.368 8  24522112.425 8 128864550.838 8  97485207.987 8
E11  23495937.877 7  23495935.929 8 123472171.371 7  93405749.737 8
E12  26749798.259 6  26749798.996 7 140571183.092 6 106341152.620 7
E16  25525749.287 7  25525752.283 8 134138682.558 7 101475072.126 8
E24  27514621.097 5  27514626.999 7 144590457.568 5 109381652.354 7
E25  24297280.864 8  24297283.283 9 127683049.779 8  96591424.994 9
E36  25041083.648 7  25041086.774 9 131591955.129 7  99548347.603 9
G08  22739117.876 6                  22739126.753 6 119495041.507 6                  93112945.528 6
G10  21959678.346 7                  21959685.287 7 115398979.279 7                  89921242.322 7
G16  21208533.082 7  21208536.930 6                 111451598.017 7  86845410.954 6
G18  22278333.669 8                  22278338.195 7 117073584.818 8                  91226071.178 7
G23  20926309.054 7                  20926314.331 8 109968528.329 7                  85689770.632 8
G27  20459034.548 7                  20459041.729 8 107513091.583 7                  83776377.135 8
R08  21349103.109 7  21349107.520 7 114323693.962 7  88918285.097 7
R14  20762820.284 8  20762824.946 7 110677578.586 8  86082470.648 7
R15  21611620.888 6  21611624.653 6 115486073.313 6  89822447.435 6
R17  23263670.026 6                 124488596.797 6
R23  21029857.204 7                 112495635.623 7
R24  19777939.769 8  19777943.273 7 105761707.931 8  82258991.549 7
> 2025 06 15 08 31  5.0000000  0 25
C13  37760474.169 4  37760477.285 5 196628771.571 4 152045804.355 5
C20  24276556.409 6                 126414529.176 6
C26  24510893.523 6                 127634663.929 6
C29  21478034.528 7                 111841783.226 7
C30  24261199.991 7                 126334529.577 7
E02  24713526.637 7  24713527.885 8 129870484.524 7  98246167.566 8
E10  24522557.716 8  24522558.646 8 128866895.756 8  97486981.894 8
E11  23495124.559 7  23495122.705 8 123467898.056 7  93402517.001 8
E12  26750968.504 6  26750968.926 7 140577331.414 6 106345803.778 7
E16  25527238.082 7  25527241.431 8 134146507.952 7 101480991.961 8
E24  27516530.435 5  27516538.070 7 144600499.787 5 109389249.158 7
E25  24297837.826 8  24297840.353 9 127685977.088 8  96593639.477 9
E36  25038029.043 7  25038032.318 8 131575904.100 7  99536205.107 8
G08  22735029.879 6                  22735037.612 6 119473551.505 6                  93096200.058 6
G10  21956136.769 7                  21956143.665 7 115380367.508 7                  89906739.654 7
G16  21209278.782 7  21209282.816 6                 111455518.669 7  86848466.001 6
G18  22279633.202 8                  22279638.063 7 117080414.279 8                  91231392.831 7
G23  20925333.105 7                  20925337.528 8 109963395.739 7                  85685771.203 8
G27  20456573.589 8                  20456580.269 8 107500156.160 8                  83766297.581 8
R08  21346295.139 7  21346301.279 7 114308664.521 7  88906595.575 7
R14  20763676.800 8  20763681.136 7 110682141.343 8  86086019.434 7
R15  21608683.392 6  21608687.844 6 115470381.611 6  89810242.809 6
R17  23259366.442 5                 124465574.306 5
R23  21031129.088 7                 112502436.920 7
R24  19775679.369 8  19775682.388 7 105749618.006 8  82249588.273 7
> 2025 06 15 08 31 10.0000000  0 26
C13  37759902.734 5  37759905.980 5 196625791.607 5 152043500.017 5
C20  24272898.127 6                 126395473.396 6
C26  24510094.122 6                 127630498.882 6
C29  21477136.606 7                 111837108.972 7
C30  24262500.673 7                 126341300.492 7
E02  24711291.264 7  24711292.394 8 129858736.907 7  98237280.567 8
E10  24523005.228 8  24523005.733 9 128869245.272 8  97488759.276 9
E11  23494312.813 7  23494310.840 8 123463631.765 7  93399289.576 8
E12  26752138.602 6  26752139.215 7 140583481.348 6 106350456.174 7
E16  25528728.247 7  25528731.593 8 134154338.865 7 101486915.979 8
E24  27518444.565 5  27518449.379 6 144610543.004 5 109396846.692 6
E25  24298396.569 8  24298399.188 9 127688913.755 8  96595861.040 9
E36  25034975.354 8  25034978.929 8 131559858.292 8  99524066.569 8
G08  22730940.610 6                  22730948.801 6 119452066.276 6                  93079458.340 6
G10  21952596.987 7                  21952604.314 7 115361766.773 7                  89892245.579 7
G16  21210027.072 7  21210031.091 5                 111459453.464 7  86851532.075 5
G18  22280933.658 7                  22280939.085 7 117087249.412 7                  91236718.892 7
G23  20924359.025 8                  20924363.925 8 109958279.295 8                  85681784.366 8
G27  20454113.530 7                  20454120.655 8 107487232.361 7                  83756227.087 8
R07  22386723.126 5  22386723.581 6 119837806.34815  93207267.55616
R08  21343492.807 8  21343498.662 7 114293655.147 8  88894921.634 7
R14  20764536.020 8  20764540.907 7 110686723.427 8  86089583.291 7
R15  21605752.274 7  21605755.324 6 115454709.921 7  89798053.731 6
R17  23255065.008 5  23255067.958 4 124442554.076 5
R23  21032400.976 7                 112509244.172 7
R24  19773419.980 8  19773423.543 7 105737538.296 8  82240192.960 7
> 2025 06 15 08 31 15.0000000  0 26
C13  37759331.047 4  37759335.180 5 196622813.786 4 152041197.396 5
C20  24269241.448 5                 126376425.929 5
C26  24509297.595 6                 127626346.924 6
C29  21476240.470 7                 111832442.070 7
C30  24263801.598 7                 126348074.179 7
E02  24709057.701 7  24709058.781 8 129846999.165 7  98228401.059 8
E10  24523452.855 8  24523453.643 8 128871599.006 8  97490539.866 8
E11  23493502.472 7  23493500.256 8 123459372.081 7  93396067.146 8
E12  26753309.506 6  26753309.733 7 140589632.686 6 106355109.610 7
E16  25530219.336 7  25530222.778 8 134162174.959 7 101492843.913 8
E24  27520355.964 5  27520360.567 6 144620586.817 5 109404444.771 6
E25  24298956.925 8  24298959.712 9 127691859.427 8  96598089.410 9
E36  25031922.936 8  25031926.397 8 131543817.402 8  99511931.752 8
G08  22726853.630 6                  22726861.284 5 119430585.437 6                  93062720.066 5
G10  21949059.106 7                  21949066.577 7 115343176.685 7                  89877759.809 7
G16  21210778.766 7  21210782.252 5                 111463402.079 7  86854608.915 5
G18  22282235.321 8                  22282240.598 7 117094089.859 8                  91242049.107 7
G23  20923388.914 8                  20923393.607 8 109953178.660 8                  85677809.829 8
G27  20451657.049 7                  20451663.207 7 107474319.857 7                  83746165.399 7
R07  22387360.685 4                                
R08  21340694.726 8  21340699.791 7 114278665.569 8  88883263.071 7
R14  20765399.445 8  20765404.179 7 110691324.509 8  86093161.894 7
R15  21602821.732 7  21602826.376 6 115439057.760 7  89785879.830 6
R17  23250762.530 5  23250766.474 5 124419535.876 5  96770756.52515
R23  21033675.388 7                 112516056.989 7
R24  19771162.665 8  19771166.658 7 105725468.504 8  82230805.345 7
> 2025 06 15 08 31 20.0000000  0 25
C13  37758759.770 4  37758764.169 5 196619838.954 4 152038897.070 5
C20  24265584.701 5                 126357387.620 5
C26  24508502.942 6                 127622208.876 6
C29  21475345.019 7                 111827783.328 7
C30  24265103.266 7                 126354851.456 7
E02  24706826.114 7  24706827.209 8 129835272.137 7  98219529.638 8
E10  24523901.642 8  24523902.500 8 128873957.805 8  97492324.281 8
E11  23492693.232 7  23492691.085 8 123455119.826 7  93392850.339 8
E12  26754480.362 6  26754480.660 7 140595786.150 6 106359764.666 7
E16  25531712.141 7  25531715.094 8 134170017.032 7 101498776.373 8
E24  27522269.684 5  27522271.939 6 144630632.031 5 109412043.892 6
E25  24299519.675 8  24299522.146 9 127694814.892 8  96600325.187 9
E36  25028871.571 7  25028874.963 8 131527782.245 7  99499801.266 8
G08  22722765.797 6                  22722774.103 6 119409109.847 6                  93045985.856 6
G10  21945524.417 8                  21945531.012 7 115324598.113 8                  89863282.996 7
G16  21211532.509 7  21211536.624 6                 111467365.282 7  86857697.110 6
G18  22283537.946 8                  22283543.485 7 117100936.433 8                  91247384.082 7
G23  20922421.828 8                  20922426.128 8 109948094.619 8                  85673848.227 8
G27  20449201.961 7                  20449208.377 7 107461419.431 7                  83736113.123 7
R08  21337899.842 8  21337904.710 7 114263696.501 8  88871620.451 7
R14  20766265.920 8  20766271.218 7 110695945.142 8  86096755.725 7
R15  21599896.030 7  21599901.223 6 115423425.952 7  89773721.763 6
R17  23246461.431 5  23246466.873 5 124396520.452 5  96752855.634 5
R23  21034949.377 7                 112522876.444 7
R24  19768907.554 8  19768910.872 7 105713409.493 8  82221426.105 7
> 2025 06 15 08 31 25.0000000  0 25
C13  37758188.110 4  37758193.991 5 196616868.030 4 152036599.781 5
C20  24261929.353 5                 126338359.448 5
C26  24507709.571 6                 127618085.804 6
C29  21474452.553 7                 111823133.749 7
C30  24266405.361 7                 126361633.308 7
E02  24704596.675 7  24704597.873 8 129823556.810 7  98210667.072 8
E10  24524351.471 8  24524352.563 8 128876322.657 8  97494113.278 8
E11  23491885.527 7  23491883.521 8 123450876.003 7  93389639.919 8
E12  26755651.625 6  26755652.246 7 140601942.735 6 106364422.067 7
E16  25533205.431 7  25533208.771 8 134177866.090 7 101504714.119 8
E24  27524179.273 5  27524183.842 6 144640679.719 5 109419644.875 6
E25  24300084.388 8  24300086.638 9 127697781.167 8  96602569.144 9
E36  25025821.602 7  25025824.837 8 131511753.813 7  99487675.855 8
G08  22718680.906 6                  22718688.433 6 119387640.560 6                  93029256.583 6
G10  21941991.154 8                  21941998.002 7 115306032.044 8                  89848815.942 7
G16  21212289.783 7  21212293.775 6                 111471344.086 7  86860797.486 6
G18  22284842.149 8                  22284847.457 7 117107790.149 8                  91252724.623 7
G23  20921457.481 8                  20921462.249 8 109943028.212 8                  85669900.378 8
G27  20446749.871 8                  20446756.046 7 107448532.133 8                  83726071.075 7
R08  21335108.126 8  21335112.870 7 114248749.078 8  88859994.685 7
R14  20767136.637 8  20767141.043 7 110700586.383 8  86100365.575 7
R15  21596976.512 7  21596979.655 6 115407815.749 7  89761580.479 6
R17  23242160.914 5  23242168.223 5 124373508.646 5  96734957.624 5
R23  21036225.625 7                 112529703.425 7
R24  19766655.293 8  19766658.327 7 105701362.218 8  82212055.986 7
> 2025 06 15 08 31 30.0000000  0 25
C13  37757618.118 4  37757624.173 5 196613899.56414 152034304.38515
C20  24258275.274 6                 126319339.757 6
C26  24506919.990 6                 127613975.998 6
C29  21473561.031 7                 111818491.763 7
C30  24267708.349 7                 126368418.188 7
E02  24702369.056 7  24702370.480 8 129811851.659 7  98201812.199 8
E10  24524802.588 8  24524803.423 9 128878691.984 8  97495905.655 9
E11  23491079.489 7  23491077.272 8 123446639.017 7  93386434.662 8
E12  26756824.141 6  26756824.066 7 140608100.899 6 106369080.676 7
E16  25534700.294 7  25534703.411 8 134185720.539 7 101510655.945 8
E24  27526092.294 5  27526095.990 6 144650728.195 5 109427246.462 6
E25  24300650.130 8  24300652.879 9 127700756.663 8  96604820.082 9
E36  25022772.616 7  25022775.695 8 131495730.542 7  99475554.356 8
G08  22714596.210 6                  22714604.023 6 119366175.954 6                  93012530.904 6
G10  21938459.908 7                  21938466.766 7 115287476.905 7                  89834357.435 7
G16  21213049.725 7  21213053.667 6                 111475336.912 7  86863908.763 6
G18  22286147.447 7                  22286153.012 7 117114649.412 7                  91258069.499 7
G23  20920496.575 8                  20920500.992 8 109937977.840 8                  85665965.023 8
G27  20444299.716 8                  20444305.799 7 107435656.396 8                  83716038.043 7
R08  21332319.931 8  21332325.613 7 114233821.517 8  88848384.362 7
R14  20768010.210 7  20768015.705 7 110705246.937 7  86103990.431 7
R15  21594059.220 7  21594062.556 6 115392225.203 7  89749454.493 6
R17  23237862.370 5  23237868.797 6 124350499.206 5  96717061.363 6
R23  21037503.618 7                 112536536.149 7
R24  19764403.688 8  19764407.084 7 105689325.050 8  82202693.756 7
> 2025 06 15 08 31 35.0000000  0 25
C13  37757047.705 4                                
C20  24254622.842 6                 126300329.331 6
C26  24506132.469 5                 127609880.252 5
C29  21472671.238 7                 111813858.054 7
C30  24269011.465 7                 126375206.743 7
E02  24700143.679 7  24700145.127 8 129800157.303 7  98192965.500 8
E10  24525254.217 8  24525255.292 9 128881066.460 8  97497701.925 9
E11  23490275.068 7  23490272.451 8 123442409.580 7  93383235.115 8
E12  26757996.198 6  26757996.298 7 140614261.292 6 106373740.954 7
E16  25536196.115 7  25536199.214 8 134193581.051 7 101516602.360 8
E24  27528006.055 5  27528008.387 6 144660778.260 5 109434849.220 6
E25  24301218.221 7  24301221.032 9 127703742.046 7  96607078.500 9
E36  25019724.666 7  25019727.654 9 131479713.089 7  99463437.271 9
G08  22710513.032 6                  22710520.865 6 119344716.741 6                  92995809.422 6
G10  21934931.448 8                  21934938.130 7 115268933.407 8                  89819907.973 7
G16  21213812.304 7  21213816.433 6                 111479344.417 7  86867031.491 6
G18  22287453.695 7                  22287459.535 7 117121514.861 7                  91263419.206 7
G23  20919538.457 7                  20919543.176 8 109932944.164 7                  85662042.672 8
G27  20441851.975 7                  20441858.106 8 107422792.858 7                  83706014.511 8
R08  21329536.522 8  21329541.611 7 114218914.730 8  88836790.195 7
R14  20768889.168 7  20768893.760 7 110709927.069 7  86107630.485 7
R15  21591146.283 7  21591148.581 6 115376655.261 7  89737344.542 6
R17  23233564.865 6  23233571.294 6 124327492.562 6  96699167.318 6
R23  21038781.395 7                 112543375.490 7
R24  19762153.843 8  19762158.272 7 105677298.792 8  82193340.010 7
> 2025 06 15 08 31 40.0000000  0 24
C20  24250972.689 6                 126281327.436 6
C26  24505347.738 6                 127605797.777 6
C29  21471782.241 7                 111809231.907 7
C30  24270316.130 7                 126381998.239 7
E02  24697920.641 7  24697921.682 8 129788473.066 7  98184126.448 8
E10  24525706.708 8  24525707.977 8 128883445.343 8  97499501.528 8
E11  23489471.589 7  23489468.893 8 123438186.941 7  93380040.712 8
E12  26759168.771 6  26759168.891 7 140620423.205 6 106378402.386 7
E16  25537692.751 7  25537696.065 8 134201446.909 7 101522552.814 8
E24  27529919.517 5  27529921.029 6 144670829.136 5 109442452.616 6
E25  24301788.204 7  24301790.933 9 127706736.630 7  96609343.870 9
E36  25016677.799 8  25016680.598 8 131463700.748 8  99451324.034 8
G08  22706429.460 6                  22706438.121 6 119323262.187 6                  92979091.588 6
G10  21931404.959 8                  21931411.242 7 115250400.845 8                  89805467.013 7
G16  21214577.841 7  21214581.634 5                 111483365.943 7  86870165.149 5
G18  22288761.451 7                  22288767.125 8 117128385.810 7                  91268773.182 8
G23  20918583.113 7                  20918588.562 8 109927926.469 7                  85658132.791 8
G27  20439406.055 7                  20439412.561 8 107409940.860 7                  83695999.963 8
R08  21326756.283 8  21326761.206 7 114204027.933 8  88825211.569 7
R14  20769769.968 7  20769775.326 7 110714626.313 7  86111285.449 7
R15  21588236.877 8  21588238.333 6 115361105.104 8  89725249.982 6
R17  23229264.372 6  23229272.665 5 124304488.198 6  96681275.056 5
R23  21040061.049 7                 112550220.694 7
R24  19759907.067 8  19759910.941 7 105665282.479 8  82183993.984 7
> 2025 06 15 08 31 45.0000000  0 24
C20  24247326.194 6                 126262335.194 6
C26  24504567.223 5                 127601729.688 5
C29  21470895.107 7                 111804614.397 7
C30  24271621.581 7                 126388793.786 7
E02  24695699.338 7  24695700.362 8 129776800.043 7  98175295.876 8
E10  24526160.590 8  24526161.664 8 128885829.727 8  97501305.300 8
E11  23488669.485 7  23488666.930 8 123433972.182 7  93376852.276 8
E12  26760342.311 6  26760341.967 7 140626587.696 6 106383065.772 7
E16  25539191.077 7  25539194.150 8 134209319.190 7 101528508.148 8
E24  27531829.769 5  27531833.895 6 144680881.785 5 109450057.363 6
E25  24302360.574 7  24302362.702 9 127709741.455 7  96611617.004 9
E36  25013631.578 8  25013634.754 8 131447694.596 8  99439215.489 8
G08  22702349.019 6                  22702356.257 6 119301813.409 6                  92962378.222 6
G10  21927880.692 8                  21927886.792 7 115231880.285 8                  89791035.424 7
G16  21215346.303 7  21215349.682 6                 111487402.475 7  86873310.496 6
G18  22290070.354 7                  22290075.942 8 117135263.319 7                  91274132.281 8
G23  20917631.522 7                  20917637.165 8 109922925.866 7                  85654236.210 8
G27  20436962.708 7                  20436969.440 8 107397101.477 7                  83685995.250 8
R08  21323980.815 8  21323985.171 7 114189162.330 8  88813649.445 7
R14  20770656.301 7  20770660.388 7 110719345.637 7  86114956.044 7
R15  21585330.138 7  21585332.516 6 115345575.920 7  89713171.731 6
R17  23224965.344 5  23224975.446 6 124281487.122 5  96663385.408 6
R23  21041341.484 7                 112557072.791 7
R24  19757662.096 8  19757666.080 7 105653277.567 8  82174656.834 7
> 2025 06 15 08 31 50.0000000  0 24
C20  24243681.179 6                 126243352.038 6
C26  24503786.562 5                 127597675.363 5
C29  21470010.605 7                 111800004.984 7
C30  24272927.685 7                 126395592.814 7
E02  24693480.455 7  24693481.097 8 129765137.683 7  98166473.375 8
E10  24526615.380 8  24526616.397 8 128888219.089 8  97503112.831 8
E11  23487868.727 7  23487866.258 8 123429764.784 7  93373669.411 8
E12  26761515.573 6  26761515.422 7 140632754.213 6 106387730.691 7
E16  25540689.748 7  25540693.336 8 134217197.345 7 101534467.891 8
E24  27533741.352 5  27533747.102 6 144690935.843 5 109457663.160 6
E25  24302934.435 8  24302936.356 9 127712756.007 8  96613897.476 9
E36  25010587.154 8  25010589.941 8 131431694.110 8  99427111.231 8
G08  22698269.640 7                  22698275.298 6 119280369.849 7                  92945668.941 6
G10  21924358.363 8                  21924364.978 7 115213371.228 8                  89776612.776 7
G16  21216116.920 7  21216120.603 6                 111491453.491 7  86876467.132 6
G18  22291379.369 7                  22291385.509 8 117142146.836 7                  91279496.053 8
G23  20916682.916 7                  20916688.317 8 109917941.812 7                  85650352.533 8
G27  20434522.734 8                  20434528.710 8 107384274.155 8                  83675999.940 8
R08  21321207.578 8  21321212.498 7 114174317.256 8  88802103.281 7
R14  20771544.444 8  20771549.621 7 110724084.474 8  86118641.793 7
R15  21582427.676 7  21582430.660 6 115330067.130 7  89701109.322 6
R17  23220668.327 5  23220676.607 6 124258488.693 5  96645497.735 6
R23  21042623.983 7                 112563931.287 7
R24  19755419.385 8  19755422.623 7 105641283.323 8  82165327.996 7
> 2025 06 15 08 31 55.0000000  0 24
C20  24240038.571 6                 126224378.331 6
C26  24503015.084 5                 127593635.129 5
C29  21469126.630 7                 111795404.012 7
C30  24274234.282 7                 126402395.713 7
E02  24691263.344 7  24691263.874 8 129753486.353 7  98157659.216 8
E10  24527070.889 8  24527072.122 9 128890613.751 8  97504924.363 9
E11  23487069.512 7  23487067.114 8 123425565.091 7  93370492.370 8
E12  26762689.944 6  26762689.329 7 140638923.151 6 106392397.442 7
E16  25542190.725 7  25542193.713 8 134225081.705 7 101540432.331 8
E24  27535657.065 5  27535660.578 6 144700991.569 5 109465270.179 6
E25  24303509.746 8  24303511.925 9 127715780.602 8  96616185.563 9
E36  25007543.114 8  25007546.323 8 131415699.624 8  99415011.511 8
G08  22694188.620 7                  22694195.550 6 119258931.865 7                  92928964.049 6
G10  21920838.398 8                  21920844.926 7 115194874.012 8                  89762199.359 7
G16  21216890.644 7  21216894.107 5                 111495519.354 7  86879635.331 5
G18  22292690.158 7                  22292696.659 7 117149036.724 7                  91284864.801 7
G23  20915738.170 7                  20915742.993 8 109912974.632 7                  85646482.006 8
G27  20432083.802 8                  20432089.845 8 107371459.284 8                  83666014.316 8
R08  21318440.192 8  21318444.254 7 114159493.051 8  88790573.352 7
R14  20772436.932 7  20772442.353 7 110728843.188 7  86122343.024 7
R15  21579528.574 7  21579531.869 6 115314578.963 7  89689062.967 6
R17  23216373.139 5  23216378.078 6 124235493.530 5  96627612.620 6
R23  21043907.732 7                 112570796.430 7
R24  19753177.713 8  19753182.305 7 105629300.061 8  82156007.690 7
> 2025 06 15 08 32  0.0000000  0 25
C20  24236396.855 6                 126205413.008 6
C26  24502243.022 5                 127589608.085 5
C29  21468243.834 7                 111790810.396 7
C30  24275540.662 7                 126409201.350 7
E02  24689047.978 7  24689048.555 8 129741844.939 7  98148852.560 8
E10  24527527.366 8  24527528.604 9 128893012.595 8  97506739.063 9
E11  23486271.483 7  23486269.204 8 123421371.951 7  93367320.294 8
E12  26763864.211 6  26763863.523 7 140645093.394 6 106397065.179 7
E16  25543692.295 7  25543695.028 8 134232971.194 7 101546400.659 8
E24  27537568.977 5  27537574.254 6 144711047.766 5 109472877.652 6
E25  24304086.852 7  24304089.169 9 127718814.134 7  96618480.399 9
E36  25004500.639 8  25004503.595 8 131399710.041 8  99402915.510 8
G08  22690109.749 7                  22690117.144 6 119237498.363 7                  92912262.634 6
G10  21917320.295 8                  21917326.979 7 115176387.529 8                  89747794.310 7
G16  21217667.016 7  21217670.296 6                 111499598.929 7  86882814.207 6
G18  22294001.520 7                  22294008.721 7 117155931.878 7                  91290237.635 7
G23  20914795.660 7                  20914800.557 8 109908023.188 7                  85642623.751 8
G27  20429647.538 8                  20429653.160 8 107358655.729 8                  83656037.521 8
R07  22393235.951 5  22393239.233 4 119872730.02115  93234382.36714
R08  21315675.673 8  21315679.917 7 114144688.717 8  88779058.912 7
R14  20773333.525 7  20773338.639 7 110733620.618 7  86126058.792 7
R15  21576634.241 7  21576638.035 6 115299110.563 7  89677031.984 6
R17  23212078.620 5  23212080.721 6 124212500.231 5  96609728.938 6
R23  21045192.081 7                 112577667.167 7
R24  19750938.868 8  19750942.907 7 105617326.740 8  82146695.117 7
> 2025 06 15 08 32  5.0000000  0 25
C20  24232756.334 6                 126186456.669 6
C26  24501471.728 5                 127585594.765 5
C29  21467363.824 7                 111786224.700 7
C30  24276848.287 7                 126416010.330 7
E02  24686834.352 7  24686835.275 8 129730214.020 7  98140053.854 8
E10  24527985.106 8  24527986.029 9 128895416.228 8  97508557.385 9
E11  23485474.966 7  23485472.641 8 123417185.982 7  93364153.639 8
E12  26765038.393 6  26765038.056 7 140651265.483 6 106401734.322 7
E16  25545194.550 7  25545197.408 8 134240866.339 7 101552373.283 8
E24  27539484.098 5  27539488.158 6 144721105.146 5 109480485.997 6
E25  24304665.548 8  24304668.223 9 127721857.214 8  96620782.467 9
E36  25001458.760 8  25001461.926 9 131383725.965 8  99390823.658 9
G08  22686031.998 6                  22686039.774 6 119216069.966 6                  92895565.173 6
G10  21913804.358 8                  21913810.945 7 115157912.389 8                  89733398.113 7
G16  21218445.968 7  21218449.322 5                 111503692.801 7  86886004.222 5
G18  22295315.630 7                  22295321.604 7 117162832.852 7                  91295615.013 7
G23  20913856.631 7                  20913861.193 8 109903088.144 7                  85638778.267 8
G27  20427213.585 8                  20427218.816 8 107345864.111 8                  83646070.024 8
R07  22393905.136 5  22393910.727 4 119876333.761 5  93237185.390 4
R08  21312914.251 8  21312919.367 7 114129904.857 8  88767560.373 7
R14  20774232.657 8  20774238.733 7 110738417.331 8  86129789.572 7
R15  21573743.158 7  21573747.200 7 115283662.494 7  89665016.812 7
R17  23207785.095 5  23207783.912 6 124189509.415 5  96591847.274 6
R23  21046477.011 7                 112584544.104 7
R24  19748702.693 8  19748705.870 7 105605363.938 8  82137390.703 7
> 2025 06 15 08 32 10.0000000  0 25
C20  24229119.159 6                 126167508.809 6
C26  24500702.963 6                 127581594.614 6
C29  21466484.232 7                 111781646.507 7
C30  24278156.501 7                 126422822.181 7
E02  24684623.329 7  24684623.879 8 129718593.170 7  98131262.762 8
E10  24528443.556 8  24528444.298 9 128897824.167 8  97510378.972 9
E11  23484679.697 7  23484677.380 8 123413006.733 7  93360992.064 8
E12  26766213.755 6  26766212.812 7 140657438.974 6 106406404.510 7
E16  25546697.995 7  25546700.817 8 134248766.711 7 101558349.845 8
E24  27541398.369 5  27541402.038 6 144731163.228 5 109488094.842 6
E25  24305246.661 8  24305249.029 9 127724909.343 8  96623091.371 9
E36  24998417.823 7  24998421.208 9 131367746.923 7  99378735.620 9
G08  22681956.116 6                  22681963.310 6 119194646.177 6                  92878871.327 6
G10  21910290.984 8                  21910297.532 7 115139448.171 8                  89719010.408 7
G16  21219227.720 7  21219230.981 5                 111507800.485 7  86889205.017 5
G18  22296630.717 7                  22296635.669 7 117169739.204 7                  91300996.563 7
G23  20912920.238 7                  20912925.150 8 109898168.968 7                  85634945.134 8
G27  20424781.814 8                  20424786.958 8 107333083.960 8                  83636111.461 8
R07  22394582.697 5  22394587.194 4 119879956.827 5  93240003.325 4
R08  21310157.601 8  21310162.467 7 114115140.903 8  88756077.301 7
R14  20775136.262 7  20775142.062 7 110743233.012 7  86133535.090 7
R15  21570855.020 7  21570859.644 7 115268234.088 7  89653016.956 7
R17  23203487.903 5  23203486.307 6 124166520.665 5  96573967.241 6
R23  21047764.923 7                 112591426.919 7
R24  19746467.492 8  19746470.558 7 105593411.187 8  82128094.112 7
> 2025 06 15 08 32 15.0000000  0 25
C20  24225482.271 6                 126148569.644 6
C26  24499938.111 5                 127577607.803 5
C29  21465606.511 7                 111777075.903 7
C30  24279465.010 7                 126429636.986 7
E02  24682413.846 7  24682414.427 8 129706982.504 7  98122479.369 8
E10  24528902.586 8  24528903.344 8 128900236.507 8  97512203.893 8
E11  23483885.567 7  23483883.414 8 123408834.289 7  93357835.640 8
E12  26767387.974 6  26767387.850 7 140663613.970 6 106411075.852 7
E16  25548202.307 7  25548205.200 8 134256672.413 7 101564330.429 8
E24  27543312.206 5  27543316.223 6 144741222.068 5 109495704.244 6
E25  24305828.725 8  24305831.562 9 127727970.654 8  96625407.233 9
E36  24995378.961 7  24995381.488 8 131351773.042 7  99366651.483 8
G08  22677880.375 6                  22677887.421 6 119173227.194 6                  92862181.212 6
G10  21906779.548 8                  21906786.177 7 115120994.958 8                  89704631.294 7
G16  21220011.616 7  21220015.339 5                 111511922.103 7  86892416.638 5
G18  22297946.185 7                  22297951.347 7 117176651.006 7                  91306382.382 7
G23  20911987.520 7                  20911992.205 7 109893265.818 7                  85631124.497 7
G27  20422351.570 8                  20422357.357 8 107320315.401 8                  83626161.949 8
R07  22395266.377 5  22395268.233 4 119883599.094 5  93242836.168 4
R08  21307404.094 8  21307409.458 7 114100397.002 8  88744609.845 7
R14  20776042.547 7  20776048.777 7 110748067.641 7  86137295.360 7
R15  21567972.385 7  21567976.707 7 115252825.776 7  89641032.726 7
R17  23199193.735 4  23199191.806 6 124143534.388 4  96556089.004 6
R23  21049052.178 7                 112598315.374 7
R24  19744234.001 8  19744237.264 7 105581468.544 8  82118805.396 7
> 2025 06 15 08 32 20.0000000  0 24
C20  24221846.598 6                 126129639.896 6
C26  24499173.944 6                 127573635.054 6
C29  21464730.898 7                 111772513.631 7
C30  24280774.584 7                 126436455.552 7
E02  24680206.167 7  24680207.107 8 129695382.795 7  98113704.266 8
E10  24529362.594 8  24529363.423 9 128902654.031 8  97514032.735 9
E11  23483092.940 7  23483090.881 8 123404669.417 7  93354684.940 8
E12  26768563.040 6  26768563.331 7 140669791.244 6 106415748.921 7
E16  25549707.993 7  25549710.759 8 134264584.192 7 101570315.629 8
E24  27545226.920 5  27545230.713 6 144751282.480 5 109503314.861 6
E25  24306413.562 8  24306416.013 9 127731041.897 8  96627730.599 9
E36  24992339.760 7  24992342.877 9 131335805.054 7  99354571.819 9
G08  22673804.156 6                  22673813.313 6 119151813.703 6                  92845495.384 6
G10  21903270.039 8                  21903277.040 7 115102553.552 8                  89690261.391 7
G16  21220799.680 7  21220802.430 5                 111516058.397 7  86895639.710 5
G18  22299262.750 7                  22299268.217 7 117183569.029 7                  91311773.050 7
G23  20911057.794 7                  20911062.014 7 109888379.419 7                  85627316.898 7
G27  20419924.469 8                  20419929.624 8 107307559.218 8                  83616222.064 8
R07  22395959.334 4  22395954.400 5 119887261.458 4  93245684.865 5
R08  21304654.937 8  21304659.956 7 114085674.094 8  88733158.690 7
R14  20776953.660 7  20776959.502 7 110752921.887 7  86141070.866 7
R15  21565092.583 7  21565096.795 6 115237438.072 7  89629064.507 6
R23  21050341.821 7                 112605210.415 7
R24  19742002.147 8  19742006.309 7 105569536.909 8  82109525.236 7
> 2025 06 15 08 32 25.0000000  0 24
C20  24218212.109 6                 126110719.896 6
C26  24498412.225 6                 127569676.677 6
C29  21463856.612 7                 111767959.978 7
C30  24282085.221 7                 126443278.104 7
E02  24678000.949 7  24678001.882 8 129683794.296 7  98104937.645 8
E10  24529823.671 8  24529824.509 9 128905077.006 8  97515865.706 9
E11  23482301.996 7  23482299.852 8 123400512.405 7  93351540.190 8
E12  26769739.197 6  26769739.298 7 140675971.047 6 106420423.893 7
E16  25551214.590 7  25551217.524 8 134272502.313 7 101576305.625 8
E24  27547139.912 5  27547145.670 6 144761344.683 5 109510926.806 6
E25  24306999.956 8  24307002.407 9 127734123.340 8  96630061.687 9
E36  24989302.319 7  24989305.452 8 131319843.272 7  99342496.840 8
G08  22669731.322 6                  22669739.410 6 119130406.050 6                  92828814.070 6
G10  21899762.904 8                  21899770.062 7 115084124.215 8                  89675900.870 7
G16  21221589.453 7  21221592.329 5                 111520209.586 7  86898874.405 5
G18  22300580.262 7                  22300585.909 7 117190493.547 7                  91317168.777 7
G23  20910130.942 7                  20910135.689 8 109883510.050 7                  85623522.599 8
G27  20417499.272 8                  20417504.395 7 107294815.664 8                  83606292.021 7
R07  22396658.026 5  22396643.128 4 119890944.231 5  93248549.328 4
R08  21301908.476 8  21301914.736 7 114070972.317 8  88721724.002 7
R14  20777868.859 7  20777874.407 7 110757796.167 7  86144861.952 7
R15  21562217.344 7  21562221.584 7 115222071.372 7  89617112.646 7
R23  21051632.073 7                 112612112.312 7
R24  19739773.396 8  19739776.771 7 105557616.517 8  82100253.798 7
> 2025 06 15 08 32 30.0000000  0 24
C20  24214580.160 6                 126091809.498 6
C26  24497654.430 6                 127565732.471 6
C29  21462983.802 7                 111763414.864 7
C30  24283396.539 7                 126450104.568 7
E02  24675797.866 7  24675798.786 8 129672216.935 7  98096179.455 8
E10  24530285.594 8  24530286.636 8 128907505.331 8  97517702.723 8
E11  23481511.909 7  23481510.295 8 123396363.135 7  93348401.291 8
E12  26770915.775 6  26770915.757 7 140682153.307 6 106425100.726 7
E16  25552722.251 7  25552725.478 8 134280426.687 7 101582300.343 8
E24  27549055.006 5  27549060.905 6 144771408.529 5 109518540.008 6
E25  24307588.171 8  24307590.783 9 127737214.879 8  96632400.407 9
E36  24986266.405 7  24986269.203 9 131303887.588 7  99330426.472 9
G08  22665659.136 6                  22665666.587 6 119109004.104 6                  92812137.212 6
G10  21896258.181 8                  21896265.418 7 115065706.854 8                  89661549.681 7
G16  21222381.729 7  21222385.134 5                 111524375.608 7  86902120.648 5
G18  22301899.069 7                  22301905.300 8 117197424.457 7                  91322569.480 8
G23  20909207.577 7                  20909211.877 8 109878657.654 7                  85619741.502 8
G27  20415076.739 8                  20415081.627 7 107282084.680 8                  83596371.770 7
R07  22397356.366 5  22397335.027 5 119894647.411 5  93251429.567 5
R08  21299166.230 7  21299172.969 7 114056291.647 7  88710305.713 7
R14  20778787.315 7  20778791.791 7 110762690.303 7  86148668.497 7
R15  21559345.276 7  21559349.939 7 115206725.621 7  89605177.038 7
R23  21052922.427 7                 112619021.062 7
R24  19737546.359 8  19737550.408 7 105545707.299 8  82090991.084 7
> 2025 06 15 08 32 35.0000000  0 24
C20  24210948.758 6                 126072908.340 6
C26  24496900.358 6                 127561802.118 6
C29  21462112.616 7                 111758877.879 7
C30  24284707.785 7                 126456934.522 7
E02  24673597.101 7  24673597.740 8 129660650.317 7  98087429.386 8
E10  24530748.488 8  24530749.647 8 128909938.595 8  97519543.469 8
E11  23480724.595 7  23480722.129 8 123392221.218 7  93345267.955 8
E12  26772092.594 6  26772092.598 7 140688337.576 6 106429779.076 7
E16  25554231.313 7  25554234.552 8 134288356.903 7 101588299.486 8
E24  27550970.350 4  27550976.345 6 144781473.771 4 109526154.247 6
E25  24308178.486 7  24308180.940 9 127740316.144 7  96634746.485 9
E36  24983231.488 7  24983234.037 9 131287937.599 7  99318360.412 9
G08  22661587.408 6                  22661594.830 6 119087607.441 6                  92795464.496 6
G10  21892755.199 8                  21892762.870 7 115047301.102 8                  89647207.525 7
G16  21223177.654 7  21223180.835 5                 111528556.048 7  86905378.143 5
G18  22303218.751 7                  22303225.019 8 117204361.362 7                  91327974.851 8
G23  20908287.786 8                  20908291.882 7 109873821.776 8                  85615973.286 7
G27  20412655.774 8                  20412661.293 7 107269365.830 8                  83586461.001 7
R07  22398053.567 5  22398029.741 4 119898370.507 5  93254325.198 4
R08  21296428.087 7  21296435.289 7 114041631.734 7  88698903.568 7
R14  20779709.325 8  20779713.163 7 110767603.804 8  86152490.115 7
R15  21556476.335 7  21556481.671 7 115191400.422 7  89593257.441 7
R23  21054215.740 7                 112625936.153 7
R24  19735320.985 8  19735325.200 7 105533808.647 8  82081736.581 7
> 2025 06 15 08 32 40.0000000  0 24
C20  24207319.183 6                 126054016.365 6
C26  24496148.398 6                 127557885.570 6
C29  21461243.068 7                 111754348.979 7
C30  24286019.570 7                 126463767.974 7
E02  24671397.988 7  24671398.706 8 129649094.434 7  98078687.438 8
E10  24531212.274 8  24531213.621 8 128912376.795 8  97521387.951 8
E11  23479937.781 7  23479935.338 8 123388086.603 7  93342140.147 8
E12  26773269.713 6  26773269.829 7 140694523.867 6 106434458.949 7
E16  25555741.533 7  25555744.760 8 134296292.914 7 101594303.011 8
E24  27552885.877 4  27552892.092 6 144791540.26314 109533769.45316
E25  24308770.291 8  24308772.924 9 127743427.047 8  96637099.861 9
E36  24980197.082 7  24980199.960 9 131271993.285 7  99306298.649 9
G08  22657516.623 6                  22657523.897 6 119066216.145 6                  92778795.953 6
G10  21889254.850 7                  21889262.363 7 115028906.932 7                  89632874.396 7
G16  21223975.798 7  21223978.694 5                 111532750.897 7  86908646.844 5
G18  22304539.659 7                  22304546.109 8 117211304.216 7                  91333384.846 8
G23  20907370.583 7                  20907374.790 8 109869002.417 7                  85612217.946 8
G27  20410237.641 8                  20410243.684 7 107256659.149 8                  83576559.695 7
R07  22398751.836 4  22398729.191 5 119902113.37714
R08  21293693.552 7  21293701.397 7 114026992.527 7  88687517.525 7
R14  20780634.167 7  20780639.653 7 110772536.816 7  86156326.902 7
R15  21553611.946 7  21553617.728 7 115176095.710 7  89581353.780 7
R23  21055510.100 7                 112632857.517 7
R24  19733098.567 8  19733101.666 7 105521920.745 8  82072490.439 7
> 2025 06 15 08 32 45.0000000  0 24
C20  24203693.421 6                 126035133.385 6
C26  24495399.791 6                 127553982.576 6
C29  21460374.544 7                 111749827.975 7
C30  24287332.186 7                 126470604.659 7
E02  24669201.103 7  24669201.649 8 129637549.027 7  98069953.413 8
E10  24531676.919 8  24531678.459 8 128914819.666 8  97523235.960 8
E11  23479152.319 7  23479149.870 8 123383959.058 7  93339017.689 8
E12  26774447.591 6  26774447.423 7 140700711.978 6 106439140.201 7
E16  25557252.837 7  25557256.051 8 134304234.503 7 101600310.752 8
E24  27554802.983 4  27554808.012 6 144801607.70114 109541385.35316
E25  24309364.757 7  24309366.734 9 127746547.370 7  96639460.368 9
E36  24977163.919 7  24977166.916 9 131256054.402 7  99294240.992 9
G08  22653446.965 7                  22653454.458 6 119044829.907 7                  92762131.354 6
G10  21885757.222 8                  21885764.380 7 115010524.105 8                  89618550.133 7
G16  21224776.957 7  21224779.601 5                 111536959.909 7  86911926.584 5
G18  22305862.034 7                  22305868.203 8 117218252.812 7                  91338799.305 8
G23  20906456.435 8                  20906461.066 8 109864199.321 8                  85608475.279 8
G27  20407822.179 8                  20407828.086 7 107243964.374 8                  83566667.650 7
R07  22399443.088 5  22399431.987 5 119905875.63515  93260162.41815
R08  21290964.083 7  21290971.450 7 114012373.749 7  88676147.358 7
R14  20781563.841 8  20781568.122 7 110777488.836 8  86160178.464 7
R15  21550752.117 7  21550757.187 7 115160811.398 7  89569465.975 7
R23  21056805.988 7                 112639785.043 7
R24  19730877.239 8  19730880.682 7 105510043.350 8  82063252.470 7
> 2025 06 15 08 32 50.0000000  0 24
C20  24200069.887 6                 126016260.303 6
C26  24494652.442 6                 127550094.068 6
C29  21459508.046 7                 111745315.732 7
C30  24288645.540 7                 126477445.466 7
E02  24667005.974 7  24667006.793 8 129626015.025 7  98061228.013 8
E10  24532142.741 8  24532144.364 8 128917268.115 8  97525088.184 8
E11  23478368.089 7  23478365.913 8 123379839.500 7  93335901.271 8
E12  26775625.032 6  26775625.510 7 140706902.672 6 106443823.412 7
E16  25558765.518 7  25558768.509 8 134312182.543 7 101606323.378 8
E24  27556719.367 4  27556724.273 6 144811677.17714 109549002.78916
E25  24309960.127 8  24309962.519 9 127749678.035 8  96641828.697 9
E36  24974131.919 7  24974135.090 9 131240121.875 7  99282188.146 9
G08  22649378.966 7                  22649386.068 6 119023449.675 7                  92745471.432 6
G10  21882261.369 7                  21882268.355 7 114992153.562 7                  89604235.422 7
G16  21225579.805 7  21225583.684 5                 111541183.995 7  86915218.083 5
G18  22307185.512 7                  22307191.723 7 117225207.980 7                  91344218.897 7
G23  20905545.737 8                  20905550.176 8 109859413.407 8                  85604745.979 8
G27  20405408.676 8                  20405414.768 8 107231282.399 8                  83556785.583 8
R07  22400137.737 4  22400138.826 5 119909658.55214  93263104.66315
R08  21288238.408 7  21288244.924 7 113997776.378 7  88664793.852 7
R14  20782496.714 8  20782500.665 7 110782460.868 8  86164045.591 7
R15  21547896.455 7  21547901.299 7 115145548.224 7  89557594.621 7
R23  21058100.707 7                 112646719.610 7
R24  19728657.425 8  19728661.387 7 105498177.264 8  82054023.307 7
> 2025 06 15 08 32 55.0000000  0 25
C20  24196447.237 7                 125997395.886 7
C26  24493910.077 5                 127546218.738 5
C29  21458643.420 7                 111740810.994 7
C30  24289959.896 7                 126484289.175 7
E02  24664812.876 7  24664813.848 8 129614491.163 7  98052510.302 8
E10  24532609.485 8  24532611.115 8 128919720.870 8  97526943.675 8
E11  23477585.247 7  23477583.249 8 123375726.665 7  93332789.932 8
E12  26776803.653 6  26776803.864 7 140713094.849 6 106448507.748 7
E16  25560278.838 7  25560281.988 8 134320135.795 7 101612339.938 8
E24  27558635.348 4                                
E25  24310557.360 8  24310559.945 9 127752817.746 8  96644203.859 9
E36  24971100.870 8  24971104.221 9 131224194.423 8  99270139.136 9
G08  22645310.429 7                  22645318.616 6 119002074.172 7                  92728815.194 6
G10  21878767.633 8                  21878774.939 7 114973794.018 8                  89589929.287 7
G16  21226386.379 7  21226390.093 5                 111545421.870 7  86918520.317 5
G18  22308510.475 7                  22308516.084 7 117232168.494 7                  91349642.669 7
G23  20904637.612 8                  20904642.951 8 109854643.393 8                  85601029.091 8
G27  20402997.535 8                  20403003.755 7 107218612.017 8                  83546912.566 7
R07  22400843.024 4  22400848.752 5 119913460.39914  93266061.67715
R08  21285517.766 7  21285522.916 7 113983199.219 7  88653456.036 7
R14  20783432.353 8  20783437.354 7 110787451.639 8  86167927.282 7
R15  21545044.300 7  21545048.660 7 115130305.040 7  89545738.816 7
R17  23164844.895 6  23164849.755 6 123959759.41816
R23  21059397.710 7                 112653659.794 7
R24  19726439.377 8  19726444.209 7 105486321.340 8  82044802.041 7
> 2025 06 15 08 33  0.0000000  0 23
C20  24192826.386 7                 125978540.023 7
C26  24493169.409 5                 127542356.516 5
C29  21457779.570 7                 111736313.676 7
C30  24291274.555 6                 126491135.641 6
E02  24662622.455 8  24662622.856 8 129602977.342 8  98043800.171 8
E10  24533076.725 8  24533078.671 8 128922177.831 8  97528802.335 8
E11  23476804.169 7  23476801.829 8 123371620.430 7  93329683.597 8
E12  26777981.602 6  26777982.477 7 140719288.299 6 106453193.052 7
E16  25561793.497 7  25561796.419 8 134328094.107 7 101618360.346 8
E25  24311156.963 8  24311159.080 9 127755966.423 8  96646585.815 9
E36  24968070.726 8  24968074.292 9 131208271.936 8  99258093.891 9
G08  22641243.666 7                  22641251.437 6 118980703.313 7                  92712162.598 6
G10  21875276.484 8                  21875283.305 7 114955445.402 8                  89575631.661 7
G16  21227195.147 7  21227199.107 5                 111549673.412 7  86921833.192 5
G18  22309836.534 7                  22309841.610 8 117239134.228 7                  91355070.510 8
G23  20903733.235 8                  20903738.155 8 109849889.174 8                  85597324.519 8
G27  20400588.627 8                  20400594.371 8 107205953.115 8                  83537048.491 8
R08  21282799.283 7  21282804.727 7 113968642.117 7  88642133.866 7
R14  20784371.283 8  20784377.296 7 110792461.117 8  86171823.532 7
R15  21542195.744 7  21542199.094 7 115115081.637 7  89533898.411 7
R17  23160554.855 6  23160557.193 6 123936798.366 6  96395310.45316
R23  21060695.681 7                 112660605.612 7
R24  19724224.626 8  19724229.123 7 105474475.437 8  82035588.568 7
> 2025 06 15 08 33  5.0000000  0 23
C20  24189207.656 6                 125959692.768 6
C26  24492430.108 5                 127538507.469 5
C29  21456917.080 7                 111731823.808 7
C30  24292590.211 6                 126497984.941 6
E02  24660432.990 8  24660433.722 8 129591473.601 8  98035097.674 8
E10  24533545.336 8  24533547.060 8 128924639.046 8  97530664.211 8
E11  23476023.748 7  23476021.689 8 123367520.847 7  93326582.290 8
E12  26779159.837 6  26779161.355 7 140725483.083 6 106457879.346 7
E16  25563308.646 7  25563311.832 8 134336057.544 7 101624384.622 8
E25  24311757.722 8  24311759.947 9 127759124.089 8  96648974.563 9
E36  24965042.098 8  24965045.306 9 131192354.500 8  99246052.461 9
G08  22637177.852 7                  22637185.489 6 118959337.194 7                  92695513.667 6
G10  21871786.515 7                  21871793.690 7 114937107.747 7                  89561342.588 7
G16  21228007.664 7  21228010.426 5                 111553938.661 7  86925156.750 5
G18  22311162.992 7                  22311168.668 7 117246105.222 7                  91360502.446 7
G23  20902830.859 7                  20902836.311 8 109845150.810 7                  85593632.292 8
G27  20398182.207 8                  20398187.844 8 107193305.733 8                  83527193.401 8
R08  21280084.678 7  21280089.445 7 113954105.073 7  88630827.284 7
R14  20785314.405 8  20785320.322 7 110797489.200 8  86175734.252 7
R15  21539349.118 7  21539354.258 7 115099878.188 7  89522073.541 7
R17  23156263.735 6  23156266.207 6 123913839.439 6  96377453.512 6
R23  21061995.710 7                 112667557.091 7
R24  19722011.899 8  19722015.404 7 105462639.563 8  82026382.889 7
> 2025 06 15 08 33 10.0000000  0 24
C13  37746333.153 4                 196555141.73414
C20  24185590.311 6                 125940854.716 6
C26  24491693.585 5                 127534672.122 5
C29  21456056.504 7                 111727341.951 7
C30  24293906.879 7                 126504837.597 7
E02  24658245.840 8  24658246.666 8 129579980.539 8  98026403.253 8
E10  24534014.549 8  24534016.310 8 128927105.021 8  97532529.700 8
E11  23475245.141 7  23475242.932 8 123363428.464 7  93323486.418 8
E12  26780339.800 6  26780340.580 7 140731679.768 6 106462567.079 7
E16  25564825.396 7  25564828.336 8 134344026.641 7 101630413.181 8
E25  24312359.766 8  24312362.598 9 127762291.299 8  96651370.531 9
E36  24962014.421 8  24962017.418 9 131176442.635 8  99234015.240 9
G08  22633113.326 7                  22633120.941 6 118937976.323 7                  92678868.839 6
G10  21868299.128 7                  21868306.297 7 114918781.655 7                  89547062.523 7
G16  21228821.941 7  21228824.732 6                 111558218.127 7  86928491.389 6
G18  22312490.190 7                  22312495.960 7 117253082.037 7                  91365938.924 7
G23  20901933.423 8                  20901937.735 8 109840428.844 8                  85589952.836 8
G27  20395777.790 7                  20395783.529 8 107180670.436 7                  83517347.714 8
R08  21277375.008 7  21277378.765 7 113939588.719 7  88619536.810 7
R14  20786261.154 7  20786266.998 7 110802536.527 7  86179659.939 7
R15  21536508.961 7  21536512.685 7 115084695.277 7  89510264.608 7
R17  23151971.297 6  23151976.083 6 123890883.236 6  96359598.699 6
R23  21063296.301 7                 112674514.665 7
R24  19719800.384 8  19719804.613 7 105450814.269 8  82017185.429 7
> 2025 06 15 08 33 15.0000000  0 24
C13  37745773.737 5  37745777.055 5 196552231.837 5 151986599.85115
C20  24181974.098 6                 125922026.139 6
C26  24490956.280 5                 127530850.804 5
C29  21455197.406 7                 111722868.362 7
C30  24295223.250 7                 126511693.873 7
E02  24656060.997 8  24656061.631 8 129568498.374 8  98017717.079 8
E10  24534484.770 7  24534486.504 8 128929576.053 7  97534399.004 8
E11  23474467.893 7  23474465.584 8 123359343.542 7  93320396.211 8
E12  26781518.980 6  26781520.150 7 140737878.575 6 106467256.436 7
E16  25566342.752 7  25566346.017 8 134352001.672 7 101636446.225 8
E25  24312964.800 8  24312967.127 9 127765468.314 8  96653773.900 9
E36  24958987.338 8  24958990.596 9 131160536.604 8  99221982.440 9
G08  22629049.728 7                  22629057.014 6 118916620.984 7                  92662228.313 6
G10  21864813.555 7                  21864820.915 7 114900467.350 7                  89532791.650 7
G16  21229639.901 7  21229641.802 5                 111562512.062 7  86931837.313 5
G18  22313819.457 7                  22313824.766 7 117260064.918 7                  91371380.129 7
G23  20901037.025 7                  20901042.916 8 109835723.537 7                  85586286.366 8
G27  20393375.563 8                  20393381.355 7 107168047.471 8                  83507511.631 7
R08  21274668.217 8  21274671.510 7 113925093.226 8  88608262.555 7
R14  20787212.491 8  20787217.350 7 110807603.360 8  86183600.804 7
R15  21533671.703 7  21533675.376 7 115069532.998 7  89498471.737 7
R17  23147681.524 6  23147685.591 6 123867930.052 6  96341746.186 6
R23  21064597.872 7                 112681478.743 7
R24  19717590.929 8  19717594.730 7 105438999.824 8  82007996.418 7
> 2025 06 15 08 33 20.0000000  0 24
C13  37745213.607 4  37745219.191 5 196549324.90114 151984351.92615
C20  24178360.652 6                 125903206.847 6
C26  24490221.106 4                 127527043.22614
C29  21454339.784 7                 111718402.865 7
C30  24296540.861 7                 126518553.592 7
E02  24653878.019 7  24653878.632 8 129557026.953 7  98009039.035 8
E10  24534956.269 8  24534957.595 8 128932051.946 8  97536271.995 8
E11  23473691.790 7  23473689.651 8 123355265.874 7  93317311.476 8
E12  26782698.974 6  26782700.116 7 140744079.401 6 106471947.307 7
E16  25567861.309 7  25567864.746 8 134359982.438 7 101642483.597 8
E25  24313571.176 8  24313573.447 9 127768654.919 8  96656184.545 9
E36  24955961.129 8  24955964.833 9 131144636.232 8  99209953.915 9
G08  22624986.620 7                  22624995.002 6 118895271.017 7                  92645591.951 6
G10  21861331.175 7                  21861338.228 7 114882164.689 7                  89518529.860 7
G16  21230459.490 7  21230461.704 6                 111566820.346 7  86935194.423 6
G18  22315149.272 7                  22315154.640 8 117267053.679 7                  91376825.903 8
G23  20900144.883 7                  20900150.474 8 109831034.682 7                  85582632.733 8
G27  20390975.606 8                  20390981.644 7 107155436.678 8                  83497685.055 7
R08  21271965.538 8  21271968.624 7 113910618.579 8  88597004.482 7
R14  20788166.673 7  20788171.781 7 110812689.394 7  86187556.606 7
R15  21530839.408 8  21530842.468 7 115054391.478 8  89486694.983 7
R17  23143393.626 6  23143397.413 6 123844979.626 6  96323895.797 6
R23  21065901.650 7                 112688448.978 7
R24  19715382.983 8  19715387.315 7 105427196.203 8  81998815.824 7
> 2025 06 15 08 33 25.0000000  0 24
C13  37744655.410 5  37744660.994 5 196546420.253 5 151982105.871 5
C20  24174747.592 6                 125884396.357 6
C29  21453482.764 7                 111713944.982 7
C30  24297859.737 7                 126525416.282 7
E02  24651696.741 7  24651697.652 8 129545565.821 7  98000368.766 8
E10  24535428.782 8  24535429.577 8 128934532.189 8  97538148.280 8
E11  23472917.636 7  23472914.981 8 123351194.999 7  93314231.883 8
E12  26783879.504 6  26783880.407 7 140750281.651 6 106476639.278 7
E16  25569381.031 7  25569384.519 8 134367968.425 7 101648524.928 8
E25  24314179.032 8  24314181.665 9 127771850.661 8  96658602.082 9
E36  24952936.988 8  24952940.091 9 131128741.062 8  99197929.323 9
G08  22620925.045 7                  22620932.329 6 118873925.938 7                  92628959.441 6
G10  21857850.210 7                  21857857.351 7 114863873.161 7                  89504276.730 7
G16  21231282.097 8  21231284.631 6                 111571142.436 8  86938562.282 6
G18  22316480.109 7                  22316485.192 7 117274047.849 7                  91382275.888 7
G23  20899255.877 7                  20899261.647 8 109826361.815 7                  85578991.536 8
G27  20388578.071 8                  20388584.431 7 107142837.590 8                  83487867.590 7
R07  22405178.117 4                 119936938.16014
R08  21269266.492 8  21269269.167 7 113896164.178 8  88585762.185 7
R14  20789124.243 8  20789129.213 7 110817794.239 8  86191527.021 7
R15  21528009.113 8  21528012.029 6 115039269.992 8  89474933.816 6
R17  23139103.836 6  23139109.156 6 123822031.410 6  96306047.225 6
R23  21067206.868 7                 112695425.036 7
R24  19713178.664 8  19713181.905 7 105415402.618 8  81989643.017 7
> 2025 06 15 08 33 30.0000000  0 25
C13  37744098.883 5  37744103.989 5 196543518.165 5 151979861.817 5
C20  24171137.263 6                 125865594.878 6
C29  21452628.624 7                 111709494.851 7
C30  24299178.360 7                 126532282.088 7
E02  24649517.712 7  24649518.538 8 129534115.109 7  97991706.382 8
E10  24535901.517 8  24535902.412 8 128937017.001 8  97540028.022 8
E11  23472144.320 7  23472141.672 8 123347131.116 7  93311157.575 8
E12  26785059.719 6  26785060.942 7 140756485.570 6 106481332.473 7
E16  25570902.423 7  25570905.215 8 134375959.868 7 101654570.396 8
E24  27572053.990 4                 144892243.47014
E25  24314789.960 8  24314791.438 9 127775055.690 8  96661026.671 9
E36  24949912.912 8  24949916.353 9 131112851.238 8  99185908.787 9
G08  22616864.253 7                  22616872.638 7 118852585.925 7                  92612330.886 7
G10  21854372.673 8                  21854378.599 7 114845592.997 8                  89490032.465 7
G16  21232107.400 8  21232109.544 6                 111575478.488 8  86941941.026 6
G18  22317812.083 7                  22317817.771 7 117281047.580 7                  91387730.242 7
G23  20898369.814 8                  20898375.374 8 109821705.109 8                  85575362.938 8
G27  20386182.569 8                  20386188.605 7 107130250.416 8                  83478059.387 7
R07  22405916.858 5                 119940876.261 5
R08  21266570.598 8  21266573.774 7 113881730.257 8  88574535.806 7
R14  20790085.533 8  20790090.104 7 110822917.995 8  86195512.163 7
R15  21525182.529 8  21525185.926 7 115024168.883 8  89463188.525 7
R17  23134816.715 5  23134820.776 6 123799085.938 5  96288200.675 6
R23  21068511.941 7                 112702407.011 7
R24  19710974.658 8  19710978.707 7 105403619.479 8  81980478.368 7
> 2025 06 15 08 33 35.0000000  0 24
C13  37743543.466 5  37743548.430 5 196540619.047 5 151977620.031 5
C20  24167528.982 7                 125846802.889 7
C29  21451775.575 7                 111705053.001 7
C30  24300497.165 7                 126539151.527 7
E02  24647341.344 8  24647341.662 8 129522675.343 8  97983052.272 8
E10  24536375.177 8  24536376.202 8 128939506.841 8  97541911.557 8
E11  23471372.407 7  23471369.770 8 123343074.643 7  93308088.896 8
E12  26786240.722 6  26786241.841 7 140762691.619 6 106486027.298 7
E16  25572424.427 7  25572427.076 8 134383957.188 7 101660620.280 8
E24  27573973.016 4  27573977.297 6 144902321.24214 109617593.81716
E25  24315401.286 8  24315403.325 9 127778270.491 8  96663458.636 9
E36  24946890.454 8  24946893.724 9 131096967.256 8  99173892.659 9
G08  22612804.010 7                  22612811.712 6 118831251.462 7                  92595706.646 6
G10  21850895.031 7                  21850902.517 7 114827324.683 7                  89475797.431 7
G16  21232935.355 8  21232937.716 6                 111579829.010 8  86945331.036 6
G18  22319145.014 7                  22319150.539 7 117288053.329 7                  91393189.239 7
G23  20897486.777 8                  20897492.178 8 109817065.048 8                  85571747.296 8
G27  20383789.614 8                  20383795.978 8 107117675.596 8                  83468260.825 8
R08  21263877.857 8  21263882.684 7 113867317.316 8  88563325.754 7
R14  20791050.644 8  20791055.300 7 110828061.040 8  86199512.305 7
R15  21522360.741 8  21522364.269 6 115009088.517 8  89451459.343 6
R17  23130529.667 6  23130533.612 6 123776143.242 6  96270356.356 6
R23  21069818.500 7                 112709395.385 7
R24  19708773.080 8  19708776.461 7 105391847.198 8  81971322.132 7
> 2025 06 15 08 33 40.0000000  0 24
C13  37742987.324 5  37742992.750 5 196537722.70215 151975380.46215
C20  24163921.457 7                 125828020.283 7
C29  21450924.610 7                 111700619.281 7
C30  24301817.052 7                 126546024.443 7
E02  24645165.964 8  24645166.791 8 129511246.394 8  97974406.351 8
E10  24536849.904 8  24536850.886 8 128942001.550 8  97543798.802 8
E11  23470601.644 7  23470599.277 8 123339025.491 7  93305025.724 8
E12  26787422.087 6  26787423.188 7 140768899.651 6 106490723.622 7
E16  25573947.270 7  25573950.074 8 134391960.231 7 101666674.528 8
E24  27575891.242 5  27575895.154 6 144912400.194 5 109625218.503 6
E25  24316014.379 8  24316016.870 9 127781494.940 8  96665897.910 9
E36  24943868.599 7  24943872.180 9 131081088.980 7  99161880.875 9
G08  22608745.189 7                  22608753.193 6 118809922.460 7                  92579086.666 6
G10  21847421.284 8                  21847427.913 7 114809068.046 8                  89461571.494 7
G16  21233764.916 7  21233768.200 6                 111584193.843 7  86948732.179 6
G18  22320479.096 7                  22320485.085 7 117295065.005 7                  91398652.894 7
G23  20896606.796 7                  20896611.840 8 109812441.497 7                  85568144.536 8
G27  20381398.652 7                  20381405.617 8 107105113.017 7                  83458471.800 8
R08  21261190.189 8  21261194.949 7 113852925.356 8  88552132.018 7
R14  20792018.686 8  20792023.867 7 110833223.456 8  86203527.525 7
R15  21519542.154 8  21519545.680 6 114994028.803 8  89439746.194 6
R17  23126243.465 5  23126246.609 6 123753203.479 5  96252514.337 6
R23  21071125.492 8                 112716389.959 8
R24  19706573.610 8  19706578.009 7 105380085.726 8  81962174.330 7
> 2025 06 15 08 33 45.0000000  0 24
C13  37742432.377 5  37742437.342 5 196534828.756 5 151973142.647 5
C20  24160317.032 7                 125809246.503 7
C29  21450074.207 7                 111696193.168 7
C30  24303137.472 7                 126552900.297 7
E02  24642992.653 8  24642993.863 8 129499827.705 8  97965768.186 8
E10  24537325.749 8  24537326.423 8 128944500.610 8  97545689.313 8
E11  23469832.624 7  23469830.029 8 123334983.069 7  93301967.653 8
E12  26788604.219 6  26788604.909 7 140775109.091 6 106495421.033 7
E16  25575470.933 7  25575473.937 8 134399968.494 7 101672732.710 8
E24  27577806.499 5  27577813.321 6 144922479.800 5 109632843.642 6
E25  24316629.597 8  24316632.197 9 127784728.469 8  96668344.050 9
E36  24940848.174 7  24940851.691 9 131065215.883 7  99149872.973 9
G08  22604687.893 7                  22604695.277 6 118788598.348 7                  92562470.498 6
G10  21843949.770 8                  21843956.194 7 114790822.614 8                  89447354.267 7
G16  21234598.694 7  21234601.192 6                 111588572.461 7  86952144.070 6
G18  22321814.996 7                  22321820.565 8 117302082.007 7                  91404120.693 8
G23  20895730.098 7                  20895735.265 8 109807833.883 7                  85564554.182 8
G27  20379011.564 8                  20379017.381 7 107092562.134 8                  83448691.894 7
R08  21258507.235 7  21258511.033 7 113838553.655 7  88540954.024 7
R14  20792991.541 8  20792996.382 7 110838404.447 8  86207557.134 7
R15  21516727.268 8  21516731.677 7 114978989.288 8  89428048.790 7
R17  23121955.806 5  23121960.267 6 123730265.869 5  96234674.025 6
R23  21072433.380 7                 112723390.456 7
R24  19704376.228 8  19704379.896 7 105368334.378 8  81953034.373 7
> 2025 06 15 08 33 50.0000000  0 25
C13  37741876.663 5  37741880.683 5 196531936.838 5 151970906.403 5
C20  24156713.078 7                 125790481.230 7
C26  24485895.503 5                 127504474.00815
C29  21449225.530 7                 111691774.288 7
C30  24304457.909 7                 126559778.722 7
E02  24640822.286 7  24640822.879 8 129488418.942 7  97957137.530 8
E10  24537801.514 8  24537802.727 8 128947003.646 8  97547582.843 8
E11  23469064.581 7  23469062.011 8 123330947.101 7  93298914.474 8
E12  26789785.695 6  26789786.784 7 140781319.634 6 106500119.242 7
E16  25576995.749 7  25576998.840 8 134407981.576 7 101678794.560 8
E24  27579726.414 5  27579731.443 6 144932559.659 5 109640468.945 6
E25  24317247.105 8  24317249.196 9 127787970.747 8  96670796.805 9
E36  24937829.117 7  24937832.037 9 131049347.597 7  99137868.731 9
G08  22600630.701 7                  22600638.642 6 118767278.813 7                  92545857.882 6
G10  21840479.360 8                  21840486.531 7 114772588.031 8                  89433145.519 7
G16  21235433.718 7  21235436.993 5                 111592964.482 7  86955566.438 5
G18  22323151.379 7                  22323156.967 8 117309104.005 7                  91409592.364 8
G23  20894857.019 8                  20894861.614 8 109803241.885 8                  85560975.993 8
G27  20376624.659 7                  20376630.805 7 107080022.600 7                  83438920.832 7
R08  21255826.006 7  21255830.626 7 113824201.907 7  88529791.559 7
R14  20793967.051 8  20793972.068 7 110843603.715 8  86211600.995 7
R15  21513916.874 7  21513921.061 7 114963969.600 7  89416366.800 7
R17  23117669.234 6  23117674.335 6 123707330.274 6  96216835.262 6
R23  21073744.047 7                 112730396.250 7
R24  19702180.463 8  19702185.031 7 105356592.927 8  81943902.142 7
> 2025 06 15 08 33 55.0000000  0 25
C13  37741323.253 6  37741327.149 5 196529047.928 6 151968672.518 5
C20  24153111.479 7                 125771725.622 7
C26  24485182.442 4                 127500761.031 4
C29  21448378.207 7                 111687363.764 7
C30  24305779.084 7                 126566660.827 7
E02  24638653.360 8  24638654.055 8 129477021.241 8  97948515.246 8
E10  24538278.598 8  24538280.012 8 128949511.807 8  97549480.242 8
E11  23468297.603 7  23468295.415 8 123326918.616 7  93295866.950 8
E12  26790967.933 6  26790969.065 7 140787532.381 6 106504819.157 7
E16  25578521.829 7  25578524.792 8 134416000.646 7 101684860.923 8
E24  27581645.673 5  27581649.845 6 144942641.082 5 109648095.424 6
E25  24317865.806 7  24317868.106 9 127791222.861 7  96673257.004 9
E36  24934810.308 7  24934813.560 9 131033485.250 7  99125868.984 9
G08  22596574.973 7                  22596582.678 6 118745964.953 7                  92529249.706 6
G10  21837012.332 8                  21837018.544 7 114754365.436 8                  89418946.069 7
G16  21236272.190 7  21236275.345 5                 111597371.010 7  86959000.086 5
G18  22324488.603 7                  22324494.504 7 117316132.108 7                  91415068.813 7
G23  20893986.207 8                  20893991.186 8 109798666.599 8                  85557410.837 8
G27  20374241.037 7                  20374247.173 7 107067495.597 7                  83429159.522 7
R08  21253149.484 7  21253154.332 7 113809871.386 7  88518645.603 7
R14  20794946.029 8  20794951.042 7 110848822.473 8  86215660.040 7
R15  21511110.077 7  21511114.411 7 114948970.758 7  89404701.060 7
R17  23113384.526 6  23113388.682 6 123684397.757 6  96198998.859 6
R23  21075054.512 7                 112737408.489 7
R24  19699987.051 8  19699991.176 7 105344862.516 8  81934778.494 7
> 2025 06 15 08 34  0.0000000  0 26
C13  37740768.501 5  37740772.693 5 196526161.995 5 151966440.961 5
C20  24149511.367 7                 125752979.505 7
C26  24484474.012 4                 127497061.88114
C29  21447533.302 7                 111682961.440 7
C30  24307101.246 7                 126573546.486 7
E02  24636486.639 8  24636487.247 8 129465634.426 8  97939901.195 8
E10  24538756.338 8  24538758.228 8 128952024.893 8  97551381.372 8
E11  23467532.655 7  23467530.178 8 123322897.513 7  93292825.011 8
E12  26792150.100 6  26792151.768 7 140793747.214 6 106509520.628 7
E16  25580049.700 7  25580051.883 8 134424025.518 7 101690931.661 8
E24  27583562.795 5  27583568.481 6 144952723.594 5 109655722.768 6
E25  24318486.936 7  24318488.868 9 127794484.664 7  96675724.534 9
E36  24931792.971 7  24931796.153 9 131017628.709 7  99113873.616 9
G08  22592519.700 7                  22592527.661 6 118724656.652 7                  92512645.858 6
G10  21833546.867 8                  21833552.683 7 114736154.663 8                  89404755.864 7
G16  21237113.658 7  21237116.476 5                 111601791.887 7  86962444.918 5
G18  22325827.219 7                  22325833.058 8 117323166.134 7                  91420549.871 8
G23  20893118.345 8                  20893123.357 8 109794107.883 8                  85553858.600 8
G27  20371859.211 7                  20371865.581 7 107054980.946 7                  83419407.847 7
R07  22410433.424 5                 119964884.67015
R08  21250477.165 7  21250482.704 7 113795561.867 7  88507515.993 7
R14  20795927.883 8  20795933.550 7 110854060.594 8  86219734.129 7
R15  21508308.353 8  21508311.473 7 114933992.769 8  89393051.530 7
R17  23109099.618 6  23109103.806 6 123661468.142 6  96181164.714 6
R23  21076366.579 7                 112744427.076 7
R24  19697795.606 8  19697799.397 7 105333142.827 8  81925663.190 7
> 2025 06 15 08 34  5.0000000  0 25
C13  37740218.018 6  37740217.766 5 196523278.931 6 151964211.563 5
C20  24145913.083 7                 125734242.821 7
C29  21446689.188 7                 111678567.260 7
C30  24308424.385 7                 126580435.606 7
E02  24634321.540 8  24634322.446 8 129454258.439 8  97931295.335 8
E10  24539235.335 8  24539237.397 8 128954542.859 8  97553286.170 8
E11  23466768.455 7  23466766.382 8 123318883.667 7  93289788.557 8
E12  26793333.342 6  26793334.894 7 140799964.001 6 106514223.561 7
E16  25581577.194 7  25581580.015 8 134432056.086 7 101697006.719 8
E24  27585481.272 5  27585487.480 6 144962807.267 5 109663350.998 6
E25  24319109.836 7  24319111.390 9 127797756.097 7  96678199.340 9
E36  24928776.144 7  24928779.868 9 131001777.881 7  99101882.582 9
G08  22588465.973 7                  22588474.145 7 118703353.799 7                  92496046.233 7
G10  21830083.204 8                  21830090.115 7 114717955.617 8                  89390574.796 7
G16  21237957.729 7  21237960.272 5                 111606227.017 7  86965900.858 5
G18  22327165.947 7                  22327172.503 8 117330206.040 7                  91426035.508 8
G23  20892254.127 8                  20892259.116 8 109789565.647 8                  85550319.199 8
G27  20369480.545 7                  20369486.697 8 107042478.553 7                  83409665.723 8
R07  22411183.340 5  22411172.285 4 119968959.208 5  93309033.25514
R08  21247809.155 7  21247814.801 7 113781273.203 7  88496402.612 7
R14  20796913.987 8  20796919.659 7 110859317.707 8  86223822.983 7
R15  21505508.910 8  21505512.497 7 114919035.561 8  89381418.142 7
R17  23104815.038 6  23104819.729 6 123638541.279 6  96163332.727 6
R23  21077679.928 7                 112751451.980 7
R24  19695606.133 8  19695610.038 7 105321433.979 8  81916556.330 7
> 2025 06 15 08 34 10.0000000  0 25
C13  37739665.458 5  37739663.889 4 196520398.840 5 151961984.477 4
C20  24142315.948 7                 125715515.704 7
C29  21445847.586 7                 111674181.314 7
C30  24309747.863 7                 126587328.319 7
E02  24632159.367 8  24632159.756 8 129442893.432 8  97922697.779 8
E10  24539716.060 8  24539717.504 8 128957065.806 8  97555194.757 8
E11  23466006.681 7  23466003.974 8 123314877.276 7  93286757.741 8
E12  26794517.639 6  26794518.396 7 140806182.882 6 106518928.081 7
E16  25583107.530 7  25583109.290 8 134440092.513 7 101703086.201 8
E24  27587401.637 5  27587406.650 6 144972892.326 5 109670980.249 6
E25  24319734.041 7  24319735.774 9 127801037.260 7  96680681.515 9
E36  24925761.111 8  24925764.646 9 130985932.913 8  99089895.961 9
G08  22584413.837 7                  22584421.002 6 118682056.604 7                  92479451.020 6
G10  21826622.436 8                  21826629.122 7 114699768.458 8                  89376402.993 7
G16  21238803.703 7  21238806.984 5                 111610676.542 7  86969368.004 5
G18  22328507.336 7                  22328512.877 7 117337251.969 7                  91431525.810 7
G23  20891392.497 7                  20891397.919 8 109785040.049 7                  85546792.771 8
G27  20367103.574 7                  20367110.058 8 107029988.550 7                  83399933.270 8
R07  22411945.607 5  22411938.516 5 119973053.401 5  93312217.607 5
R08  21245145.380 7  21245150.421 7 113767005.669 7  88485305.659 7
R14  20797903.479 8  20797910.006 7 110864594.297 8  86227926.979 7
R15  21502713.697 7  21502717.391 7 114904099.251 7  89369801.000 7
R17  23100529.249 6  23100536.341 6 123615617.525 6  96145503.184 6
R23  21078993.540 7                 112758483.227 7
R24  19693418.429 8  19693422.547 7 105309736.013 8  81907457.887 7
> 2025 06 15 08 34 15.0000000  0 25
C13  37739115.257 5  37739111.365 4 196517521.229 5 151959759.344 4
C20  24138721.233 7                 125696797.609 7
C29  21445007.136 7                 111669803.085 7
C30  24311072.631 7                 126594224.088 7
E02  24629998.683 8  24629999.025 9 129431538.840 8  97914108.103 9
E10  24540197.379 8  24540198.459 8 128959593.220 8  97557106.712 8
E11  23465245.072 7  23465242.905 8 123310877.745 7  93283732.123 8
E12  26795701.996 6  26795702.048 7 140812403.271 6 106523633.761 7
E16  25584637.111 7  25584639.518 8 134448134.208 7 101709169.686 8
E24  27589320.665 5  27589326.015 6 144982978.161 5 109678610.090 6
E25  24320359.875 7  24320361.981 9 127804327.602 7  96683170.629 9
E36  24922746.949 7  24922750.456 9 130970093.222 7  99077913.351 9
G08  22580362.125 7                  22580369.351 6 118660764.468 7                  92462859.771 6
G10  21823163.577 7                  21823170.349 7 114681592.688 7                  89362240.088 7
G16  21239653.752 7  21239656.307 5                 111615139.925 7  86972845.969 5
G18  22329849.304 7                  22329854.668 7 117344303.318 7                  91437020.349 7
G23  20890534.891 7                  20890539.530 8 109780530.507 7                  85543278.837 8
G27  20364729.399 7                  20364735.407 8 107017510.453 7                  83390210.078 8
R07  22412710.915 5  22412706.326 4 119977166.923 5  93315417.089 4
R08  21242483.611 8  21242489.514 7 113752758.586 8  88474224.606 7
R14  20798897.262 8  20798903.057 7 110869889.386 8  86232045.391 7
R15  21499921.059 7  21499925.627 7 114889183.296 7  89358199.700 7
R17  23096246.377 6  23096252.051 6 123592696.173 6  96127675.446 6
R23  21080309.111 7                 112765520.268 7
R24  19691232.062 8  19691236.386 7 105298048.326 8  81898367.477 7
> 2025 06 15 08 34 20.0000000  0 26
C13  37738560.054 5  37738558.982 5 196514646.088 5 151957536.037 5
C20  24135128.640 7                 125678088.569 7
C26  24481657.259 4                 127482399.80414
C29  21444167.770 7                 111665432.650 7
C30  24312397.634 7                 126601122.915 7
E02  24627839.593 7  24627840.304 8 129420194.716 7  97905526.353 8
E10  24540679.194 8  24540680.286 8 128962125.095 8  97559022.045 8
E11  23464485.292 7  23464483.095 8 123306885.115 7  93280711.729 8
E12  26796886.134 6  26796886.073 7 140818625.304 6 106528340.672 7
E16  25586168.043 7  25586170.788 8 134456181.239 7 101715257.192 8
E24  27591234.582 4  27591245.486 6 144993064.60014 109686240.44416
E25  24320987.803 8  24320989.830 9 127807627.176 8  96685666.735 9
E36  24919733.800 7  24919737.216 9 130954258.893 7  99065934.794 9
G08  22576311.212 7                  22576317.747 6 118639477.473 7                  92446272.520 6
G10  21819707.052 8                  21819713.921 7 114663428.325 8                  89348086.049 7
G16  21240506.033 7  21240508.783 5                 111619617.173 7  86976334.729 5
G18  22331191.725 7                  22331197.422 7 117351360.129 7                  91442519.148 7
G23  20889679.648 7                  20889684.983 8 109776037.080 7                  85539777.465 8
G27  20362357.003 7                  20362363.671 8 107005044.247 7                  83380496.170 8
R07  22413487.788 5  22413478.681 4 119981299.617 5  93318631.299 4
R08  21239828.081 8  21239833.481 7 113738532.320 8  88463159.720 7
R14  20799894.686 8  20799899.850 7 110875203.429 8  86236178.509 7
R15  21497133.096 7  21497138.711 7 114874287.689 7  89346614.291 7
R17  23091962.815 5  23091969.104 6 123569777.353 5  96109849.753 6
R23  21081625.666 7                 112772563.241 7
R24  19689048.325 8  19689053.000 7 105286370.947 8  81889285.067 7
> 2025 06 15 08 34 25.0000000  0 26
C13  37738009.285 6  37738006.752 4 196511774.753 6 151955315.710 4
C20  24131537.689 7                 125659389.995 7
C26  24480963.977 5                 127478769.888 5
C29  21443330.287 7                 111661071.289 7
C30  24313723.432 7                 126608026.160 7
E02  24625682.965 7  24625683.809 8 129408862.420 7  97896953.544 8
E10  24541162.190 8  24541163.233 8 128964662.761 8  97560941.767 8
E11  23463727.359 7  23463724.862 8 123302900.711 7  93277697.546 8
E12  26798070.321 6  26798070.671 7 140824850.218 6 106533049.767 7
E16  25587699.754 7  25587703.385 8 134464234.909 7 101721349.724 8
E24  27593158.381 4  27593165.352 6 145003153.16814 109693872.40016
E25  24321617.967 8  24321619.739 9 127810937.314 8  96688170.811 9
E36  24916721.662 7  24916725.301 9 130938431.237 7  99053961.288 9
G08  22572261.160 7                  22572268.193 6 118618196.975 7                  92429690.307 6
G10  21816252.946 8                  21816259.944 7 114645276.712 8                  89333941.949 7
G16  21241359.831 7  21241363.667 5                 111624109.575 7  86979835.305 5
G18  22332535.844 7                  22332542.078 7 117358423.726 7                  91448023.244 7
G23  20888827.395 7                  20888832.791 8 109771561.088 7                  85536289.675 8
G27  20359987.033 7                  20359993.555 8 106992591.326 7                  83370792.573 8
R07  22414259.004 4  22414254.856 4 119985453.006 4  93321861.704 4
R08  21237176.573 8  21237180.912 7 113724327.885 8  88452111.799 7
R14  20800894.389 8  20800900.063 7 110880537.447 8  86240327.200 7
R15  21494350.588 7  21494354.767 7 114859413.883 7  89335045.751 7
R17  23087680.587 5  23087687.124 6 123546862.327 5  96092026.979 6
R23  21082943.872 7                 112779613.418 7
R24  19686867.580 8  19686871.035 7 105274705.425 8  81880211.882 7
> 2025 06 15 08 34 30.0000000  0 26
C13  37737457.492 5  37737456.484 4 196508906.505 5 151953097.807 4
C20  24127948.879 7                 125640701.145 7
C26  24480271.211 5                 127475154.013 5
C29  21442493.623 7                 111656718.306 7
C30  24315050.202 7                 126614933.092 7
E02  24623528.680 7  24623529.427 8 129397541.210 7  97888389.140 8
E10  24541645.741 8  24541647.176 8 128967205.526 8  97562865.352 8
E11  23462970.116 7  23462968.041 8 123298923.835 7  93274689.064 8
E12  26799255.430 6  26799255.680 7 140831077.354 6 106537760.560 7
E16  25589233.952 7  25589237.081 8 134472294.506 7 101727446.745 8
E24  27595082.959 4  27595085.337 6 145013243.166 4 109701505.450 6
E25  24322249.775 8  24322251.522 9 127814257.283 8  96690682.341 9
E36  24913710.929 7  24913714.496 9 130922609.561 7  99041992.288 9
G08  22568213.523 7                  22568220.641 7 118596922.228 7                  92413112.578 7
G10  21812801.289 8                  21812807.909 7 114627137.146 8                  89319807.244 7
G16  21242217.373 7  21242221.099 5                 111628616.440 7  86983347.147 5
G18  22333881.443 7                  22333886.927 7 117365493.416 7                  91453532.093 7
G23  20887979.144 7                  20887984.868 8 109767101.815 7                  85532814.916 8
G27  20357619.790 7                  20357626.065 8 106980150.973 7                  83361098.766 8
R07  22415030.997 5                 119989626.191 5
R08  21234527.294 8  21234531.964 7 113710144.631 8  88441080.390 7
R14  20801900.227 8  20801904.231 7 110885890.926 8  86244490.993 7
R15  21491570.147 7  21491575.064 7 114844561.102 7  89323493.603 7
R17  23083399.074 5  23083404.753 6 123523950.415 5  96074206.645 6
R23  21084263.544 7                 112786670.137 7
R24  19684687.529 8  19684691.402 7 105263050.848 8  81871147.223 7
> 2025 06 15 08 34 35.0000000  0 26
C13  37736905.527 5  37736906.015 4 196506040.700 5 151950881.798 4
C20  24124362.137 7                 125622021.350 7
C26  24479581.227 5                 127471551.48415
C29  21441658.876 7                 111652373.062 7
C30  24316376.866 7                 126621843.085 7
E02  24621376.128 7  24621377.077 8 129386230.458 7  97879832.626 8
E10  24542130.730 8  24542131.977 8 128969752.721 8  97564792.289 8
E11  23462214.944 7  23462212.589 8 123294953.823 7  93271685.778 8
E12  26800440.920 6  26800440.986 7 140837305.992 6 106542472.469 7
E16  25590769.170 7  25590771.759 8 134480359.382 7 101733547.738 8
E24  27597005.671 5  27597005.715 6 145023333.94715 109709139.00816
E25  24322882.451 8  24322885.042 9 127817586.413 8  96693200.803 9
E36  24910701.052 7  24910704.683 9 130906793.207 7  99030027.327 9
G08  22564165.433 7                  22564173.247 6 118575652.577 7                  92396538.824 6
G10  21809351.346 8                  21809358.312 7 114609009.010 8                  89305681.400 7
G16  21243077.782 7  21243081.419 5                 111633137.141 7  86986869.756 5
G18  22335228.487 7                  22335233.081 7 117372568.526 7                  91459045.170 7
G23  20887134.064 8                  20887139.621 8 109762658.628 8                  85529352.682 8
G27  20355255.116 7                  20355261.071 7 106967722.512 7                  83351414.258 7
R07  22415818.639 5  22415828.878 3 119993818.329 5
R08  21231882.145 7  21231887.371 7 113695981.987 7  88430065.006 7
R14  20802907.694 8  20802912.167 7 110891262.957 8  86248669.240 7
R15  21488795.705 7  21488799.588 7 114829728.812 7  89311957.398 7
R17  23079115.663 5  23079123.860 5 123501041.186 5  96056388.328 5
R23  21085583.613 7                 112793732.414 7
R24  19682510.201 8  19682513.724 7 105251406.691 8  81862090.666 7
> 2025 06 15 08 34 40.0000000  0 26
C13  37736354.617 5  37736356.581 5 196503178.192 5 151948668.291 5
C20  24120777.304 7                 125603351.583 7
C26  24478895.540 4                 127467963.155 4
C29  21440826.277 7                 111648036.443 7
C30  24317704.727 7                 126628756.999 7
E02  24619226.411 7  24619226.864 8 129374931.070 7  97871284.728 8
E10  24542616.609 8  24542617.730 8 128972305.253 8  97566723.258 8
E11  23461461.149 7  23461458.583 8 123290991.577 7  93268688.363 8
E12  26801626.434 6  26801626.718 7 140843537.063 6 106547186.229 7
E16  25592304.742 7  25592307.593 8 134488430.428 7 101739653.415 8
E24  27598936.500 5  27598926.316 6 145033426.332 5 109716773.855 6
E25  24323518.079 7  24323520.482 9 127820925.636 7  96695726.902 9
E36  24907693.348 7  24907696.115 8 130890983.059 7  99018067.065 8
G08  22560118.947 7                  22560126.472 6 118554388.967 7                  92379969.779 6
G10  21805903.927 8                  21805911.004 7 114590893.193 8                  89291565.187 7
G16  21243941.440 7  21243944.562 5                 111637672.533 7  86990403.829 5
G18  22336575.919 7                  22336580.621 7 117379649.948 7                  91464563.151 7
G23  20886291.578 8                  20886297.389 8 109758232.405 8                  85525903.657 8
G27  20352892.531 8                  20352898.432 8 106955306.881 8                  83341739.741 8
R07  22416601.707 6  22416617.497 3 119998030.563 6  93331702.05213
R08  21229240.966 8  21229246.318 7 113681840.852 8  88419066.348 7
R14  20803918.656 8  20803923.873 7 110896654.493 8  86252862.664 7
R15  21486022.962 7  21486027.602 7 114814917.789 7  89300437.711 7
R17  23074839.737 5  23074843.558 5 123478135.177 5  96038572.509 5
R23  21086904.867 7                 112800801.649 7
R24  19680335.002 8  19680338.344 7 105239773.676 8  81853042.755 7
> 2025 06 15 08 34 45.0000000  0 26
C13  37735806.057 5  37735807.293 4 196500319.501 5 151946457.762 4
C20  24117193.634 7                 125584692.303 7
C26  24478205.791 4                 127464389.59314
C29  21439995.192 7                 111643708.887 7
C30  24319033.078 7                 126635675.332 7
E02  24617078.231 7  24617078.965 8 129363643.541 7  97862745.785 8
E10  24543103.665 8  24543104.519 8 128974863.599 8  97568658.625 8
E11  23460708.794 7  23460706.221 8 123287037.557 7  93265697.177 8
E12  26802812.930 6  26802812.963 7 140849771.073 6 106551902.213 7
E16  25593842.146 7  25593844.711 8 134496508.103 7 101745764.106 8
E24  27600861.333 4  27600847.268 6 145043520.786 4 109724410.191 6
E25  24324155.707 8  24324157.912 9 127824275.407 8  96698260.974 9
E36  24904686.267 7  24904688.805 9 130875179.632 7  99006111.868 9
G08  22556073.429 7                  22556080.985 6 118533131.886 7                  92363405.820 6
G10  21802459.396 8                  21802466.035 7 114572790.174 8                  89277458.937 7
G16  21244807.474 7  21244810.424 5                 111642223.079 7  86993949.713 5
G18  22337924.290 7                  22337929.269 7 117386738.147 7                  91470086.441 7
G23  20885452.960 8                  20885458.223 8 109753823.588 8                  85522468.215 8
G27  20350532.725 8                  20350538.353 8 106942904.541 8                  83332075.580 8
R07  22417391.694 6                 120002263.358 6
R08  21226605.602 8  21226609.705 7 113667721.777 8  88408084.850 7
R14  20804933.942 8  20804939.084 7 110902066.206 8  86257071.757 7
R15  21483255.401 7  21483260.105 7 114800128.577 7  89288934.996 7
R17  23070560.524 5  23070562.663 5 123455233.022 5  96020759.682 5
R23  21088227.042 7                 112807878.030 7
R24  19678162.490 8  19678165.093 7 105228152.514 8  81844004.059 7
> 2025 06 15 08 34 50.0000000  0 26
C13  37735256.150 5  37735258.745 4 196497463.514 5 151944249.304 4
C20  24113611.660 7                 125566042.384 7
C26  24477520.658 4                 127460829.617 4
C29  21439165.854 7                 111639389.332 7
C30  24320361.774 7                 126642596.964 7
E02  24614932.318 7  24614933.059 8 129352366.733 7  97854214.949 8
E10  24543591.378 8  24543592.163 8 128977426.592 8  97570597.518 8
E11  23459957.443 7  23459955.191 8 123283090.658 7  93262711.377 8
E12  26803999.468 6  26803999.583 7 140856006.866 6 106556619.532 7
E16  25595380.646 7  25595382.861 8 134504591.291 7 101751878.959 8
E24  27602781.898 4  27602768.411 6 145053616.217 4 109732047.318 6
E25  24324794.861 7  24324797.145 9 127827634.593 7  96700802.179 9
E36  24901679.831 7  24901682.527 9 130859381.771 7  98994160.896 9
G08  22552029.959 7                  22552036.798 6 118511880.227 7                  92346846.093 6
G10  21799017.129 8                  21799023.454 7 114554698.842 8                  89263361.789 7
G16  21245675.284 7  21245679.037 5                 111646787.641 7  86997506.504 5
G18  22339273.740 7                  22339279.133 7 117393832.017 7                  91475614.133 7
G23  20884617.224 8                  20884622.017 8 109749431.109 8                  85519045.498 8
G27  20348175.035 8                  20348180.413 8 106930514.383 8                  83322420.911 8
R07  22418185.269 5                 120006515.398 5
R08  21223972.796 8  21223977.188 7 113653623.513 8  88397119.533 7
R14  20805952.545 8  20805957.591 7 110907496.725 8  86261295.482 7
R15  21480491.942 7  21480496.709 7 114785360.026 7  89277448.347 7
R17  23066280.021 5  23066283.802 6 123432333.710 5  96002949.109 6
R23  21089552.060 7                 112814960.424 7
R24  19675990.361 8  19675994.238 7 105216542.013 8  81834973.669 7
> 2025 06 15 08 34 55.0000000  0 25
C13  37734707.412 5  37734710.596 4 196494609.714 5 151942042.572 4
C20  24110031.389 7                 125547401.373 7
C26  24476839.686 4                 127457282.76014
C29  21438338.050 7                 111635077.234 7
C30  24321691.765 7                 126649521.358 7
E02  24612788.462 8  24612789.094 8 129341100.121 8  97845691.832 8
E10  24544079.719 8  24544080.653 8 128979993.743 8  97572539.554 8
E11  23459207.559 7  23459205.392 8 123279150.317 7  93259730.532 8
E12  26805185.876 6  26805186.428 7 140862243.901 6 106561337.812 7
E16  25596920.004 7  25596921.956 8 134512679.442 7 101757997.572 8
E24  27604698.896 4  27604689.674 6 145063712.153 4 109739684.765 6
E25  24325435.720 7  24325438.072 9 127831002.659 7  96703350.090 9
E36  24898674.650 7  24898677.230 9 130843588.947 7  98982213.730 9
G08  22547986.340 7                  22547993.557 6 118490633.415 7                  92330290.176 6
G10  21795576.059 8                  21795582.617 7 114536618.687 8                  89249273.353 7
G16  21246546.090 7  21246550.319 5                 111651365.688 7  87001073.809 5
G18  22340624.818 7                  22340630.014 7 117400930.994 7                  91481145.795 7
G23  20883783.601 7                  20883788.935 8 109745054.374 7                  85515635.061 8
G27  20345819.520 8                  20345824.440 7 106918135.863 8                  83312775.325 7
R08  21221344.036 8  21221348.007 7 113639545.701 8  88386170.132 7
R14  20806975.439 8  20806979.732 7 110912945.578 8  86265533.468 7
R15  21477731.525 7  21477737.379 7 114770611.656 7  89265977.400 7
R17  23062003.109 5  23062004.711 5 123409436.513 5  95985140.211 5
R23  21090877.590 7                 112822048.398 7
R24  19673821.218 8  19673824.973 7 105204941.459 8  81825951.030 7
> 2025 06 15 08 35  0.0000000  0 25
C13  37734159.820 5  37734163.255 4 196491758.948 5 151939838.186 4
C20  24106452.335 7                 125528770.115 7
C26  24476164.914 4                 127453750.007 4
C29  21437512.037 7                 111630773.527 7
C30  24323022.205 7                 126656449.427 7
E02  24610646.416 7  24610647.288 8 129329844.656 7  97837177.142 8
E10  24544568.799 8  24544570.076 8 128982565.968 8  97574485.424 8
E11  23458459.815 7  23458457.031 8 123275217.486 7  93256755.374 8
E12  26806372.981 6  26806373.702 7 140868483.129 6 106566057.732 7
E16  25598460.892 7  25598462.198 8 134520773.495 7 101764120.649 8
E24  27606609.796 5  27606611.186 6 145073809.425 5 109747323.203 6
E25  24326078.789 7  24326080.865 9 127834380.572 7  96705905.447 9
E36  24895670.294 7  24895673.070 8 130827802.140 7  98970271.117 8
G08  22543944.259 7                  22543951.232 6 118469392.464 7                  92313738.811 6
G10  21792137.778 8                  21792144.304 7 114518550.645 8                  89235194.356 7
G16  21247420.397 7  21247424.178 5                 111655958.146 7  87004652.341 5
G18  22341976.491 7                  22341982.787 7 117408036.057 7                  91486682.200 7
G23  20882954.087 7                  20882959.059 8 109740694.388 7                  85512237.691 8
G27  20343466.110 8                  20343471.430 7 106905769.965 8                  83303139.565 7
R08  21218719.212 8  21218722.682 7 113625489.264 8  88375237.338 7
R14  20808001.359 8  20808005.756 7 110918413.812 8  86269786.512 7
R15  21474976.244 7  21474980.536 7 114755884.434 7  89254522.894 7
R17  23057720.789 5  23057726.856 5 123386542.482 5  95967333.827 5
R23  21092203.799 7                 112829142.728 7
R24  19671653.632 8  19671657.617 7 105193351.991 8  81816936.981 7
> 2025 06 15 08 35  5.0000000  0 25
C13  37733612.968 5  37733617.024 5 196488911.350 5 151937636.223 5
C20  24102876.279 7                 125510148.695 7
C26  24475495.525 4                 127450231.209 4
C29  21436687.269 7                 111626478.255 7
C30  24324353.550 7                 126663381.237 7
E02  24608506.537 7  24608507.582 8 129318600.381 7  97828670.922 8
E10  24545059.216 8  24545060.478 8 128985143.293 8  97576435.152 8
E11  23457712.484 7  23457710.101 8 123271292.210 7  93253785.936 8
E12  26807561.244 6  26807561.394 7 140874724.577 6 106570779.343 7
E16  25600001.420 7  25600003.574 8 134528873.458 7 101770248.205 8
E24  27608527.643 5  27608532.948 6 145083908.104 5 109754962.759 6
E25  24326723.766 7  24326725.542 9 127837768.305 7  96708468.237 9
E36  24892667.390 7  24892670.051 9 130812021.321 7  98958333.037 9
G08  22539904.124 7                  22539910.360 6 118448157.385 7                  92297192.018 6
G10  21788701.706 8                  21788708.562 7 114500494.749 8                  89221124.831 7
G16  21248297.786 7  21248301.113 5                 111660565.041 7  87008242.123 5
G18  22343329.801 7                  22343336.172 7 117415147.173 7                  91492223.317 7
G23  20882128.134 8                  20882132.358 8 109736351.142 8                  85508853.353 8
G27  20341115.070 8                  20341120.600 7 106893416.725 8                  83293513.663 7
R08  21216097.760 8  21216101.587 7 113611453.972 8  88364321.024 7
R14  20809030.286 8  20809035.492 7 110923901.318 8  86274054.561 7
R15  21472223.138 7  21472228.606 7 114741178.347 7  89243084.843 7
R17  23053444.174 6  23053448.742 5 123363651.599 6  95949529.909 5
R23  21093530.644 7                 112836243.546 7
R24  19669487.831 8  19669492.510 7 105181773.573 8  81807931.536 7
> 2025 06 15 08 35 10.0000000  0 25
C13  37733066.065 5  37733071.208 5 196486067.142 5 151935436.906 5
C20  24099302.380 7                 125491537.367 7
C26  24474830.429 4                 127446726.70614
C29  21435864.026 7                 111622191.616 7
C30  24325685.163 7                 126670317.003 7
E02  24606368.944 7  24606370.068 8 129307367.502 7  97820173.322 8
E10  24545551.008 8  24545551.892 8 128987725.952 8  97578388.908 8
E11  23456967.368 7  23456964.647 8 123267374.710 7  93250822.363 8
E12  26808749.522 6  26808749.521 7 140880968.445 6 106575502.779 7
E16  25601544.504 7  25601546.103 8 134536979.548 7 101776380.409 8
E24  27610448.574 5  27610454.973 6 145094008.288 5 109762603.454 6
E25  24327369.956 7  24327372.116 9 127841166.110 7  96711038.656 9
E36  24889665.807 7  24889668.221 9 130796246.751 7  98946399.688 9
G08  22535863.345 7                  22535870.626 6 118426928.407 7                  92280649.951 6
G10  21785268.432 8                  21785274.544 7 114482451.250 8                  89207064.988 7
G16  21249177.211 7  21249180.468 5                 111665186.613 7  87011843.319 5
G18  22344684.552 7                  22344690.708 7 117422264.592 7                  91497769.339 7
G23  20881304.412 8                  20881309.187 8 109732024.877 8                  85505482.254 8
G27  20338767.098 8                  20338772.179 7 106881076.366 8                  83283897.782 7
R08  21213480.558 8  21213484.771 7 113597440.398 8  88353421.624 7
R14  20810063.597 8  20810068.426 7 110929408.198 8  86278337.682 7
R15  21469477.018 7  21469480.108 7 114726493.770 7  89231663.524 7
R17  23049166.794 6  23049172.465 5 123340764.146 6  95931728.563 5
R23  21094858.223 7                 112843351.175 7
R24  19667325.561 8  19667329.427 7 105170206.516 8  81798934.936 7
> 2025 06 15 08 35 15.0000000  0 25
C13  37732521.171 5  37732526.001 4 196483225.629 5 151933239.668 4
C20  24095730.310 7                 125472935.563 7
C26  24474159.120 4                 127443235.86614
C29  21435042.131 7                 111617913.055 7
C30  24327018.112 7                 126677256.108 7
E02  24604233.582 7  24604234.606 8 129296145.441 7  97811683.913 8
E10  24546043.247 8  24546044.231 8 128990313.343 8  97580346.245 8
E11  23456222.819 7  23456220.544 8 123263464.377 7  93247864.226 8
E12  26809937.961 6  26809938.059 7 140887214.185 6 106580227.632 7
E16  25603087.296 7  25603089.745 8 134545091.203 7 101782516.814 8
E24  27612370.170 5  27612377.168 6 145104109.545 5 109770244.947 6
E25  24328018.246 8  24328020.513 9 127844573.390 8  96713616.231 9
E36  24886664.270 7  24886667.468 9 130780477.835 7  98934470.617 9
G08  22531825.487 7                  22531831.863 6 118405704.928 7                  92264112.181 6
G10  21781836.967 8                  21781843.590 7 114464419.562 8                  89193014.336 7
G16  21250058.913 7  21250062.826 5                 111669822.246 7  87015455.498 5
G18  22346039.659 7                  22346045.918 7 117429387.698 7                  91503319.816 7
G23  20880484.093 8                  20880489.087 8 109727714.973 8                  85502123.888 8
G27  20336421.524 8                  20336426.396 7 106868748.280 8                  83274291.490 7
R08  21210866.795 7  21210872.175 7 113583447.873 7  88342538.563 7
R14  20811099.616 8  20811104.968 7 110934934.009 8  86282635.533 7
R15  21466731.816 7  21466736.218 7 114711829.958 7  89220258.369 7
R17  23044892.447 6  23044894.052 5 123317879.589 6  95913929.416 5
R23  21096188.232 7                 112850464.779 7
R24  19665164.137 8  19665168.561 7 105158650.120 8  81789946.644 7
> 2025 06 15 08 35 20.0000000  0 25
C13  37731975.765 5  37731981.225 5 196480387.099 5 151931044.726 5
C20  24092160.204 7                 125454343.416 7
C26  24473488.587 4                 127439758.83014
C29  21434222.055 7                 111613642.703 7
C30  24328351.074 6                 126684198.734 6
E02  24602100.830 7  24602101.261 8 129284934.389 7  97803202.828 8
E10  24546536.198 8  24546537.547 8 128992905.625 8  97582307.280 8
E11  23455480.093 7  23455477.842 8 123259561.368 7  93244911.623 8
E12  26811126.558 6  26811126.909 7 140893461.905 6 106584953.973 7
E16  25604632.728 7  25604634.489 8 134553208.559 7 101788657.511 8
E24  27614293.672 5  27614299.432 6 145114211.867 5 109777887.273 6
E25  24328668.024 8  24328670.743 9 127847990.299 8  96716201.094 9
E36  24883664.539 8  24883667.823 9 130764714.757 8  98922545.950 9
G08  22527787.745 7                  22527794.428 6 118384487.148 7                  92247578.854 6
G10  21778407.806 8                  21778414.393 7 114446399.853 8                  89178973.016 7
G16  21250943.851 7  21250947.794 5                 111674472.051 7  87019078.719 5
G18  22347396.169 7                  22347402.518 8 117436516.657 7                  91508874.837 8
G23  20879667.884 8                  20879672.056 7 109723421.617 8                  85498778.412 7
G27  20334077.525 8                  20334082.790 7 106856432.657 8                  83264694.913 7
R08  21208256.851 7  21208262.639 7 113569476.470 7  88331671.923 7
R14  20812140.495 8  20812145.572 7 110940478.647 8  86286948.025 7
R15  21463992.336 7  21463994.932 7 114697187.084 7  89208869.463 7
R17  23040615.495 6  23040617.995 5 123294998.022 6  95896132.593 5
R23  21097519.232 7                 112857584.775 7
R24  19663004.629 8  19663009.198 7 105147104.562 8  81780966.778 7
> 2025 06 15 08 35 25.0000000  0 26
C13  37731430.779 5  37731436.438 5 196477551.208 5 151928851.817 5
C20  24088592.154 7                 125435760.754 7
C26  24472826.602 4                 127436295.430 4
C29  21433403.324 7                 111609380.331 7
C30  24329685.078 7                 126691144.636 7
E02  24599969.461 7  24599969.918 8 129273734.091 7  97794729.887 8
E10  24547030.363 8  24547031.687 8 128995502.560 8  97584271.840 8
E11  23454738.854 7  23454736.461 8 123255665.470 7  93241964.402 8
E12  26812315.275 6  26812316.089 7 140899711.407 6 106589681.687 7
E16  25606178.767 7  25606180.248 8 134561331.365 7 101794802.365 8
E24  27616215.821 5  27616222.106 6 145124315.212 5 109785530.361 6
E25  24329320.482 8  24329322.721 9 127851416.606 8  96718793.063 9
E36  24880665.982 7  24880669.238 9 130748957.277 7  98910625.529 9
G08  22523751.531 7                  22523757.349 6 118363274.854 7                  92231049.803 6
G10  21774981.239 8                  21774987.881 7 114428391.931 8                  89164940.874 7
G16  21251831.545 7  21251835.468 5                 111679135.890 7  87022712.861 5
G18  22348753.921 7                  22348760.062 7 117443651.238 7                  91514434.232 7
G23  20878853.542 8                  20878858.340 8 109719144.563 8                  85495445.646 8
G27  20331735.915 8                  20331741.563 7 106844129.262 8                  83255107.852 7
R07  22423845.918 6                 120036618.73116
R08  21205651.492 7  21205657.624 7 113555526.188 7  88320821.702 7
R14  20813182.808 7  20813189.375 7 110946042.136 7  86291275.172 7
R15  21461255.800 7  21461258.867 7 114682564.995 7  89197496.732 7
R17  23036338.320 6  23036343.145 5 123272119.231 6  95878337.969 5
R23  21098851.250 7                 112864710.755 7
R24  19660848.153 8  19660852.143 7 105135569.654 8  81771995.183 7
> 2025 06 15 08 35 30.0000000  0 25
C13  37730887.657 5  37730892.655 5 196474718.675 5 151926661.538 5
C20  24085025.420 7                 125417188.240 7
C29  21432586.304 7                 111605126.669 7
C30  24331020.624 7                 126698094.536 7
E02  24597840.407 7  24597840.809 8 129262545.304 7  97786265.640 8
E10  24547525.508 8  24547526.845 8 128998104.852 8  97586240.444 8
E11  23453998.514 7  23453996.596 8 123251777.380 7  93239023.078 8
E12  26813505.211 6  26813505.840 7 140905963.373 6 106594411.238 7
E16  25607725.832 7  25607727.200 8 134569460.346 7 101800951.871 8
E24  27618139.571 5  27618144.997 6 145134420.112 5 109793174.625 6
E25  24329974.344 8  24329976.652 9 127854853.002 8  96721392.666 9
E36  24877668.701 8  24877671.870 9 130733206.087 8  98898709.854 9
G08  22519716.078 7                  22519722.167 6 118342068.734 7                  92214525.608 6
G10  21771556.683 8                  21771563.684 7 114410396.466 8                  89150918.429 7
G16  21252722.220 7  21252725.733 5                 111683814.364 7  87026358.412 5
G18  22350112.305 7                  22350119.216 7 117450792.141 7                  91519998.558 7
G23  20878043.239 8                  20878047.751 8 109714884.504 8                  85492126.098 8
G27  20329397.383 8                  20329402.772 7 106831838.838 8                  83245530.893 7
R07  22424673.675 6                 120041027.320 6
R08  21203050.433 7  21203056.110 7 113541597.590 7  88309988.345 7
R14  20814230.405 7  20814236.320 7 110951625.249 7  86295617.578 7
R15  21458523.161 7  21458526.677 7 114667964.521 7  89186140.824 7
R17  23032062.920 6  23032070.259 5 123249244.006 6  95860546.118 5
R23  21100184.775 7                 112871843.508 7
R24  19658693.032 8  19658696.921 7 105124046.130 8  81763032.444 7
> 2025 06 15 08 35 35.0000000  0 25
C13  37730344.960 6  37730349.656 5 196471889.698 6 151924474.003 5
C20  24081460.686 7                 125398626.104 7
C29  21431770.697 7                 111600881.866 7
C30  24332356.044 7                 126705048.580 7
E02  24595713.018 7  24595713.825 8 129251368.178 7  97777810.215 8
E10  24548022.291 8  24548023.126 8 129000712.671 8  97588213.236 8
E11  23453260.023 7  23453258.201 8 123247897.243 7  93236087.788 8
E12  26814695.369 6  26814696.044 7 140912217.980 6 106599142.806 7
E16  25609273.534 7  25609275.285 8 134577595.669 7 101807106.192 8
E24  27620062.823 5  27620068.052 6 145144526.866 5 109800820.282 6
E25  24330630.411 8  24330632.574 9 127858299.673 8  96724000.032 9
E36  24874672.457 8  24874675.736 8 130717461.374 8  98886799.087 8
G08  22515682.189 7                  22515688.448 6 118320868.988 7                  92198006.346 6
G10  21768134.400 8                  21768141.600 7 114392413.645 8                  89136905.854 7
G16  21253614.936 7  21253619.061 5                 111688507.634 7  87030015.511 5
G18  22351472.561 7                  22351479.402 7 117457939.598 7                  91525567.971 7
G23  20877235.501 8                  20877240.519 8 109710641.617 8                  85488819.945 8
G27  20327061.005 8                  20327066.415 7 106819561.542 8                  83235964.156 7
R07  22425501.949 6                 120045456.160 6
R08  21200453.911 7  21200459.800 6 113527690.827 7  88299171.974 6
R14  20815281.026 7  20815287.255 7 110957227.942 7  86299975.234 7
R15  21455794.313 7  21455798.513 7 114653385.765 7  89174801.813 7
R17  23027789.267 6  23027795.973 5 123226372.486 6  95842757.123 5
R23  21101520.204 7                 112878983.180 7
R24  19656539.346 8  19656544.541 7 105112534.165 8  81754078.701 7
> 2025 06 15 08 35 40.0000000  0 25
C13  37729801.626 5  37729807.049 5 196469063.551 5 151922288.648 5
C20  24077897.637 7                 125380073.592 7
C29  21430957.365 7                 111596645.206 7
C30  24333691.184 7                 126712006.052 7
E02  24593587.574 7  24593589.023 8 129240201.934 7  97769363.026 8
E10  24548519.209 8  24548520.293 8 129003325.267 8  97590189.643 8
E11  23452523.213 7  23452521.190 8 123244024.296 7  93233157.938 8
E12  26815886.220 6  26815886.597 7 140918474.470 6 106603875.792 7
E16  25610822.356 7  25610824.492 8 134585736.548 7 101813264.722 8
E24  27621985.649 5  27621991.472 6 145154634.591 5 109808466.648 6
E25  24331288.150 7  24331290.354 9 127861755.865 7  96726614.600 9
E36  24871677.557 7  24871680.693 8 130701722.370 7  98874892.654 8
G08  22511647.781 7                  22511655.637 6 118299674.884 7                  92181491.476 6
G10  21764715.248 8                  21764721.868 7 114374442.760 8                  89122902.594 7
G16  21254511.220 7  21254515.111 5                 111693215.008 7  87033683.599 5
G18  22352834.575 7                  22352840.554 7 117465092.716 7                  91531141.820 7
G23  20876430.819 7                  20876436.104 8 109706415.160 7                  85485526.608 8
G27  20324726.974 8                  20324732.546 7 106807296.621 8                  83226407.098 7
R07  22426329.672 4  22426338.215 4 120049904.420 4  93372176.07014
R08  21197860.470 7  21197866.698 7 113513805.240 7  88288372.090 7
R14  20816336.394 7  20816341.707 7 110962849.523 7  86304347.569 7
R15  21453069.748 7  21453074.124 7 114638827.894 7  89163479.038 7
R17  23023516.122 5                                
R23  21102856.443 7                 112886128.815 7
R24  19654388.634 8  19654393.343 7 105101032.801 8  81745133.219 7
> 2025 06 15 08 35 45.0000000  0 25
C13  37729259.385 5  37729265.765 4 196466240.038 5 151920105.347 4
C20  24074337.441 7                 125361530.484 7
C29  21430145.158 7                 111592416.445 7
C30  24335028.084 7                 126718966.701 7
E02  24591464.915 7  24591466.233 8 129229046.424 7  97760923.963 8
E10  24549017.620 8  24549018.289 8 129005942.426 8  97592169.502 8
E11  23451787.791 7  23451785.558 8 123240158.394 7  93230233.411 8
E12  26817077.038 6  26817077.411 7 140924732.629 6 106608610.032 7
E16  25612372.430 7  25612374.653 8 134593882.816 7 101819427.296 8
E24  27623910.613 5  27623914.994 6 145164743.238 5 109816113.728 6
E25  24331947.647 8  24331949.882 9 127865221.341 8  96729236.208 9
E36  24868683.806 7  24868686.678 8 130685988.915 7  98862990.400 8
G08  22507616.301 7                  22507623.638 6 118278486.195 7                  92164980.825 6
G10  21761297.481 8                  21761304.393 7 114356483.585 8                  89108908.444 7
G16  21255410.003 7  21255413.532 6                 111697936.256 7  87037362.482 6
G18  22354196.905 7                  22354202.539 7 117472251.360 7                  91536719.977 7
G23  20875629.752 7                  20875635.154 8 109702204.908 7                  85482245.893 8
G27  20322395.029 8                  20322401.367 7 106795043.890 8                  83216859.516 7
R07  22427161.639 4  22427172.080 4 120054371.473 4  93375650.439 4
R08  21195271.979 7  21195277.582 7 113499940.641 7  88277588.479 7
R14  20817394.652 7  20817400.110 7 110968489.760 7  86308734.403 7
R15  21450350.273 7  21450354.416 7 114624290.667 7  89152172.312 7
R17  23019243.723 5  23019250.193 6 123180637.61815  95807185.61716
R23  21104193.095 7                 112893280.550 7
R24  19652240.127 8  19652244.444 7 105089542.136 8  81736196.030 7
> 2025 06 15 08 35 50.0000000  0 24
C13  37728717.800 5  37728723.011 4 196463418.726 5 151917923.739 4
C20  24070778.216 7                 125342996.465 7
C29  21429334.679 7                 111588195.252 7
C30  24336364.776 7                 126725930.179 7
E02  24589344.332 7  24589345.300 8 129217901.247 7  97752492.716 8
E10  24549516.534 8  24549517.153 8 129008563.743 8  97594152.498 8
E11  23451053.569 7  23451051.201 8 123236299.129 7  93227313.895 8
E12  26818267.678 6  26818268.483 7 140930992.069 6 106613345.270 7
E16  25613923.430 7  25613925.837 8 134602034.034 7 101825593.625 8
E24  27625832.962 5  27625838.720 5 145174852.193 5 109823761.092 5
E25  24332608.672 8  24332611.011 9 127868695.749 8  96731864.556 9
E36  24865690.584 7  24865693.692 8 130670260.575 7  98851092.021 8
G08  22503584.557 7                  22503592.623 6 118257302.564 7                  92148474.112 6
G10  21757881.903 8                  21757888.888 7 114338535.753 8                  89094923.132 7
G16  21256310.784 7  21256314.292 6                 111702670.959 7  87041051.842 6
G18  22355559.972 7                  22355565.811 7 117479415.146 7                  91542302.124 7
G23  20874831.219 7                  20874836.856 8 109698010.481 7                  85478977.508 8
G27  20320066.059 8                  20320071.739 7 106782802.975 8                  83207321.136 7
R08  21192686.295 7  21192691.710 7 113486096.599 7  88266820.888 7
R14  20818456.183 7  20818461.452 7 110974148.154 7  86313135.370 7
R15  21447633.151 8  21447637.353 7 114609773.902 8  89140881.485 7
R17  23014970.773 6  23014978.119 6 123157774.039 6  95789402.871 6
R23  21105531.141 7                 112900437.778 7
R24  19650093.686 8  19650098.010 7 105078061.691 8  81727266.790 7
> 2025 06 15 08 35 55.0000000  0 24
C13  37728176.771 5  37728181.092 5 196460600.063 5 151915744.142 5
C20  24067220.444 7                 125324471.881 7
C29  21428525.368 7                 111583981.937 7
C30  24337702.928 7                 126732896.862 7
E02  24587225.250 7  24587226.522 8 129206766.790 7  97744069.570 8
E10  24550016.260 8  24550016.871 8 129011189.616 8  97596138.955 8
E11  23450320.397 7  23450318.139 8 123232446.856 7  93224399.680 8
E12  26819458.803 6  26819459.905 7 140937253.199 6 106618081.772 7
E16  25615475.935 7  25615478.007 8 134610190.612 7 101831763.998 8
E24  27627758.297 6  27627762.585 6 145184962.011 6 109831409.037 6
E25  24333271.570 8  24333273.963 9 127872179.427 8  96734499.929 9
E36  24862698.671 7  24862701.774 8 130654537.762 7  98839197.825 8
G08  22499555.040 7                  22499562.096 6 118236124.395 7                  92131971.630 6
G10  21754469.021 8                  21754475.585 7 114320599.664 8                  89080946.962 7
G16  21257214.276 7  21257217.990 6                 111707419.461 7  87044751.982 6
G18  22356924.681 7                  22356929.702 7 117486584.438 7                  91547888.567 7
G23  20874036.224 7                  20874041.837 8 109693832.260 7                  85475721.751 8
G27  20317738.555 8                  20317744.591 7 106770574.241 8                  83197792.271 7
R08  21190106.120 7  21190111.167 7 113472273.396 7  88256069.501 7
R14  20819520.881 8  20819526.609 7 110979825.256 8  86317550.889 7
R15  21444921.314 8  21444925.393 7 114595277.952 8  89129606.828 7
R17  23010698.202 6  23010705.648 5 123134913.031 6  95771622.177 5
R23  21106870.501 7                 112907600.987 7
R24  19647949.341 8  19647953.482 7 105066591.820 8  81718345.769 7
> 2025 06 15 08 36  0.0000000  0 24
C13  37727637.020 5  37727640.434 4 196457785.042 5 151913567.388 4
C20  24063665.045 7                 125305957.901 7
C29  21427718.235 7                 111579777.679 7
C30  24339041.974 7                 126739867.838 7
E02  24585108.712 7  24585109.945 8 129195644.187 7  97735655.392 8
E10  24550516.910 8  24550517.614 8 129013821.162 8  97598129.702 8
E11  23449588.275 7  23449586.597 8 123228602.689 7  93221491.600 8
E12  26820651.062 6  26820651.844 7 140943517.082 6 106622820.365 7
E16  25617029.655 7  25617031.426 8 134618353.661 7 101837939.273 8
E24  27629681.160 5  27629686.840 5 145195073.706 5 109839058.472 5
E25  24333936.919 8  24333938.873 9 127875673.520 8  96737143.181 9
E36  24859708.269 7  24859711.129 8 130638821.617 7  98827308.661 8
G08  22495526.657 7                  22495533.463 6 118214952.837 7                  92115474.287 6
G10  21751057.879 8                  21751065.195 7 114302676.453 8                  89066980.832 7
G16  21258120.452 7  21258124.431 5                 111712182.922 7  87048463.769 5
G18  22358290.285 7                  22358295.731 7 117493760.326 7                  91553480.177 7
G23  20873244.223 7                  20873250.505 8 109689671.374 7                  85472479.488 8
G27  20315414.011 8                  20315420.445 8 106758358.845 8                  83188273.776 8
R08  21187529.557 7  21187533.757 7 113458472.461 7  88245335.428 7
R14  20820590.225 8  20820595.254 7 110985522.132 8  86321981.807 7
R15  21442212.618 8  21442216.205 7 114580803.839 8  89118349.186 7
R17  23006427.343 7  23006433.637 5 123112055.915 7  95753844.507 5
R23  21108211.011 7                 112914771.186 7
R24  19645806.516 8  19645810.090 7 105055133.590 8  81709433.794 7
> 2025 06 15 08 36  5.0000000  0 24
C13  37727096.995 5  37727100.223 4 196454972.911 5 151911392.875 4
C20  24060110.589 7                 125287453.639 7
C29  21426912.484 7                 111575581.595 7
C30  24340380.990 7                 126746842.275 7
E02  24582994.210 7  24582995.451 8 129184532.565 7  97727249.523 8
E10  24551018.250 8  24551019.350 8 129016457.529 8  97600124.087 8
E11  23448858.002 7  23448856.415 8 123224765.822 7  93218589.020 8
E12  26821843.018 6  26821844.208 7 140949782.908 6 106627560.424 7
E16  25618583.918 7  25618585.904 8 134626522.312 7 101844118.790 8
E24  27631606.081 5  27631611.274 6 145205186.525 5 109846708.682 6
E25  24334603.536 8  24334605.583 9 127879177.146 8  96739793.652 9
E36  24856718.678 7  24856721.525 8 130623111.250 7  98815423.881 8
G08  22491498.195 7                  22491505.844 6 118193786.988 7                  92098981.409 6
G10  21747649.719 8                  21747657.053 7 114284765.263 8                  89053024.070 7
G16  21259029.970 7  21259033.564 6                 111716960.504 7  87052186.551 6
G18  22359656.787 7                  22359662.361 7 117500941.960 7                  91559076.267 7
G23  20872456.064 7                  20872461.985 8 109685526.941 7                  85469250.055 8
G27  20313092.892 8                  20313098.269 8 106746155.942 8                  83178765.013 8
R08  21184955.543 7  21184960.305 7 113444692.746 7  88234617.903 7
R14  20821662.913 8  20821667.188 7 110991237.828 8  86326427.366 7
R15  21439508.338 8  21439511.988 7 114566350.856 8  89107107.979 7
R17  23002156.119 6  23002162.042 5 123089201.827 6  95736069.119 5
R23  21109552.955 8                 112921947.674 8
R24  19643666.383 8  19643669.313 7 105043686.202 8  81700530.258 7
> 2025 06 15 08 36 10.0000000  0 24
C13  37726558.807 6  37726560.659 5 196452163.182 6 151909220.210 5
C20  24056559.069 7                 125268958.719 7
C29  21426107.940 7                 111571393.304 7
C30  24341720.514 7                 126753819.766 7
E02  24580881.728 7  24580882.916 8 129173431.565 7  97718851.692 8
E10  24551520.716 8  24551521.837 8 129019098.292 8  97602121.797 8
E11  23448129.221 7  23448127.571 8 123220935.765 7  93215691.604 8
E12  26823035.076 6  26823036.881 7 140956050.253 6 106632301.622 7
E16  25620138.672 7  25620141.331 8 134634696.132 7 101850302.236 8
E24  27633530.533 5  27633535.720 6 145215299.957 5 109854359.436 6
E25  24335271.989 8  24335274.056 9 127882689.933 8  96742451.038 9
E36  24853730.035 7  24853733.032 8 130607406.278 7  98803543.175 8
G08  22487472.004 7                  22487478.871 6 118172626.459 7                  92082492.687 6
G10  21744244.136 8                  21744250.379 7 114266865.725 8                  89039076.354 7
G16  21259941.756 7  21259945.548 5                 111721751.764 7  87055919.980 5
G18  22361024.557 7                  22361030.062 7 117508128.981 7                  91564676.520 7
G23  20871670.237 7                  20871676.062 8 109681398.586 7                  85466033.146 8
G27  20310772.874 8                  20310778.462 8 106733965.110 8                  83169265.666 8
R08  21182385.423 7  21182391.202 7 113430933.886 7  88223916.577 7
R14  20822738.055 8  20822742.963 7 110996971.980 8  86330887.230 7
R15  21436807.498 8  21436811.497 7 114551918.513 8  89095882.845 7
R17  22997886.515 6  22997890.904 5 123066350.384 6  95718295.760 5
R23  21110895.287 8                 112929129.874 8
R24  19641527.105 8  19641530.334 7 105032249.324 8  81691634.911 7
> 2025 06 15 08 36 15.0000000  0 24
C13  37726018.581 5  37726021.129 4 196449356.757 5 151907050.106 4
C20  24053008.787 7                 125250473.992 7
C29  21425305.568 7                 111567213.596 7
C30  24343061.511 6                 126760801.104 6
E02  24578771.511 7  24578772.668 8 129162341.969 7  97710462.488 8
E10  24552024.666 8  24552025.410 8 129021744.271 8  97604123.453 8
E11  23447402.088 7  23447400.202 8 123217113.381 7  93212799.992 8
E12  26824229.306 6  26824229.936 7 140962319.938 6 106637044.586 7
E16  25621695.468 7  25621697.962 8 134642875.956 7 101856490.187 8
E24  27635454.823 5  27635460.538 6 145225414.835 5 109862011.232 6
E25  24335941.980 8  24335944.428 9 127886212.647 8  96745115.942 9
E36  24850742.876 7  24850745.685 9 130591707.503 7  98791667.150 9
G08  22483445.555 7                  22483452.919 6 118151472.047 7                  92066008.749 6
G10  21740840.428 8                  21740846.908 7 114248978.628 8                  89025138.367 7
G16  21260855.663 7  21260859.964 5                 111726557.500 7  87059664.712 5
G18  22362392.920 7                  22362398.683 7 117515322.157 7                  91570281.563 7
G23  20870888.432 7                  20870893.582 8 109677287.091 7                  85462829.372 8
G27  20308455.546 8                  20308461.304 7 106721787.183 8                  83159776.363 7
R08  21179820.931 7  21179826.610 7 113417196.760 7  88213232.178 7
R14  20823817.457 8  20823822.656 7 111002725.384 8  86335362.077 7
R15  21434110.522 8  21434114.299 7 114537507.649 8  89084674.413 7
R17  22993616.673 7  22993621.315 5 123043502.304 7  95700525.017 5
R23  21112238.976 8                 112936318.581 8
R24  19639390.114 8  19639393.396 7 105020823.627 8  81682748.252 7
> 2025 06 15 08 36 20.0000000  0 24
C13  37725479.689 5  37725482.860 4 196446553.291 5 151904882.277 4
C20  24049460.304 7                 125231999.122 7
C29  21424503.706 7                 111563042.160 7
C30  24344402.483 6                 126767786.010 6
E02  24576663.283 7  24576664.426 8 129151263.484 7  97702081.695 8
E10  24552528.713 8  24552529.822 8 129024395.147 8  97606128.816 8
E11  23446675.786 7  23446674.236 8 123213298.363 7  93209913.954 8
E12  26825422.829 6  26825423.427 7 140968591.657 6 106641789.100 7
E16  25623252.800 7  25623255.664 8 134651061.476 7 101862682.459 8
E24  27637380.021 5  27637385.695 6 145235530.917 5 109869663.945 6
E25  24336613.893 8  24336616.581 9 127889745.011 8  96747788.144 9
E36  24847756.497 7  24847759.448 9 130576014.628 7  98779795.604 9
G08  22479422.408 7                  22479428.705 6 118130323.536 7                  92049529.401 6
G10  21737438.574 8                  21737445.282 7 114231103.648 8                  89011209.821 7
G16  21261772.865 7  21261777.318 5                 111731377.387 7  87063420.449 5
G18  22363763.680 7                  22363768.751 7 117522521.161 7                  91575891.152 7
G23  20870109.340 8                  20870113.999 8 109673192.159 8                  85459638.518 8
G27  20306140.955 8                  20306146.088 8 106709621.832 8                  83150296.865 8
R08  21177257.876 7  21177265.241 7 113403481.002 7  88202564.395 7
R14  20824900.211 8  20824906.061 7 111008497.615 8  86339851.564 7
R15  21431417.681 8  21431421.606 7 114523118.050 8  89073482.502 7
R17  22989348.111 6  22989351.910 5 123020657.316 6  95682756.660 5
R23  21113583.626 7                 112943513.516 7
R24  19637256.014 8  19637258.885 7 105009408.958 8  81673870.190 7
> 2025 06 15 08 36 25.0000000  0 25
C13  37724941.908 5  37724945.010 4 196443752.314 5 151902716.359 4
C20  24045914.713 7                 125213533.691 7
C29  21423704.733 7                 111558878.604 7
C30  24345744.376 6                 126774774.007 6
E02  24574557.203 7  24574558.329 8 129140195.714 7  97693708.991 8
E10  24553034.085 8  24553035.162 8 129027050.483 8  97608137.558 8
E11  23445951.187 7  23445949.558 8 123209490.282 7  93207033.160 8
E12  26826616.504 6  26826617.184 7 140974864.911 6 106646534.761 7
E16  25624811.330 7  25624814.339 8 134659252.224 7 101868878.690 8
E24  27639305.363 5  27639310.930 6 145245647.671 5 109877317.180 6
E25  24337287.849 8  24337290.537 9 127893286.553 8  96750467.296 9
E36  24844770.980 7  24844774.235 8 130560327.234 7  98767928.187 8
G08  22475398.389 7                  22475405.301 6 118109180.459 7                  92033054.299 6
G10  21734039.209 8                  21734045.877 7 114213240.402 8                  88997290.400 7
G16  21262692.674 7  21262697.037 5                 111736211.018 7  87067186.900 5
G18  22365134.859 7                  22365139.679 7 117529725.563 7                  91581504.969 7
G23  20869332.649 8                  20869337.913 8 109669113.328 8                  85456460.225 8
G27  20303828.429 8                  20303833.524 8 106697468.685 8                  83140826.889 8
R07  22433972.516 5                 120090796.83815
R08  21174701.981 7  21174708.157 8 113389786.224 7  88191912.897 8
R14  20825985.760 8  20825992.056 7 111014288.450 8  86344355.581 7
R15  21428728.391 8  21428732.066 7 114508749.052 8  89062306.615 7
R17  22985077.324 6  22985083.017 5 122997815.052 6  95664990.405 5
R23  21114930.185 7                 112950714.402 7
R24  19635122.836 8  19635126.509 7 104998004.742 8  81665000.266 7
> 2025 06 15 08 36 30.0000000  0 25
C13  37724403.546 5  37724407.520 4 196440953.760 5 151900552.331 4
C20  24042370.284 7                 125195077.612 7
C29  21422906.278 7                 111554722.792 7
C30  24347087.194 6                 126781765.030 6
E02  24572453.127 7  24572454.223 8 129129138.517 7  97685344.296 8
E10  24553540.118 8  24553541.204 8 129029710.160 8  97610149.589 8
E11  23445227.851 7  23445226.127 8 123205689.002 7  93204157.513 8
E12  26827811.063 6  26827811.281 7 140981139.654 6 106651281.555 7
E16  25626370.905 7  25626373.956 8 134667448.089 7 101875078.791 8
E24  27641230.364 5  27641236.435 6 145255764.933 5 109884970.810 6
E25  24337963.229 8  24337966.267 9 127896837.174 8  96753153.311 9
E36  24841786.356 7  24841790.010 8 130544645.184 7  98756064.820 8
G08  22471376.164 7                  22471383.371 6 118088042.702 7                  92016583.311 6
G10  21730642.841 8                  21730648.743 7 114195388.794 8                  88983380.057 7
G16  21263614.915 7  21263619.269 5                 111741058.203 7  87070963.923 5
G18  22366505.906 7                  22366511.810 7 117536935.227 7                  91587122.880 7
G23  20868559.753 8                  20868564.487 8 109665050.500 8                  85453294.390 8
G27  20301517.389 8                  20301523.384 8 106685327.578 8                  83131366.293 8
R07  22434845.698 5  22434849.836 3 120095437.678 5  93407612.91713
R08  21172148.550 7  21172154.630 7 113376112.301 7  88181277.644 7
R14  20827076.497 8  20827081.663 7 111020097.442 8  86348873.671 7
R15  21426043.008 7  21426047.600 7 114494400.846 7  89051146.881 7
R17  22980808.698 6  22980816.597 6 122974975.321 6  95647226.149 6
R23  21116277.398 7                 112957920.871 7
R24  19632991.271 8  19632995.744 7 104986610.897 8  81656138.401 7
> 2025 06 15 08 36 35.0000000  0 25
C13  37723866.484 5  37723870.585 4 196438157.751 5 151898390.283 4
C20  24038827.864 7                 125176631.020 7
C29  21422109.992 7                 111550574.861 7
C30  24348430.973 6                 126788759.185 6
E02  24570351.002 7  24570352.090 8 129118092.018 7  97676987.695 8
E10  24554047.061 8  24554048.167 8 129032374.324 8  97612165.002 8
E11  23444506.301 7  23444504.059 8 123201894.643 7  93201287.100 8
E12  26829005.191 6  26829005.617 7 140987415.986 6 106656029.550 7
E16  25627931.714 7  25627934.560 8 134675649.210 7 101881282.880 8
E24  27643156.786 5  27643161.911 6 145265883.013 5 109892625.035 6
E25  24338641.040 8  24338643.632 8 127900397.003 8  96755846.296 8
E36  24838803.268 7  24838806.866 9 130528968.623 7  98744205.602 9
G08  22467354.872 7                  22467362.161 7 118066910.426 7                  92000116.617 7
G10  21727247.639 8                  21727254.328 7 114177548.942 8                  88969478.898 7
G16  21264540.278 7  21264544.302 5                 111745919.133 7  87074751.651 5
G18  22367878.517 7                  22367884.473 8 117544150.316 7                  91592745.017 8
G23  20867789.518 7                  20867794.377 8 109661003.833 7                  85450141.139 8
G27  20299208.580 8                  20299215.434 8 106673198.690 8                  83121915.205 8
R07  22435719.410 4                 120100097.499 4
R08  21169597.372 7  21169604.045 7 113362459.477 7  88170658.780 7
R14  20828169.565 8  20828174.458 7 111025925.150 8  86353406.335 7
R15  21423361.688 7  21423365.899 7 114480073.397 7  89040003.315 7
R17  22976541.004 6  22976551.138 6 122952138.280 6  95629464.010 6
R23  21117625.510 7                 112965133.157 7
R24  19630862.411 8  19630866.735 7 104975227.597 8  81647284.719 7
> 2025 06 15 08 36 40.0000000  0 25
C13  37723330.254 5  37723334.568 4 196435365.135 5 151896230.800 4
C20  24035287.978 7                 125158194.849 7
C29  21421314.982 7                 111546435.723 7
C30  24349774.434 6                 126795757.379 6
E02  24568251.274 7  24568252.215 8 129107057.179 7  97668639.912 8
E10  24554555.232 8  24554556.174 8 129035043.877 8  97614184.502 8
E11  23443785.739 7  23443783.496 8 123198108.146 7  93198422.633 8
E12  26830200.335 6  26830200.469 7 140993694.827 6 106660779.441 7
E16  25629492.738 7  25629496.362 8 134683856.512 7 101887491.636 8
E24  27645081.402 5  27645087.622 6 145276002.688 5 109900280.476 6
E25  24339320.801 8  24339322.977 8 127903966.951 8  96758546.933 8
E36  24835820.913 7  24835824.926 8 130513298.458 7  98732351.226 8
G08  22463334.688 7                  22463342.040 7 118045784.545 7                  91983654.893 7
G10  21723855.423 8                  21723861.999 7 114159721.781 8                  88955587.620 7
G16  21265468.124 7  21265472.448 5                 111750794.667 7  87078550.750 5
G18  22369253.668 7                  22369258.926 7 117551371.732 7                  91598372.086 7
G23  20867023.579 8                  20867027.475 8 109656974.198 8                  85447001.157 8
G27  20296903.667 8                  20296909.795 8 106661082.923 8                  83112474.353 8
R07  22436597.566 3                 120104777.008 3
R08  21167052.453 7  21167058.178 7 113348828.498 7  88160056.896 7
R14  20829266.151 8  20829271.027 7 111031772.029 8  86357953.899 7
R15  21420683.891 7  21420688.564 7 114465767.610 7  89028876.596 7
R17  22972275.088 6  22972284.491 6 122929304.982 6  95611704.761 6
R23  21118974.525 7                 112972352.277 7
R24  19628736.068 8  19628740.869 7 104963855.788 8  81638439.983 7
> 2025 06 15 08 36 45.0000000  0 25
C13  37722794.573 5  37722798.367 4 196432575.172 5 151894073.441 4
C20  24031749.372 7                 125139768.318 7
C26  24462519.777 5                 127382739.76615
C29  21420521.759 7                 111542304.555 7
C30  24351119.150 6                 126802758.817 6
E02  24566153.766 7  24566154.378 8 129096033.177 7  97660300.325 8
E10  24555063.778 8  24555065.026 8 129037717.992 8  97616207.451 8
E11  23443066.781 7  23443064.257 8 123194328.685 7  93195563.493 8
E12  26831395.827 6  26831395.616 7 140999975.375 6 106665530.631 7
E16  25631055.817 7  25631059.139 8 134692069.152 7 101893704.427 8
E24  27647007.512 5  27647013.480 6 145286123.106 5 109907936.504 6
E25  24340002.056 8  24340004.074 8 127907546.234 8  96761254.628 8
E36  24832840.496 7  24832844.049 8 130497633.921 7  98720501.107 8
G08  22459315.477 7                  22459323.427 7 118024664.270 7                  91967197.521 7
G10  21720464.896 8                  21720471.919 7 114141906.537 8                  88941705.616 7
G16  21266398.747 7  21266402.882 5                 111755683.977 7  87082360.594 5
G18  22370627.518 7                  22370634.346 8 117558598.629 7                  91604003.435 8
G23  20866259.467 8                  20866263.754 8 109652960.813 8                  85443873.849 8
G27  20294599.949 8                  20294606.252 8 106648979.472 8                  83103043.104 8
R08  21164510.414 7  21164516.203 7 113335218.628 7  88149471.448 7
R14  20830366.783 8  20830371.912 7 111037637.646 8  86362516.022 7
R15  21418011.342 7  21418015.551 7 114451482.893 7  89017766.251 7
R17  22968010.407 7  22968016.671 6 122906474.326 7  95593947.619 6
R23  21120325.628 7                 112979577.386 7
R24  19626611.694 8  19626616.055 7 104952494.636 8  81629603.520 7
> 2025 06 15 08 36 50.0000000  0 25
C13  37722259.397 5  37722262.116 4 196429788.575 5 151891918.646 4
C20  24028213.232 7                 125121352.065 7
C26  24461901.613 5                 127379510.818 5
C29  21419730.270 7                 111538182.046 7
C30  24352464.877 6                 126809764.172 6
E02  24564058.418 7  24564058.780 8 129085020.693 7  97651969.455 8
E10  24555574.045 8  24555574.899 8 129040397.367 8  97618234.372 8
E11  23442349.101 7  23442346.520 8 123190556.923 7  93192710.172 8
E12  26832590.975 6  26832591.214 7 141006258.301 6 106670283.611 7
E16  25632619.974 7  25632623.132 8 134700287.825 7 101899921.770 8
E24  27648933.947 5  27648939.575 6 145296245.075 5 109915593.687 6
E25  24340685.114 8  24340687.068 9 127911135.479 8  96763969.864 9
E36  24829861.008 7  24829864.367 8 130481975.624 7  98708655.713 8
G08  22455297.337 7                  22455306.097 7 118003550.279 7                  91950745.051 7
G10  21717076.689 8                  21717084.165 7 114124103.849 8                  88927833.396 7
G16  21267332.317 7  21267336.226 5                 111760587.785 7  87086181.746 5
G18  22372004.575 7                  22372010.994 8 117565831.706 7                  91609639.586 8
G23  20865498.950 8                  20865503.395 8 109648964.354 8                  85440759.728 8
G27  20292299.361 8                  20292305.326 8 106636889.021 8                  83093621.997 8
R08  21161974.430 7  21161979.217 7 113321630.685 7  88138903.070 7
R14  20831470.253 8  20831475.713 7 111043522.344 8  86367093.024 7
R15  21415341.485 7  21415346.337 7 114437219.790 7  89006672.730 7
R17  22963743.981 6  22963750.523 6 122883647.202 6  95576193.241 6
R23  21121676.300 7                 112986809.007 7
R24  19624489.952 8  19624493.493 7 104941144.885 8  81620775.937 7
> 2025 06 15 08 36 55.0000000  0 25
C13  37721724.000 5  37721727.050 4 196427005.057 5 151889766.266 4
C20  24024678.651 7                 125102945.886 7
C26  24461284.663 5                 127376295.840 5
C29  21418940.029 7                 111534067.949 7
C30  24353810.370 6                 126816773.190 6
E02  24561964.300 7  24561965.318 8 129074019.479 7  97643647.105 8
E10  24556084.845 8  24556085.715 8 129043081.724 8  97620265.070 8
E11  23441632.692 7  23441630.181 8 123186792.617 7  93189862.499 8
E12  26833787.747 6  26833787.268 7 141012543.318 6 106675038.187 7
E16  25634185.728 7  25634188.218 8 134708512.226 7 101906143.456 8
E24  27650859.672 5  27650865.950 6 145306368.194 5 109923251.736 6
E25  24341369.402 8  24341371.887 8 127914734.435 8  96766692.450 8
E36  24826882.148 7  24826885.799 8 130466323.375 7  98696814.896 8
G08  22451280.461 7                  22451289.346 7 117982442.314 7                  91934297.286 7
G10  21713691.454 8                  21713698.692 7 114106313.500 8                  88913970.802 7
G16  21268267.668 7  21268271.911 5                 111765505.795 7  87090013.955 5
G18  22373382.493 7                  22373388.514 8 117573070.700 7                  91615280.364 8
G23  20864741.373 8                  20864746.319 8 109644984.534 8                  85437658.571 8
G27  20290000.713 8                  20290007.359 8 106624811.349 8                  83084210.828 8
R08  21159441.041 7  21159445.885 7 113308064.378 7  88128351.509 7
R14  20832578.011 8  20832583.495 7 111049425.817 8  86371684.585 7
R15  21412677.077 7  21412681.114 7 114422978.031 7  88995595.803 7
R17  22959479.349 6  22959485.193 6 122860823.329 6  95558441.396 6
R23  21123029.185 7                 112994046.946 7
R24  19622369.517 8  19622372.583 7 104929806.091 8  81611956.882 7
> 2025 06 15 08 37  0.0000000  0 26
C13  37721190.133 5  37721193.692 4 196424224.258 5 151887615.979 4
C20  24021145.609 7                 125084549.467 7
C26  24460671.800 5                 127373094.531 5
C29  21418151.698 7                 111529961.965 7
C30  24355156.855 6                 126823785.550 6
E02  24559873.190 7  24559873.942 8 129063029.225 7  97635333.051 8
E10  24556596.559 8  24556597.513 8 129045770.755 8  97622299.300 8
E11  23440918.026 7  23440915.218 8 123183035.463 7  93187020.234 8
E12  26834983.516 6  26834983.676 7 141018830.161 6 106679794.137 7
E16  25635751.478 7  25635754.355 8 134716742.062 7 101912369.261 8
E24  27652786.694 5  27652792.491 5 145316492.258 5 109930910.477 5
E25  24342056.132 8  24342058.583 8 127918342.816 8  96769422.155 8
E36  24823904.991 7  24823908.323 8 130450676.828 7  98684978.395 8
G08  22447264.454 7                  22447273.325 7 117961340.106 7                  91917854.018 7
G10  21710308.862 8                  21710315.381 7 114088535.189 8                  88900117.573 7
G16  21269206.361 7  21269210.351 5                 111770437.714 7  87093856.998 5
G18  22374761.150 7                  22374767.026 8 117580315.307 7                  91620925.521 8
G23  20863986.712 7                  20863991.776 8 109641021.061 7                  85434570.155 8
G27  20287705.033 8                  20287711.627 7 106612746.156 8                  83074809.391 7
R07  22440126.805 5                                
R08  21156911.648 7  21156916.753 7 113294519.298 7  88117816.427 7
R14  20833689.051 8  20833693.988 7 111055347.954 8  86376290.689 7
R15  21410015.350 7  21410019.910 7 114408757.493 7  88984535.379 7
R17  22955212.787 6  22955220.502 6 122838002.421 6  95540691.848 6
R23  21124382.836 7                 113001290.951 7
R24  19620251.621 8  19620254.850 7 104918478.200 8  81603146.296 7
> 2025 06 15 08 37  5.0000000  0 26
C13  37720656.436 5  37720661.253 4 196421445.402 5 151885467.194 4
C20  24017614.769 7                 125066162.111 7
C26  24460054.729 4                 127369906.140 4
C29  21417364.463 7                 111525863.320 7
C30  24356504.343 6                 126830800.480 6
E02  24557783.577 7  24557784.511 8 129052049.182 7  97627026.724 8
E10  24557109.451 8  24557109.959 8 129048463.724 8  97624336.507 8
E11  23440204.408 7  23440201.500 8 123179284.680 7  93184182.798 8
E12  26836180.066 6  26836180.293 7 141025118.034 6 106684550.857 7
E16  25637318.891 7  25637321.383 8 134724976.572 7 101918598.604 8
E24  27654713.969 5  27654719.001 5 145326616.462 5 109938569.344 5
E25  24342744.396 8  24342746.916 9 127921959.829 8  96772158.398 9
E36  24820928.763 7  24820931.807 8 130435035.250 7  98673145.647 8
G08  22443250.998 7                  22443258.629 7 117940242.848 7                  91901414.604 7
G10  21706927.587 8                  21706934.454 7 114070768.155 8                  88886273.146 7
G16  21270146.807 7  21270151.258 5                 111775382.748 7  87097710.271 5
G18  22376140.495 7                  22376146.501 7 117587564.759 7                  91626574.436 7
G23  20863235.470 7                  20863241.364 8 109637073.173 7                  85431493.891 8
G27  20285410.970 8                  20285417.462 7 106600692.660 8                  83065417.057 7
R07  22441026.223 5  22441033.375 4 120128452.63115  93433349.10214
R08  21154387.005 7  21154391.282 7 113280994.804 7  88107297.379 7
R14  20834803.780 8  20834808.759 7 111061288.002 8  86380910.740 7
R15  21407357.768 7  21407362.484 7 114394557.265 7  88973490.757 7
R17  22950949.218 6  22950956.391 6 122815183.687 6  95522943.963 6
R23  21125738.222 7                 113008540.350 7
R24  19618134.741 8  19618138.427 7 104907160.298 8  81594343.499 7
> 2025 06 15 08 37 10.0000000  0 25
C13  37720123.514 5  37720129.314 4 196418668.914 5 151883320.264 4
C20  24014085.298 7                 125047784.125 7
C26  24459444.521 5                 127366730.943 5
C29  21416579.135 7                 111521772.365 7
C30  24357852.008 6                 126837818.369 6
E02  24555696.452 7  24555697.060 8 129041079.703 7  97618728.395 8
E10  24557622.542 8  24557623.236 8 129051160.937 8  97626376.928 8
E11  23439491.808 7  23439489.058 8 123175540.639 7  93181350.461 8
E12  26837377.365 6  26837377.124 7 141031407.299 6 106689308.648 7
E16  25638885.883 7  25638889.319 8 134733216.100 7 101924831.747 8
E24  27656639.188 5  27656645.631 5 145336741.151 5 109946228.591 5
E25  24343434.864 8  24343436.928 8 127925585.843 8  96774901.439 8
E36  24817952.945 7  24817956.304 8 130419398.985 7  98661316.924 8
G08  22439237.077 7                  22439245.220 7 117919150.949 7                  91884979.374 7
G10  21703548.686 8                  21703555.608 7 114053012.771 8                  88872437.783 7
G16  21271090.974 7  21271094.591 5                 111780341.260 7  87101574.056 5
G18  22377520.650 7                  22377526.813 8 117594819.366 7                  91632227.381 8
G23  20862487.675 7                  20862492.921 8 109633141.230 7                  85428430.039 8
G27  20283119.655 8                  20283126.287 7 106588651.228 8                  83056034.119 7
R08  21151864.451 7  21151869.772 7 113267491.201 7  88096794.596 7
R14  20835921.440 8  20835926.652 7 111067246.215 8  86385544.903 7
R15  21404704.960 8  21404709.518 7 114380377.705 8  88962462.207 7
R17  22946685.248 7  22946692.808 6 122792367.577 7  95505198.117 6
R23  21127095.430 7                 113015795.230 7
R24  19616019.746 8  19616023.609 7 104895852.768 8  81585548.741 7
> 2025 06 15 08 37 15.0000000  0 25
C13  37719591.335 5  37719596.338 4 196415894.745 5 151881175.101 4
C20  24010557.248 7                 125029415.530 7
C26  24458837.190 5                 127363568.943 5
C29  21415794.763 7                 111517689.112 7
C30  24359200.894 6                 126844839.159 6
E02  24553610.697 7  24553611.665 8 129030120.797 7  97610438.056 8
E10  24558136.441 8  24558137.386 8 129053862.398 8  97628420.567 8
E11  23438780.592 7  23438777.929 8 123171803.296 7  93178523.192 8
E12  26838573.637 6  26838574.224 7 141037697.935 6 106694067.474 7
E16  25640455.024 7  25640458.235 8 134741460.634 7 101931068.662 8
E24  27658566.369 5  27658572.345 5 145346866.213 5 109953888.113 5
E25  24344126.279 8  24344128.692 8 127929220.812 8  96777651.261 8
E36  24814979.342 7  24814981.785 8 130403768.039 7  98649492.208 8
G08  22435224.729 7                  22435232.274 7 117898064.395 7                  91868548.310 7
G10  21700172.508 8                  21700178.948 7 114035269.031 8                  88858611.503 7
G16  21272036.536 7  21272040.684 5                 111785313.218 7  87105448.309 5
G18  22378902.468 7                  22378908.296 8 117602079.145 7                  91637884.354 8
G23  20861742.166 7                  20861747.776 8 109629225.194 7                  85425378.570 8
G27  20280830.942 8                  20280837.199 7 106576621.865 8                  83046660.591 7
R08  21149346.022 7  21149351.674 7 113254008.519 7  88086308.077 7
R14  20837043.555 8  20837048.492 7 111073222.391 8  86390193.028 7
R15  21402055.289 8  21402060.173 7 114366218.835 8  88951449.771 7
R17  22942422.348 7  22942428.876 6 122769553.976 7  95487454.201 6
R23  21128451.370 7                 113023055.700 7
R24  19613907.353 8  19613910.665 7 104884555.559 8  81576762.004 7
> 2025 06 15 08 37 20.0000000  0 26
C13  37719059.280 5  37719064.083 4 196413123.914 5 151879032.495 4
C20  24007031.406 7                 125011057.299 7
C26  24458232.558 5                 127360421.156 5
C29  21415012.501 7                 111513614.488 7
C30  24360549.738 7                 126851863.842 7
E02  24551527.127 7  24551528.441 8 129019173.410 7  97602156.435 8
E10  24558651.112 8  24558652.502 8 129056569.065 8  97630468.142 8
E11  23438070.719 7  23438068.244 8 123168073.628 7  93175701.723 8
E12  26839771.311 6  26839771.730 7 141043990.932 6 106698828.073 7
E16  25642025.649 7  25642028.232 8 134749711.121 7 101937310.088 8
E24  27660493.477 6  27660499.407 5 145356992.825 6 109961548.800 5
E25  24344819.724 8  24344822.331 9 127932865.712 8  96780408.601 9
E36  24812005.570 7  24812008.454 9 130388143.349 7  98637672.243 9
G08  22431212.254 7                  22431220.410 7 117876984.161 7                  91852122.189 7
G10  21696798.227 8                  21696804.787 7 114017537.884 8                  88844795.036 7
G16  21272985.331 7  21272989.423 5                 111790299.661 7  87109333.841 5
G18  22380285.463 7                  22380291.372 8 117609345.067 7                  91643546.091 8
G23  20861000.237 7                  20861005.659 8 109625326.041 7                  85422340.267 8
G27  20278543.865 8                  20278550.230 8 106564605.533 8                  83037297.211 8
R07  22443751.130 5                                
R08  21146831.193 7  21146837.783 7 113240547.704 7  88075838.591 7
R14  20838168.170 8  20838172.906 7 111079217.722 8  86394856.040 7
R15  21399410.389 8  21399415.024 7 114352081.660 8  88940454.195 7
R17  22938161.039 6  22938165.955 5 122746743.868 6  95469713.027 5
R23  21129810.758 7                 113030322.831 7
R24  19611797.916 8  19611800.172 7 104873269.725 8  81567984.130 7
> 2025 06 15 08 37 25.0000000  0 26
C13  37718528.162 5  37718532.820 4 196410355.800 5 151876892.031 4
C20  24003507.523 7                 124992708.898 7
C26  24457630.494 5                 127357286.985 5
C29  21414232.055 7                 111509548.022 7
C30  24361899.800 7                 126858891.894 7
E02  24549446.087 7  24549447.315 8 129008237.061 7  97593883.157 8
E10  24559167.125 8  24559168.544 8 129059280.441 8  97632519.276 8
E11  23437362.172 7  23437359.907 8 123164351.129 7  93172885.677 8
E12  26840969.286 6  26840969.612 7 141050285.720 6 106703590.037 7
E16  25643597.242 7  25643599.308 8 134757967.069 7 101943555.653 8
E24  27662421.355 6  27662426.670 5 145367120.277 6 109969210.134 5
E25  24345514.935 8  24345517.765 9 127936520.056 8  96783173.073 9
E36  24809033.386 7  24809036.238 9 130372524.414 7  98625856.620 9
G08  22427202.335 7                  22427210.299 7 117855909.756 7                  91835700.591 7
G10  21693426.649 8                  21693433.331 7 113999818.852 8                  88830988.016 7
G16  21273936.934 7  21273941.136 5                 111795299.962 7  87113230.147 5
G18  22381669.017 7                  22381674.908 8 117616616.598 7                  91649212.208 8
G23  20860261.257 8                  20860267.236 8 109621443.250 8                  85419314.727 8
G27  20276260.002 8                  20276266.389 7 106552601.741 8                  83027943.598 7
R07  22444655.008 4                                
R08  21144321.550 7  21144328.039 7 113227108.303 7  88065385.727 7
R14  20839295.166 8  20839301.116 7 111085231.657 8  86399533.528 7
R15  21396768.588 8  21396772.782 7 114337965.677 8  88929475.117 7
R17  22933898.246 6  22933903.108 5 122723936.729 6  95451974.116 5
R23  21131170.477 7                 113037595.907 7
R24  19609688.442 8  19609691.839 7 104861994.560 8  81559214.558 7
> 2025 06 15 08 37 30.0000000  0 25
C13  37717996.876 5  37718001.390 4 196407590.476 5 151874753.693 4
C20  23999985.624 7                 124974370.460 7
C26  24457030.989 5                 127354166.547 5
C29  21413452.642 7                 111505489.737 7
C30  24363249.820 7                 126865923.345 7
E02  24547367.569 7  24547368.302 8 128997311.786 7  97585618.251 8
E10  24559683.983 8  24559685.456 8 129061996.552 8  97634573.988 8
E11  23436655.338 7  23436652.957 8 123160635.870 7  93170075.109 8
E12  26842167.788 6  26842167.854 7 141056582.411 6 106708353.437 7
E16  25645169.227 7  25645171.361 8 134766228.477 7 101949805.346 8
E24  27664348.377 6  27664354.062 5 145377248.655 6 109976872.130 5
E25  24346212.408 7  24346214.970 9 127940183.865 7  96785944.710 9
E36  24806062.213 7  24806065.153 8 130356911.290 7  98614045.398 8
G08  22423192.646 7                  22423200.724 7 117834841.205 7                  91819283.553 7
G10  21690056.746 8                  21690063.773 7 113982112.022 8                  88817190.495 7
G16  21274891.372 7  21274895.151 5                 111800314.130 7  87117137.287 5
G18  22383053.198 7                  22383059.875 7 117623893.763 7                  91654882.712 7
G23  20859525.779 8                  20859531.582 8 109617576.894 8                  85416301.963 8
G27  20273978.173 8                  20273984.090 7 106540610.524 8                  83018599.790 7
R08  21141814.863 7  21141822.035 7 113213690.382 7  88054949.574 7
R14  20840426.914 8  20840432.580 8 111091264.093 8  86404225.411 8
R15  21394131.368 8  21394135.178 7 114323870.964 8  88918512.556 7
R17  22929636.471 6  22929641.147 5 122701132.615 6  95434237.587 5
R23  21132531.328 7                 113044875.123 7
R24  19607582.146 8  19607585.531 7 104850730.371 8  81550453.537 7
> 2025 06 15 08 37 35.0000000  0 25
C13  37717466.211 5  37717470.754 4 196404827.975 5 151872617.577 4
C20  23996465.973 7                 124956041.819 7
C26  24456434.385 5                 127351059.628 5
C29  21412674.642 7                 111501439.544 7
C30  24364600.856 7                 126872958.140 7
E02  24545290.489 7  24545291.404 8 128986397.517 7  97577361.687 8
E10  24560201.631 8  24560203.187 8 129064717.304 8  97636632.209 8
E11  23435949.085 7  23435947.312 8 123156927.689 7  93167269.890 8
E12  26843366.609 6  26843366.430 7 141062880.862 6 106713118.164 7
E16  25646742.241 7  25646744.476 8 134774495.258 7 101956059.110 8
E24  27666275.191 6  27666281.580 5 145387377.910 6 109984534.818 5
E25  24346911.334 8  24346913.973 9 127943857.033 8  96788723.433 9
E36  24803091.881 7  24803095.166 9 130341303.896 7  98602238.513 9
G08  22419184.541 6                  22419192.831 7 117813778.471 6                  91802871.040 7
G10  21686689.303 8                  21686696.506 7 113964417.265 8                  88803402.355 7
G16  21275847.874 7  21275851.375 5                 111805342.140 7  87121055.202 5
G18  22384439.045 7                  22384445.892 8 117631176.477 7                  91660557.549 8
G23  20858793.574 8                  20858798.705 8 109613726.833 8                  85413301.911 8
G27  20271698.588 8                  20271704.723 7 106528631.804 8                  83009265.713 7
R08  21139314.354 7  21139320.289 7 113200293.786 7  88044529.955 7
R14  20841561.214 8  20841567.769 8 111097315.259 8  86408931.866 8
R15  21391497.412 8  21391501.661 7 114309797.321 8  88907566.395 7
R17  22925374.216 6  22925379.328 5 122678331.538 6  95416503.377 5
R23  21133894.615 7                 113052160.313 7
R24  19605477.729 8  19605480.822 7 104839476.982 8  81541700.891 7
> 2025 06 15 08 37 40.0000000  0 25
C13  37716935.938 5  37716940.645 4 196402067.481 5 151870482.953 4
C20  23992948.457 7                 124937722.342 7
C26  24455840.186 5                 127347965.683 5
C29  21411898.949 7                 111497396.771 7
C30  24365952.516 7                 126879995.571 7
E02  24543215.629 7  24543216.435 8 128975493.563 7  97569112.918 8
E10  24560720.285 8  24560721.743 8 129067442.024 8  97638693.429 8
E11  23435244.546 7  23435242.969 8 123153225.968 7  93164469.564 8
E12  26844564.561 6  26844565.182 7 141069180.372 6 106717883.681 7
E16  25648315.733 7  25648318.535 8 134782766.763 7 101962316.438 8
E24  27668203.005 6  27668209.186 5 145397507.324 6 109992197.636 5
E25  24347612.285 8  24347614.618 9 127947538.874 8  96791508.715 9
E36  24800123.351 7  24800126.098 9 130325701.539 7  98590435.434 9
G08  22415177.536 7                  22415185.293 7 117792720.819 7                  91786462.505 7
G10  21683324.657 8                  21683331.316 7 113946733.921 8                  88789623.135 7
G16  21276807.496 7  21276810.776 5                 111810383.264 7  87124983.338 5
G18  22385826.318 7                  22385832.565 8 117638464.063 7                  91666236.191 8
G23  20858064.109 8                  20858068.698 8 109609892.396 8                  85410314.033 8
G27  20269421.857 8                  20269427.318 7 106516664.914 8                  82999940.859 7
R08  21136817.212 7  21136822.423 7 113186917.894 7  88034126.466 7
R14  20842699.999 7  20842705.936 7 111103384.082 7  86413652.061 7
R15  21388866.774 7  21388871.557 7 114295744.160 7  88896636.206 7
R17  22921111.725 6  22921117.129 4 122655532.580 6  95398770.995 4
R23  21135257.682 7                 113059450.758 7
R24  19603375.482 8  19603378.581 7 104828233.654 8  81532956.069 7
> 2025 06 15 08 37 45.0000000  0 26
C13  37716406.388 5  37716411.148 4 196399308.955 5 151868349.881 4
C20  23989432.555 7                 124919411.963 7
C26  24455249.632 5                 127344884.452 5
C29  21411123.800 7                 111493361.300 7
C30  24367304.614 7                 126887035.524 7
E02  24541142.683 7  24541143.457 8 128964599.831 7  97560871.876 8
E10  24561239.588 8  24561240.982 8 129070170.573 8  97640757.550 8
E11  23434541.522 7  23434539.750 8 123149530.567 7  93161674.019 8
E12  26845763.493 6  26845764.078 7 141075480.843 6 106722649.928 7
E16  25649890.830 7  25649893.377 8 134791042.848 7 101968577.221 8
E24  27670129.483 6  27670136.777 5 145407636.782 6 109999860.460 5
E25  24348314.360 8  24348316.899 9 127951229.286 8  96794300.473 9
E36  24797155.007 7  24797158.006 8 130310104.099 7  98578636.080 8
G08  22411171.500 7                  22411179.324 7 117771668.220 7                  91770057.899 7
G10  21679961.714 8                  21679968.217 7 113929061.863 8                  88775852.703 7
G16  21277769.594 7  21277772.592 5                 111815437.357 7  87128921.590 5
G18  22387213.714 7                  22387219.925 8 117645756.395 7                  91671918.509 8
G23  20857337.256 8                  20857341.704 8 109606073.456 8                  85407338.232 8
G27  20267147.037 8                  20267152.190 7 106504709.707 8                  82990625.133 7
R07  22448286.359 5                 120167588.04115
R08  21134324.072 8  21134327.896 7 113173562.639 8  88023739.063 7
R14  20843841.162 7  20843847.638 7 111109470.370 7  86418385.838 7
R15  21386240.127 8  21386245.380 7 114281711.370 8  88885721.850 7
R17  22916851.704 6  22916857.090 4 122632735.844 6  95381040.259 4
R23  21136621.054 7                 113066746.424 7
R24  19601275.389 8  19601277.682 7 104817000.294 8  81524219.008 7
> 2025 06 15 08 37 50.0000000  0 26
C13  37715876.645 5  37715882.159 4 196396553.048 5 151866218.791 4
C20  23985918.558 7                 124901111.378 7
C26  24454662.774 5                 127341816.854 5
C29  21410349.667 7                 111489333.890 7
C30  24368657.489 7                 126894078.753 7
E02  24539071.792 7  24539072.573 8 128953717.021 7  97552639.097 8
E10  24561759.656 8  24561761.044 8 129072903.668 8  97642825.129 8
E11  23433839.930 7  23433837.889 8 123145842.197 7  93158883.779 8
E12  26846964.225 6  26846963.306 7 141081783.013 6 106727417.464 7
E16  25651466.607 7  25651469.275 8 134799324.228 7 101974842.016 8
E24  27672057.992 6  27672064.523 5 145417766.977 6 110007523.864 5
E25  24349018.075 8  24349020.957 9 127954928.978 8  96797099.259 9
E36  24794188.052 7  24794190.921 9 130294512.314 7  98566841.011 9
G08  22407166.552 7                  22407174.560 7 117750621.338 7                  91753657.781 7
G10  21676601.059 8                  21676607.874 7 113911401.870 8                  88762091.670 7
G16  21278733.684 7  21278736.967 5                 111820505.162 7  87132870.514 5
G18  22388602.532 7                  22388609.021 8 117653054.191 7                  91677605.089 8
G23  20856613.409 8                  20856617.865 8 109602270.766 8                  85404375.098 8
G27  20264874.149 8                  20264879.659 7 106492766.957 8                  82981319.115 7
R07  22449202.767 4                 120172533.039 4
R08  21131833.785 7  21131838.696 7 113160228.522 7  88013368.117 7
R14  20844987.801 8  20844992.978 7 111115575.314 8  86423134.121 7
R15  21383617.898 8  21383623.080 7 114267699.724 8  88874823.901 7
R17  22912592.378 6  22912598.213 5 122609942.116 6  95363311.883 5
R23  21137986.343 7                 113074047.962 7
R24  19599175.580 8  19599178.983 7 104805777.687 8  81515490.318 7
> 2025 06 15 08 37 55.0000000  0 26
C13  37715348.363 5  37715354.485 4 196393799.827 5 151864089.853 4
C20  23982406.924 7                 124882820.660 7
C26  24454074.720 5                 127338762.800 5
C29  21409577.606 7                 111485314.542 7
C30  24370010.267 7                 126901125.265 7
E02  24537003.106 7  24537003.778 8 128942845.221 7  97544414.651 8
E10  24562280.527 8  24562281.991 8 129075641.399 8  97644896.194 8
E11  23433139.756 7  23433137.369 8 123142160.913 7  93156098.899 8
E12  26848163.360 6  26848162.885 7 141088086.935 6 106732186.333 7
E16  25653043.495 7  25653046.173 8 134807610.950 7 101981110.848 8
E24  27673986.007 6  27673992.400 5 145427897.984 6 110015187.888 5
E25  24349724.068 8  24349726.792 9 127958638.009 8  96799905.112 9
E36  24791222.322 7  24791224.973 8 130278926.233 7  98555050.241 8
G08  22403162.252 6                  22403170.596 7 117729580.321 6                  91737262.187 7
G10  21673243.212 8                  21673249.551 7 113893754.007 8                  88748340.090 7
G16  21279700.922 7  21279703.782 5                 111825586.718 7  87136830.165 5
G18  22389992.119 7                  22389998.433 8 117660357.505 7                  91683295.972 8
G23  20855892.941 8                  20855897.127 8 109598484.355 8                  85401424.659 8
G27  20262603.623 8                  20262609.641 7 106480836.739 8                  82972022.841 7
R07  22450130.481 5  22450133.442 4 120177497.117 5  93471252.47214
R08  21129347.924 8  21129353.131 7 113146915.931 8  88003013.906 7
R14  20846136.284 8  20846141.055 7 111121698.498 8  86427896.598 7
R15  21381000.784 8  21381005.609 7 114253709.237 8  88863942.417 7
R17  22908332.458 5  22908340.554 5 122587151.274 5  95345585.655 5
R23  21139352.148 7                 113081355.646 7
R24  19597078.939 8  19597082.104 7 104794565.883 8  81506770.039 7
> 2025 06 15 08 38  0.0000000  0 25
C13  37714819.512 5  37714827.115 5 196391049.703 5 151861963.268 5
C20  23978895.463 7                 124864540.157 7
C26  24453493.631 5                 127335722.637 5
C29  21408807.496 7                 111481303.605 7
C30  24371364.259 7                 126908175.407 7
E02  24534936.123 7  24534937.106 8 128931984.752 7  97536198.773 8
E10  24562802.430 8  24562803.862 8 129078384.061 8  97646970.996 8
E11  23432440.618 7  23432438.215 8 123138487.042 7  93153319.640 8
E12  26849363.227 6  26849362.897 7 141094392.933 6 106736956.768 7
E16  25654621.289 7  25654624.175 8 134815903.341 7 101987383.972 8
E24  27675914.158 6  27675920.572 5 145438030.160 6 110022852.767 5
E25  24350431.614 8  24350434.446 9 127962356.682 8  96802718.257 9
E36  24788257.072 7  24788260.195 8 130263346.201 7  98543264.063 8
G08  22399159.433 7                  22399168.228 7 117708545.404 7                  91720871.366 7
G10  21669886.517 8                  21669893.634 7 113876118.562 8                  88734598.201 7
G16  21280670.369 7  21280673.581 5                 111830682.349 7  87140800.783 5
G18  22391383.312 7                  22391389.325 8 117667666.629 7                  91688991.378 8
G23  20855175.439 7                  20855179.874 8 109594714.552 7                  85398487.147 8
G27  20260336.072 8                  20260342.072 7 106468919.366 8                  82962736.567 7
R08  21126865.948 8  21126870.890 7 113133625.103 8  87992676.602 7
R14  20847288.165 8  20847293.955 7 111127840.546 8  86432673.729 7
R15  21378386.103 8  21378391.342 7 114239740.305 8  88853077.660 7
R17  22904073.268 5  22904083.359 5 122564363.713 5  95327862.007 5
R23  21140720.286 7                 113088669.454 7
R24  19594983.548 8  19594988.115 7 104783365.104 8  81498058.340 7
> 2025 06 15 08 38  5.0000000  0 25
C13  37714292.449 5  37714300.200 5 196388301.811 5 151859838.421 5
C20  23975385.537 7                 124846269.113 7
C26  24452910.433 5                 127332695.613 5
C29  21408038.397 7                 111477300.291 7
C30  24372717.873 7                 126915228.384 7
E02  24532871.349 7  24532872.435 8 128921134.826 7  97527990.880 8
E10  24563325.003 8  24563326.444 8 129081130.856 8  97649048.932 8
E11  23431742.406 7  23431740.368 8 123134819.800 7  93150545.387 8
E12  26850563.601 6  26850563.112 7 141100700.161 6 106741728.133 7
E16  25656199.530 7  25656203.084 8 134824200.586 7 101993660.768 8
E24  27677842.704 6  27677848.844 5 145448162.644 6 110030517.894 5
E25  24351141.255 8  24351143.797 9 127966084.228 8  96805538.117 9
E36  24785292.992 7  24785296.404 9 130247771.419 7  98531481.836 9
G08  22395158.367 7                  22395166.078 7 117687515.887 7                  91704484.732 7
G10  21666533.432 8                  21666539.981 7 113858494.779 8                  88720865.393 7
G16  21281642.705 7  21281645.870 5                 111835791.266 7  87144781.760 5
G18  22392774.851 7                  22392781.408 8 117674980.816 7                  91694690.732 8
G23  20854461.073 7                  20854465.610 8 109590960.573 7                  85395561.974 8
G27  20258070.514 8                  20258076.234 7 106457014.063 8                  82953459.681 7
R08  21124388.214 8  21124393.032 7 113120355.149 8  87982355.530 7
R14  20848443.881 7  20848449.226 7 111134000.289 7  86437464.638 7
R15  21375777.063 8  21375781.085 7 114225792.123 8  88842229.049 7
R17  22899813.215 5  22899825.200 4 122541578.598 5  95310140.197 4
R23  21142088.925 7                 113095988.619 7
R24  19592890.899 8  19592894.733 7 104772174.644 8  81489354.653 7
> 2025 06 15 08 38 10.0000000  0 25
C13  37713765.827 5  37713773.019 4 196385555.688 5 151857714.958 4
C20  23971878.654 6                 124828007.043 6
C26  24452331.266 5                 127329681.246 5
C29  21407270.734 7                 111473304.129 7
C30  24374072.087 6                 126922283.749 6
E02  24530808.218 7  24530809.689 8 128910294.969 7  97519790.606 8
E10  24563848.251 8  24563849.759 8 129083881.321 8  97651129.630 8
E11  23431045.618 7  23431043.658 8 123131158.688 7  93147775.778 8
E12  26851763.710 6  26851763.468 7 141107008.215 6 106746500.123 7
E16  25657779.649 7  25657782.800 8 134832502.235 7 101999940.895 8
E24  27679770.929 6  27679776.947 5 145458294.962 6 110038182.90715
E25  24351851.656 8  24351854.718 9 127969820.159 8  96808364.314 9
E36  24782329.769 7  24782333.556 9 130232201.423 7  98519703.238 9
G08  22391156.882 7                  22391165.486 7 117666491.265 7                  91688101.922 7
G10  21663181.479 8                  21663188.632 7 113840882.200 8                  88707141.318 7
G16  21282616.917 7  21282620.832 5                 111840913.005 7  87148772.726 5
G18  22394167.557 7                  22394173.770 8 117682299.536 7                  91700393.632 8
G23  20853749.265 8                  20853754.224 8 109587221.929 8                  85392648.743 8
G27  20255807.596 8                  20255813.135 8 106445120.338 8                  82944191.839 8
R08  21121914.191 8  21121918.649 7 113107105.783 8  87972050.464 7
R14  20849603.331 8  20849608.116 7 111140177.519 8  86442269.129 7
R15  21373169.963 8  21373174.425 7 114211864.288 8  88831396.269 7
R17  22895557.631 5  22895565.249 4 122518795.739 5  95292420.262 4
R23  21143456.734 7                 113103312.911 7
R24  19590800.206 8  19590804.181 7 104760993.977 8  81480658.579 7
> 2025 06 15 08 38 15.0000000  0 25
C13  37713238.395 6  37713246.078 4 196382811.407 6 151855592.904 4
C20  23968373.708 7                 124809754.038 7
C26  24451754.733 5                 127326679.655 5
C29  21406504.883 7                 111469315.246 7
C30  24375428.074 6                 126929341.559 6
E02  24528747.056 7  24528748.902 9 128899465.297 7  97511598.031 9
E10  24564372.668 8  24564373.784 8 129086635.550 8  97653213.180 8
E11  23430349.851 7  23430348.136 8 123127503.844 7  93145010.923 8
E12  26852964.636 6  26852964.005 7 141113317.195 6 106751272.801 7
E16  25659360.233 7  25659363.432 8 134840808.384 7 102006224.416 8
E24  27681698.842 6  27681705.118 5 145468427.237 6 110045847.84815
E25  24352564.352 8  24352567.272 9 127973564.580 8  96811196.938 9
E36  24779368.334 7  24779371.640 8 130216636.308 7  98507928.342 8
G08  22387157.238 7                  22387165.488 7 117645471.681 7                  91671723.018 7
G10  21659832.520 8                  21659839.160 7 113823280.919 8                  88693426.045 7
G16  21283594.087 7  21283598.170 5                 111846047.655 7  87152773.736 5
G18  22395561.653 7                  22395567.379 8 117689622.932 7                  91706100.161 8
G23  20853040.731 7                  20853045.802 8 109583498.721 7                  85389747.553 8
G27  20253546.015 8                  20253552.131 8 106433238.317 8                  82934933.116 8
R08  21119442.558 7  21119447.777 7 113093876.952 7  87961761.387 7
R14  20850764.336 7  20850770.710 7 111146372.287 7  86447087.261 7
R15  21370568.177 8  21370571.699 7 114197956.831 8  88820579.345 7
R17  22891299.085 4  22891308.704 5 122496014.882 4  95274701.823 5
R23  21144825.931 7                 113110642.292 7
R24  19588710.686 8  19588715.107 7 104749823.380 8  81471970.342 7
> 2025 06 15 08 38 20.0000000  0 24
C13  37712711.936 6  37712718.449 4 196380068.818 6 151853472.168 4
C20  23964869.469 7                 124791509.879 7
C26  24451180.164 5                 127323690.532 5
C29  21405740.591 7                 111465333.344 7
C30  24376784.402 6                 126936401.591 6
E02  24526688.466 7  24526689.977 8 128888645.568 7  97503412.980 8
E10  24564897.391 8  24564898.547 8 129089393.275 8  97655299.385 8
E11  23429655.533 7  23429653.749 8 123123854.975 7  93142250.583 8
E12  26854164.816 6  26854164.685 7 141119626.770 6 106756045.954 7
E16  25660941.572 7  25660944.914 8 134849118.744 7 102012511.129 8
E24  27683627.202 6  27683633.299 5 145478559.235 6 110053512.60815
E25  24353277.866 8  24353281.362 9 127977317.201 8  96814035.765 9
E36  24776407.651 7  24776410.613 9 130201075.801 7  98496156.921 9
G08  22383158.159 7                  22383166.321 7 117624456.832 7                  91655347.833 7
G10  21656484.649 8                  21656491.900 7 113805690.736 8                  88679719.415 7
G16  21284573.942 7  21284577.891 5                 111851194.941 7  87156784.603 5
G18  22396955.059 7                  22396961.932 7 117696950.711 7                  91711810.112 7
G23  20852335.181 7                  20852340.065 8 109579790.705 7                  85386858.187 8
G27  20251287.087 8                  20251293.359 8 106421367.734 8                  82925683.313 8
R08  21116975.538 7  21116981.306 7 113080668.430 7  87951488.134 7
R14  20851930.434 7  20851935.492 7 111152584.289 7  86451918.835 7
R15  21367968.941 8  21367972.763 7 114184069.432 8  88809778.016 7
R23  21146196.815 7                 113117976.560 7
R24  19586624.428 8  19586627.955 7 104738662.373 8  81463289.545 7
> 2025 06 15 08 38 25.0000000  0 24
C13  37712185.241 6  37712191.399 4 196377328.622 6 151851353.259 4
C20  23961367.591 7                 124773275.458 7
C26  24450608.399 5                 127320714.707 5
C29  21404977.613 7                 111461359.341 7
C30  24378141.172 6                 126943464.692 6
E02  24524631.960 7  24524633.074 8 128877836.669 7  97495236.122 8
E10  24565422.635 8  24565424.110 8 129092155.383 8  97657388.897 8
E11  23428962.294 7  23428960.672 8 123120212.965 7  93139495.418 8
E12  26855366.047 6  26855365.676 7 141125937.843 6 106760820.218 7
E16  25662524.454 7  25662527.318 8 134857434.178 7 102018801.693 8
E24  27685555.361 6  27685561.551 5 145488691.740 6 110061177.779 5
E25  24353993.701 8  24353997.178 9 127981078.938 8  96816881.482 9
E36  24773447.897 8  24773450.632 8 130185520.833 8  98484389.688 8
G08  22379160.371 7                  22379168.371 7 117603447.654 7                  91638977.055 7
G10  21653140.229 8                  21653146.692 7 113788112.488 8                  88666022.083 7
G16  21285556.078 7  21285560.034 5                 111856355.729 7  87160805.960 5
G18  22398350.415 7                  22398357.119 7 117704283.767 7                  91717524.160 7
G23  20851632.629 7                  20851637.862 8 109576098.768 7                  85383981.344 8
G27  20249030.805 8                  20249036.835 8 106409509.497 8                  82916443.128 8
R08  21114513.055 7  21114518.653 7 113067481.148 7  87941231.369 7
R14  20853098.921 8  20853104.666 7 111158814.358 8  86456764.444 7
R15  21365374.026 8  21365378.314 7 114170203.117 8  88798993.128 7
R23  21147569.493 7                 113125316.535 7
R24  19584539.955 8  19584542.901 7 104727511.999 8  81454617.022 7
> 2025 06 15 08 38 30.0000000  0 24
C13  37711660.778 6  37711664.182 3 196374590.361 6 151849235.847 3
C20  23957867.725 7                 124755050.126 7
C26  24450039.028 5                 127317751.674 5
C29  21404215.279 7                 111457392.595 7
C30  24379498.033 6                 126950530.268 6
E02  24522576.554 7  24522578.189 8 128867037.984 7  97487066.978 8
E10  24565949.580 8  24565950.461 8 129094921.255 8  97659481.257 8
E11  23428270.817 7  23428268.803 8 123116577.218 7  93136744.990 8
E12  26856567.294 6  26856566.833 7 141132249.861 6 106765595.204 7
E16  25664107.947 7  25664110.598 8 134865754.096 7 102025095.650 8
E24  27687483.932 6  27687489.767 5 145498824.229 6 110068842.897 5
E25  24354711.311 7  24354714.551 9 127984849.146 7  96819733.604 9
E36  24770488.925 8  24770491.560 9 130169970.760 8  98472626.159 9
G08  22375163.948 7                  22375171.161 7 117582443.521 7                  91622610.204 7
G10  21649797.371 8                  21649804.009 7 113770545.569 8                  88652333.588 7
G16  21286540.593 7  21286544.535 5                 111861529.353 7  87164837.360 5
G18  22399747.356 7                  22399753.389 7 117711621.455 7                  91723241.813 7
G23  20850932.677 7                  20850938.322 8 109572422.261 7                  85381116.527 8
G27  20246776.438 8                  20246782.369 8 106397663.009 8                  82907212.107 8
R08  21112052.915 7  21112059.823 7 113054314.574 7  87930990.720 7
R14  20854272.096 8  20854276.788 7 111165061.876 8  86461623.630 7
R15  21362781.998 7  21362786.965 7 114156357.157 7  88788224.044 7
R23  21148942.106 6                 113132661.554 6
R24  19582457.516 8  19582459.820 7 104716371.586 8  81445952.248 7
> 2025 06 15 08 38 35.0000000  0 25
C13  37711134.831 6  37711137.431 4 196371854.912 6 151847120.598 4
C20  23954369.476 7                 124736834.925 7
C26  24449472.830 5                 127314802.273 5
C29  21403455.462 7                 111453434.116 7
C30  24380855.903 6                 126957599.300 6
E02  24520523.789 7  24520525.354 8 128856250.505 7  97478906.324 8
E10  24566476.468 8  24566477.698 8 129097691.878 8  97661577.204 8
E11  23427580.520 7  23427578.303 8 123112948.694 7  93134000.038 8
E12  26857768.339 6  26857768.378 7 141138563.735 6 106770371.606 7
E16  25665692.374 7  25665694.882 8 134874079.452 7 102031393.718 8
E24  27689411.705 6  27689418.045 5 145508957.619 6 110076508.730 5
E25  24355430.711 7  24355433.825 9 127988628.798 7  96822592.882 9
E36  24767530.960 8  24767533.610 9 130154426.547 8  98460867.062 9
G08  22371167.893 7                  22371175.691 7 117561445.421 7                  91606248.047 7
G10  21646456.427 8                  21646463.624 7 113752991.009 8                  88638654.726 7
G16  21287527.810 7  21287531.821 5                 111866716.841 7  87168879.557 5
G18  22401145.391 7                  22401150.820 7 117718964.771 7                  91728963.867 7
G23  20850236.295 7                  20850242.243 8 109568762.175 7                  85378264.504 8
G27  20244524.834 8                  20244530.742 8 106385829.231 8                  82897990.981 8
R08  21109597.215 7  21109604.797 7 113041169.643 7  87920766.895 7
R14  20855447.088 8  20855452.447 7 111171327.909 8  86466497.194 7
R15  21360195.750 7  21360200.251 7 114142532.647 7  88777471.657 7
R17  22874321.305 5                 122404913.72415
R23  21150315.651 6                 113140012.607 6
R24  19580375.258 8  19580378.435 7 104705241.871 8  81437295.828 7
> 2025 06 15 08 38 40.0000000  0 25
C13  37710610.324 6  37710612.999 4 196369122.774 6 151845007.981 4
C20  23950874.325 7                 124718630.277 7
C26  24448908.723 5                 127311867.018 5
C29  21402696.447 7                 111449484.290 7
C30  24382214.682 6                 126964672.175 6
E02  24518473.518 7  24518474.756 8 128845474.615 7  97470754.436 8
E10  24567005.008 8  24567005.962 8 129100467.649 8  97663677.048 8
E11  23426890.939 7  23426889.261 8 123109327.797 7  93131260.853 8
E12  26858969.849 6  26858970.375 7 141144879.891 6 106775149.715 7
E16  25667277.627 7  25667280.250 8 134882410.671 7 102037696.224 8
E24  27691341.271 6  27691346.589 5 145519092.302 6 110084175.52615
E25  24356152.270 8  24356154.974 9 127992418.313 8  96825459.614 9
E36  24764574.469 8  24764576.884 9 130138888.645 8  98449112.739 9
G08  22367173.241 7                  22367180.914 7 117540453.834 7                  91589890.967 7
G10  21643118.572 8                  21643125.364 7 113735449.188 8                  88624985.779 7
G16  21288517.277 7  21288521.735 5                 111871918.539 7  87172932.832 5
G18  22402544.083 7                  22402549.240 7 117726314.126 7                  91734690.610 7
G23  20849542.754 7                  20849548.579 8 109565118.905 7                  85375425.601 8
G27  20242274.824 8                  20242281.226 8 106374008.590 8                  82888780.100 8
R08  21107146.832 7  21107154.272 7 113028046.779 7  87910560.250 7
R14  20856626.702 8  20856631.525 7 111177612.874 8  86471385.481 7
R15  21357612.626 7  21357616.738 7 114128729.969 7  88766736.279 7
R17  22870064.269 5  22870052.083 5 122382146.470 5  95186219.37415
R23  21151691.206 7                 113147370.227 7
R24  19578294.937 8  19578299.730 7 104694123.726 8  81428648.375 7
> 2025 06 15 08 38 45.0000000  0 26
C13  37710085.875 6  37710087.409 3 196366393.252 6 151842897.341 3
C20  23947379.803 7                 124700435.542 7
C26  24448349.299 5                 127308945.242 5
C29  21401940.509 7                 111445542.473 7
C30  24383573.947 6                 126971748.273 6
E02  24516425.288 7  24516426.214 8 128834709.741 7  97462610.878 8
E10  24567534.174 8  24567535.010 8 129103247.938 8  97665780.318 8
E11  23426203.452 7  23426201.571 8 123105713.920 7  93128526.979 8
E12  26860172.489 6  26860172.671 7 141151197.672 6 106779929.075 7
E16  25668864.064 7  25668866.675 8 134890747.123 7 102044002.681 8
E24  27693269.237 6  27693275.316 5 145529227.690 6 110091842.835 5
E25  24356875.514 7  24356877.817 9 127996217.058 7  96828333.328 9
E36  24761618.213 8  24761621.214 9 130123356.412 8  98437362.704 9
G08  22363179.607 7                  22363187.674 7 117519468.052 7                  91573538.421 7
G10  21639782.414 8                  21639789.379 7 113717919.528 8                  88611326.311 7
G16  21289510.081 7  21289513.906 5                 111877133.826 7  87176996.694 5
G18  22403943.437 7                  22403948.861 7 117733668.847 7                  91740421.568 7
G23  20848852.745 7                  20848858.426 8 109561491.854 7                  85372599.317 8
G27  20240027.849 8                  20240034.566 8 106362200.450 8                  82879578.964 8
R07  22459606.901 4                 120228147.34614
R08  21104701.190 7  21104707.989 7 113014945.375 7  87900370.265 7
R14  20857808.227 8  20857813.866 7 111183915.899 8  86476287.813 7
R15  21355033.600 7  21355037.359 7 114114948.561 7  88756017.434 7
R17  22865805.173 5  22865795.942 5 122359382.317 5  95168513.931 5
R23  21153067.974 7                 113154733.714 7
R24  19576217.956 8  19576222.018 7 104683016.380 8  81420009.345 7
> 2025 06 15 08 38 50.0000000  0 26
C13  37709562.752 6  37709563.637 3 196363665.595 6 151840788.141 3
C20  23943887.005 7                 124682250.026 7
C26  24447790.702 5                 127306036.237 5
C29  21401184.612 7                 111441607.942 7
C30  24384932.982 6                 126978826.874 6
E02  24514378.945 7  24514379.671 8 128823955.108 7  97454475.053 8
E10  24568063.828 8  24568064.801 8 129106031.987 8  97667886.420 8
E11  23425517.064 7  23425515.047 8 123102106.310 7  93125797.834 8
E12  26861375.245 6  26861375.112 7 141157516.349 6 106784709.104 7
E16  25670451.587 7  25670454.008 8 134899088.053 7 102050312.527 8
E24  27695197.699 6  27695203.997 5 145539363.018 6 110099510.14415
E25  24357599.265 7  24357602.323 9 128000024.298 7  96831213.468 9
E36  24758663.409 8  24758666.448 9 130107829.098 8  98425616.389 9
G08  22359187.266 6                  22359194.818 7 117498487.420 6                  91557189.876 7
G10  21636448.858 8                  21636455.409 7 113700401.288 8                  88597675.731 7
G16  21290504.792 7  21290508.919 5                 111882362.012 7  87181070.594 5
G18  22405343.824 7                  22405349.500 7 117741028.219 7                  91746156.121 7
G23  20848165.604 7                  20848171.322 8 109557880.249 7                  85369785.068 8
G27  20237782.993 8                  20237789.594 8 106350404.104 8                  82870387.013 8
R07  22460572.766 4                                
R08  21102260.876 7  21102264.715 6 113001864.721 7  87890196.426 6
R14  20858994.201 8  20858999.450 7 111190236.308 8  86481203.689 7
R15  21352458.480 7  21352462.166 7 114101187.649 7  88745314.526 7
R17  22861534.348 5  22861538.933 5 122336620.201 5  95150810.013 5
R23  21154446.235 6                 113162102.218 6
R24  19574142.925 8  19574146.993 7 104671918.964 8  81411378.010 7
> 2025 06 15 08 38 55.0000000  0 25
C13  37709038.898 6  37709038.833 3 196360939.459 6 151838680.10113
C20  23940396.180 7                 124664073.280 7
C26  24447233.952 5                 127303139.579 5
C29  21400430.570 7                 111437680.310 7
C30  24386292.261 6                 126985907.520 6
E02  24512333.891 8  24512335.004 8 128813210.329 8  97446346.712 8
E10  24568594.043 8  24568595.221 8 129108819.396 8  97669995.081 8
E11  23424831.636 7  23424829.676 8 123098504.528 7  93123073.115 8
E12  26862577.163 6  26862577.652 7 141163835.549 6 106789489.529 7
E16  25672038.964 7  25672042.005 8 134907433.019 7 102056625.422 8
E24  27697126.411 5  27697132.634 5 145549497.893 5 110107177.029 5
E25  24358325.588 7  24358328.368 9 128003839.590 7  96834099.694 9
E36  24755709.613 7  24755712.574 9 130092306.302 7  98413873.496 9
G08  22355195.346 6                  22355203.263 7 117477511.420 6                  91540844.969 7
G10  21633117.679 8                  21633123.958 7 113682894.018 8                  88584033.712 7
G16  21291501.482 7  21291505.898 5                 111887602.609 7  87185154.179 5
G18  22406745.336 7                  22406750.771 7 117748391.821 7                  91751893.995 7
G23  20847480.981 7                  20847486.486 8 109554283.680 7                  85366982.538 8
G27  20235540.817 8                  20235546.874 8 106338619.135 8                  82861203.930 8
R08  21099821.629 8  21099825.728 7 112988804.211 8  87880038.263 7
R14  20860182.817 8  20860188.552 7 111196573.799 8  86486132.858 7
R15  21349887.177 7  21349890.967 7 114087446.758 7  88734627.177 7
R17  22857268.992 5  22857281.016 4 122313859.971 5  95133107.584 4
R23  21155825.211 7                 113169475.385 7
R24  19572069.306 8  19572073.735 7 104660831.018 8  81402754.058 7
> 2025 06 15 08 39  0.0000000  0 25
C13  37708515.799 6  37708515.568 3 196358215.343 6 151836573.60213
C20  23936907.522 7                 124645905.904 7
C26  24446678.164 5                 127300255.859 5
C29  21399677.745 7                 111433760.152 7
C30  24387652.727 6                 126992990.847 6
E02  24510291.612 7  24510292.296 8 128802475.946 7  97438226.225 8
E10  24569124.604 8  24569126.383 8 129111610.717 8  97672106.696 8
E11  23424147.587 7  23424145.521 8 123094909.166 7  93120353.234 8
E12  26863780.187 6  26863780.402 7 141170155.802 6 106794270.753 7
E16  25673628.040 7  25673630.930 8 134915782.605 7 102062941.815 8
E24  27699056.402 6  27699061.236 5 145559632.842 6 110114843.995 5
E25  24359053.497 7  24359056.031 9 128007663.505 7  96836992.444 9
E36  24752757.266 8  24752759.641 9 130076788.576 8  98402134.439 9
G08  22351203.927 6                  22351212.289 7 117456540.727 6                  91524504.195 7
G10  21629788.659 8                  21629794.267 7 113665398.340 8                  88570400.717 7
G16  21292501.907 7  21292505.579 5                 111892856.224 7  87189247.896 5
G18  22408147.446 7                  22408152.864 7 117755760.201 7                  91757635.588 7
G23  20846800.687 7                  20846804.641 8 109550702.719 7                  85364192.160 8
G27  20233300.616 8                  20233306.478 8 106326846.102 8                  82852030.137 8
R08  21097386.600 8  21097390.965 6 112975764.743 8  87869896.453 6
R14  20861374.823 8  20861380.483 7 111202928.821 8  86491075.631 7
R15  21347319.374 7  21347323.422 7 114073726.578 7  88723955.925 7
R17  22853014.314 5  22853026.612 4 122291101.943 5  95115406.835 4
R23  21157204.144 7                 113176853.790 7
R24  19569997.215 8  19570002.318 7 104649753.248 8  81394138.026 7
> 2025 06 15 08 39  5.0000000  0 25
C13  37707992.531 6  37707992.647 3 196355493.721 6 151834469.02113
C20  23933420.222 7                 124627748.370 7
C26  24446128.317 5                 127297385.420 5
C29  21398925.716 7                 111429847.884 7
C30  24389013.295 6                 127000077.226 6
E02  24508250.937 7  24508251.651 8 128791752.457 7  97430113.970 8
E10  24569656.964 8  24569658.465 8 129114406.396 8  97674221.591 8
E11  23423464.813 7  23423462.647 8 123091320.630 7  93117638.534 8
E12  26864982.837 6  26864983.510 7 141176477.536 6 106799053.093 7
E16  25675218.055 7  25675220.807 8 134924137.242 7 102069262.026 8
E24  27700984.712 5  27700990.020 5 145569768.311 5 110122511.341 5
E25  24359783.173 8  24359785.426 9 128011496.499 8  96839892.053 9
E36  24749805.144 7  24749807.780 9 130061276.386 7  98390399.579 9
G08  22347214.578 6                  22347222.952 7 117435575.771 6                  91508167.854 7
G10  21626461.540 8                  21626467.624 7 113647914.703 8                  88556777.103 7
G16  21293503.828 7  21293507.711 5                 111898123.286 7  87193352.098 5
G18  22409550.541 7                  22409556.114 8 117763133.804 7                  91763381.247 8
G23  20846121.981 7                  20846126.287 8 109547137.776 7                  85361414.285 8
G27  20231062.637 8                  20231068.369 8 106315085.481 8                  82842866.029 8
R08  21094955.459 8  21094959.442 6 112962746.510 8  87859771.132 6
R14  20862569.168 7  20862576.047 7 111209301.682 7  86496032.270 7
R15  21344756.253 7  21344759.659 7 114060027.530 7  88713301.104 7
R17  22848763.903 5                 122268346.770 5
R23  21158584.829 7                 113184237.978 7
R24  19567928.427 8  19567932.596 7 104638686.123 8  81385530.241 7
> 2025 06 15 08 39 10.0000000  0 25
C13  37707470.547 6  37707470.736 3 196352773.662 6 151832365.742 3
C20  23929935.545 7                 124609599.811 7
C26  24445578.172 6                 127294527.463 6
C29  21398176.228 7                 111425942.663 7
C30  24390374.574 6                 127007165.847 6
E02  24506211.958 7  24506212.906 8 128781038.984 7  97422009.299 8
E10  24570189.489 8  24570191.108 8 129117205.577 8  97676339.155 8
E11  23422782.761 7  23422780.908 8 123087738.107 7  93114928.381 8
E12  26866186.651 6  26866186.709 7 141182799.928 6 106803835.918 7
E16  25676808.202 7  25676811.453 8 134932496.069 7 102075585.420 8
E24  27702912.034 5  27702918.837 5 145579903.394 5 110130178.448 5
E25  24360513.974 8  24360516.382 9 128015337.707 8  96842797.893 9
E36  24746853.485 8  24746856.770 9 130045768.885 8  98378668.255 9
G08  22343226.681 6                  22343234.538 7 117414615.743 6                  91491835.391 7
G10  21623136.277 8                  21623142.706 7 113630442.260 8                  88543162.217 7
G16  21294508.700 7  21294512.188 5                 111903402.938 7  87197466.094 5
G18  22410954.956 7                  22410959.965 8 117770511.799 7                  91769130.325 8
G23  20845446.892 8                  20845450.792 7 109543588.026 8                  85358648.248 7
G27  20228826.332 8                  20228832.862 7 106303336.411 8                  82833710.916 7
R08  21092529.191 8  21092532.369 7 112949748.892 8  87849661.875 7
R14  20863769.167 7  20863774.851 7 111215691.773 7  86501002.342 7
R15  21342196.711 7  21342199.602 7 114046348.775 7  88702662.077 7
R17  22844508.258 4  22844507.951 4 122245593.601 4  95079889.60714
R23  21159965.940 7                 113191626.910 7
R24  19565860.759 8  19565864.327 7 104627628.659 8  81376929.999 7
> 2025 06 15 08 39 15.0000000  0 25
C13  37706949.289 6  37706948.599 3 196350056.935 6 151830264.915 3
C20  23926451.932 7                 124591461.841 7
C26  24445031.871 6                 127291683.628 6
C29  21397427.567 7                 111422046.101 7
C30  24391737.415 6                 127014258.286 6
E02  24504175.600 7  24504176.357 8 128770337.157 7  97413913.447 8
E10  24570722.811 8  24570724.766 8 129120009.884 8  97678460.598 8
E11  23422102.936 7  23422100.614 8 123084163.183 7  93112223.971 8
E12  26867389.165 6  26867390.270 7 141189124.597 6 106808620.492 7
E16  25678400.005 8  25678403.193 8 134940860.683 8 102081913.190 8
E24  27704841.940 5  27704847.850 6 145590039.826 5 110137846.548 6
E25  24361246.813 8  24361249.193 9 128019188.717 8  96845711.143 9
E36  24743903.787 8  24743907.009 9 130030267.666 8  98366941.684 9
G08  22339239.322 7                  22339247.390 7 117393662.236 7                  91475507.983 7
G10  21619813.969 8                  21619820.550 7 113612982.629 8                  88529557.295 7
G16  21295516.131 8  21295519.426 5                 111908696.777 8  87201591.142 5
G18  22412359.484 7                  22412365.451 8 117777895.763 7                  91774884.052 8
G23  20844774.309 8                  20844778.063 8 109540055.055 8                  85355895.294 8
G27  20226593.538 8                  20226599.164 7 106291600.534 8                  82824566.054 7
R08  21090106.171 8  21090108.874 7 112936773.313 8  87839569.730 7
R14  20864971.873 7  20864976.732 7 111222100.664 7  86505987.017 7
R15  21339640.538 7  21339643.814 7 114032691.994 7  88692040.144 7
R17  22840257.678 5  22840257.651 5 122222843.83115  95062195.46915
R23  21161349.173 7                 113199022.265 7
R24  19563794.860 8  19563799.010 7 104616582.623 8  81368338.650 7
> 2025 06 15 08 39 20.0000000  0 26
C13  37706428.882 6  37706428.164 4 196347342.481 6 151828165.878 4
C20  23922970.663 7                 124573333.595 7
C26  24444489.418 6                 127288852.909 6
C29  21396680.416 7                 111418157.279 7
C30  24393099.371 6                 127021353.641 6
E02  24502141.304 7  24502141.975 8 128759646.037 7  97405825.686 8
E10  24571257.677 8  24571259.164 8 129122818.363 8  97680585.199 8
E11  23421423.615 7  23421421.612 8 123080594.968 7  93109524.638 8
E12  26868592.766 6  26868594.109 7 141195450.548 6 106813406.015 7
E16  25679992.563 7  25679995.916 8 134949230.205 7 102088244.653 8
E24  27706769.323 5  27706776.901 5 145600176.503 5 110145514.862 5
E25  24361981.160 8  24361983.727 9 128023048.641 8  96848631.146 9
E36  24740955.318 8  24740958.251 9 130014771.837 8  98355219.190 9
G08  22335253.494 7                  22335261.008 7 117372714.309 7                  91459184.925 7
G10  21616492.955 8                  21616500.383 7 113595534.895 8                  88515961.671 7
G16  21296526.111 8  21296529.154 5                 111914003.849 8  87205726.515 5
G18  22413766.425 7                  22413771.362 7 117785284.769 7                  91780641.727 7
G23  20844105.142 8                  20844109.205 8 109536537.982 8                  85353154.738 8
G27  20224362.950 8                  20224368.469 8 106279876.913 8                  82815430.773 8
R07  22466409.208 4                 120264423.24514
R08  21087685.951 7  21087690.380 7 112923818.915 7  87829494.090 7
R14  20866177.180 7  20866182.677 7 111228527.212 7  86510985.431 7
R15  21337088.981 8  21337092.468 7 114019056.037 8  88681434.398 7
R17  22836007.314 5  22836009.395 5 122200096.851 5  95044503.429 5
R23  21162732.729 7                 113206423.186 7
R24  19561731.020 8  19561734.793 7 104605547.056 8  81359755.425 7
> 2025 06 15 08 39 25.0000000  0 26
C13  37705907.688 6  37705908.435 4 196344630.438 6 151826068.834 4
C20  23919491.844 7                 124555215.091 7
C26  24443949.229 6                 127286035.404 6
C29  21395935.164 7                 111414276.229 7
C30  24394462.432 6                 127028451.944 6
E02  24500109.102 7  24500109.629 8 128748965.716 7  97397746.112 8
E10  24571792.734 8  24571794.458 8 129125631.093 8  97682713.020 8
E11  23420746.040 7  23420743.888 8 123077033.465 7  93106830.382 8
E12  26869797.260 6  26869798.228 7 141201777.907 6 106818192.623 7
E16  25681586.427 7  25681589.500 8 134957604.660 7 102094579.853 8
E24  27708695.825 4  27708705.964 5 145610313.597 4 110153183.504 5
E25  24362717.786 8  24362719.976 9 128026917.502 8  96851557.908 9
E36  24738007.848 8  24738010.508 9 129999281.422 8  98343500.795 9
G08  22331268.215 6                  22331275.550 7 117351772.063 6                  91442866.294 7
G10  21613175.576 8                  21613182.536 8 113578099.119 8                  88502375.353 8
G16  21297538.068 7  21297541.414 5                 111919324.183 7  87209872.223 5
G18  22415172.851 7                  22415178.460 8 117792678.871 7                  91786403.366 8
G23  20843438.387 8                  20843442.792 8 109533036.832 8                  85350426.559 8
G27  20222133.599 8                  20222139.376 8 106268165.616 8                  82806305.088 8
R07  22467396.570 5  22467421.814 5 120269719.043 5  93543236.60415
R08  21085270.337 7  21085275.552 7 112910885.841 7  87819435.049 7
R14  20867386.629 8  20867391.449 7 111234971.717 8  86515997.800 7
R15  21334540.868 8  21334544.619 7 114005441.321 8  88670845.201 7
R17  22831762.552 5  22831760.769 5 122177352.634 5  95026813.525 5
R23  21164116.810 7                 113213829.762 7
R24  19559669.801 8  19559673.063 7 104594521.992 8  81351180.393 7
> 2025 06 15 08 39 30.0000000  0 26
C13  37705386.583 6  37705388.376 3 196341921.058 6 151823973.767 3
C20  23916014.399 7                 124537106.679 7
C26  24443408.850 6                 127283231.480 6
C29  21395192.005 7                 111410403.276 7
C30  24395826.239 6                 127035553.566 6
E02  24498078.492 7  24498079.323 8 128738296.515 7  97389674.926 8
E10  24572328.897 8  24572330.632 8 129128448.363 8  97684844.278 8
E11  23420069.538 7  23420067.513 8 123073479.001 7  93104141.456 8
E12  26871000.877 6  26871002.721 7 141208106.981 6 106822980.499 7
E16  25683181.075 7  25683184.082 8 134965984.305 7 102100918.982 8
E24  27710623.920 4  27710635.168 5 145620451.347 4 110160852.646 5
E25  24363455.705 8  24363457.906 9 128030795.620 8  96854491.662 9
E36  24735060.269 8  24735063.885 9 129983796.758 8  98331786.755 9
G08  22327283.406 6                  22327292.114 7 117330835.814 6                  91426552.325 7
G10  21609860.282 8                  21609867.241 7 113560675.651 8                  88488798.623 7
G16  21298553.383 7  21298556.262 5                 111924658.098 7  87214028.523 5
G18  22416580.678 7                  22416586.330 7 117800078.407 7                  91792169.222 7
G23  20842775.485 8                  20842779.896 8 109529551.902 8                  85347711.021 8
G27  20219907.476 8                  20219913.360 8 106256466.971 8                  82797189.254 8
R07  22468388.279 5  22468413.887 5 120275033.302 5  93547369.903 5
R08  21082859.396 7  21082864.668 7 112897974.485 7  87809392.892 7
R14  20868599.141 8  20868603.762 7 111241434.378 8  86521024.303 7
R15  21331998.166 8  21332000.984 7 113991847.884 8  88660272.514 7
R17  22827516.172 6  22827512.653 5 122154611.378 6  95009125.911 5
R23  21165501.923 7                 113221242.147 7
R24  19557610.173 8  19557613.505 7 104583507.731 8  81342613.745 7
> 2025 06 15 08 39 35.0000000  0 26
C13  37704868.497 6  37704868.169 3 196339214.052 6 151821880.525 3
C20  23912539.376 7                 124519007.985 7
C26  24442871.878 6                 127280440.652 6
C29  21394449.701 7                 111406538.066 7
C30  24397190.335 6                 127042658.030 6
E02  24496050.358 7  24496051.048 8 128727638.021 7  97381611.845 8
E10  24572865.967 8  24572867.614 8 129131269.821 8  97686978.685 8
E11  23419394.551 7  23419392.421 8 123069931.222 7  93101457.571 8
E12  26872205.938 6  26872207.422 7 141214437.321 6 106827769.358 7
E16  25684776.819 7  25684779.618 8 134974368.806 7 102107261.785 8
E24  27712552.434 4  27712564.368 5 145630589.45314 110168521.98915
E25  24364195.373 8  24364197.605 9 128034682.604 8  96857432.137 9
E36  24732114.978 8  24732118.280 9 129968317.465 8  98320076.768 9
G08  22323300.955 6                  22323309.049 7 117309905.184 6                  91410242.725 7
G10  21606546.867 8                  21606553.457 7 113543264.074 8                  88475231.184 7
G16  21299570.712 7  21299574.007 5                 111930005.224 7  87218195.094 5
G18  22417989.859 7                  22417995.367 7 117807482.965 7                  91797938.992 7
G23  20842114.622 8                  20842119.454 8 109526082.819 8                  85345007.838 8
G27  20217683.850 8                  20217689.774 8 106244780.589 8                  82788082.986 8
R07  22469389.876 4  22469411.023 5 120280365.824 4  93551517.482 5
R08  21080452.377 7  21080457.614 7 112885084.335 7  87799367.236 7
R14  20869814.724 8  20869819.197 7 111247914.577 8  86526064.425 7
R15  21329458.241 8  21329460.719 7 113978275.457 8  88649716.197 7
R17  22823274.905 6  22823263.715 5 122131872.772 6  94991440.498 5
R23  21166887.919 7                 113228660.012 7
R24  19555552.447 8  19555555.586 7 104572503.896 8  81334055.216 7
> 2025 06 15 08 39 40.0000000  0 24
C13  37704348.120 6  37704348.692 3 196336509.276 6 151819789.057 3
C20  23909064.963 7                 124500919.019 7
C26  24442339.082 5                 127277662.949 5
C29  21393708.565 7                 111402680.567 7
C30  24398555.043 6                 127049765.443 6
E02  24494023.990 7  24494024.769 8 128716990.251 7  97373556.885 8
E10  24573403.870 7  24573405.367 8 129134095.415 7  97689116.221 8
E11  23418720.626 7  23418718.573 8 123066390.088 7  93098778.728 8
E12  26873410.591 6  26873412.355 7 141220768.965 6 106832559.201 7
E16  25686372.995 7  25686376.144 8 134982758.124 7 102113608.242 8
E25  24364936.320 8  24364938.949 9 128038578.440 8  96860379.306 9
E36  24729170.689 8  24729173.663 9 129952843.520 8  98308370.827 9
G08  22319318.140 6                  22319327.313 7 117288980.153 6                  91393937.542 7
G10  21603235.831 8                  21603242.298 7 113525864.420 8                  88461673.021 7
G16  21300591.053 7  21300594.158 5                 111935365.508 7  87222371.930 5
G18  22419399.701 7                  22419405.518 7 117814892.515 7                  91803712.653 7
G23  20841458.197 8                  20841462.357 8 109522629.591 8                  85342317.007 8
G27  20215462.370 8                  20215468.279 8 106233106.470 8                  82778986.271 8
R08  21078048.101 7  21078054.836 7 112872215.322 7  87789358.025 7
R14  20871033.927 8  20871038.643 7 111254412.614 8  86531118.458 7
R15  21326921.870 8  21326925.728 7 113964724.117 8  88639176.256 7
R17  22819036.883 6  22819013.437 5 122109136.905 6  94973757.083 5
R23  21168275.760 7                 113236083.440 7
R24  19553495.606 8  19553500.163 7 104561510.476 8  81325504.794 7
> 2025 06 15 08 39 45.0000000  0 24
C13  37703829.559 6  37703830.305 3 196333806.636 6 151817699.181 3
C20  23905593.605 7                 124482839.611 7
C26  24441810.982 5                 127274898.146 5
C29  21392968.996 7                 111398830.616 7
C30  24399920.557 6                 127056875.501 6
E02  24492000.267 7  24492000.579 8 128706353.051 7  97365509.919 8
E10  24573942.140 8  24573943.815 8 129136924.986 8  97691256.768 8
E11  23418047.741 7  23418045.916 8 123062855.408 7  93096104.768 8
E12  26874616.805 6  26874617.522 7 141227101.712 6 106837349.879 7
E16  25687970.946 7  25687973.443 8 134991152.087 7 102119958.205 8
E25  24365679.141 8  24365681.948 9 128042482.934 8  96863333.023 9
E36  24726226.121 7  24726230.065 9 129937374.762 7  98296668.819 9
G08  22315337.578 6                  22315345.967 7 117268060.600 6                  91377636.577 7
G10  21599927.459 8                  21599933.984 7 113508476.509 8                  88448124.010 7
G16  21301614.037 7  21301617.092 5                 111940738.823 7  87226558.913 5
G18  22420810.438 7                  22420816.588 7 117822306.895 7                  91809490.075 7
G23  20840803.352 7                  20840808.467 8 109519192.010 7                  85339638.381 8
G27  20213242.986 7                  20213249.050 8 106221444.429 7                  82769898.964 8
R08  21075649.787 7  21075655.720 7 112859367.520 7  87779365.272 7
R14  20872256.618 8  20872260.690 7 111260928.041 8  86536185.998 7
R15  21324389.606 8  21324393.629 7 113951193.674 8  88628652.580 7
R17  22814785.543 6  22814766.388 4 122086403.555 6  94956075.400 4
R23  21169665.376 7                 113243512.018 7
R24  19551442.026 8  19551445.697 7 104550527.306 8  81316962.315 7
> 2025 06 15 08 39 50.0000000  0 24
C13  37703310.412 6  37703312.664 3 196331106.270 6 151815611.080 3
C20  23902122.878 6                 124464769.920 6
C26  24441282.879 6                 127272146.507 6
C29  21392232.027 7                 111394988.346 7
C30  24401286.353 6                 127063988.417 6
E02  24489977.633 7  24489978.356 8 128695726.541 7  97357471.022 8
E10  24574481.379 8  24574483.055 8 129139758.663 8  97693400.431 8
E11  23417376.220 7  23417374.565 8 123059327.363 7  93093435.818 8
E12  26875822.164 6  26875822.874 7 141233435.709 6 106842141.510 7
E16  25689569.270 7  25689571.604 8 134999550.841 7 102126311.784 8
E25  24366423.608 7  24366426.647 9 128046396.245 7  96866293.406 9
E36  24723283.914 7  24723287.471 9 129921911.310 7  98284970.828 9
G08  22311358.076 6                  22311366.145 7 117247146.613 6                  91361339.970 7
G10  21596620.391 8                  21596627.231 7 113491100.457 8                  88434584.242 7
G16  21302637.915 7  21302642.364 5                 111946125.250 7  87230756.111 5
G18  22422221.430 7                  22422228.451 7 117829726.220 7                  91815271.354 7
G23  20840151.992 7                  20840157.499 8 109515770.200 7                  85336972.040 8
G27  20211026.229 8                  20211031.643 7 106209794.636 8                  82760821.194 7
R08  21073254.380 7  21073260.080 7 112846540.894 7  87769389.016 7
R14  20873482.179 8  20873486.908 7 111267461.177 8  86541267.330 7
R15  21321861.756 8  21321864.924 7 113937684.153 8  88618145.160 7
R17  22810531.003 5  22810520.120 4 122063672.774 5  94938395.867 4
R23  21171055.899 7                 113250946.116 7
R24  19549390.157 8  19549394.293 7 104539554.537 8  81308427.927 7
> 2025 06 15 08 39 55.0000000  0 24
C13  37702793.351 6  37702794.814 3 196328408.630 6 151813525.064 3
C20  23898654.040 7                 124446710.517 7
C26  24440756.382 5                 127269408.479 5
C29  21391495.795 7                 111391154.309 7
C30  24402652.987 6                 127071104.756 6
E02  24487957.262 7  24487958.257 8 128685111.305 7  97349440.661 8
E10  24575021.290 8  24575023.129 8 129142596.982 8  97695547.597 8
E11  23416706.552 7  23416704.571 8 123055806.472 7  93090772.291 8
E12  26877027.774 6  26877028.592 7 141239771.480 6 106846934.475 7
E16  25691167.755 7  25691170.797 8 135007954.919 7 102132669.404 8
E25  24367170.541 8  24367173.098 9 128050318.940 8  96869260.881 9
E36  24720342.377 7  24720346.044 9 129906453.755 7  98273277.293 9
G08  22307379.966 6                  22307387.514 7 117226238.836 6                  91345048.204 7
G10  21593316.258 8                  21593322.962 7 113473736.877 8                  88421054.198 7
G16  21303666.021 7  21303670.204 5                 111951525.395 7  87234964.017 5
G18  22423635.668 7                  22423641.230 8 117837151.069 7                  91821056.929 8
G23  20839504.319 7                  20839509.638 8 109512364.768 7                  85334318.455 8
G27  20208811.573 8                  20208817.371 8 106198157.650 8                  82751753.416 8
R08  21070862.735 7  21070869.338 7 112833735.962 7  87759429.642 7
R14  20874711.523 8  20874715.682 7 111274012.522 8  86546362.825 7
R15  21319336.698 8  21319340.952 7 113924196.307 8  88607654.646 7
R17  22806265.180 4  22806274.392 4 122040945.369 4  94920719.064 4
R23  21172446.942 7                 113258386.212 7
R24  19547340.179 8  19547344.215 7 104528592.717 8  81299902.070 7
> 2025 06 15 08 40  0.0000000  0 24
C13  37702274.934 6  37702277.830 3 196325713.411 6 151811441.022 3
C20  23895187.365 7                 124428660.945 7
C26  24440233.487 5                 127266683.714 5
C29  21390761.026 7                 111387328.094 7
C30  24404020.325 6                 127078224.069 6
E02  24485939.617 7  24485940.377 8 128674506.909 7  97341418.502 8
E10  24575562.159 7  24575564.068 8 129145439.559 7  97697697.981 8
E11  23416037.860 7  23416035.884 8 123052292.347 7  93088113.872 8
E12  26878233.069 6  26878234.539 7 141246108.714 6 106851728.535 7
E16  25692768.459 7  25692770.945 8 135016363.887 7 102139030.726 8
E24  27722202.639 4                                
E25  24367918.621 8  24367921.245 9 128054250.576 8  96872235.126 9
E36  24717402.502 7  24717405.593 9 129891001.691 7  98261587.915 9
G08  22303401.686 6                  22303410.092 7 117205336.813 6                  91328760.910 7
G10  21590014.628 8                  21590021.079 7 113456385.382 8                  88407533.571 7
G16  21304696.337 7  21304700.396 5                 111956938.800 7  87239182.255 5
G18  22425049.231 7                  22425055.425 7 117844580.994 7                  91826846.479 7
G23  20838859.522 8                  20838864.978 8 109508975.265 8                  85331677.274 8
G27  20206599.645 8                  20206605.285 7 106186533.071 8                  82742695.294 7
R08  21068475.760 7  21068481.508 7 112820952.481 7  87749486.949 7
R14  20875942.972 8  20875947.602 7 111280581.503 8  86551472.007 7
R15  21316816.148 7  21316820.765 7 113910729.552 7  88597180.517 7
R23  21173838.787 7                 113265831.813 7
R24  19545291.802 8  19545295.962 7 104517641.548 8  81291384.491 7
> 2025 06 15 08 40  5.0000000  0 25
C13  37701757.479 6  37701760.987 3 196323020.227 6 151809358.337 3
C20  23891722.910 7                 124410620.866 7
C26  24439712.572 5                 127263971.744 5
C29  21390027.356 7                 111383509.309 7
C30  24405388.484 6                 127085345.954 6
E02  24483924.109 7  24483924.324 8 128663912.963 7  97333404.256 8
E10  24576103.863 7  24576105.738 8 129148285.983 7  97699851.275 8
E11  23415370.244 7  23415368.361 8 123048784.534 7  93085460.229 8
E12  26879439.639 6  26879440.678 7 141252446.898 6 106856523.324 7
E16  25694369.272 7  25694371.956 8 135024777.361 7 102145395.447 8
E24  27724134.258 5  27724140.473 6 145691409.57015 110214552.10416
E25  24368668.557 8  24368671.039 9 128058190.739 8  96875215.825 9
E36  24714462.296 8  24714466.154 9 129875554.667 8  98249902.347 9
G08  22299425.345 6                  22299433.423 7 117184440.141 6                  91312477.787 7
G10  21586713.910 8                  21586721.184 7 113439045.533 8                  88394022.012 7
G16  21305728.851 7  21305733.004 5                 111962364.983 7  87243410.455 5
G18  22426464.211 7                  22426470.307 8 117852015.615 7                  91832639.673 8
G23  20838217.536 8                  20838222.659 8 109505601.281 8                  85329048.202 8
G27  20204390.269 8                  20204395.556 8 106174920.502 8                  82733646.537 8
R08  21066092.677 7  21066097.982 7 112808189.967 7  87739560.559 7
R14  20877178.744 8  20877183.235 7 111287167.784 8  86556594.674 7
R15  21314299.949 7  21314304.383 7 113897283.495 7  88586722.494 7
R17  22797776.638 5                 121995499.51515
R23  21175230.958 7                 113273282.623 7
R24  19543246.253 8  19543249.940 7 104506700.445 8  81282874.728 7
> 2025 06 15 08 40 10.0000000  0 25
C13  37701240.642 6  37701244.730 3 196320329.209 6 151807277.477 3
C20  23888260.257 7                 124392590.491 7
C26  24439193.575 5                 127261272.810 5
C29  21389295.485 7                 111379698.182 7
C30  24406756.877 6                 127092470.637 6
E02  24481910.261 7  24481910.303 8 128653329.712 7  97325398.090 8
E10  24576646.493 7  24576648.141 8 129151136.458 7  97702007.639 8
E11  23414703.920 7  23414702.090 8 123045283.306 7  93082811.568 8
E12  26880646.368 6  26880647.080 7 141258786.291 6 106861319.009 7
E16  25695971.329 7  25695973.863 8 135033195.530 7 102151763.729 8
E24  27726063.878 5  27726070.070 6 145701549.749 5 110222223.026 6
E25  24369420.206 8  24369422.520 9 128062139.656 8  96878203.139 9
E36  24711523.891 7  24711527.718 9 129860112.956 7  98238220.795 9
G08  22295450.215 6                  22295457.377 7 117163549.092 6                  91296199.069 7
G10  21583417.688 8                  21583423.944 7 113421717.567 8                  88380519.692 7
G16  21306763.825 7  21306767.819 5                 111967804.258 7  87247648.841 5
G18  22427880.456 7                  22427886.213 8 117859455.118 7                  91838436.675 8
G23  20837578.812 7                  20837583.877 8 109502243.040 7                  85326431.378 8
G27  20202181.948 8                  20202188.130 8 106163320.130 8                  82724607.302 8
R08  21063713.060 7  21063719.145 7 112795448.648 7  87729650.642 7
R14  20878417.194 8  20878422.500 7 111293771.627 8  86561731.006 7
R15  21311787.481 7  21311792.135 7 113883858.546 7  88576280.871 7
R17  22793533.640 4  22793547.899 4 121972779.663 4  94867783.39714
R23  21176624.666 7                 113280738.693 7
R24  19541202.359 8  19541205.916 7 104495769.616 8  81274372.949 7
> 2025 06 15 08 40 15.0000000  0 26
C13  37700723.638 6  37700729.666 3 196317640.450 6 151805198.367 3
C20  23884799.475 7                 124374569.903 7
C26  24438677.063 5                 127258586.979 5
C29  21388564.895 7                 111375894.744 7
C30  24408125.380 6                 127099598.179 6
E02  24479898.635 7  24479898.464 8 128642757.190 7  97317400.037 8
E10  24577189.099 7  24577191.393 8 129153991.030 7  97704167.094 8
E11  23414039.195 7  23414037.085 8 123041788.676 7  93080167.907 8
E12  26881852.808 6  26881853.685 7 141265126.958 6 106866115.685 7
E16  25697573.411 7  25697576.699 8 135041618.472 7 102158135.615 8
E24  27727994.111 5  27727999.679 5 145711690.033 5 110229894.023 5
E25  24370173.354 8  24370175.634 9 128066097.351 8  96881197.101 9
E36  24708586.190 7  24708590.274 9 129844676.588 7  98226543.278 9
G08  22291475.934 6                  22291482.802 6 117142663.691 6                  91279924.715 6
G10  21580121.406 8                  21580128.639 7 113404401.566 8                  88367026.707 7
G16  21307801.451 7  21307804.945 5                 111973256.609 7  87251897.425 5
G18  22429296.697 7                  22429302.921 8 117866899.569 7                  91844237.536 8
G23  20836942.567 8                  20836947.965 8 109498900.573 8                  85323826.848 8
G27  20199977.258 7                  20199983.088 7 106151732.064 7                  82715577.642 7
R07  22477496.938 4                 120323681.17314
R08  21061337.843 8  21061343.630 7 112782728.714 8  87719757.354 7
R14  20879659.628 8  20879664.388 7 111300392.956 8  86566880.904 7
R15  21309279.389 7  21309284.417 7 113870454.645 7  88565855.610 7
R17  22789285.652 4  22789308.393 4 121950062.532 4  94850114.413 4
R23  21178020.779 7                 113288200.188 7
R24  19539159.548 8  19539163.790 7 104484849.339 8  81265879.392 7
> 2025 06 15 08 40 20.0000000  0 26
C13  37700207.589 6  37700214.267 3 196314953.696 6 151803120.869 3
C20  23881340.344 7                 124356558.803 7
C26  24438164.433 6                 127255913.878 6
C29  21387836.537 7                 111372098.697 7
C30  24409494.925 6                 127106728.254 6
E02  24477888.741 7  24477888.616 8 128632195.081 7  97309409.872 8
E10  24577733.050 7  24577735.373 8 129156849.388 7  97706329.414 8
E11  23413375.591 7  23413373.308 8 123038300.345 7  93077529.002 8
E12  26883059.240 6  26883060.474 7 141271468.481 6 106870912.999 7
E16  25699177.338 7  25699180.368 8 135050045.851 7 102164510.841 8
E24  27729926.731 5  27729929.281 6 145721830.295 5 110237565.028 6
E25  24370927.484 8  24370930.333 9 128070063.535 8  96884197.488 9
E36  24705649.688 7  24705653.791 9 129829245.247 7  98214869.583 9
G08  22287502.998 7                  22287509.636 6 117121783.676 7                  91263654.558 6
G10  21576828.865 8                  21576835.961 8 113387097.220 8                  88353542.813 8
G16  21308841.787 7  21308844.615 5                 111978721.723 7  87256155.949 5
G18  22430713.640 7                  22430720.188 8 117874348.653 7                  91850041.998 8
G23  20836309.372 8                  20836314.504 8 109495573.603 8                  85321234.402 8
G27  20197773.493 7                  20197780.129 7 106140155.967 7                  82706557.309 7
R07  22478524.836 4                 120329178.11114
R08  21058966.086 7  21058971.552 7 112770029.738 7  87709880.369 7
R14  20880904.584 7  20880909.974 7 111307031.563 7  86572044.253 7
R15  21306774.120 7  21306779.496 7 113857071.464 7  88555446.486 7
R17  22785038.411 5  22785066.258 4 121927347.776 5  94832447.333 4
R23  21179414.751 7                 113295666.815 7
R24  19537119.766 8  19537123.613 7 104473939.118 8  81257393.678 7
> 2025 06 15 08 40 25.0000000  0 26
C13  37699693.254 6  37699698.473 3 196312270.616 6 151801046.148 3
C20  23877883.807 7                 124338558.938 7
C26  24437652.142 6                 127253255.359 6
C29  21387108.973 7                 111368311.829 7
C30  24410864.487 6                 127113862.647 6
E02  24475881.404 7  24475880.937 8 128621645.182 7  97301428.948 8
E10  24578277.571 7  24578280.331 8 129159713.332 7  97708495.967 8
E11  23412712.978 7  23412711.037 8 123034820.097 7  93074896.211 8
E12  26884267.014 6  26884267.681 7 141277812.790 6 106875712.408 7
E16  25700782.082 7  25700785.247 8 135058479.452 7 102170890.784 8
E24  27731855.531 5  27731859.099 5 145731972.202 5 110245237.262 5
E25  24371685.042 8  24371687.056 9 128074039.972 8  96887205.641 9
E36  24702714.782 7  24702718.582 9 129813820.735 7  98203201.044 9
G08  22283530.871 7                  22283537.611 6 117100910.748 7                  91247389.972 6
G10  21573538.641 8                  21573545.964 7 113369806.314 8                  88340069.385 7
G16  21309883.942 7  21309887.647 5                 111984201.363 7  87260425.775 5
G18  22432132.530 7                  22432138.949 8 117881804.146 7                  91855851.460 8
G23  20835679.665 7                  20835684.741 8 109492263.857 7                  85318655.375 8
G27  20195574.038 7                  20195579.909 7 106128593.645 7                  82697547.712 7
R07  22479562.607 5  22479544.433 3 120334694.36415  93593698.52413
R08  21056599.504 7  21056604.834 7 112757353.575 7  87700021.122 7
R14  20882153.429 7  20882159.174 7 111313689.234 7  86577222.456 7
R15  21304274.160 7  21304279.351 7 113843710.887 7  88545054.908 7
R17  22780794.833 5  22780821.208 3 121904637.276 5
R23  21180812.354 7                 113303140.415 7
R24  19535081.378 7  19535085.549 7 104463040.864 7  81248917.271 7
> 2025 06 15 08 40 30.0000000  0 26
C13  37699178.262 6  37699183.795 3 196309590.180 6 151798973.536 3
C20  23874429.284 7                 124320569.272 7
C26  24437144.011 6                 127250610.240 6
C29  21386383.452 7                 111364533.038 7
C30  24412235.649 6                 127121000.245 6
E02  24473875.841 7  24473875.560 8 128611106.455 7  97293456.462 8
E10  24578824.273 7  24578826.162 8 129162581.751 7  97710665.894 8
E11  23412052.061 7  23412050.087 8 123031346.832 7  93072268.702 8
E12  26885474.440 6  26885475.131 7 141284158.724 6 106880513.032 7
E16  25702388.082 7  25702391.044 8 135066918.176 7 102177274.593 8
E24  27733784.578 5  27733789.084 5 145742114.668 5 110252909.942 5
E25  24372443.222 8  24372445.501 9 128078025.587 8  96890220.729 9
E36  24699780.793 7  24699784.478 9 129798401.941 7  98191536.838 9
G08  22279560.141 7                  22279567.040 6 117080043.929 7                  91231130.124 6
G10  21570250.637 8                  21570257.769 8 113352527.781 8                  88326605.577 8
G16  21310929.928 7  21310933.095 5                 111989694.445 7  87264706.070 5
G18  22433551.958 7                  22433558.993 8 117889264.937 7                  91861665.055 8
G23  20835052.687 7                  20835057.811 8 109488970.296 7                  85316088.969 8
G27  20193375.485 7                  20193382.287 8 106117044.032 7                  82688548.018 8
R07  22480600.141 5  22480578.750 3 120340229.129 5  93598003.216 3
R08  21054236.309 7  21054241.280 7 112744699.109 7  87690178.761 7
R14  20883405.536 8  20883411.153 7 111320364.833 8  86582414.577 7
R15  21301778.659 7  21301783.241 7 113830371.806 7  88534680.065 7
R17  22776551.017 5                 121881929.849 5
R23  21182211.477 7                 113310619.850 7
R24  19533045.312 8  19533050.034 7 104452153.394 8  81240449.261 7
> 2025 06 15 08 40 35.0000000  0 25
C13  37698663.887 6  37698669.207 3 196306912.547 6 151796903.013 3
C20  23870977.425 7                 124302589.979 7
C26  24436638.674 6                 127247978.779 6
C29  21385659.014 7                 111360762.486 7
C30  24413607.177 6                 127128141.256 6
E02  24471871.981 7  24471872.271 8 128600579.013 7  97285492.521 8
E10  24579370.783 7  24579372.829 8 129165454.793 7  97712839.333 8
E11  23411392.522 7  23411390.478 8 123027880.726 7  93069646.614 8
E12  26886681.963 6  26886682.976 7 141290506.432 6 106885315.013 7
E16  25703995.627 7  25703997.845 8 135075362.188 7 102183662.427 8
E25  24373203.432 8  24373205.670 9 128082020.560 8  96893242.892 9
E36  24696848.433 7  24696851.454 8 129782989.086 7  98179877.112 8
G08  22275591.024 7                  22275597.889 6 117059183.367 7                  91214875.164 6
G10  21566965.309 8                  21566972.459 8 113335261.789 8                  88313151.565 8
G16  21311977.462 7  21311980.884 5                 111995201.124 7  87268996.975 5
G18  22434973.113 7                  22434979.725 7 117896731.183 7                  91867482.910 7
G23  20834428.815 7                  20834434.274 8 109485693.058 7                  85313535.273 8
G27  20191180.541 8                  20191186.898 8 106105507.267 8                  82679558.329 8
R07  22481624.203 5  22481617.999 5 120345782.610 5  93602322.491 5
R08  21051877.127 8  21051881.851 7 112732066.510 8  87680353.414 7
R14  20884662.358 8  20884667.076 7 111327058.573 8  86587620.780 7
R15  21299286.531 7  21299290.962 7 113817054.338 7  88524322.023 7
R17  22772304.707 5                 121859225.424 5
R23  21183610.028 7                 113318105.125 7
R24  19531011.208 8  19531015.730 7 104441276.797 8  81231989.692 7
> 2025 06 15 08 40 40.0000000  0 25
C13  37698151.522 6  37698155.447 4 196304240.583 6 151794836.832 4
C20  23867527.920 7                 124284623.962 7
C26  24436135.473 6                 127245363.852 6
C29  21384937.118 7                 111357003.103 7
C30  24414980.643 6                 127135288.534 6
E02  24469871.419 8  24469871.696 8 128590065.823 8  97277539.373 8
E10  24579918.892 7  24579921.025 8 129168335.412 7  97715018.507 8
E11  23410735.097 7  23410732.850 8 123024424.702 7  93067032.156 8
E12  26887891.348 6  26887891.630 6 141296858.879 6 106890120.577 6
E16  25705603.700 8  25705606.274 8 135083814.392 8 102190056.450 8
E25  24373965.902 7  24373968.239 9 128086027.774 7  96896274.318 9
E36  24693917.261 7  24693920.143 9 129767585.056 7  98168224.070 9
G08  22271622.251 7                  22271630.119 6 117038332.004 7                  91198627.393 6
G10  21563682.601 8                  21563689.680 8 113318011.285 8                  88299709.615 8
G16  21313028.343 7  21313032.317 5                 112000724.320 7  87273300.753 5
G18  22436395.951 7                  22436402.005 7 117904205.824 7                  91873307.324 7
G23  20833808.902 7                  20833814.189 8 109482435.064 7                  85310996.576 8
G27  20188988.290 7                  20188994.637 8 106093986.332 7                  82670580.972 8
R07  22482665.563 5  22482660.787 5 120351357.635 5  93606658.679 5
R08  21049522.148 7  21049527.508 7 112719458.840 7  87670547.433 7
R14  20885921.881 8  20885927.097 8 111333773.250 8  86592843.300 8
R15  21296799.445 7  21296803.520 7 113803761.642 7  88513983.275 7
R17  22768063.751 5  22768070.262 5 121836527.529 5  94761752.62415
R23  21185011.178 7                 113325599.416 7
R24  19528980.053 8  19528984.413 7 104430414.294 8  81223541.093 7
> 2025 06 15 08 40 45.0000000  0 25
C13  37697638.767 6  37697643.856 3 196301573.260 6 151792774.256 3
C20  23864079.908 7                 124266670.115 7
C26  24435636.861 6                 127242764.274 6
C29  21384217.340 7                 111353253.726 7
C30  24416352.909 6                 127142440.996 6
E02  24467872.782 7  24467873.630 8 128579565.751 7  97269596.139 8
E10  24580468.497 7  24580470.448 8 129171222.453 7  97717202.526 8
E11  23410079.072 7  23410076.878 8 123020977.594 7  93064424.437 8
E12  26889100.407 6  26889101.041 6 141303214.864 6 106894928.845 6
E16  25707213.606 8  25707216.014 8 135092273.646 8 102196455.813 8
E25  24374730.440 8  24374732.894 9 128090046.108 8  96899314.158 9
E36  24690987.202 7  24690990.326 9 129752188.726 7  98156576.847 9
G08  22267655.716 7                  22267663.650 7 117017488.666 7                  91182385.846 7
G10  21560402.573 8                  21560409.547 8 113300775.117 8                  88286278.850 8
G16  21314082.442 7  21314086.142 5                 112006262.867 7  87277616.503 5
G18  22437820.113 7                  22437825.315 7 117911687.711 7                  91879137.364 7
G23  20833192.571 7                  20833197.738 8 109479195.198 7                  85308471.990 8
G27  20186799.365 8                  20186804.941 8 106082480.047 8                  82661615.044 8
R07  22483705.006 5  22483706.387 4 120356953.262 5  93611010.838 4
R08  21047173.869 7  21047177.153 7 112706874.878 7  87660759.913 7
R14  20887185.456 8  20887190.172 7 111340507.730 8  86598081.228 7
R15  21294315.339 7  21294319.949 7 113790492.343 7  88503662.725 7
R17  22763827.570 5  22763831.450 5 121813834.666 5  94744102.626 5
R23  21186413.748 7                 113333101.463 7
R24  19526951.275 8  19526955.727 7 104419564.627 8  81215102.489 7
> 2025 06 15 08 40 50.0000000  0 25
C13  37697127.258 6  37697131.862 3 196298909.939 6 151790714.805 3
C20  23860634.268 7                 124248727.922 7
C26  24435138.753 6                 127240179.564 6
C29  21383499.715 7                 111349513.854 7
C30  24417727.392 6                 127149598.090 6
E02  24465877.103 7  24465877.866 8 128569078.262 7  97261662.426 8
E10  24581019.387 7  24581020.958 8 129174115.429 7  97719391.024 8
E11  23409424.933 7  23409422.510 8 123017538.921 7  93061823.092 8
E12  26890311.098 6  26890311.042 6 141309573.890 6 106899739.394 6
E16  25708824.715 8  25708827.070 8 135100739.462 8 102202860.125 8
E25  24375497.275 8  24375499.578 9 128094075.030 8  96902362.003 9
E36  24688058.416 7  24688061.869 9 129736799.573 7  98144935.055 9
G08  22263690.553 7                  22263698.727 7 116996652.908 7                  91166150.212 7
G10  21557125.037 8                  21557132.323 7 113283552.778 8                  88272858.843 7
G16  21315139.140 7  21315142.873 5                 112011816.224 7  87281943.796 5
G18  22439244.599 7                  22439250.705 7 117919176.352 7                  91884972.655 7
G23  20832579.580 7                  20832584.653 8 109475972.924 7                  85305961.128 8
G27  20184611.355 8                  20184618.174 8 106070987.932 8                  82652660.150 8
R07  22484752.600 5  22484755.792 3 120362568.765 5
R08  21044826.918 7  21044831.437 7 112694314.088 7  87650990.446 7
R14  20888451.603 8  20888457.127 7 111347261.463 8  86603334.115 7
R15  21291836.519 7  21291841.189 7 113777245.983 7  88493360.024 7
R17  22759590.057 5  22759593.484 5 121791146.294 5  94726456.111 5
R23  21187817.627 7                 113340610.685 7
R24  19524924.235 8  19524929.544 7 104408727.223 8  81206673.387 7
> 2025 06 15 08 40 55.0000000  0 25
C13  37696617.005 6                 196296250.642 6
C20  23857190.202 7                 124230797.307 7
C26  24434646.462 6                 127237609.566 6
C29  21382782.594 7                 111345783.402 7
C30  24419102.396 6                 127156759.721 6
E02  24463883.760 7  24463884.481 8 128558603.257 7  97253738.142 8
E10  24581571.144 7  24581572.530 8 129177014.153 7  97721583.869 8
E11  23408772.362 7  23408769.736 8 123014108.532 7  93059228.022 8
E12  26891521.407 6  26891521.670 6 141315935.872 6 106904552.185 6
E16  25710437.164 7  25710439.304 8 135109211.670 7 102209269.275 8
E25  24376266.134 8  24376268.256 9 128098114.427 8  96905417.774 9
E36  24685131.002 7  24685134.747 9 129721417.471 7  98133298.605 9
G08  22259727.648 7                  22259735.128 7 116975824.583 7                  91149920.352 7
G10  21553850.547 8                  21553857.618 7 113266344.192 8                  88259449.571 7
G16  21316198.671 7  21316202.391 5                 112017384.341 7  87286282.569 5
G18  22440670.943 7                  22440676.894 7 117926671.554 7                  91890813.079 7
G23  20831969.848 8                  20831974.194 7 109472768.104 8                  85303463.863 7
G27  20182427.686 8                  20182433.763 8 106059509.838 8                  82643716.187 8
R07  22485802.740 5  22485813.623 5 120368204.094 5  93619762.01215
R08  21042485.489 7  21042490.007 7 112681776.469 7  87641238.995 7
R14  20889722.789 8  20889727.315 7 111354034.270 8  86608601.860 7
R15  21289362.254 7  21289366.576 7 113764022.721 7  88483075.214 7
R17  22755344.974 5  22755355.901 5 121768462.229 5  94708813.050 5
R23  21189222.677 7                 113348127.089 7
R24  19522900.604 8  19522904.464 7 104397902.030 8  81198253.777 7
> 2025 06 15 08 41  0.0000000  0 25
C13  37696106.039 6                 196293594.056 6
C20  23853748.434 7                 124212877.032 7
C26  24434157.450 6                 127235053.148 6
C29  21382067.443 7                 111342061.131 7
C30  24420477.864 6                 127163924.667 6
E02  24461892.191 7  24461893.322 8 128548139.502 7  97245822.392 8
E10  24582124.752 7  24582124.967 8 129179917.430 7  97723780.180 8
E11  23408120.926 7  23408118.290 8 123010685.252 7  93056638.328 8
E12  26892732.945 6  26892732.555 6 141322299.547 6 106909366.249 6
E16  25712049.995 7  25712052.511 8 135117689.079 7 102215682.357 8
E25  24377036.635 7  24377038.723 9 128102163.070 7  96908480.532 9
E36  24682205.790 7  24682208.755 9 129706041.230 7  98121666.585 9
G08  22255765.273 7                  22255773.292 7 116955002.492 7                  91133695.345 7
G10  21550578.020 8                  21550584.962 7 113249148.097 8                  88246050.033 7
G16  21317261.415 7  21317264.611 5                 112022965.936 7  87290631.864 5
G18  22442098.174 7                  22442104.126 7 117934172.156 7                  91896657.705 7
G23  20831363.006 8                  20831367.897 7 109469579.537 8                  85300979.258 7
G27  20180245.983 8                  20180252.225 8 106048044.582 8                  82634782.222 8
R07  22486861.627 6  22486871.626 5 120373857.966 6  93624159.532 5
R08  21040149.042 8  21040153.271 7 112669260.763 8  87631504.556 7
R14  20890995.913 8  20891001.526 7 111360825.106 8  86613883.627 7
R15  21286892.768 7  21286896.019 7 113750820.939 7  88472807.160 7
R17  22751109.784 5  22751118.813 4 121745781.52115
R23  21190628.764 7                 113355649.335 7
R24  19520879.166 8  19520882.000 7 104387087.691 8  81189842.612 7
> 2025 06 15 08 41  5.0000000  0 25
C13  37695596.653 6                 196290940.941 6
C20  23850310.337 7                 124194967.897 7
C26  24433669.485 6                 127232511.045 6
C29  21381354.451 7                 111338347.823 7
C30  24421854.064 6                 127171093.706 6
E02  24459903.181 7  24459904.478 8 128537687.843 7  97237915.787 8
E10  24582677.842 7  24582678.509 8 129182826.029 7  97725980.546 8
E11  23407471.069 7  23407468.355 8 123007269.821 7  93054054.574 8
E12  26893944.250 6  26893943.954 6 141328665.739 6 106914182.229 6
E16  25713664.719 7  25713666.862 8 135126172.458 7 102222099.956 8
E25  24377808.814 8  24377811.088 9 128106221.757 8  96911550.899 9
E36  24679281.221 7  24679283.995 9 129690671.614 7  98110039.586 9
G08  22251804.310 7                  22251812.134 7 116934187.451 7                  91117475.833 7
G10  21547307.831 8                  21547315.130 7 113231965.312 8                  88232660.872 7
G16  21318326.086 7  21318329.278 5                 112028561.805 7  87294992.296 5
G18  22443527.246 7                  22443532.660 7 117941678.938 7                  91902507.156 7
G23  20830759.880 8                  20830763.877 8 109466407.993 8                  85298507.914 8
G27  20178066.197 7                  20178073.018 8 106036592.976 7                  82625858.896 8
R07  22487920.023 5  22487933.342 5 120379531.174 5  93628571.989 5
R08  21037816.041 8  21037820.157 7 112656767.772 8  87621787.801 7
R14  20892273.773 8  20892278.999 7 111367634.613 8  86619179.893 7
R15  21284425.288 7  21284429.681 7 113737641.695 7  88462556.673 7
R17  22746865.593 5  22746881.634 3 121723104.866 5  94673535.15113
R23  21192036.702 7                 113363178.390 7
R24  19518858.771 8  19518861.840 7 104376285.151 8  81181440.639 7
> 2025 06 15 08 41 10.0000000  0 25
C13  37695087.093 6  37695087.081 3 196288291.923 6 151782493.39813
C20  23846873.161 7                 124177070.556 7
C26  24433184.055 6                 127229983.855 6
C29  21380643.773 7                 111334644.089 7
C30  24423231.317 6                 127178267.499 6
E02  24457917.219 7  24457917.996 8 128527248.869 7  97230018.757 8
E10  24583232.766 8  24583233.198 8 129185740.616 8  97728185.408 8
E11  23406822.604 7  23406820.016 8 123003862.854 7  93051477.230 8
E12  26895156.019 6  26895155.912 6 141335035.023 6 106919000.526 6
E16  25715280.553 8  25715282.421 8 135134662.414 8 102228522.539 8
E25  24378582.871 8  24378585.463 9 128110291.058 8  96914629.288 9
E36  24676357.561 7  24676360.669 9 129675309.274 7  98098418.071 9
G08  22247845.051 7                  22247852.508 7 116913380.049 7                  91101262.275 7
G10  21544040.853 8                  21544047.854 7 113214796.489 8                  88219282.596 7
G16  21319393.693 7  21319396.538 6                 112034172.570 7  87299364.309 6
G18  22444956.341 7                  22444961.889 7 117949192.498 7                  91908361.849 7
G23  20830159.173 7                  20830163.896 7 109463254.092 7                  85296050.323 7
G27  20175890.115 8                  20175896.138 8 106025155.615 8                  82616946.663 8
R07  22488976.595 5  22488996.468 5 120385224.346 5  93633000.013 5
R08  21035486.459 8  21035491.257 7 112644298.110 8  87612089.153 7
R14  20893554.386 7  20893559.921 7 111374463.419 7  86624491.201 7
R15  21281963.649 7  21281967.846 7 113724485.524 7  88452324.091 7
R17  22742632.481 5  22742645.382 4 121700432.896 5  94655901.239 4
R23  21193445.554 7                 113370714.673 7
R24  19516840.175 8  19516844.117 7 104365494.989 8  81173048.282 7
> 2025 06 15 08 41 15.0000000  0 25
C13  37694579.269 6  37694579.163 4 196285645.963 6 151780447.373 4
C20  23843437.809 7                 124159183.888 7
C26  24432702.376 6                 127227470.460 6
C29  21379934.311 7                 111330948.839 7
C30  24424609.736 6                 127185444.843 6
E02  24455933.452 7  24455933.733 8 128516821.439 7  97222130.485 8
E10  24583787.919 8  24583788.803 8 129188660.019 8  97730393.911 8
E11  23406175.444 7  23406173.127 8 123000463.237 7  93048905.435 8
E12  26896368.108 6  26896368.193 6 141341406.320 6 106923820.357 6
E16  25716896.744 7  25716899.102 8 135143157.809 7 102234949.248 8
E25  24379359.407 8  24379361.683 9 128114369.895 8  96917714.889 9
E36  24673435.092 7  24673438.465 9 129659953.076 7  98086801.206 9
G08  22243886.090 7                  22243894.129 7 116892579.182 7                  91085053.822 7
G10  21540775.964 8                  21540783.546 7 113197640.490 8                  88205914.295 7
G16  21320463.955 7  21320466.924 5                 112039797.079 7  87303747.040 5
G18  22446387.257 7                  22446393.329 7 117956711.687 7                  91914220.956 7
G23  20829562.025 8                  20829566.493 7 109460116.716 8                  85293605.593 7
G27  20173716.391 8                  20173722.236 8 106013731.390 8                  82608044.676 8
R07  22490047.122 5  22490062.269 5 120390936.145 5  93637442.588 5
R08  21033162.182 8  21033166.850 7 112631850.629 8  87602407.790 7
R14  20894839.619 7  20894844.614 7 111381310.395 7  86629816.591 7
R15  21279506.019 7  21279510.338 7 113711351.400 7  88442108.682 7
R17  22738391.399 4  22738412.110 5 121677764.262 4  94638270.103 5
R23  21194855.461 7                 113378257.056 7
R24  19514824.469 8  19514828.376 7 104354716.104 8  81164664.688 7
> 2025 06 15 08 41 20.0000000  0 25
C13  37694072.731 6  37694074.008 4 196283004.054 6 151778404.548 4
C20  23840005.497 7                 124141309.029 7
C26  24432222.711 6                 127224972.063 6
C29  21379226.188 7                 111327263.203 7
C30  24425989.256 6                 127192626.900 6
E02  24453951.075 7  24453951.821 8 128506406.766 7  97214251.843 8
E10  24584344.336 8  24584345.418 8 129191585.405 8  97732606.959 8
E11  23405530.543 7  23405527.788 8 122997072.123 7  93046340.078 8
E12  26897581.010 6  26897581.168 6 141347780.737 6 106928642.514 6
E16  25718514.370 8  25718517.062 8 135151659.809 8 102241380.944 8
E25  24380137.335 7  24380139.909 9 128118459.370 7  96920808.555 9
E36  24670514.132 7  24670517.656 9 129644604.151 7  98075189.850 9
G08  22239929.238 7                  22239937.262 7 116871786.026 7                  91068851.369 7
G10  21537514.215 7                  21537521.316 7 113180498.528 7                  88192556.904 7
G16  21321536.701 7  21321539.871 5                 112045436.491 7  87308141.380 5
G18  22447819.455 7                  22447824.951 7 117964237.688 7                  91920085.354 7
G23  20828968.269 8                  20828972.649 7 109456996.999 8                  85291174.669 7
G27  20171544.799 8                  20171550.968 8 106002321.485 8                  82599153.820 8
R07  22491135.589 5  22491130.864 5 120396668.150 5  93641900.796 5
R08  21030842.465 8  21030845.942 7 112619426.512 8  87592744.576 7
R14  20896127.079 7  20896132.951 7 111388176.691 7  86635157.023 7
R15  21277052.469 7  21277056.360 7 113698240.330 7  88431911.192 7
R17  22734160.785 5  22734175.902 3 121655100.479 5  94620642.645 3
R23  21196266.237 7                 113385806.766 7
R24  19512812.159 8  19512814.894 7 104343949.651 8  81156290.750 7
> 2025 06 15 08 41 25.0000000  0 25
C13  37693565.088 6  37693569.147 4 196280365.102 6 151776363.944 4
C20  23836574.876 7                 124123444.725 7
C26  24431745.944 6                 127222487.259 6
C29  21378520.260 7                 111323585.910 7
C30  24427369.838 6                 127199812.413 6
E02  24451971.418 7  24451972.132 8 128496003.517 7  97206381.847 8
E10  24584901.878 8  24584903.014 9 129194515.470 8  97734823.533 9
E11  23404886.383 7  23404883.856 8 122993688.188 7  93043780.159 8
E12  26898794.446 6  26898794.486 6 141354156.973 6 106933466.093 6
E16  25720132.702 7  25720136.032 8 135160167.115 7 102247816.653 8
E25  24380916.954 7  24380919.942 9 128122558.224 7  96923909.310 9
E36  24667595.242 7  24667597.970 9 129629261.216 7  98063583.023 9
G08  22235973.525 7                  22235981.767 7 116850999.314 7                  91052653.928 7
G10  21534254.893 8                  21534261.385 7 113163369.239 8                  88179209.406 7
G16  21322612.546 7  21322615.396 5                 112051089.523 7  87312546.337 5
G18  22449252.671 7                  22449257.908 7 117971769.167 7                  91925954.030 7
G23  20828377.675 8                  20828382.051 7 109453893.649 8                  85288756.492 7
G27  20169376.107 8                  20169382.208 7 105990924.559 8                  82590273.111 7
R07  22492212.413 5  22492203.976 5 120402418.715 5  93646373.451 5
R08  21028526.100 8  21028530.323 7 112607024.449 8  87583098.544 7
R14  20897419.509 7  20897424.563 7 111395060.868 7  86640511.389 7
R15  21274603.190 7  21274607.104 7 113685151.209 7  88421730.794 7
R17  22729925.869 5  22729937.850 4 121632439.884 5  94603017.856 4
R23  21197678.827 7                 113393362.545 7
R24  19510800.340 8  19510803.337 7 104333194.226 8  81147925.438 7
