     3.04           OBSERVATION DATA    Mixed(MIXED)        RINEX VERSION / TYPE
cnvtToRINEX 3.14.0  convertToRINEX OPR  20250615 162723 UTC PGM / RUN BY / DATE 
----------------------------------------------------------- COMMENT             
33.1K                                                       MARKER NAME         
33.1K                                                       MARKER NUMBER       
GEODETIC                                                    MARKER TYPE         
GNSS Observer       Trimble                                 OBSERVER / AGENCY   
6203S17886          Unknown             5.53                REC # / TYPE / VERS 
                    UNKNOWN EXT     NONE                    ANT # / TYPE        
  3914289.0850  1190560.4849  4877465.1285                  APPROX POSITION XYZ 
        1.1730        0.0000        0.0000                  ANTENNA: DELTA H/E/N
G    6 C1C C2W C2X L1C L2W L2X                              SYS / # / OBS TYPES 
R    4 C1C C2C L1C L2C                                      SYS / # / OBS TYPES 
C    4 C2I C7I L2I L7I                                      SYS / # / OBS TYPES 
E    4 C1X C8X L1X L8X                                      SYS / # / OBS TYPES 
     5.000                                                  INTERVAL            
  2025     6    15     6    51   20.0000000     GPS         TIME OF FIRST OBS   
  2025     6    15     7    29   15.0000000     GPS         TIME OF LAST OBS    
     0                                                      RCV CLOCK OFFS APPL 
 10 R07  5 R08  6 R12 -1 R13 -2 R14 -7 R15  0 R17  4 R22 -3 GLONASS SLOT / FRQ #
    R23  3 R24  2                                           GLONASS SLOT / FRQ #
G L2X -0.25000                                              SYS / PHASE SHIFT   
R L2C -0.25000                                              SYS / PHASE SHIFT   
    18                                                      LEAP SECONDS        
    26                                                      # OF SATELLITES     
   C13   456   456   456   456                              PRN / # OF OBS      
   C26   385     0   383     0                              PRN / # OF OBS      
   C29   456     0   456     0                              PRN / # OF OBS      
   C30   456     0   456     0                              PRN / # OF OBS      
   E02   437   437   437   437                              PRN / # OF OBS      
   E10   454   454   454   454                              PRN / # OF OBS      
   E11   382   382   382   382                              PRN / # OF OBS      
   E12   386   386   386   386                              PRN / # OF OBS      
   E16   456   456   456   456                              PRN / # OF OBS      
   E24   456   456   456   456                              PRN / # OF OBS      
   E25   456   456   456   456                              PRN / # OF OBS      
   E36    46    45    46    45                              PRN / # OF OBS      
   G10   216     0   216   216     0   216                  PRN / # OF OBS      
   G16   456   456     0   456   456     0                  PRN / # OF OBS      
   G18   456     0   456   456     0   456                  PRN / # OF OBS      
   G23   456     0   456   456     0   456                  PRN / # OF OBS      
   G27   419     3   399   412     3   399                  PRN / # OF OBS      
   G29   381     0   376   377     0   376                  PRN / # OF OBS      
   G31    46     0    27    40     0    27                  PRN / # OF OBS      
   R07    27    10    26     9                              PRN / # OF OBS      
   R12   305   305   305   305                              PRN / # OF OBS      
   R13   456     0   456     0                              PRN / # OF OBS      
   R14   456   456   456   456                              PRN / # OF OBS      
   R22   378   365   377   361                              PRN / # OF OBS      
   R23   456     0   456     0                              PRN / # OF OBS      
   R24   441   432   441   428                              PRN / # OF OBS      
DBHZ                                                        SIGNAL STRENGTH UNIT
                                                            END OF HEADER       
>                              2  1
              *** Start of Kinematic Data ***               COMMENT             
> 2025 06 15 06 51 20.0000000  0 18
C13  37480381.384 7  37480382.959 7 195170173.12517 150917946.12617
C29  22173101.285 7                 115461151.17217
C30  21869215.869 7                 113878742.22117
E16  23369175.820 8  23369175.578 9 122805843.20518  92901822.97919
E24  24286635.714 7  24286635.492 9 127627127.24617  96549091.60319
E25  23601570.447 7  23601571.783 8 124027089.60517  93825693.01318
G16  21055616.776 7  21055618.818 5                 110648005.53917  86219239.44115
G18  20466161.642 8                  20466166.598 8 107550402.46018                  83805531.23018
G23  22713628.319 7                  22713634.012 7 119360920.46517                  93008537.66117
G27  23182679.442 6                  23182686.831 5 121825783.46816                  94929566.15915
G29  22533392.474 7                  22533397.912 7 118413772.28317                  92270492.67517
G31  24197082.136 4                  24197077.838 5 127156638.21114                  99082972.24715
R12  22250833.946 7  22250840.666 7 118859956.14917  92446655.96717
R13  19704775.008 6                 105222399.94216
R14  21188730.718 6  21188735.406 6 112947854.27716  87848679.04716
R22  20812779.307 8  20812781.722 7 111100031.44418  86411141.31217
R23  19246431.001 7                 102955428.76317
R24  22311110.451 6  22311106.872 6 119307554.02416  92794753.99916
> 2025 06 15 06 51 25.0000000  0 18
C13  37478951.877 6  37478953.615 6 195162731.422 6 150912191.694 6
C29  22170474.364 7                 115447473.773 7
C30  21869371.317 7                 113879552.536 7
E16  23368735.691 8  23368735.796 9 122803531.917 8  92900074.480 9
E24  24287475.716 8  24287475.555 8 127631542.143 8  96552431.405 8
E25  23599795.279 8  23599796.843 8 124017762.267 8  93818636.946 8
G16  21052774.333 7  21052777.092 5                 110633068.031 7  86207599.847 5
G18  20465189.388 7                  20465195.021 8 107545297.091 7                  83801553.009 8
G23  22709566.710 7                  22709572.524 7 119339575.747 7                  92991905.428 7
G27  23178508.908 6                  23178516.576 6 121803870.697 6                  94912491.200 6
G29  22534933.902 7                  22534939.306 7 118421870.945 7                  92276803.339 7
G31  24199202.226 4                  24199207.378 5 127167829.610 4                  99091692.708 5
R12  22253820.009 7  22253826.313 7 118875903.069 7  92459059.090 7
R13  19705376.632 7                 105225604.407 7
R14  21184940.215 7  21184944.879 7 112927651.928 7  87832966.105 7
R22  20814473.171 8  20814475.059 7 111109071.025 8  86418172.052 7
R23  19245432.517 8                 102950084.876 8
R24  22306883.871 6  22306879.080 5 119284951.767 6  92777174.527 5
>                              3  5
              *** Start of Occupation ***                   COMMENT             
33.1K                                                       MARKER NAME         
33.1K                                                       MARKER NUMBER       
  3914289.0850  1190560.4849  4877465.1285                  APPROX POSITION XYZ 
        1.1730        0.0000        0.0000                  ANTENNA: DELTA H/E/N
> 2025 06 15 06 51 30.0000000  0 19
C13  37477522.110 6  37477523.882 7 195155286.088 6 150906434.470 7
C29  22167847.460 7                 115433795.200 7
C30  21869526.457 7                 113880361.692 7
E10  23447426.533 7  23447426.879 9 123217057.01117  93212904.82919
E16  23368296.099 8  23368296.305 9 122801222.174 8  92898327.173 9
E24  24288315.654 8  24288315.592 8 127635956.334 8  96555770.702 8
E25  23598020.499 8  23598022.077 8 124008435.859 8  93811581.572 8
G16  21049933.059 8  21049935.614 5                 110618135.642 8  86195964.214 5
G18  20464219.148 7                  20464224.499 8 107540196.967 7                  83797578.884 8
G23  22705504.454 7                  22705510.716 7 119318230.334 7                  92975272.647 7
G27  23174338.763 6                  23174345.818 6 121781953.234 6                  94895412.673 6
G29  22536474.116 7                  22536479.768 7 118429966.464 7                  92283111.527 7
G31  24201330.049 4                  24201335.842 5 127179015.834 4                  99100409.244 5
R12  22256804.493 7  22256810.898 7 118891848.237 7  92471460.881 7
R13  19705978.928 7                 105228821.049 7
R14  21181151.780 7  21181155.940 7 112907456.479 7  87817258.552 7
R22  20816165.910 8  20816168.815 7 111118108.982 8  86425201.578 7
R23  19244434.409 8                 102944746.882 8
R24  22302659.242 6  22302654.916 5 119262347.575 6  92759593.508 5
> 2025 06 15 06 51 35.0000000  0 19
C13  37476091.563 6  37476093.010 7 195147836.856 6 150900674.262 7
C29  22165219.992 7                 115420115.196 7
C30  21869681.380 7                 113881169.475 7
E10  23446179.079 7  23446179.064 9 123210499.460 7  93207944.082 9
E16  23367856.538 8  23367857.016 9 122798913.699 8  92896580.825 9
E24  24289155.334 8  24289155.450 8 127640369.539 8  96559109.257 8
E25  23596245.911 8  23596247.466 8 123999110.093 8  93804526.690 8
G16  21047091.818 7  21047095.045 5                 110603208.059 7  86184332.337 5
G18  20463249.876 7                  20463254.995 8 107535101.849 7                  83793608.672 8
G23  22701442.437 7                  22701448.630 7 119296884.002 7                  92958639.151 7
G27  23170166.485 6                  23170173.810 6 121760030.804 6                  94878330.278 6
G29  22538014.374 7                  22538019.262 7 118438058.604 7                  92289417.067 7
G31  24203456.762 3                                                                
R12  22259790.222 7  22259795.548 7 118907791.372 7  92483861.063 7
R13  19706583.090 7                 105232049.659 7
R14  21177364.709 7  21177368.652 7 112887267.551 7  87801556.057 7
R22  20817859.311 8  20817861.622 7 111127145.010 8  86432229.600 7
R23  19243438.602 8                 102939414.471 8
R24  22298428.679 6  22298426.961 5 119239741.271 6  92742010.788 5
> 2025 06 15 06 51 40.0000000  0 19
C13  37474659.216 6  37474662.019 7 195140383.783 6 150894911.056 7
C29  22162592.182 7                 115406433.823 7
C30  21869836.475 7                 113881975.953 7
E10  23444931.418 7  23444931.409 9 123203943.288 7  93202984.370 9
E16  23367417.514 8  23367418.046 9 122796606.615 8  92894835.527 9
E24  24289994.795 8  24289995.027 8 127644781.920 8  96562447.190 8
E25  23594471.358 8  23594472.966 8 123989785.121 8  93797472.402 8
G16  21044252.552 7  21044255.467 5                 110588285.399 7  86172704.289 5
G18  20462281.548 8                  20462286.396 8 107530011.856 8                  83789642.423 8
G23  22697379.907 7                  22697386.375 8 119275536.867 7                  92942005.024 8
G27  23165994.286 6                  23166001.576 6 121738103.491 6                  94861244.047 6
G29  22539553.211 7                  22539558.454 7 118446147.465 7                  92295720.055 7
G31  24205586.024 4                  24205589.537 5 127201372.13914                  99117829.68715
R12  22262775.019 7  22262780.170 7 118923732.613 7  92496259.761 7
R13  19707188.970 7                 105235290.283 7
R14  21173578.018 7  21173582.232 7 112867085.564 7  87785858.979 7
R22  20819551.335 8  20819553.746 7 111136179.233 8  86439256.212 7
R23  19242441.719 7                 102934087.712 7
R24  22294197.261 6  22294196.747 4 119217132.859 6  92724426.441 4
> 2025 06 15 06 51 45.0000000  0 19
C13  37473227.367 7  37473230.046 7 195132926.916 7 150889144.939 7
C29  22159964.665 7                 115392751.082 7
C30  21869991.407 7                 113882781.057 7
E10  23443683.566 8  23443684.197 9 123197388.365 8  93198025.612 9
E16  23366978.941 8  23366979.294 9 122794300.830 8  92893091.219 9
E24  24290834.101 8  24290834.582 9 127649193.366 8  96565784.419 9
E25  23592697.181 8  23592698.618 8 123980460.814 8  93790418.631 8
G16  21041413.695 7  21041416.398 5                 110573367.599 7  86161080.026 5
G18  20461313.545 8                  20461318.746 8 107524926.895 8                  83785680.122 8
G23  22693318.168 7                  22693323.874 7 119254188.874 7                  92925370.240 7
G27  23161819.904 6                  23161827.719 6 121716171.234 6                  94844154.016 6
G29  22541091.608 7                  22541096.750 7 118454232.984 7                  92302020.432 7
G31  24207715.058 4                  24207714.175 5 127212542.225 4                  99126533.624 5
R12  22265759.659 7  22265764.055 7 118939671.897 7  92508656.927 7
R13  19707799.652 7                 105238542.780 7
R14  21169792.791 7  21169797.398 7 112846910.217 7  87770167.085 7
R22  20821243.706 8  20821245.789 7 111145211.558 8  86446281.320 7
R23  19241447.218 7                 102928766.632 7
R24  22289962.553 6  22289966.206 4 119194522.271 6  92706840.505 4
> 2025 06 15 06 51 50.0000000  0 19
C13  37471795.012 7  37471797.447 7 195125466.720 7 150883376.235 7
C29  22157336.991 7                 115379067.403 7
C30  21870145.479 7                 113883585.308 7
E10  23442436.891 8  23442437.256 9 123190835.237 8  93193068.213 9
E16  23366540.703 8  23366540.806 9 122791996.888 8  92891348.300 9
E24  24291673.507 8  24291674.002 9 127653604.392 8  96569121.324 9
E25  23590923.106 8  23590924.497 8 123971137.742 8  93783365.787 8
G16  21038575.367 7  21038578.725 5                 110558455.206 7  86149460.003 5
G18  20460347.014 8                  20460351.832 9 107519847.490 8                  83781722.144 9
G23  22689255.645 7                  22689261.481 7 119232840.545 7                  92908735.194 7
G27  23157645.300 6                  23157653.079 6 121694234.567 6                  94827060.489 6
G29  22542629.745 7                  22542635.378 7 118462315.703 7                  92308318.618 7
G31  24209841.125 5                  24209839.135 5 127223707.393 5                  99135233.734 5
R12  22268743.645 7  22268748.188 7 118955609.644 7  92521052.914 7
R13  19708409.411 7                 105241807.746 7
R14  21166009.103 7  21166014.126 7 112826742.028 7  87754480.690 7
R22  20822935.279 8  20822937.665 7 111154242.459 8  86453305.348 7
R23  19240454.293 7                 102923451.600 7
R24  22285735.352 6  22285737.844 4 119171909.964 6  92689253.202 4
> 2025 06 15 06 51 55.0000000  0 19
C13  37470360.876 6  37470364.176 7 195118003.027 6 150877604.859 7
C29  22154709.446 7                 115365382.765 7
C30  21870300.156 7                 113884388.635 7
E10  23441189.907 8  23441190.459 9 123184283.812 8  93188112.101 9
E16  23366102.568 8  23366102.732 9 122789694.680 8  92889606.688 9
E24  24292512.644 8  24292513.297 8 127658014.910 8  96572457.856 8
E25  23589149.366 8  23589150.576 8 123961815.810 8  93776313.804 8
G16  21035738.295 7  21035741.755 5                 110543548.097 7  86137844.078 5
G18  20459381.575 7                  20459386.460 9 107514773.540 7                  83777768.404 9
G23  22685193.139 7                  22685199.215 8 119211491.846 7                  92892099.839 8
G27  23153469.843 6                  23153477.540 6 121672293.462 6                  94809963.507 6
G29  22544166.822 7                  22544172.896 7 118470395.437 7                  92314614.495 7
G31  24211965.757 5                  24211964.499 4 127234867.604 5                  99143929.932 4
R12  22271727.298 8  22271730.646 7 118971545.863 8  92533447.721 7
R13  19709023.481 7                 105245085.011 7
R14  21162227.903 7  21162231.592 7 112806581.106 7  87738800.018 7
R22  20824627.287 8  20824629.218 7 111163271.885 8  86460328.228 7
R23  19239461.613 7                 102918142.683 7
R24  22281512.426 6  22281507.674 4 119149296.038 6  92671664.455 4
> 2025 06 15 06 52  0.0000000  0 19
C13  37468927.597 6  37468930.214 7 195110536.396 6 150871831.170 7
C29  22152081.473 7                 115351697.692 7
C30  21870454.167 7                 113885191.544 7
E10  23439943.916 8  23439944.155 9 123177734.609 8  93183157.666 9
E16  23365664.719 8  23365665.158 9 122787394.750 8  92887866.814 9
E24  24293351.923 8  24293352.582 8 127662425.470 8  96575794.411 8
E25  23587375.729 8  23587377.023 9 123952495.576 8  93769263.099 9
G16  21032902.935 7  21032906.162 5                 110528646.866 7  86126232.734 5
G18  20458417.236 7                  20458421.926 8 107509705.580 7                  83773819.344 8
G23  22681130.587 7                  22681136.389 8 119190143.278 7                  92875464.593 8
G27  23149294.591 6                  23149301.750 6 121650348.382 6                  94792863.419 6
G29  22545703.833 7                  22545710.067 7 118478472.813 7                  92320908.540 7
G31  24214088.542 5                  24214086.534 3 127246023.284 5                  99152622.670 3
R12  22274709.803 7  22274714.161 6 118987480.955 7  92545841.659 6
R13  19709639.690 7                 105248375.114 7
R14  21158446.294 7  21158451.405 7 112786428.124 7  87723125.477 7
R22  20826318.390 8  20826320.664 7 111172300.356 8  86467350.370 7
R23  19238470.577 7                 102912840.142 7
R24  22277281.740 5  22277279.648 4 119126680.889 5  92654075.072 4
> 2025 06 15 06 52  5.0000000  0 19
C13  37467492.796 6  37467496.137 7 195103067.614 6 150866055.826 7
C29  22149453.531 7                 115338012.859 7
C30  21870607.928 7                 113885994.743 7
E10  23438698.023 8  23438698.482 9 123171188.339 8  93178205.462 9
E16  23365227.496 8  23365228.036 9 122785097.824 8  92886129.203 9
E24  24294191.426 8  24294192.037 8 127666836.760 8  96579131.521 8
E25  23585602.331 8  23585603.863 8 123943177.700 8  93762214.200 8
G16  21030068.100 7  21030071.984 5                 110513752.251 7  86114626.547 5
G18  20457454.161 8                  20457458.969 8 107504644.296 8                  83769875.492 8
G23  22677068.078 7                  22677074.112 8 119168795.596 7                  92858830.056 8
G27  23145118.569 6                  23145125.557 6 121628400.037 6                  94775760.813 6
G29  22547240.727 7                  22547246.778 7 118486548.508 7                  92327201.272 7
G31  24216212.702 5                  24216209.375 3 127257175.187 5                  99161312.403 3
R12  22277693.121 7  22277697.202 6 119003415.722 7  92558235.350 6
R13  19710258.108 7                 105251678.808 7
R14  21154668.321 8  21154672.040 7 112766283.488 8  87707457.388 7
R22  20828009.186 8  20828011.384 7 111181328.568 8  86474372.289 7
R23  19237480.493 7                 102907544.900 7
R24  22273050.676 5  22273054.337 4 119104065.434 5  92636485.221 4
> 2025 06 15 06 52 10.0000000  0 19
C13  37466058.374 6  37466060.879 7 195095596.126 6 150860278.396 7
C29  22146825.692 7                 115324327.873 7
C30  21870762.310 7                 113886797.796 7
E10  23437452.549 8  23437453.125 9 123164644.604 8  93173255.168 9
E16  23364790.966 8  23364791.458 9 122782803.479 8  92884393.539 9
E24  24295031.255 8  24295031.433 8 127671248.370 8  96582468.858 8
E25  23583829.740 8  23583831.111 9 123933861.852 8  93755166.803 9
G16  21027235.687 7  21027238.799 5                 110498863.797 7  86103025.157 5
G18  20456492.527 8                  20456496.719 8 107499589.315 8                  83765936.550 8
G23  22673005.963 7                  22673012.036 8 119147448.419 7                  92842195.893 8
G27  23140940.257 6                  23140948.202 6 121606448.072 6                  94758655.401 6
G29  22548777.789 7                  22548783.270 7 118494622.089 7                  92333492.344 7
G31  24218337.615 4                                                                
R12  22280676.366 7  22280679.734 7 119019349.677 7  92570628.387 7
R13  19710880.061 7                 105254995.666 7
R14  21150890.966 8  21150894.543 7 112746146.980 8  87691795.685 7
R22  20829700.492 7  20829703.201 7 111190356.086 7  86481393.701 7
R23  19236492.362 7                 102902256.642 7
R24  22268823.274 5                 119081449.001 5
> 2025 06 15 06 52 15.0000000  0 18
C13  37464622.860 6  37464625.717 7 195088120.782 6 150854497.990 7
C29  22144197.265 7                 115310641.456 7
C30  21870916.800 7                 113887599.418 7
E10  23436207.569 8  23436208.163 9 123158102.066 8  93168305.791 9
E16  23364354.531 8  23364355.086 9 122780510.404 8  92882658.849 9
E24  24295870.546 8  24295870.804 8 127675659.034 8  96585805.477 8
E25  23582056.821 8  23582058.443 8 123924546.660 8  93748119.923 8
G16  21024403.418 7  21024406.545 5                 110483980.247 7  86091427.553 5
G18  20455531.236 8                  20455536.001 8 107494539.340 8                  83762001.480 8
G23  22668944.370 7                  22668949.783 8 119126100.378 7                  92825561.068 8
G27  23136763.951 6                  23136769.624 6 121584491.134 6                  94741546.070 6
G29  22550313.162 7                  22550319.039 7 118502692.211 7                  92339780.743 7
R12  22283657.651 7  22283662.847 6 119035281.467 7  92583019.777 6
R13  19711503.627 7                 105258324.390 7
R14  21147113.929 7  21147118.130 7 112726017.164 7  87676139.152 7
R22  20831390.799 8  20831393.544 7 111199381.601 8  86488413.534 7
R23  19235505.232 8                 102896973.699 8
R24  22264593.601 5  22264616.088 4 119058830.49815
> 2025 06 15 06 52 20.0000000  0 17
C13  37463186.012 6  37463189.273 7 195080641.057 6 150848714.183 7
C29  22141568.274 7                 115296953.111 7
C30  21871070.595 7                 113888399.127 7
E10  23434962.664 8  23434963.265 8 123151560.289 8  93163356.977 8
E16  23363918.584 8  23363918.904 9 122778218.135 8  92880924.755 9
E24  24296709.681 8  24296709.740 8 127680068.189 8  96589140.955 8
E25  23580284.170 8  23580285.864 8 123915231.687 8  93741073.212 8
G16  21021571.891 7  21021574.946 5                 110469101.130 7  86079833.428 5
G18  20454571.333 8                  20454575.968 8 107489493.828 8                  83758069.892 8
G23  22664880.673 7                  22664886.602 8 119104751.088 7                  92808925.260 8
G27  23132583.495 6                  23132589.892 6 121562528.766 6                  94724432.561 6
G29  22551848.157 7                  22551853.893 7 118510758.416 7                  92346066.130 7
R12  22286638.966 7  22286644.204 6 119051210.705 7  92595409.163 6
R13  19712128.535 7                 105261664.449 7
R14  21143338.848 7  21143343.412 7 112705893.731 7  87660487.612 7
R22  20833081.522 7  20833084.187 7 111208404.627 7  86495431.438 7
R23  19234517.486 7                 102891695.899 7
> 2025 06 15 06 52 25.0000000  0 17
C13  37461748.845 6  37461751.917 7 195073155.643 6 150842925.981 7
C29  22138938.553 7                 115283261.538 7
C30  21871223.168 7                 113889195.608 7
E10  23433717.711 8  23433718.280 9 123145017.898 8  93158407.696 9
E16  23363482.352 8  23363482.560 9 122775925.310 8  92879190.238 9
E24  24297547.756 8  24297548.337 8 127684474.518 8  96592474.310 8
E25  23578511.486 8  23578513.069 8 123905915.590 8  93734025.642 8
G16  21018740.769 7  21018743.824 5                 110454225.082 7  86068241.702 5
G18  20453611.784 8                  20453616.366 8 107484451.446 8                  83754140.769 8
G23  22660817.162 7                  22660823.231 7 119083399.165 7                  92792287.396 7
G27  23128404.050 5                  23128409.132 6 121540559.677 5                  94707313.813 6
G29  22553381.562 7                  22553387.908 7 118518819.386 7                  92352347.373 7
R12  22289620.647 7  22289625.603 7 119067135.933 7  92607795.415 7
R13  19712756.139 7                 105265014.442 7
R14  21139564.571 7  21139568.666 7 112685775.212 7  87644839.872 7
R22  20834771.161 7  20834773.531 7 111217423.741 7  86502446.278 7
R23  19233532.065 8                 102886421.718 8
> 2025 06 15 06 52 30.0000000  0 17
C13  37460310.876 6  37460313.391 7 195065664.751 6 150837133.538 7
C29  22136308.886 7                 115269566.953 7
C30  21871375.615 7                 113889989.072 7
E10  23432472.652 8  23432473.228 8 123138475.151 8  93153458.147 8
E16  23363045.807 8  23363046.180 9 122773632.192 8  92877455.516 9
E24  24298385.978 8  24298386.344 9 127688878.297 8  96595805.727 9
E25  23576738.487 8  23576740.131 8 123896598.624 8  93726977.413 8
G16  21015910.420 7  21015913.787 5                 110439352.402 7  86056652.599 5
G18  20452652.726 8                  20452657.605 9 107479412.461 8                  83750214.291 9
G23  22656753.604 7                  22656759.805 7 119062044.900 7                  92775647.736 7
G27  23124219.521 5                  23124226.960 6 121518584.038 5                  94690189.990 6
G29  22554915.028 7                  22554921.125 7 118526875.382 7                  92358624.780 7
R12  22292600.588 7  22292606.361 7 119083057.289 7  92620178.679 7
R13  19713384.786 7                 105268374.679 7
R14  21135792.573 7  21135795.920 7 112665661.927 7  87629196.214 7
R22  20836459.444 7  20836462.571 7 111226439.123 7  86509458.236 7
R23  19232546.662 7                 102881151.524 7
> 2025 06 15 06 52 35.0000000  0 17
C13  37458870.802 6  37458873.834 7 195058169.691 6 150831337.889 7
C29  22133678.467 7                 115255870.731 7
C30  21871528.208 7                 113890780.900 7
E10  23431227.941 8  23431228.461 9 123131933.409 8  93148509.358 9
E16  23362609.629 8  23362610.048 9 122771340.145 8  92875721.593 9
E24  24299224.002 8  24299224.225 9 127693280.869 8  96599136.231 9
E25  23574965.868 8  23574967.137 8 123887282.136 8  93719929.550 8
G16  21013081.583 7  21013085.204 5                 110424484.424 7  86045067.177 5
G18  20451695.046 8                  20451699.752 8 107474378.222 8                  83746291.531 8
G23  22652690.069 7                  22652696.583 8 119040689.646 7                  92759007.284 8
G27  23120037.419 5                  23120044.459 6 121496603.208 5                  94673062.165 6
G29  22556446.748 7                  22556453.186 7 118534927.749 7                  92364899.336 7
R12  22295580.056 7  22295585.651 6 119098976.242 7  92632560.063 6
R13  19714015.429 7                 105271746.408 7
R14  21132020.266 7  21132024.167 7 112645555.237 7  87613557.712 7
R22  20838148.899 8  20838151.397 7 111235452.292 8  86516468.466 7
R23  19231561.651 7                 102875886.518 7
> 2025 06 15 06 52 40.0000000  0 17
C13  37457431.067 6  37457434.057 7 195050671.517 6 150825539.810 7
C29  22131047.621 7                 115242173.744 7
C30  21871679.777 7                 113891571.990 7
E10  23429983.680 8  23429983.949 9 123125393.543 8  93143561.987 9
E16  23362173.968 8  23362174.206 9 122769050.072 8  92873989.162 9
E24  24300061.805 8  24300061.955 8 127697683.104 8  96602466.483 8
E25  23573193.206 8  23573194.537 8 123877967.062 8  93712882.752 8
G16  21010253.190 7  21010257.367 5                 110409622.024 7  86033486.090 5
G18  20450737.756 8                  20450742.681 8 107469349.639 8                  83742373.160 8
G23  22648625.758 7                  22648632.875 8 119019334.340 7                  92742366.822 8
G27  23115853.705 6                  23115861.331 6 121474618.216 6                  94655931.036 6
G29  22557978.840 7                  22557985.091 7 118542977.424 7                  92371171.781 7
R12  22298559.965 7  22298565.052 6 119114893.715 7  92644940.320 6
R13  19714649.491 7                 105275130.717 7
R14  21128248.603 7  21128253.643 7 112625456.191 7  87597925.111 7
R22  20839836.091 8  20839839.573 7 111244464.060 8  86523477.614 7
R23  19230579.583 7                 102870627.725 7
> 2025 06 15 06 52 45.0000000  0 18
C13  37455990.677 6  37455993.275 7 195043169.645 6 150819738.912 7
C29  22128417.150 7                 115228475.622 7
C30  21871831.411 7                 113892361.873 7
E10  23428739.718 8  23428739.654 9 123118855.166 8  93138615.757 9
E16  23361738.386 8  23361738.693 9 122766761.568 8  92872257.916 9
E24  24300899.278 8  24300899.472 8 127702084.625 8  96605796.195 8
E25  23571420.792 8  23571422.180 8 123868652.962 8  93705836.707 8
G16  21007426.644 7  21007429.957 5                 110394764.895 7  86021909.087 5
G18  20449781.315 7                  20449786.868 8 107464326.300 7                  83738458.849 8
G23  22644561.966 7                  22644568.831 7 118997978.601 7                  92725726.010 7
G27  23111671.695 6                  23111676.713 5 121452628.590 6                  94638796.331 5
G29  22559510.112 7                  22559516.679 7 118551023.860 7                  92377441.715 7
R12  22301538.718 6  22301544.770 7 119130809.268 6  92657319.099 7
R13  19715285.653 7                 105278526.952 7
R14  21124479.822 7  21124485.152 7 112605364.344 7  87582298.090 7
R22  20841524.125 8  20841527.364 7 111253474.024 8  86530485.362 7
R23  19229598.058 7                 102865374.676 7
R24  22239202.180 5                 118923047.06715
> 2025 06 15 06 52 50.0000000  0 18
C13  37454548.962 6  37454551.828 7 195035663.759 6 150813934.866 7
C29  22125786.640 7                 115214775.995 7
C30  21871982.250 7                 113893150.261 7
E10  23427495.104 8  23427495.663 9 123112317.915 8  93133670.363 9
E16  23361303.299 8  23361303.471 9 122764474.268 8  92870527.582 9
E24  24301737.030 8  24301736.855 9 127706485.071 8  96609125.098 9
E25  23569648.575 8  23569649.963 8 123859339.528 8  93698791.155 8
G16  21004599.982 7  21004603.701 5                 110379912.651 7  86010335.912 5
G18  20448826.592 8                  20448831.825 8 107459307.842 8                  83734548.360 8
G23  22640497.750 7                  22640504.754 7 118976622.066 7                  92709084.550 7
G27  23107486.421 6                  23107491.120 6 121430634.007 6                  94621657.732 6
G29  22561041.091 7                  22561047.022 7 118559066.828 7                  92383708.952 7
R12  22304517.438 7  22304524.036 7 119146722.434 7  92669696.001 7
R13  19715923.489 7                 105281935.050 7
R14  21120713.073 7  21120717.177 7 112585279.288 7  87566676.382 7
R22  20843211.976 8  20843214.777 7 111262481.889 8  86537491.441 7
R23  19228616.684 7                 102860126.993 7
R24  22234965.588 5  22234984.679 4 118900410.110 5
> 2025 06 15 06 52 55.0000000  0 19
C13  37453107.429 7  37453109.356 7 195028154.471 7 150808128.199 7
C29  22123155.358 7                 115201075.402 7
C30  21872133.754 7                 113893937.637 7
E02  26948324.566 7  26948326.334 7 141614407.07717 107130382.43317
E10  23426251.781 8  23426251.989 9 123105782.361 8  93128726.261 9
E16  23360868.172 8  23360868.531 9 122762188.727 8  92868798.581 9
E24  24302574.086 8  24302574.080 8 127710884.983 8  96612453.588 8
E25  23567876.591 8  23567877.845 8 123850027.281 8  93691746.495 8
G16  21001774.457 7  21001778.445 5                 110365065.816 7  85998766.963 5
G18  20447872.947 7                  20447877.811 8 107454294.800 7                  83730642.089 8
G23  22636434.635 7                  22636440.638 7 118955265.286 7                  92692442.897 7
G27  23103299.721 6                  23103305.523 6 121408635.047 6                  94604515.692 6
G29  22562571.105 7                  22562577.329 7 118567106.777 7                  92389973.829 7
R12  22307496.831 6  22307502.492 6 119162633.851 6  92682071.517 6
R13  19716564.596 7                 105285355.269 7
R14  21116945.940 7  21116950.562 7 112565201.596 7  87551060.410 7
R22  20844898.948 8  20844902.399 7 111271488.143 8  86544496.284 7
R23  19227636.098 8                 102854885.320 8
R24  22230736.315 6  22230749.707 4 118877771.432 6  92460522.01014
> 2025 06 15 06 53  0.0000000  0 19
C13  37451664.744 7  37451667.053 7 195020641.665 7 150802318.819 7
C29  22120524.634 7                 115187373.803 7
C30  21872284.949 7                 113894723.971 7
E02  26944609.026 7  26944610.404 7 141594880.019 7 107115610.344 7
E10  23425008.392 8  23425008.639 9 123099248.392 8  93123783.354 9
E16  23360433.696 8  23360433.934 9 122759904.881 8  92867070.854 9
E24  24303411.235 8  24303411.267 8 127715284.271 8  96615781.619 8
E25  23566104.968 8  23566106.018 8 123840716.192 8  93684702.712 8
G16  20998950.655 7  20998954.062 5                 110350224.339 7  85987202.163 5
G18  20446919.105 7                  20446924.991 8 107449287.130 7                  83726740.004 8
G23  22632370.955 7                  22632376.511 7 118933908.245 7                  92675801.043 7
G27  23099110.689 5                  23099118.103 6 121386631.592 5                  94587370.122 6
G29  22564100.151 7                  22564106.574 7 118575143.694 7                  92396236.346 7
R12  22310474.884 7  22310480.505 6 119178543.370 7  92694445.584 6
R13  19717206.746 7                 105288787.861 7
R14  21113180.681 7  21113185.749 7 112545131.354 7  87535450.228 7
R22  20846586.214 8  20846588.795 7 111280492.632 8  86551499.763 7
R23  19226656.850 8                 102849649.557 8
R24  22226497.386 6  22226515.265 3 118855131.090 6  92442912.993 3
> 2025 06 15 06 53  5.0000000  0 19
C13  37450221.973 7  37450223.839 7 195013126.746 7 150796507.816 7
C29  22117893.224 7                 115173672.540 7
C30  21872436.120 7                 113895510.631 7
E02  26940892.899 7  26940893.543 7 141575348.641 7 107100834.983 7
E10  23423765.866 8  23423765.841 9 123092717.437 8  93118842.734 9
E16  23359999.499 8  23359999.934 9 122757624.107 8  92865345.467 9
E24  24304248.734 8  24304248.582 8 127719684.373 8  96619110.250 8
E25  23564333.498 8  23564334.568 8 123831407.627 8  93677660.831 8
G16  20996127.708 7  20996130.842 5                 110335389.649 7  85975642.668 5
G18  20445968.387 7                  20445973.111 8 107444286.188 7                  83722843.173 8
G23  22628306.432 7                  22628312.347 7 118912552.276 7                  92659160.057 7
G27  23094921.297 5                  23094930.150 5 121364625.016 5                  94570222.180 5
G29  22565628.980 7                  22565635.452 7 118583178.978 7                  92402497.580 7
R12  22313452.685 7  22313459.278 6 119194452.416 7  92706819.268 6
R13  19717851.266 7                 105292233.818 7
R14  21109416.357 7  21109422.158 7 112525069.806 7  87519846.824 7
R22  20848273.693 8  20848275.720 7 111289496.882 8  86558503.070 7
R23  19225680.010 7                 102844421.070 7
R24  22222267.551 6  22222280.017 3 118832490.453 6  92425303.646 3
> 2025 06 15 06 53 10.0000000  0 19
C13  37448778.572 7  37448780.310 7 195005609.559 7 150790695.040 7
C29  22115262.220 7                 115159971.522 7
C30  21872587.375 7                 113896297.483 7
E02  26937174.900 7  26937175.955 7 141555812.806 7 107086056.270 7
E10  23422523.329 8  23422523.599 9 123086189.338 8  93113904.265 9
E16  23359566.046 8  23359566.354 9 122755346.297 8  92863622.313 9
E24  24305086.347 8  24305086.051 8 127724085.113 8  96622439.369 8
E25  23562562.713 8  23562563.750 8 123822101.472 8  93670620.781 8
G16  20993306.562 7  20993308.842 5                 110320561.634 7  85964088.359 5
G18  20445018.005 8                  20445022.964 8 107439291.854 8                  83718951.489 8
G23  22624242.449 7                  22624248.564 7 118891197.339 7                  92642519.863 7
G27  23090732.269 5                  23090741.787 5 121342615.262 5                  94553071.726 5
G29  22567157.917 7                  22567164.779 7 118591212.485 7                  92408757.456 7
R12  22316432.411 7  22316438.005 6 119210360.858 7  92719192.472 6
R13  19718500.795 7                 105295693.340 7
R14  21105654.825 7  21105659.576 7 112505016.932 7  87504250.165 7
R22  20849960.640 8  20849962.553 7 111298500.707 8  86565506.027 7
R23  19224703.883 7                 102839199.701 7
R24  22218025.485 6                 118809849.376 6
> 2025 06 15 06 53 15.0000000  0 19
C13  37447335.323 7  37447336.507 7 194998090.849 7 150784881.096 7
C29  22112631.597 7                 115146271.553 7
C30  21872738.060 7                 113897085.312 7
E02  26933456.041 7  26933457.650 7 141536273.357 7 107071274.801 7
E10  23421281.898 8  23421282.027 8 123079664.915 8  93108968.581 8
E16  23359133.512 8  23359133.615 9 122753072.246 8  92861901.999 9
E24  24305924.077 8  24305923.823 8 127728487.332 8  96625769.598 8
E25  23560792.454 8  23560793.443 8 123812798.535 8  93663583.164 8
G16  20990485.864 7  20990488.451 5                 110305741.107 7  85952539.905 5
G18  20444069.187 8                  20444073.798 8 107434304.920 8                  83715065.580 8
G23  22620178.768 7                  22620185.497 7 118869844.237 7                  92625881.103 7
G27  23086543.584 5                  23086552.585 5 121320603.16615                  94535919.40415
G29  22568686.781 7                  22568693.006 7 118599244.999 7                  92415016.537 7
R12  22319409.433 7  22319415.877 6 119226269.455 7  92731565.790 6
R13  19719150.883 7                 105299167.064 7
R14  21101895.284 7  21101899.975 7 112484973.630 7  87488660.940 7
R22  20851647.242 8  20851649.362 7 111307504.905 8  86572509.274 7
R23  19223729.047 7                 102833986.323 7
R24  22213794.105 6                 118787208.665 6
> 2025 06 15 06 53 20.0000000  0 19
C13  37445890.617 7  37445892.557 7 194990570.855 7 150779066.152 7
C29  22110000.704 7                 115132572.613 7
C30  21872889.460 7                 113897874.140 7
E02  26929736.186 6  26929738.720 7 141516730.312 6 107056490.597 7
E10  23420040.919 8  23420041.212 9 123073144.185 8  93104035.688 9
E16  23358701.603 8  23358701.622 9 122750801.976 8  92860184.562 9
E24  24306761.654 8  24306761.806 8 127732891.004 8  96629100.948 8
E25  23559022.875 8  23559023.769 8 123803498.843 8  93656548.001 8
G16  20987667.230 7  20987669.418 5                 110290928.062 7  85940997.271 5
G18  20443121.433 8                  20443126.005 8 107429325.429 8                  83711185.453 8
G23  22616116.118 7                  22616122.561 7 118848492.979 7                  92609243.770 7
G27  23082354.077 5                  23082363.183 5 121298588.553 5                  94518765.208 5
G29  22570215.436 7                  22570221.244 7 118607276.534 7                  92421274.865 7
R12  22322387.215 7  22322394.385 6 119242178.195 7  92743939.282 6
R13  19719803.495 6                 105302654.941 6
R14  21098136.160 7  21098141.301 7 112464939.799 7  87473079.092 7
R22  20853333.927 8  20853336.226 7 111316509.543 8  86579512.880 7
R23  19222756.706 8                 102828781.023 8
R24  22209565.688 6                 118764568.549 6
> 2025 06 15 06 53 25.0000000  0 18
C13  37444445.968 7  37444447.588 7 194983048.351 7 150773249.279 7
C29  22107369.788 7                 115118873.801 7
C30  21873041.062 7                 113898663.042 7
E02  26926016.367 6  26926018.857 7 141497182.734 6 107041703.024 7
E10  23418800.435 8  23418800.936 8 123066626.180 8  93099104.849 8
E16  23358269.859 8  23358270.103 9 122748534.542 8  92858469.255 9
E24  24307600.008 8  24307599.884 8 127737295.189 8  96632432.676 8
E25  23557253.177 8  23557254.409 8 123794201.438 8  93649514.581 8
G16  20984849.579 7  20984851.992 5                 110276121.573 7  85929459.741 5
G18  20442175.108 7                  20442179.683 8 107424352.456 7                  83707310.392 8
G23  22612053.146 7                  22612059.393 7 118827142.654 7                  92592607.152 7
G29  22571743.810 7                  22571748.857 7 118615306.138 7                  92427531.687 7
R12  22325365.851 7  22325372.374 6 119258086.240 7  92756312.146 6
R13  19720460.216 7                 105306156.202 7
R14  21094379.892 7  21094384.877 7 112444914.572 7  87457503.912 7
R22  20855020.495 8  20855022.722 7 111325513.518 8  86586515.964 7
R23  19221784.786 7                 102823582.740 7
R24  22205333.004 6                 118741927.844 6
> 2025 06 15 06 53 30.0000000  0 18
C13  37443000.449 7  37443002.623 7 194975524.125 7 150767431.064 7
C29  22104738.867 7                 115105175.697 7
C30  21873192.825 7                 113899452.576 7
E02  26922295.481 6  26922298.370 7 141477631.157 6 107026912.384 7
E10  23417561.065 8  23417561.177 8 123060111.519 8  93094176.556 8
E16  23357839.004 8  23357839.287 9 122746270.547 8  92856756.559 9
E24  24308438.115 8  24308438.241 8 127741700.500 8  96635765.263 8
E25  23555484.805 8  23555485.879 8 123784906.940 8  93642483.349 8
G16  20982033.652 7  20982035.668 5                 110261322.258 7  85917927.813 5
G18  20441230.482 8                  20441234.759 8 107419386.524 8                  83703440.830 8
G23  22607990.787 7                  22607997.023 7 118805793.868 7                  92575971.754 7
G29  22573271.371 7                  22573276.883 7 118623334.428 7                  92433787.484 7
R12  22328343.680 7  22328350.763 6 119273994.018 7  92768684.854 6
R13  19721118.530 7                 105309671.231 7
R14  21090624.848 7  21090629.872 7 112424898.571 7  87441935.885 7
R22  20856706.745 8  20856708.954 7 111334517.462 8  86593519.025 7
R23  19220814.580 7                 102818392.041 7
R24  22201098.961 5  22201097.885 5 118719287.139 5
> 2025 06 15 06 53 35.0000000  0 18
C13  37441555.152 7  37441557.461 7 194967998.857 7 150761612.060 7
C29  22102108.065 7                 115091479.066 7
C30  21873344.180 7                 113900243.491 7
E02  26918574.200 6  26918577.235 7 141458076.391 6 107012119.381 7
E10  23416322.016 8  23416322.244 8 123053600.932 8  93089251.335 8
E16  23357409.176 8  23357409.292 9 122744010.720 8  92855047.004 9
E24  24309276.742 8  24309276.878 8 127746107.677 8  96639099.243 8
E25  23553717.022 8  23553717.914 8 123775616.111 8  93635454.884 8
G16  20979218.990 7  20979221.296 5                 110246530.862 7  85906402.054 5
G18  20440286.639 7                  20440291.063 8 107414428.401 7                  83699577.354 8
G23  22603928.612 7                  22603934.820 7 118784447.367 7                  92559338.127 7
G29  22574798.454 7                  22574804.333 7 118631362.179 7                  92440042.871 7
R12  22331320.400 7  22331329.293 6 119289902.383 7  92781057.948 6
R13  19721780.695 7                 105313201.021 7
R14  21086872.112 7  21086877.247 7 112404892.588 7  87426375.680 7
R22  20858393.857 8  20858396.239 7 111343522.174 8  86600522.690 7
R23  19219846.016 7                 102813209.710 7
R24  22196851.054 6  22196862.866 5 118696647.413 6  92319586.83915
> 2025 06 15 06 53 40.0000000  0 18
C13  37440109.612 7  37440112.294 7 194960472.568 7 150755792.246 7
C29  22099478.054 7                 115077783.906 7
C30  21873497.092 7                 113901035.839 7
E02  26914851.380 6  26914855.624 7 141438518.547 6 106997324.022 7
E10  23415083.893 8  23415084.065 9 123047094.467 8  93084329.231 9
E16  23356979.664 8  23356980.076 9 122741755.137 8  92853340.665 9
E24  24310116.180 8  24310115.901 8 127750516.735 8  96642434.662 8
E25  23551949.713 8  23551950.620 8 123766328.963 8  93628429.218 8
G16  20976405.182 7  20976408.146 5                 110231747.447 7  85894882.517 5
G18  20439344.888 8                  20439349.072 8 107409478.153 8                  83695720.025 8
G23  22599866.537 7                  22599873.417 7 118763103.236 7                  92542706.335 7
G29  22576326.307 7                  22576331.719 7 118639389.375 7                  92446297.807 7
R12  22334300.377 7  22334307.220 6 119305811.325 7  92793431.527 6
R13  19722443.321 7                 105316745.412 7
R14  21083120.571 7  21083125.506 7 112384896.636 7  87410823.284 7
R22  20860081.112 8  20860083.526 7 111352527.684 8  86607526.981 7
R23  19218878.149 8                 102808035.907 8
R24  22192617.273 6  22192630.259 5 118674008.570 6  92301978.891 5
> 2025 06 15 06 53 45.0000000  0 19
C13  37438663.620 7  37438666.538 7 194952944.371 7 150749970.977 7
C29  22096848.695 7                 115064089.379 7
C30  21873648.776 7                 113901828.708 7
E02  26911128.696 6  26911133.079 7 141418956.694 6 106982525.633 7
E10  23413846.137 8  23413846.571 9 123040591.208 8  93079409.572 9
E16  23356550.903 8  23356551.484 9 122739502.884 8  92851636.840 9
E24  24310955.230 8  24310955.176 8 127754926.833 8  96645770.870 8
E25  23550182.794 8  23550183.921 9 123757044.642 8  93621405.695 9
G16  20973594.373 7  20973596.737 5                 110216971.126 7  85883368.507 5
G18  20438404.056 8                  20438408.474 8 107404534.871 8                  83691868.113 8
G23  22595804.735 7                  22595812.329 8 118741760.579 7                  92526075.710 8
G27  23061401.019 5                                 121188485.19615                
G29  22577852.876 7                  22577859.411 7 118647415.164 7                  92452551.657 7
R12  22337278.612 7  22337285.199 7 119321719.813 7  92805804.806 7
R13  19723109.618 7                 105320303.401 7
R14  21079371.888 7  21079376.375 7 112364910.050 7  87395278.183 7
R22  20861768.425 8  20861770.432 7 111361533.051 8  86614531.153 7
R23  19217912.700 8                 102802869.441 8
R24  22188384.822 6  22188395.238 5 118651369.737 6  92284370.911 5
> 2025 06 15 06 53 50.0000000  0 19
C13  37437217.539 6  37437220.663 7 194945414.983 6 150744148.754 7
C29  22094218.763 7                 115050396.058 7
C30  21873801.733 7                 113902622.713 7
E02  26907406.851 6  26907409.989 7 141399391.453 6 106967724.643 7
E10  23412609.606 8  23412609.747 9 123034091.797 8  93074492.798 9
E16  23356123.494 8  23356123.660 9 122737254.580 8  92849936.007 9
E24  24311794.253 8  24311794.646 8 127759338.518 8  96649108.285 8
E25  23548416.977 8  23548417.832 8 123747763.733 8  93614384.752 8
G16  20970783.275 7  20970786.427 5                 110202202.521 7  85871860.533 5
G18  20437464.252 8                  20437469.543 8 107399599.160 8                  83688022.103 8
G23  22591743.876 7                  22591750.528 7 118720420.044 7                  92509446.702 7
G27  23057210.243 5                  23057217.760 6 121166455.827 5                  94415452.76116
G29  22579380.315 7                  22579386.491 7 118655440.143 7                  92458804.858 7
R12  22340255.532 7  22340263.681 7 119337628.664 7  92818178.318 7
R13  19723777.186 7                 105323875.854 7
R14  21075624.166 8  21075628.850 7 112344933.125 8  87379740.583 7
R22  20863455.250 8  20863457.526 7 111370538.896 8  86621535.682 7
R23  19216948.702 8                 102797711.155 8
R24  22184152.688 6  22184160.057 5 118628731.554 6  92266763.404 5
> 2025 06 15 06 53 55.0000000  0 19
C13  37435772.339 6  37435774.259 7 194937885.459 6 150738326.447 7
C29  22091590.271 7                 115036705.230 7
C30  21873954.155 7                 113903419.138 7
E02  26903684.502 6  26903686.519 7 141379824.096 6 106952922.080 7
E10  23411373.585 8  23411373.924 9 123027597.491 8  93069579.905 9
E16  23355696.285 8  23355696.816 9 122735011.509 8  92848239.131 9
E24  24312634.407 8  24312634.790 8 127763753.104 8  96652447.880 8
E25  23546651.818 8  23546652.603 8 123738487.556 8  93607367.386 8
G16  20967974.379 7  20967977.554 5                 110187442.948 7  85860359.563 5
G18  20436527.325 8                  20436531.706 8 107394672.292 8                  83684182.969 8
G23  22587684.096 7                  22587690.564 7 118699082.882 7                  92492820.357 7
G27  23053017.187 5                  23053025.542 6 121144425.601 5                  94398286.330 6
G29  22580907.063 7                  22580913.758 7 118663465.515 7                  92465058.379 7
R12  22343235.801 7  22343241.596 7 119353539.086 7  92830553.049 7
R13  19724450.114 7                 105327463.912 7
R14  21071878.306 8  21071883.501 7 112324967.287 8  87364211.612 7
R22  20865142.365 8  20865144.966 7 111379546.543 8  86628541.611 7
R23  19215986.477 8                 102792562.274 8
R24  22179921.269 7  22179925.838 5 118606095.231 7  92249157.395 5
> 2025 06 15 06 54  0.0000000  0 19
C13  37434326.768 7  37434328.359 7 194930355.224 7 150732503.586 7
C29  22088961.603 7                 115023016.168 7
C30  21874107.409 7                 113904217.212 7
E02  26899960.159 6  26899962.512 7 141360253.892 6 106938117.320 7
E10  23410138.553 8  23410138.921 9 123021107.557 8  93064670.307 9
E16  23355270.308 8  23355270.798 9 122732772.901 8  92846545.632 9
E24  24313475.205 8  24313475.233 8 127768169.804 8  96655789.073 8
E25  23544887.171 8  23544888.181 8 123729215.338 8  93600353.010 8
G16  20965167.696 7  20965170.500 5                 110172691.638 7  85848865.051 5
G18  20435591.055 7                  20435595.684 8 107389753.516 7                  83680350.146 8
G23  22583624.179 7                  22583630.899 7 118677748.371 7                  92476196.070 7
G27  23048825.881 5                  23048833.191 6 121122393.816 5                  94381118.712 6
G29  22582434.533 7                  22582440.881 7 118671490.578 7                  92471311.658 7
R12  22346214.277 7  22346220.305 7 119369450.196 7  92842928.350 7
R13  19725125.345 7                 105331066.813 7
R14  21068134.833 8  21068139.895 7 112305011.806 8  87348690.679 7
R22  20866829.900 8  20866832.977 7 111388555.174 8  86635548.294 7
R23  19215025.403 8                 102787422.054 8
R24  22175685.847 7  22175692.883 5 118583460.104 7  92231552.354 5
> 2025 06 15 06 54  5.0000000  0 20
C13  37432879.843 6  37432881.876 7 194922823.553 6 150726679.610 7
C26  25704808.651 6                 133851679.35216
C29  22086332.559 7                 115009328.162 7
C30  21874260.668 7                 113905016.247 7
E02  26896236.224 6  26896237.687 7 141340680.171 6 106923309.931 7
E10  23408904.789 8  23408904.658 9 123014621.293 8  93059763.491 9
E16  23354844.747 8  23354845.504 9 122730538.085 8  92844855.014 9
E24  24314315.726 8  24314316.017 8 127772588.004 8  96659131.401 8
E25  23543123.175 8  23543124.342 8 123719946.424 8  93593341.134 8
G16  20962361.766 7  20962364.913 5                 110157947.935 7  85837376.448 5
G18  20434656.659 8                  20434661.040 8 107384842.122 8                  83676523.096 8
G23  22579564.165 7                  22579571.645 8 118656415.848 7                  92459573.336 8
G27  23044632.649 5                  23044640.187 6 121100359.589 5                  94363949.192 6
G29  22583961.595 7                  22583967.746 7 118679514.646 7                  92477564.171 7
R12  22349193.728 8  22349198.967 7 119385361.380 8  92855303.685 7
R13  19725803.098 7                 105334683.893 7
R14  21064392.109 8  21064398.179 7 112285066.101 8  87333177.354 7
R22  20868516.984 8  20868519.942 7 111397564.073 8  86642555.207 7
R23  19214065.672 7                 102782289.727 7
R24  22171454.665 7  22171459.780 5 118560825.469 7  92213947.604 5
> 2025 06 15 06 54 10.0000000  0 20
C13  37431433.106 7  37431434.918 7 194915289.650 7 150720853.938 7
C26  25701260.162 6                 133833204.981 6
C29  22083704.318 7                 114995640.472 7
C30  21874414.346 7                 113905815.474 7
E02  26892510.567 6  26892512.049 7 141321102.166 6 106908499.277 7
E10  23407670.769 8  23407670.924 9 123008137.908 8  93054858.842 9
E16  23354420.521 8  23354420.856 9 122728306.300 8  92843166.679 9
E24  24315156.253 8  24315156.856 8 127777006.812 8  96662474.196 8
E25  23541360.072 8  23541361.003 8 123710680.022 8  93586331.158 8
G16  20959557.170 7  20959560.359 5                 110143211.078 7  85825893.195 5
G18  20433723.520 8                  20433727.738 8 107379937.375 8                  83672701.217 8
G23  22575505.031 7                  22575512.122 8 118635084.501 7                  92442951.545 8
G27  23040439.526 5                  23040446.732 6 121078322.361 5                  94346777.278 6
G29  22585487.699 7                  22585494.320 7 118687536.923 7                  92483815.270 7
R12  22352170.906 7  22352177.419 7 119401271.735 7  92867678.344 7
R13  19726483.981 7                 105338314.386 7
R14  21060652.291 8  21060658.034 7 112265129.268 8  87317670.936 7
R22  20870205.288 8  20870207.770 7 111406572.474 8  86649561.711 7
R23  19213107.919 7                 102777164.556 7
R24  22167221.639 7  22167226.165 5 118538190.538 7  92196342.713 5
> 2025 06 15 06 54 15.0000000  0 20
C13  37429985.401 6  37429988.234 7 194907754.651 6 150715027.388 7
C26  25697714.331 6                 133814733.220 6
C29  22081076.387 7                 114981954.194 7
C30  21874567.727 7                 113906615.999 7
E02  26888785.278 6  26888785.773 8 141301520.958 6 106893686.180 8
E10  23406437.966 8  23406437.933 8 123001658.541 8  93049957.242 8
E16  23353996.657 8  23353996.976 9 122726078.632 8  92841481.465 9
E24  24315997.904 8  24315998.013 8 127781427.459 8  96665818.381 8
E25  23539597.241 8  23539598.335 8 123701417.268 8  93579323.938 8
G16  20956755.332 7  20956757.408 5                 110128482.187 7  85814416.156 5
G18  20432791.380 8                  20432796.089 8 107375040.347 8                  83668885.344 8
G23  22571446.763 7                  22571453.970 8 118613755.573 7                  92426331.627 8
G27  23036246.753 6                  23036253.544 6 121056283.158 6                  94329603.867 6
G29  22587014.132 7                  22587020.945 7 118695558.544 7                  92490065.872 7
R12  22355149.084 7  22355156.270 7 119417182.505 7  92880053.356 7
R13  19727164.745 7                 105341959.389 7
R14  21056914.615 8  21056919.692 7 112245202.561 8  87302172.378 7
R22  20871893.896 8  20871895.231 7 111415581.544 8  86656568.736 7
R23  19212150.925 7                 102772047.706 7
R24  22162990.300 7  22162994.356 6 118515556.480 7  92178738.408 6
> 2025 06 15 06 54 20.0000000  0 20
C13  37428539.253 6  37428540.819 7 194900218.886 6 150709200.255 7
C26  25694167.390 6                 133796264.341 6
C29  22078447.757 7                 114968269.687 7
C30  21874722.744 7                 113907418.171 7
E02  26885057.957 6  26885058.941 7 141281936.918 6 106878870.966 7
E10  23405205.330 7  23405205.819 8 122995183.543 7  93045058.941 8
E16  23353573.763 8  23353573.865 9 122723855.446 8  92839799.644 9
E24  24316839.758 8  24316839.605 8 127785850.237 8  96669164.170 8
E25  23537835.698 8  23537836.447 8 123692158.491 8  93572319.729 8
G16  20953953.383 7  20953956.220 5                 110113761.624 7  85802945.599 5
G18  20431861.527 8                  20431865.671 8 107370151.432 8                  83665075.789 8
G23  22567388.170 7                  22567395.885 8 118592429.333 7                  92409713.775 8
G27  23032051.923 6                  23032059.125 6 121034242.382 6                  94312429.253 6
G29  22588540.895 7                  22588547.860 7 118703579.890 7                  92496316.224 7
R12  22358128.764 7  22358134.954 6 119433093.873 7  92892428.882 6
R13  19727850.713 7                 105345619.124 7
R14  21053178.154 7  21053183.541 7 112225286.248 7  87286681.934 7
R22  20873581.673 8  20873583.211 7 111424591.509 8  86663576.491 7
R23  19211195.570 7                 102766939.416 7
R24  22158755.608 7  22158762.033 6 118492923.582 7  92161135.054 6
> 2025 06 15 06 54 25.0000000  0 20
C13  37427091.872 6  37427093.464 7 194892682.076 6 150703372.325 7
C26  25690618.950 6                 133777798.238 6
C29  22075819.727 7                 114954586.714 7
C30  21874877.252 7                 113908221.799 7
E02  26881330.653 6  26881331.596 7 141262349.801 6 106864053.465 7
E10  23403973.924 8  23403974.500 9 122988712.664 8  93040163.769 9
E16  23353151.405 8  23353151.590 9 122721636.555 8  92838121.059 9
E24  24317681.479 8  24317681.583 8 127790274.908 8  96672511.401 8
E25  23536074.557 8  23536075.243 8 123682903.507 8  93565318.393 8
G16  20951152.976 7  20951156.452 5                 110099049.161 7  85791481.337 5
G18  20430932.203 8                  20430936.652 8 107365270.386 8                  83661272.380 8
G23  22563330.567 7                  22563338.221 8 118571105.619 7                  92393097.905 8
G27  23027857.565 6                  23027863.963 6 121012199.772 6                  94295253.165 6
G29  22590067.832 7                  22590074.041 7 118711600.714 7                  92502566.190 7
R12  22361107.229 7  22361113.477 7 119449005.756 7  92904804.771 7
R13  19728539.050 7                 105349293.595 7
R14  21049444.062 8  21049448.665 7 112205380.268 8  87271199.491 7
R22  20875269.374 8  20875271.662 7 111433602.241 8  86670584.806 7
R23  19210242.934 7                 102761839.651 7
R24  22154524.313 7  22154530.581 6 118470291.728 7  92143532.526 6
> 2025 06 15 06 54 30.0000000  0 20
C13  37425644.414 6  37425646.407 7 194885144.538 6 150697543.801 7
C26  25687072.886 5                 133759335.023 5
C29  22073191.865 7                 114940905.513 7
C30  21875031.786 7                 113909027.027 7
E02  26877602.454 6  26877603.669 7 141242759.914 6 106849233.835 7
E10  23402743.694 8  23402743.926 9 122982246.122 8  93035271.867 9
E16  23352730.168 8  23352730.226 9 122719422.116 8  92836445.844 9
E24  24318523.988 8  24318523.972 8 127794701.666 8  96675860.201 8
E25  23534314.303 8  23534314.847 8 123673652.491 8  93558320.053 8
G16  20948355.169 7  20948358.127 5                 110084345.027 7  85780023.595 5
G18  20430005.464 8                  20430009.495 8 107360397.385 8                  83657475.252 8
G23  22559273.438 7                  22559280.464 8 118549784.649 7                  92376484.149 8
G27  23023663.099 6                  23023668.793 6 120990155.526 6                  94278075.829 6
G29  22591593.986 7                  22591600.109 7 118719621.160 7                  92508815.887 7
R12  22364085.325 7  22364092.130 7 119464918.259 7  92917181.140 7
R13  19729228.892 7                 105352982.820 7
R14  21045711.313 8  21045716.464 7 112185484.660 8  87255725.132 7
R22  20876957.169 8  20876959.799 7 111442613.890 8  86677593.857 7
R23  19209291.768 7                 102756748.465 7
R24  22150292.787 7  22150298.562 6 118447661.139 7  92125931.020 6
> 2025 06 15 06 54 35.0000000  0 20
C13  37424196.609 6  37424198.595 7 194877606.494 6 150691714.910 7
C26  25683527.905 5                 133740874.974 5
C29  22070565.046 7                 114927226.247 7
C30  21875185.964 7                 113909834.103 7
E02  26873874.280 6  26873875.323 7 141223167.365 6 106834412.199 7
E10  23401514.448 8  23401514.241 9 122975784.130 8  93030383.408 9
E16  23352309.655 8  23352309.763 9 122717212.392 8  92834774.180 9
E24  24319366.798 8  24319366.901 8 127799130.788 8  96679210.809 8
E25  23532554.611 8  23532555.296 8 123664405.698 8  93551324.915 8
G16  20945559.142 7  20945561.387 5                 110069649.425 7  85768572.468 5
G18  20429079.882 8                  20429083.623 8 107355532.677 8                  83653684.569 8
G23  22555216.664 7                  22555223.773 8 118528466.606 7                  92359872.678 8
G27  23019466.078 5                  23019474.212 6 120968109.889 5                  94260897.418 6
G29  22593120.215 7                  22593126.138 7 118727641.466 7                  92515065.458 7
R12  22367064.039 7  22367071.073 7 119480831.725 7  92929558.290 7
R13  19729922.726 7                 105356687.020 7
R14  21041981.364 8  21041986.426 7 112165599.848 8  87240259.155 7
R22  20878645.831 8  20878648.398 7 111451626.707 8  86684603.825 7
R23  19208340.981 8                 102751666.157 8
R24  22146060.426 7  22146066.544 6 118425031.854 7  92108330.491 6
> 2025 06 15 06 54 40.0000000  0 20
C13  37422749.039 6  37422750.916 7 194870067.724 6 150685885.454 7
C26  25679983.165 5                 133722417.964 5
C29  22067938.289 7                 114913548.846 7
C30  21875341.636 7                 113910642.856 7
E02  26870144.326 6  26870146.526 7 141203572.111 6 106819588.521 7
E10  23400285.229 7  23400285.403 9 122969326.554 7  93025498.287 9
E16  23351890.068 8  23351890.082 9 122715007.199 8  92833105.963 9
E24  24320209.830 8  24320210.147 8 127803562.057 8  96682563.021 8
E25  23530795.938 8  23530796.479 8 123655162.989 8  93544332.852 8
G16  20942763.918 7  20942766.541 5                 110054962.271 7  85757127.943 5
G18  20428154.992 8                  20428159.509 8 107350676.083 8                  83649900.220 8
G23  22551160.666 7                  22551167.512 8 118507151.413 7                  92343263.446 8
G27  23015272.343 6                  23015278.724 6 120946062.752 6                  94243717.819 6
G29  22594646.000 7                  22594652.407 7 118735661.490 7                  92521314.826 7
R12  22370043.786 7  22370049.457 7 119496745.745 7  92941935.848 7
R13  19730619.903 7                 105360406.151 7
R14  21038252.412 8  21038257.453 7 112145725.518 8  87224801.389 7
R22  20880334.619 8  20880337.296 7 111460640.486 8  86691614.546 7
R23  19207392.618 8                 102746592.385 8
R24  22141829.157 7  22141835.221 6 118402404.021 7  92090731.101 6
> 2025 06 15 06 54 45.0000000  0 20
C13  37421300.637 6  37421303.172 7 194862528.321 6 150680055.489 7
C26  25676439.994 5                 133703963.960 5
C29  22065312.532 7                 114899873.280 7
C30  21875497.256 7                 113911453.330 7
E02  26866414.797 7  26866417.202 8 141183974.125 7 106804762.780 8
E10  23399056.736 8  23399057.402 9 122962873.405 8  93020616.523 9
E16  23351470.993 8  23351471.365 9 122712806.589 8  92831441.211 9
E24  24321053.121 8  24321053.767 8 127807995.553 8  96685916.932 8
E25  23529037.441 8  23529038.372 8 123645924.362 8  93537343.890 8
G16  20939970.781 7  20939973.149 5                 110040283.581 7  85745690.012 5
G18  20427232.658 8                  20427237.198 8 107345827.670 8                  83646122.232 8
G23  22547104.539 7                  22547112.026 8 118485839.076 7                  92326656.462 8
G27  23011075.289 6                  23011082.387 6 120924014.105 6                  94226537.082 6
G29  22596172.064 7                  22596178.638 7 118743681.259 7                  92527563.974 7
R12  22373022.700 7  22373029.095 7 119512660.486 7  92954313.939 7
R13  19731318.685 7                 105364140.114 7
R14  21034526.986 8  21034530.700 7 112125861.947 8  87209351.945 7
R22  20882023.316 8  20882025.900 7 111469655.324 8  86698626.056 7
R23  19206445.796 8                 102741527.397 8
R24  22137596.282 6  22137603.071 6 118379777.456 6  92073132.657 6
> 2025 06 15 06 54 50.0000000  0 20
C13  37419851.911 6  37419854.979 7 194854988.047 6 150674224.875 7
C26  25672896.786 5                 133685512.896 5
C29  22062686.624 7                 114886199.365 7
C30  21875653.763 7                 113912265.296 7
E02  26862685.369 6  26862687.380 7 141164373.263 6 106789934.872 7
E10  23397830.370 7  23397830.209 9 122956424.459 7  93015737.940 9
E16  23351053.583 8  23351053.432 9 122710610.330 8  92829779.760 9
E24  24321897.206 8  24321897.826 8 127812431.042 8  96689272.344 8
E25  23527280.163 8  23527281.094 8 123636689.641 8  93530357.883 8
G16  20937178.619 7  20937181.552 5                 110025613.095 7  85734258.474 5
G18  20426311.263 8                  20426315.849 8 107340987.184 8                  83642350.422 8
G23  22543049.692 7                  22543056.649 8 118464529.436 7                  92310051.555 8
G27  23006880.979 6                  23006886.034 6 120901963.824 6                  94209355.027 6
G29  22597698.193 7                  22597704.591 7 118751700.543 7                  92533812.753 7
R12  22376003.689 7  22376008.841 6 119528575.714 7  92966692.413 6
R13  19732021.008 7                 105367888.602 7
R14  21030802.266 8  21030806.788 7 112106008.800 8  87193910.592 7
R22  20883711.923 8  20883714.686 7 111478670.892 8  86705638.162 7
R23  19205500.477 7                 102736470.834 7
R24  22133365.382 6  22133372.936 6 118357151.974 6  92055535.088 6
> 2025 06 15 06 54 55.0000000  0 20
C13  37418404.263 6  37418407.023 7 194847447.648 6 150668394.146 7
C26  25669354.460 5                 133667065.407 5
C29  22060060.851 7                 114872527.902 7
C30  21875810.045 7                 113913079.582 7
E02  26858954.856 6  26858957.133 7 141144770.313 6 106775105.368 7
E10  23396603.676 8  23396604.015 9 122949980.562 8  93010863.171 9
E16  23350636.410 8  23350636.482 9 122708419.262 8  92828122.218 9
E24  24322742.021 8  24322742.464 8 127816869.345 8  96692629.868 8
E25  23525523.557 8  23525524.744 8 123627459.643 8  93523375.440 8
G16  20934389.461 7  20934392.144 5                 110010951.697 7  85722834.013 5
G18  20425391.784 8                  20425396.222 8 107336155.453 8                  83638585.436 8
G23  22538995.572 7                  22539002.177 8 118443223.332 7                  92293449.394 8
G27  23002683.762 6                  23002690.194 6 120879912.638 6                  94192172.293 6
G29  22599224.432 7                  22599230.745 7 118759720.202 7                  92540061.809 7
R12  22378981.889 7  22378988.744 6 119544492.320 7  92979071.993 6
R13  19732724.761 7                 105371652.696 7
R14  21027080.318 8  21027084.571 7 112086166.933 8  87178478.047 7
R22  20885401.187 8  20885404.077 7 111487688.091 8  86712651.543 7
R23  19204556.573 8                 102731423.669 8
R24  22129136.910 6  22129143.290 7 118334528.485 6  92037938.968 7
> 2025 06 15 06 55  0.0000000  0 20
C13  37416955.292 6  37416958.875 7 194839906.341 6 150662562.739 7
C26  25665812.631 6                 133648620.789 6
C29  22057436.230 7                 114858858.007 7
C30  21875966.917 7                 113913895.275 7
E02  26855224.559 7  26855226.397 8 141125164.391 7 106760273.638 8
E10  23395378.419 8  23395378.591 9 122943540.807 8  93005991.527 9
E16  23350220.272 8  23350220.344 9 122706232.484 8  92826467.934 9
E24  24323587.012 8  24323587.330 8 127821309.517 8  96695988.830 8
E25  23523767.926 8  23523769.057 9 123618233.451 8  93516395.884 9
G16  20931600.840 7  20931603.859 5                 109996298.466 7  85711415.907 5
G18  20424474.076 8                  20424478.574 8 107331331.589 8                  83634826.574 8
G23  22534941.411 7                  22534948.144 8 118421919.804 7                  92276849.255 8
G27  22998486.082 6                  22998493.534 6 120857859.713 6                  94174988.217 6
G29  22600750.040 7                  22600757.298 7 118767739.261 7                  92546310.424 7
R12  22381961.641 6  22381968.115 6 119560409.246 6  92991451.766 6
R13  19733432.641 6                 105375431.314 6
R14  21023359.826 8  21023364.352 7 112066335.406 8  87163053.494 7
R22  20887090.723 8  20887093.237 7 111496705.863 8  86719665.363 7
R23  19203614.786 7                 102726384.783 7
R24  22124905.057 6  22124914.959 6 118311906.010 6  92020343.735 6
> 2025 06 15 06 55  5.0000000  0 21
C13  37415507.409 6  37415510.825 7 194832364.920 6 150656731.255 7
C26  25662269.939 5                 133630179.857 5
C29  22054811.505 7                 114845190.656 7
C30  21876124.145 7                 113914713.315 7
E02  26851493.655 7  26851495.137 8 141105556.428 7 106745440.326 8
E10  23394153.900 7  23394154.113 9 122937106.121 7  93001123.736 9
E16  23349804.992 8  23349805.208 9 122704050.953 8  92824817.601 9
E24  24324432.990 8  24324432.757 8 127825752.575 8  96699349.957 8
E25  23522013.238 8  23522014.290 9 123609012.051 8  93509419.951 9
G16  20928814.533 7  20928817.394 5                 109981654.392 7  85700004.933 5
G18  20423558.054 8                  20423562.335 8 107326516.510 8                  83631074.567 8
G23  22530888.152 7                  22530894.940 7 118400619.866 7                  92260251.899 7
G27  22994290.127 6                  22994296.794 6 120835805.966 6                  94157803.490 6
G29  22602276.558 7                  22602283.082 7 118775758.741 7                  92552559.373 7
G31  24292026.112 4                                                                
R12  22384942.507 7  22384948.092 6 119576327.402 7  93003832.564 6
R13  19734142.935 7                 105379225.500 7
R14  21019641.408 8  21019645.589 7 112046515.229 8  87147637.795 7
R22  20888780.040 8  20888783.159 7 111505725.305 8  86726680.465 7
R23  19202674.700 7                 102721355.330 7
R24  22120676.635 6  22120684.259 6 118289285.628 6  92002750.120 6
> 2025 06 15 06 55 10.0000000  0 21
C13  37414059.155 6  37414062.129 6 194824822.545 6 150650898.995 6
C26  25658730.397 5                 133611741.741 5
C29  22052187.221 7                 114831524.792 7
C30  21876281.913 7                 113915532.697 7
E02  26847762.216 7  26847763.318 7 141085945.447 7 106730604.759 7
E10  23392929.551 7  23392930.399 9 122930675.488 7  92996259.015 9
E16  23349390.747 8  23349390.845 9 122701873.629 8  92823170.467 9
E24  24325278.772 8  24325278.788 8 127830197.434 8  96702712.462 8
E25  23520259.360 8  23520260.208 8 123599794.414 8  93502446.866 8
G16  20926028.386 7  20926032.515 5                 109967018.469 7  85688600.328 5
G18  20422642.982 8                  20422647.344 8 107321709.209 8                  83627328.603 8
G23  22526836.057 7                  22526841.877 7 118379322.518 7                  92243656.563 7
G27  22990091.873 6                  22990099.928 6 120813750.434 6                  94140617.354 6
G29  22603802.226 7                  22603808.696 7 118783777.616 7                  92558807.850 7
G31  24294121.236 5                  24294130.729 5 127666618.86815                  99480401.43315
R12  22387920.603 6  22387928.129 6 119592245.793 6  93016213.515 6
R13  19734856.387 7                 105383034.121 7
R14  21015925.947 8  21015929.881 7 112026705.443 8  87132230.193 7
R22  20890469.880 8  20890472.583 7 111514745.284 8  86733695.998 7
R23  19201735.787 7                 102716334.036 7
R24  22116446.500 6  22116451.630 6 118266666.116 6  91985157.223 6
> 2025 06 15 06 55 15.0000000  0 21
C13  37412610.174 6  37412613.954 6 194817280.210 6 150645066.791 6
C26  25655189.385 5                 133593307.438 5
C29  22049563.266 7                 114817861.577 7
C30  21876439.199 7                 113916354.535 7
E02  26844030.279 7  26844031.155 8 141066332.589 7 106715767.760 8
E10  23391707.306 8  23391707.661 9 122924250.047 8  92991398.204 9
E16  23348977.452 8  23348977.584 9 122699701.626 8  92821527.369 9
E24  24326124.979 8  24326125.079 8 127834645.265 8  96706077.210 8
E25  23518506.066 8  23518507.079 8 123590581.655 8  93495477.475 8
G16  20923245.732 7  20923249.141 5                 109952391.828 7  85677202.941 5
G18  20421729.708 8                  20421734.430 8 107316910.826 8                  83623589.604 8
G23  22522783.892 7                  22522789.969 7 118358028.861 7                  92227064.133 7
G27  22985896.643 6                  22985903.072 7 120791694.252 6                  94123430.716 7
G29  22605328.489 7                  22605334.858 7 118791796.995 7                  92565056.718 7
G31  24296218.756 5                  24296225.787 5 127677627.206 5                  99488979.289 5
R12  22390902.261 7  22390907.795 6 119608165.596 7  93028595.551 6
R13  19735572.309 7                 105386858.273 7
R14  21012211.387 8  21012216.061 7 112006907.080 8  87116831.458 7
R22  20892160.195 8  20892162.904 7 111523767.050 8  86740712.888 7
R23  19200799.221 7                 102711322.240 7
R24  22112215.218 6  22112221.397 6 118244048.907 6  91967566.037 6
> 2025 06 15 06 55 20.0000000  0 21
C13  37411161.650 6  37411165.417 6 194809737.447 6 150639234.226 6
C26  25651651.117 5                 133574876.522 5
C29  22046939.590 7                 114804200.425 7
C30  21876597.350 7                 113917178.270 7
E02  26840296.945 6  26840298.451 7 141046717.234 6 106700928.892 7
E10  23390485.608 7  23390485.843 9 122917829.238 7  92986540.896 9
E16  23348565.059 8  23348565.242 9 122697534.444 8  92819887.899 9
E24  24326972.138 8  24326971.915 8 127839095.473 8  96709443.753 8
E25  23516753.712 8  23516754.764 8 123581373.264 8  93488511.384 8
G16  20920463.902 7  20920467.644 5                 109937773.913 7  85665812.345 5
G18  20420818.406 8                  20420822.871 8 107312120.752 8                  83619857.080 8
G23  22518732.541 7                  22518738.010 7 118336738.414 7                  92210474.184 7
G27  22981698.141 6                  22981706.175 7 120769636.807 6                  94106243.076 7
G29  22606854.655 7                  22606860.907 7 118799816.270 7                  92571305.505 7
G31  24298313.806 5                  24298320.857 5 127688633.031 5                  99497555.209 5
R12  22393883.236 7  22393888.649 6 119624086.213 7  93040978.207 6
R13  19736291.539 7                 105390697.545 7
R14  21008498.980 8  21008504.201 7 111987119.818 8  87101441.365 7
R22  20893851.024 8  20893852.872 7 111532789.934 8  86747730.679 7
R23  19199863.935 7                 102706319.424 7
R24  22107986.657 6  22107992.431 6 118221433.171 6  91949976.028 6
> 2025 06 15 06 55 25.0000000  0 21
C13  37409713.609 6  37409716.689 7 194802194.065 6 150633401.208 7
C26  25648111.171 5                 133556448.794 5
C29  22044316.430 7                 114790541.229 7
C30  21876755.735 7                 113918003.753 7
E02  26836563.532 7  26836565.218 7 141027099.332 7 106686088.077 7
E10  23389264.676 8  23389264.840 9 122911412.913 8  92981686.984 9
E16  23348153.649 8  23348153.739 9 122695371.896 8  92818251.946 9
E24  24327819.533 8  24327819.152 8 127843547.949 8  96712812.014 8
E25  23515002.026 8  23515003.240 8 123572169.073 8  93481548.470 8
G16  20917683.698 7  20917687.347 5                 109923164.581 7  85654428.452 5
G18  20419908.810 8                  20419912.976 8 107307338.901 8                  83616130.957 8
G23  22514682.178 7                  22514687.535 7 118315451.026 7                  92193886.631 7
G27  22977500.895 6                  22977508.707 7 120747577.993 6                  94089054.410 7
G29  22608380.362 7                  22608386.291 7 118807835.353 7                  92577554.128 7
G31  24300407.239 5                  24300415.888 5 127699636.111 5                  99506128.987 5
R12  22396863.700 7  22396868.966 6 119640007.445 7  93053361.393 6
R13  19737013.095 7                 105394551.656 7
R14  21004788.774 8  21004794.032 7 111967343.331 8  87086059.647 7
R22  20895541.472 8  20895543.459 7 111541813.786 8  86754749.223 7
R23  19198930.679 8                 102701325.297 8
R24  22103756.263 6  22103763.293 6 118198818.833 6  91932387.122 6
> 2025 06 15 06 55 30.0000000  0 21
C13  37408264.428 6  37408268.352 7 194794650.852 6 150627568.317 7
C26  25644572.832 6                 133538025.116 6
C29  22041694.127 7                 114776884.743 7
C30  21876914.765 7                 113918831.785 7
E02  26832829.576 6  26832831.610 7 141007479.723 6 106671245.988 7
E10  23388044.650 8  23388044.837 9 122905001.876 8  92976837.075 9
E16  23347742.762 8  23347743.242 9 122693214.808 8  92816620.118 9
E24  24328666.962 8  24328666.930 8 127848003.477 8  96716182.581 8
E25  23513251.483 8  23513252.729 8 123562969.910 8  93474589.364 8
G16  20914905.395 7  20914908.735 5                 109908564.621 7  85643051.877 5
G18  20419000.416 8                  20419004.795 8 107302566.038 8                  83612411.853 8
G23  22510632.078 7                  22510636.804 7 118294167.483 7                  92177302.061 7
G27  22973303.025 6                  22973310.732 7 120725518.614 6                  94071865.301 7
G29  22609906.546 7                  22609912.196 7 118815855.010 7                  92583803.188 7
G31  24302500.544 5                  24302509.154 5 127710637.361 5                  99514701.394 5
R12  22399844.146 7  22399849.880 7 119655930.161 7  93065745.723 7
R13  19737739.230 7                 105398421.545 7
R14  21001081.201 8  21001086.479 7 111947578.591 8  87070687.057 7
R22  20897231.570 8  20897234.315 7 111550839.435 8  86761769.174 7
R23  19197998.037 8                 102696340.678 8
R24  22099528.397 6  22099534.952 6 118176206.771 6  91914799.971 6
> 2025 06 15 06 55 35.0000000  0 21
C13  37406816.470 6  37406819.706 7 194787108.105 6 150621735.785 7
C26  25641035.352 5                 133519605.710 5
C29  22039072.639 7                 114763231.325 7
C30  21877074.515 7                 113919662.667 7
E02  26829095.508 6  26829097.777 7 140987858.543 6 106656402.725 7
E10  23386825.616 8  23386825.929 9 122898596.426 8  92971991.396 9
E16  23347333.745 8  23347333.879 9 122691063.476 8  92814992.644 9
E24  24329515.512 8  24329515.468 8 127852462.350 8  96719555.673 8
E25  23511501.932 8  23511503.201 8 123553776.078 8  93467634.288 8
G16  20912128.895 7  20912132.174 5                 109893974.430 7  85631682.900 5
G18  20418093.289 8                  20418098.322 8 107297802.464 8                  83608699.967 8
G23  22506581.971 7                  22506587.921 7 118272888.135 7                  92160720.735 7
G27  22969105.015 6                  22969112.890 7 120703458.948 6                  94054675.967 7
G29  22611432.442 7                  22611438.673 7 118823875.575 7                  92590052.962 7
G31  24304593.014 5                  24304601.697 5 127721636.941 5                  99523272.474 5
R12  22402825.000 7  22402831.055 7 119671854.645 7  93078131.404 7
R13  19738466.231 7                 105402307.279 7
R14  20997375.325 8  20997380.439 7 111927825.766 8  87055323.748 7
R22  20898922.281 8  20898925.791 7 111559867.153 8  86768790.698 7
R23  19197068.636 8                 102691365.918 8
R24  22095301.571 6  22095306.142 6 118153597.395 6  91897214.865 6
> 2025 06 15 06 55 40.0000000  0 21
C13  37405368.159 6  37405371.082 7 194779565.559 6 150615903.406 7
C26  25637500.153 5                 133501190.328 5
C29  22036450.418 7                 114749580.634 7
C30  21877234.735 7                 113920496.078 7
E02  26825361.627 6  26825363.489 7 140968235.633 6 106641558.151 7
E10  23385607.748 8  23385607.998 8 122892196.241 8  92967149.697 8
E16  23346925.103 8  23346925.550 9 122688917.609 8  92813369.313 9
E24  24330364.547 8  24330364.558 8 127856924.267 8  96722931.083 8
E25  23509753.297 8  23509754.635 8 123544587.268 8  93460683.007 8
G16  20909354.563 7  20909357.465 5                 109879393.655 7  85620321.248 5
G18  20417188.882 8                  20417193.370 8 107293047.884 8                  83604995.107 8
G23  22502534.605 7                  22502539.460 7 118251612.681 7                  92144142.483 7
G27  22964906.624 6                  22964914.611 6 120681398.760 6                  94037486.254 6
G29  22612959.540 7                  22612964.656 7 118831896.837 7                  92596303.271 7
G31  24306684.246 5                  24306694.168 5 127732634.525 5                  99531841.975 5
R12  22405805.498 7  22405812.782 7 119687780.475 7  93090518.171 7
R13  19739197.777 7                 105406208.726 7
R14  20993672.248 8  20993677.397 7 111908084.615 8  87039969.538 7
R22  20900613.893 8  20900616.778 7 111568896.676 8  86775813.660 7
R23  19196140.229 8                 102686400.735 8
R24  22091074.508 6  22091078.163 6 118130990.214 6  91879631.528 6
> 2025 06 15 06 55 45.0000000  0 21
C13  37403919.979 6  37403922.485 7 194772023.612 6 150610071.479 7
C26  25633964.083 5                 133482779.444 5
C29  22033829.329 7                 114735933.117 7
C30  21877395.169 7                 113921332.477 7
E02  26821626.626 6  26821628.955 7 140948611.436 6 106626712.596 7
E10  23384390.768 8  23384391.187 9 122885801.786 8  92962312.324 9
E16  23346517.839 8  23346518.317 9 122686777.630 8  92811750.429 9
E24  24331214.328 8  24331214.289 8 127861389.650 8  96726309.107 8
E25  23508005.893 8  23508007.130 9 123535403.902 8  93453735.854 9
G16  20906581.503 7  20906584.533 5                 109864822.768 7  85608967.292 5
G18  20416285.925 8                  20416290.218 8 107288302.729 8                  83601297.586 8
G23  22498485.909 7                  22498491.415 7 118230341.565 7                  92127567.602 7
G27  22960709.620 6                  22960717.017 6 120659338.512 6                  94020296.430 6
G29  22614485.858 7                  22614491.274 6 118839919.045 7                  92602554.323 6
G31  24308776.667 4                  24308786.449 5 127743630.64414                  99540410.31515
R12  22408787.472 7  22408794.526 7 119703708.146 7  93102906.312 7
R13  19739930.092 7                 105410126.213 7
R14  20989970.914 8  20989975.607 7 111888355.633 8  87024624.790 7
R22  20902306.112 8  20902308.988 7 111577928.396 8  86782838.327 7
R23  19195213.367 7                 102681445.490 7
R24  22086846.878 6  22086851.251 6 118108385.806 6  91862050.317 6
> 2025 06 15 06 55 50.0000000  0 21
C13  37402471.259 6  37402474.148 6 194764481.411 6 150604239.376 6
C26  25630429.703 5                 133464372.151 5
C29  22031209.260 7                 114722287.859 7
C30  21877556.040 7                 113922170.908 7
E02  26817893.414 7  26817894.097 7 140928985.025 7 106611865.323 7
E10  23383174.840 8  23383175.245 9 122879412.124 8  92957478.592 9
E16  23346111.492 8  23346112.016 9 122684642.632 8  92810135.312 9
E24  24332063.985 8  24332064.565 8 127865857.624 8  96729689.076 8
E25  23506259.416 8  23506260.449 9 123526225.116 8  93446792.160 9
G16  20903810.521 7  20903813.701 5                 109850260.792 7  85597620.303 5
G18  20415384.353 8                  20415388.910 8 107283566.089 8                  83597606.689 8
G23  22494438.582 7                  22494444.605 7 118209073.906 7                  92110995.409 7
G27  22956510.891 6                  22956518.506 6 120637277.244 6                  94003105.831 6
G29  22616012.607 7                  22616018.121 7 118847941.305 7                  92608805.420 7
G31  24310869.602 5                  24310878.440 5 127754624.284 5                  99548976.767 5
R12  22411769.876 7  22411776.171 7 119719636.731 7  93115295.177 7
R13  19740667.008 6                 105414058.887 6
R14  20986272.186 8  20986276.925 7 111868637.996 8  87009288.849 7
R22  20903998.047 8  20904000.841 7 111586961.353 8  86789863.941 7
R23  19194289.342 7                 102676499.239 7
R24  22082618.974 6  22082624.085 6 118085783.196 6  91844470.525 6
> 2025 06 15 06 55 55.0000000  0 21
C13  37401023.043 6  37401025.775 6 194756939.728 6 150598407.662 6
C26  25626895.532 5                 133445969.204 5
C29  22028589.263 7                 114708645.699 7
C30  21877717.503 7                 113923012.218 7
E02  26814158.607 7  26814159.016 7 140909357.251 7 106597017.036 7
E10  23381959.851 8  23381960.430 9 122873028.053 8  92952649.091 9
E16  23345706.482 8  23345706.861 9 122682513.426 8  92808524.564 9
E24  24332915.113 8  24332915.417 8 127870328.933 8  96733071.583 8
E25  23504513.684 8  23504514.782 8 123517051.683 8  93439852.526 8
G16  20901040.837 7  20901044.537 5                 109835708.627 7  85586280.942 5
G18  20414484.815 8                  20414489.119 8 107278838.777 8                  83593923.057 8
G23  22490392.064 7                  22490397.639 7 118187810.505 7                  92094426.543 7
G27  22952313.159 6                  22952319.989 6 120615215.795 6                  93985915.077 6
G29  22617539.625 7                  22617544.547 7 118855964.482 7                  92615057.222 7
G31  24312962.454 4                  24312969.984 5 127765616.342 4                  99557541.929 5
R12  22414752.087 7  22414758.783 7 119735567.041 7  93127685.396 7
R13  19741406.207 6                 105418007.458 6
R14  20982575.659 8  20982580.255 7 111848932.386 8  86993962.287 7
R22  20905690.942 8  20905694.035 7 111595996.389 8  86796891.203 7
R23  19193366.143 7                 102671562.835 7
R24  22078394.490 6  22078398.566 6 118063183.285 6  91826892.805 6
> 2025 06 15 06 56  0.0000000  0 21
C13  37399574.583 6  37399577.285 6 194749397.906 6 150592575.852 6
C26  25623362.339 5                 133427570.002 5
C29  22025970.182 7                 114695005.955 7
C30  21877879.180 7                 113923855.737 7
E02  26810422.339 7  26810423.473 7 140889727.383 7 106582167.192 7
E10  23380745.927 8  23380746.546 9 122866648.963 8  92947823.354 9
E16  23345302.261 8  23345302.710 9 122680389.355 8  92806917.718 9
E24  24333766.281 8  24333766.731 8 127874803.001 8  96736456.179 8
E25  23502768.978 8  23502770.108 9 123507882.988 8  93432916.469 9
G16  20898273.835 7  20898276.995 5                 109821165.598 7  85574948.705 5
G18  20413586.843 8                  20413591.544 8 107274120.109 8                  83590246.166 8
G23  22486346.832 7                  22486352.285 7 118166550.734 7                  92077860.500 7
G27  22948113.956 6                  22948121.317 6 120593153.475 6                  93968723.625 6
G29  22619065.517 7                  22619071.901 7 118863987.902 7                  92621309.213 7
G31  24315054.182 5                  24315062.025 5 127776606.024 5                  99566105.286 5
R12  22417734.633 7  22417740.928 7 119751498.268 7  93140076.335 7
R13  19742148.695 7                 105421971.385 7
R14  20978881.169 8  20978885.765 7 111829238.219 8  86978644.599 7
R22  20907384.074 8  20907387.077 7 111605032.899 8  86803919.581 7
R23  19192444.856 7                 102666635.658 7
R24  22074167.573 6  22074172.492 6 118040585.203 6  91809316.511 6
> 2025 06 15 06 56  5.0000000  0 21
C13  37398125.710 6  37398129.089 6 194741856.174 6 150586744.095 6
C26  25619830.929 5                 133409174.799 5
C29  22023351.670 7                 114681368.884 7
C30  21878041.884 7                 113924701.681 7
E02  26806687.145 7  26806687.744 7 140870095.726 7 106567315.955 7
E10  23379533.067 8  23379533.660 9 122860275.054 8  92943001.524 9
E16  23344899.003 8  23344899.536 9 122678270.669 8  92805314.938 9
E24  24334618.746 8  24334618.740 8 127879279.986 8  96739842.973 8
E25  23501024.804 8  23501026.284 8 123498719.264 8  93425984.166 8
G16  20895508.403 7  20895511.383 5                 109806631.919 7  85563623.763 5
G18  20412690.767 8                  20412695.384 8 107269410.337 8                  83586576.221 8
G23  22482301.458 7                  22482307.266 7 118145294.860 7                  92061297.498 7
G27  22943915.636 6                  22943922.270 6 120571090.619 6                  93951531.755 6
G29  22620593.518 7                  22620598.650 7 118872011.771 7                  92627561.568 7
G31  24317145.000 5                  24317152.045 5 127787593.555 5                  99574666.991 5
R12  22420716.491 7  22420723.868 7 119767430.823 7  93152468.274 7
R13  19742893.678 7                 105425950.765 7
R14  20975189.041 8  20975193.389 8 111809555.728 8  86963336.001 8
R22  20909077.173 8  20909079.867 7 111614071.027 8  86810949.219 7
R23  19191525.743 8                 102661717.895 8
R24  22069942.753 6  22069947.011 6 118017989.513 6  91791742.132 6
> 2025 06 15 06 56 10.0000000  0 21
C13  37396677.925 6  37396680.865 7 194734316.120 6 150580913.642 7
C26  25616299.392 5                 133390785.200 5
C29  22020733.897 7                 114667736.068 7
C30  21878204.598 7                 113925551.658 7
E02  26802952.096 7  26802951.924 7 140850463.885 7 106552464.578 7
E10  23378321.660 8  23378321.964 9 122853907.920 8  92938184.827 9
E16  23344497.687 8  23344497.727 9 122676158.947 8  92803717.432 9
E24  24335471.383 8  24335471.524 8 127883761.523 8  96743233.224 8
E25  23499282.475 8  23499283.719 8 123489562.113 8  93419056.833 8
G16  20892745.059 7  20892747.847 5                 109792109.259 7  85552307.417 5
G18  20411796.764 8                  20411801.171 8 107264711.047 8                  83582914.440 8
G23  22478257.496 7                  22478263.549 7 118124044.479 7                  92044738.767 7
G27  22939718.730 6                  22939723.732 6 120549028.710 6                  93934340.660 6
G29  22622120.285 7                  22622126.072 7 118880037.781 7                  92633815.563 7
G31  24319232.637 4                  24319242.815 5 127798580.624 4                  99583228.376 5
R12  22423699.003 7  22423706.862 7 119783366.166 7  93164862.453 7
R13  19743642.253 7                 105429947.445 7
R14  20971499.117 8  20971503.118 7 111789886.646 8  86948037.848 7
R22  20910770.778 8  20910773.719 7 111623112.313 8  86817981.352 7
R23  19190608.734 8                 102656811.179 8
R24  22065715.815 6  22065722.184 6 117995397.581 6  91774170.671 6
> 2025 06 15 06 56 15.0000000  0 21
C13  37395229.498 6  37395233.006 7 194726776.548 6 150575083.558 7
C26  25612766.766 5                 133372400.019 5
C29  22018116.524 7                 114654106.313 7
C30  21878368.420 7                 113926404.441 7
E02  26799215.014 6  26799215.996 7 140830830.643 6 106537612.179 7
E10  23377110.891 8  23377111.421 9 122847546.352 8  92933372.341 9
E16  23344096.488 8  23344096.910 9 122674052.972 8  92802124.274 9
E24  24336325.405 8  24336324.878 8 127888246.361 8  96746625.960 8
E25  23497540.609 8  23497542.178 9 123480410.310 8  93412133.543 9
G16  20889983.211 7  20889986.323 5                 109777596.390 7  85540998.672 5
G18  20410903.877 8                  20410908.532 8 107260021.026 8                  83579259.872 8
G23  22474214.725 7                  22474220.801 7 118102798.383 7                  92028183.398 7
G27  22935520.607 6                  22935525.959 6 120526966.601 6                  93917149.433 6
G29  22623647.619 7                  22623653.527 7 118888064.631 7                  92640070.234 7
G31  24321324.968 4                  24321333.563 5 127809565.961 4                  99591788.427 5
R12  22426682.477 7  22426690.450 7 119799303.137 7  93177257.798 7
R13  19744392.607 7                 105433959.929 7
R14  20967810.828 8  20967815.469 7 111770229.569 8  86932749.010 7
R22  20912465.199 8  20912467.646 7 111632155.746 8  86825015.125 7
R23  19189693.273 7                 102651914.205 7
R24  22061492.562 6  22061498.292 6 117972808.269 6  91756601.210 6
> 2025 06 15 06 56 20.0000000  0 21
C13  37393781.383 6  37393785.022 6 194719237.212 6 150569253.661 6
C26  25609238.378 4                 133354018.929 4
C29  22015498.512 7                 114640479.338 7
C30  21878532.762 7                 113927259.763 7
E02  26795478.575 6  26795479.842 7 140811195.687 6 106522758.447 7
E10  23375901.314 8  23375901.912 9 122841190.103 8  92928563.871 9
E16  23343696.905 8  23343697.246 9 122671952.532 8  92800535.295 9
E24  24337178.998 7  24337179.070 8 127892734.280 7  96750021.031 8
E25  23495800.543 8  23495801.645 8 123471263.614 8  93405214.135 8
G16  20887223.518 7  20887226.178 5                 109763093.079 7  85529697.392 5
G18  20410013.164 8                  20410017.757 8 107255340.013 8                  83575612.330 8
G23  22470172.562 7                  22470178.551 7 118081556.345 7                  92011631.187 7
G27  22931321.683 6                  22931326.936 6 120504904.106 6                  93899957.825 6
G29  22625175.430 7                  22625180.585 7 118896092.059 7                  92646325.330 7
G31  24323414.913 5                  24323423.600 5 127820549.271 5                  99600346.809 5
R12  22429666.567 6  22429673.947 7 119815241.317 6  93189654.161 7
R13  19745146.418 6                 105437988.154 6
R14  20964126.042 8  20964130.363 7 111750584.464 8  86917469.483 7
R22  20914159.638 8  20914162.264 7 111641200.862 8  86832050.179 7
R23  19188779.631 8                 102647026.792 8
R24  22057269.722 6  22057273.646 6 117950221.413 6  91739033.618 6
> 2025 06 15 06 56 25.0000000  0 21
C13  37392334.873 6  37392337.304 6 194711698.757 6 150563424.458 6
C26  25605708.049 4                 133335642.778 4
C29  22012881.951 7                 114626855.843 7
C30  21878698.470 7                 113928118.334 7
E02  26791741.573 6  26791743.295 7 140791559.784 6 106507904.052 7
E10  23374692.878 8  23374693.510 9 122834839.814 8  92923759.929 9
E16  23343298.601 8  23343298.731 9 122669858.244 8  92798950.975 9
E24  24338033.353 7  24338033.637 8 127897225.917 7  96753418.931 8
E25  23494060.833 7  23494062.196 8 123462122.691 7  93398299.098 8
G16  20884465.570 7  20884468.293 5                 109748600.006 7  85518404.091 5
G18  20409123.940 8                  20409128.995 8 107250668.670 8                  83571972.327 8
G23  22466131.129 7                  22466136.708 7 118060319.045 7                  91995082.630 7
G27  22927123.075 7                  22927128.644 6 120482841.788 7                  93882766.423 6
G29  22626702.810 7                  22626709.178 7 118904120.753 7                  92652581.434 7
G31  24325508.156 5                  24325513.119 5 127831531.272 5                  99608904.226 5
R12  22432650.529 7  22432657.871 7 119831181.604 7  93202052.136 7
R13  19745904.579 6                 105442032.562 6
R14  20960442.839 8  20960447.487 7 111730951.876 8  86902199.688 7
R22  20915855.112 8  20915857.453 7 111650248.415 8  86839087.147 7
R23  19187867.824 7                 102642149.613 7
R24  22053045.909 7  22053050.263 6 117927637.585 7  91721468.420 6
> 2025 06 15 06 56 30.0000000  0 21
C13  37390886.951 6  37390889.728 6 194704161.525 6 150557596.173 6
C26  25602178.206 4                                
C29  22010266.992 7                 114613236.138 7
C30  21878863.771 7                 113928980.404 7
E02  26788003.932 6  26788006.441 7 140771923.113 6 106493049.119 7
E10  23373485.718 8  23373486.256 9 122828495.815 8  92918960.735 9
E16  23342901.437 8  23342901.462 9 122667770.473 8  92797371.579 9
E24  24338888.996 7  24338889.143 8 127901721.615 7  96756819.877 8
E25  23492322.296 8  23492323.950 8 123452987.850 8  93391388.655 8
G16  20881710.009 7  20881712.392 5                 109734117.505 7  85507119.008 5
G18  20408236.839 8                  20408242.209 8 107246007.334 8                  83568340.126 8
G23  22462090.087 7                  22462096.932 7 118039086.797 7                  91978538.053 7
G27  22922924.691 6                  22922930.575 6 120460780.036 6                  93865575.426 6
G29  22628230.952 7                  22628237.432 7 118912151.032 7                  92658838.769 7
G31  24327595.916 4                  24327604.077 4 127842512.219 4                  99617460.750 4
R12  22435634.337 6  22435642.412 7 119847124.204 6  93214451.866 7
R13  19746665.520 6                 105446093.691 6
R14  20956762.089 8  20956767.031 8 111711332.200 8  86886939.959 8
R22  20917550.345 8  20917552.339 7 111659298.643 8  86846126.202 7
R23  19186957.653 8                 102637283.030 8
R24  22048822.367 6  22048827.469 6 117905057.048 6  91703905.804 6
> 2025 06 15 06 56 35.0000000  0 20
C13  37389439.434 6  37389442.148 6 194696624.821 6 150551768.311 6
C29  22007653.495 7                 114599619.527 7
C30  21879029.395 7                 113929845.376 7
E02  26784266.977 6  26784269.655 7 140752285.280 6 106478193.218 7
E10  23372279.508 8  23372280.147 9 122822157.470 8  92914165.815 9
E16  23342504.837 8  23342505.252 9 122665688.503 8  92795796.579 9
E24  24339744.893 7  24339745.399 8 127906220.698 7  96760223.401 8
E25  23490585.201 8  23490586.659 8 123443858.490 8  93384482.353 8
G16  20878956.206 7  20878958.401 5                 109719644.898 7  85495841.652 5
G18  20407351.916 8                  20407356.705 8 107241355.304 8                  83564715.159 8
G23  22458050.999 7                  22458057.221 7 118017858.987 7                  91961996.910 7
G27  22918726.527 6                  22918733.073 6 120438718.167 6                  93848384.348 6
G29  22629760.222 7                  22629765.497 7 118920182.223 7                  92665096.837 7
G31  24329686.784 4                                                                
R12  22438620.166 7  22438627.456 7 119863068.417 7  93226852.903 7
R13  19747429.556 6                 105450170.599 6
R14  20953084.175 8  20953088.651 8 111691724.767 8  86871689.714 8
R22  20919246.058 8  20919248.542 7 111668350.889 8  86853166.829 7
R23  19186049.994 8                 102632426.120 8
R24  22044600.144 7  22044604.488 6 117882479.297 7  91686345.363 6
> 2025 06 15 06 56 40.0000000  0 20
C13  37387992.416 6  37387994.963 7 194689088.717 6 150545940.905 7
C29  22005039.393 7                 114586006.075 7
C30  21879195.875 7                 113930713.216 7
E02  26780529.980 6  26780532.435 7 140732646.122 6 106463336.363 7
E10  23371074.340 8  23371075.072 8 122815824.758 8  92909375.159 8
E16  23342109.498 8  23342110.125 9 122663612.420 8  92794226.039 9
E24  24340602.412 7  24340602.208 8 127910723.213 7  96763629.500 8
E25  23488849.120 8  23488850.409 8 123434734.586 8  93377580.188 8
G16  20876203.796 7  20876205.993 5                 109705182.282 7  85484572.060 5
G18  20406468.688 8                  20406473.420 8 107236712.639 8                  83561097.487 8
G23  22454012.585 7                  22454018.625 7 117996635.583 7                  91945459.247 7
G27  22914528.630 6                  22914535.514 6 120416656.220 6                  93831193.231 6
G29  22631288.221 7                  22631294.391 7 118928214.416 7                  92671355.672 7
G31  24331773.749 4                  24331782.883 3 127864468.93014                  99634569.89513
R12  22441605.150 6  22441612.201 7 119879014.166 6  93239255.165 7
R13  19748196.047 7                 105454263.368 7
R14  20949407.195 8  20949412.739 7 111672129.685 8  86856449.117 7
R22  20920941.815 8  20920945.238 7 111677405.169 8  86860209.021 7
R23  19185143.780 8                 102627579.072 8
R24  22040378.672 7  22040382.545 6 117859904.272 7  91668787.032 6
> 2025 06 15 06 56 45.0000000  0 20
C13  37386545.739 6  37386548.056 7 194681553.619 6 150540114.308 7
C29  22002425.559 7                 114572396.250 7
C30  21879363.683 7                 113931584.393 7
E02  26776793.203 6  26776795.100 7 140713006.105 6 106448478.838 7
E10  23369870.815 8  23369871.140 9 122809498.141 8  92904589.108 9
E16  23341715.732 8  23341716.302 9 122661542.632 8  92792660.249 9
E24  24341459.441 7  24341459.722 8 127915229.520 7  96767038.493 8
E25  23487113.961 8  23487115.349 9 123425616.633 8  93370682.508 9
G16  20873453.345 7  20873455.874 5                 109690730.001 7  85473310.558 5
G18  20405586.850 8                  20405591.567 8 107232079.741 8                  83557487.437 8
G23  22449974.166 7                  22449981.043 7 117975417.120 7                  91928925.386 7
G27  22910330.171 6                  22910337.004 6 120394594.649 6                  93814002.410 6
G29  22632817.123 7                  22632823.461 7 118936247.948 7                  92677615.553 7
G31  24333864.102 4                                                                
R12  22444590.207 7  22444597.302 7 119894962.059 7  93251659.070 7
R13  19748965.988 7                 105458372.680 7
R14  20945734.517 8  20945739.240 7 111652547.456 8  86841218.460 7
R22  20922638.731 8  20922641.461 7 111686461.961 8  86867253.202 7
R23  19184240.656 8                 102622742.535 8
R24  22036155.778 6  22036161.953 6 117837332.459 6  91651231.168 6
> 2025 06 15 06 56 50.0000000  0 19
C13  37385098.551 6  37385100.990 7 194674018.221 6 150534287.446 7
C29  21999811.577 7                 114558788.632 7
C30  21879531.772 7                 113932457.517 7
E02  26773055.284 6  26773057.211 7 140693363.945 6 106433619.667 7
E10  23368667.346 8  23368668.062 9 122803176.209 8  92899806.611 9
E16  23341322.802 8  23341323.387 9 122659477.773 8  92791098.190 9
E24  24342317.629 8  24342317.759 8 127919738.338 8  96770449.378 8
E25  23485379.779 8  23485381.126 9 123416503.237 8  93363788.278 9
G16  20870704.705 7  20870707.438 5                 109676286.787 7  85462056.104 5
G18  20404706.795 8                  20404711.441 8 107227455.263 8                  83553883.949 8
G23  22445937.765 7                  22445943.581 7 117954202.199 7                  91912394.286 7
G27  22906131.699 7                  22906138.121 6 120372532.105 7                  93796810.828 6
G29  22634344.992 7                  22634351.545 7 118944281.469 7                  92683875.454 7
R12  22447575.426 6  22447583.135 7 119910910.563 6  93264063.386 7
R13  19749737.305 7                 105462496.936 7
R14  20942062.577 8  20942067.925 7 111632976.611 8  86825996.691 7
R22  20924335.040 8  20924338.157 7 111695519.810 8  86874298.180 7
R23  19183336.880 8                 102617914.836 8
R24  22031936.487 6  22031940.964 6 117814762.454 6  91633676.741 6
> 2025 06 15 06 56 55.0000000  0 19
C13  37383651.451 6  37383653.599 7 194666482.058 6 150528460.000 7
C29  21997198.563 7                 114545182.916 7
C30  21879700.243 7                 113933332.271 7
E02  26769317.941 6  26769318.773 7 140673719.272 6 106418758.595 7
E10  23367465.146 8  23367465.840 9 122796858.688 8  92895027.452 9
E16  23340931.264 8  23340931.284 9 122657417.513 8  92789539.611 9
E24  24343176.446 8  24343176.160 8 127924249.275 8  96773861.862 8
E25  23483646.099 8  23483647.652 8 123407394.046 8  93356897.239 8
G16  20867957.670 7  20867960.401 5                 109661852.254 7  85450808.409 5
G18  20403828.532 8                  20403833.115 8 107222838.853 8                  83550286.743 8
G23  22441901.649 7                  22441907.469 7 117932990.545 7                  91895865.705 7
G27  22901933.410 6                  22901939.497 6 120350468.221 6                  93779618.231 6
G29  22635874.142 7                  22635880.421 7 118952314.663 7                  92690135.084 7
R12  22450561.845 7  22450568.339 7 119926859.308 7  93276467.946 7
R13  19750513.754 7                 105466635.749 7
R14  20938393.429 8  20938397.718 7 111613416.779 8  86810783.536 7
R22  20926032.025 8  20926035.134 7 111704578.472 8  86881343.807 7
R23  19182436.046 8                 102613095.480 8
R24  22027713.511 7  22027720.501 6 117792193.838 7  91616123.427 6
> 2025 06 15 06 57  0.0000000  0 19
C13  37382203.549 6  37382206.012 6 194658943.715 6 150522630.885 6
C29  21994585.528 7                 114531577.623 7
C30  21879868.186 7                 113934207.114 7
E02  26765579.565 7  26765579.514 7 140654070.567 7 106403894.444 7
E10  23366263.713 8  23366264.274 9 122790544.005 8  92890250.434 9
E16  23340539.807 8  23340539.850 9 122655360.312 8  92787983.348 9
E24  24344034.435 8  24344034.693 8 127928760.790 8  96777274.785 8
E25  23481913.447 8  23481914.738 8 123398287.582 8  93350008.247 8
G16  20865211.668 7  20865214.852 5                 109647424.872 7  85439566.324 5
G18  20402950.618 8                  20402955.703 8 107218228.955 8                  83546694.625 8
G23  22437865.493 7                  22437871.496 7 117911780.604 7                  91879338.462 7
G27  22897733.831 7                  22897740.674 6 120328401.502 7                  93762423.409 6
G29  22637402.876 7                  22637408.973 7 118960345.958 7                  92696393.224 7
R12  22453545.561 6  22453553.745 7 119942806.709 6  93288871.430 7
R13  19751290.383 7                 105470787.698 7
R14  20934726.131 8  20934730.360 7 111593866.477 8  86795577.756 7
R22  20927728.679 8  20927731.942 7 111713636.284 8  86888388.763 7
R23  19181536.268 8                 102608283.152 8
R24  22023494.643 7  22023499.853 6 117769625.219 7  91598570.092 6
> 2025 06 15 06 57  5.0000000  0 19
C13  37380756.184 7  37380757.914 6 194651403.081 7 150516799.996 6
C29  21991973.037 7                 114517972.556 7
C30  21880036.223 7                 113935081.967 7
E02  26761838.418 6  26761839.615 7 140634417.685 6 106389027.159 7
E10  23365062.531 8  23365063.097 9 122784232.040 8  92885475.464 9
E16  23340148.568 8  23340148.946 9 122653306.061 8  92786429.318 9
E24  24344892.560 8  24344893.383 8 127933272.813 8  96780688.107 8
E25  23480181.495 8  23480182.339 8 123389183.690 8  93343121.202 8
G16  20862468.742 7  20862470.899 5                 109633004.622 7  85428329.753 5
G18  20402074.697 8                  20402079.782 8 107213625.509 8                  83543107.521 8
G23  22433829.651 7                  22433835.724 7 117890572.238 7                  91862812.461 7
G27  22893534.274 7                  22893540.893 6 120306331.818 7                  93745226.265 6
G29  22638930.762 7                  22638936.806 7 118968375.296 7                  92702649.799 7
R12  22456532.328 7  22456539.764 7 119958752.681 7  93301273.857 7
R13  19752071.668 7                 105474952.415 7
R14  20931059.749 8  20931064.854 7 111574325.637 8  86780379.330 7
R22  20929426.084 8  20929428.694 7 111722693.144 8  86895432.967 7
R23  19180638.681 8                 102603477.906 8
R24  22019273.876 6  22019279.329 6 117747056.427 6  91581016.560 6
> 2025 06 15 06 57 10.0000000  0 20
C13  37379307.305 7  37379309.650 6 194643861.438 7 150510968.312 6
C29  21989361.408 7                 114504369.053 7
C30  21880204.377 7                 113935958.078 7
E02  26758098.205 6  26758099.148 7 140614761.955 6 106374157.741 7
E10  23363862.606 8  23363862.717 9 122777924.091 8  92880703.534 9
E12  24433633.006 7  24433631.415 8 128399606.10317  97133461.92918
E16  23339758.444 8  23339758.830 9 122651256.026 8  92784878.483 9
E24  24345751.888 8  24345752.314 8 127937786.563 8  96784102.703 8
E25  23478449.647 8  23478450.654 8 123380083.671 8  93336237.093 8
G16  20859725.853 7  20859728.721 5                 109618592.693 7  85417099.679 5
G18  20401200.404 7                  20401205.283 8 107209029.753 7                  83539526.401 8
G23  22429795.071 7                  22429800.408 7 117869366.803 7                  91846288.772 7
G27  22889334.906 7                  22889341.061 6 120284260.458 7                  93728027.854 6
G29  22640458.123 7                  22640464.450 7 118976403.854 7                  92708905.820 7
R12  22459518.404 7  22459524.600 7 119974698.629 7  93313676.208 7
R13  19752853.560 7                 105479131.434 7
R14  20927395.850 8  20927400.883 7 111554795.539 8  86765189.242 7
R22  20931121.553 8  20931125.613 7 111731750.390 8  86902477.476 7
R23  19179741.687 7                 102598680.723 7
R24  22015052.530 6  22015058.965 6 117724488.632 6  91563463.886 6
> 2025 06 15 06 57 15.0000000  0 20
C13  37377859.359 6  37377861.409 7 194636319.121 6 150505136.119 7
C29  21986748.888 7                 114490767.578 7
C30  21880373.230 7                 113936835.872 7
E02  26754357.090 6  26754358.350 7 140595103.737 6 106359286.448 7
E10  23362662.424 8  23362663.177 9 122771620.583 8  92875934.975 9
E12  24433723.988 7  24433722.553 8 128400085.080 7  97133824.268 8
E16  23339369.258 8  23339369.597 9 122649210.677 8  92783331.186 9
E24  24346610.782 8  24346611.674 8 127942302.544 8  96787519.005 8
E25  23476718.668 8  23476719.745 8 123370987.975 8  93329356.256 8
G16  20856984.687 7  20856987.948 5                 109604189.578 7  85405876.480 5
G18  20400327.478 8                  20400332.131 8 107204442.125 8                  83535951.629 8
G23  22425759.481 7                  22425766.237 7 117848164.728 7                  91829767.692 7
G27  22885133.201 7                  22885141.226 6 120262187.947 7                  93710828.472 6
G29  22641985.871 7                  22641992.648 7 118984432.141 7                  92715161.616 7
R12  22462502.698 7  22462509.916 7 119990644.823 7  93326078.795 7
R13  19753639.547 7                 105483325.182 7
R14  20923734.392 8  20923739.546 7 111535276.782 8  86750008.004 7
R22  20932819.391 8  20932821.842 7 111740808.351 8  86909522.559 7
R23  19178846.184 7                 102593892.097 7
R24  22010833.101 6  22010840.129 6 117701922.689 6  91545912.564 6
> 2025 06 15 06 57 20.0000000  0 20
C13  37376411.236 7  37376413.253 6 194628777.065 7 150499304.116 6
C29  21984137.321 7                 114477168.907 7
C30  21880541.819 7                 113937716.204 7
E02  26750615.390 6  26750617.199 7 140575443.971 6 106344414.000 7
E10  23361463.877 8  23361464.708 9 122765322.382 8  92871170.426 9
E12  24433815.692 7  24433814.403 8 128400567.642 7  97134189.314 8
E16  23338981.164 8  23338981.439 9 122647170.862 8  92781788.071 9
E24  24347471.177 8  24347471.581 8 127946821.527 8  96790937.572 8
E25  23474988.777 8  23474989.907 8 123361897.455 8  93322479.333 8
G16  20854245.826 7  20854249.354 5                 109589796.149 7  85394660.830 5
G18  20399456.400 8                  20399461.013 8 107199863.475 8                  83532383.845 8
G23  22421725.312 7                  22421732.441 8 117826966.873 7                  91813249.877 8
G27  22880933.241 7                  22880940.747 6 120240115.035 7                  93693628.787 6
G29  22643513.381 7                  22643520.559 7 118992460.981 7                  92721417.869 7
R12  22465489.344 7  22465494.602 7 120006592.148 7  93338482.211 7
R13  19754427.448 7                 105487534.405 7
R14  20920075.482 8  20920079.933 7 111515770.064 8  86734836.117 7
R22  20934516.810 8  20934519.067 7 111749867.951 8  86916568.922 7
R23  19177952.750 7                 102589113.036 7
R24  22006613.378 6  22006620.646 6 117679359.104 6  91528363.130 6
> 2025 06 15 06 57 25.0000000  0 20
C13  37374963.158 7  37374964.921 6 194621235.688 7 150493472.627 6
C29  21981526.116 7                 114463573.509 7
C30  21880711.709 7                 113938599.438 7
E02  26746874.407 6  26746876.094 7 140555783.086 6 106329540.709 7
E10  23360266.963 8  23360267.348 9 122759029.888 8  92866410.191 9
E12  24433908.638 7  24433906.919 8 128401054.229 7  97134557.413 8
E16  23338593.938 8  23338594.429 9 122645136.999 8  92780249.460 9
E24  24348331.863 8  24348332.290 8 127951344.051 8  96794358.832 8
E25  23473260.271 8  23473261.136 8 123352812.535 8  93315606.650 8
G16  20851508.972 7  20851512.640 5                 109575412.815 7  85383453.033 5
G18  20398586.688 7                  20398591.265 8 107195294.213 7                  83528823.394 8
G23  22417691.636 7                  22417699.275 8 117805773.661 7                  91796735.728 8
G27  22876733.152 6                  22876739.870 6 120218042.229 6                  93676429.201 6
G29  22645041.720 7                  22645047.910 7 119000490.816 7                  92727674.864 7
R12  22468476.561 7  22468481.331 7 120022540.976 7  93350886.874 7
R13  19755216.874 7                 105491759.655 7
R14  20916417.240 8  20916422.899 7 111496275.909 8  86719674.013 7
R22  20936214.768 8  20936216.966 7 111758929.600 8  86923616.851 7
R23  19177062.130 7                 102584343.931 7
R24  22002394.319 6  22002400.619 6 117656798.317 6  91510815.856 6
> 2025 06 15 06 57 30.0000000  0 22
C13  37373515.111 7  37373516.847 6 194613694.879 7 150487641.582 6
C26  25559900.285 5                 133097110.46215
C29  21978916.149 7                 114449981.262 7
C30  21880881.440 7                 113939485.591 7
E02  26743133.464 6  26743134.516 7 140536121.009 6 106314666.502 7
E10  23359070.404 8  23359071.046 9 122752743.034 8  92861654.226 9
E11  23928624.580 7  23928623.292 8 125745770.02117  95125853.86718
E12  24434001.804 7  24434000.296 8 128401544.767 7  97134928.502 8
E16  23338208.243 8  23338208.519 9 122643109.009 8  92778715.282 9
E24  24349193.144 8  24349193.512 8 127955869.908 8  96797782.593 8
E25  23471532.302 8  23471533.439 9 123343733.146 8  93308738.147 9
G16  20848773.873 7  20848777.640 5                 109561039.525 7  85372253.059 5
G18  20397719.252 7                  20397723.530 8 107190734.287 7                  83525270.197 8
G23  22413659.630 7                  22413666.852 7 117784585.083 7                  91780225.165 7
G27  22872533.162 7                  22872540.167 6 120195969.368 7                  93659229.561 6
G29  22646570.365 7                  22646576.473 7 119008521.560 7                  92733932.542 7
R12  22471463.407 7  22471466.980 7 120038491.375 7  93363292.697 7
R13  19756012.767 7                 105496000.714 7
R14  20912763.127 8  20912767.989 7 111476794.182 8  86704521.558 7
R22  20937911.681 8  20937914.836 7 111767993.217 8  86930666.314 7
R23  19176171.975 7                 102579584.626 7
R24  21998176.774 6  21998181.519 6 117634240.405 6  91493270.812 6
> 2025 06 15 06 57 35.0000000  0 22
C13  37372066.396 7  37372068.996 6 194606154.256 7 150481810.710 6
C26  25556381.980 5                 133078788.222 5
C29  21976306.843 7                 114436391.847 7
C30  21881051.964 7                 113940374.209 7
E02  26739391.712 6  26739392.824 7 140516457.397 6 106299791.097 7
E10  23357875.537 8  23357875.623 8 122746461.418 8  92856902.222 8
E11  23925969.518 7  23925967.803 8 125731815.359 7  95115297.265 8
E12  24434095.612 7  24434094.321 8 128402038.835 7  97135302.256 8
E16  23337823.051 8  23337823.608 9 122641086.497 8  92777185.261 9
E24  24350055.098 7  24350055.212 8 127960398.769 7  96801208.633 8
E25  23469805.350 8  23469806.632 8 123334658.900 8  93301873.553 8
G16  20846040.437 7  20846044.197 5                 109546675.884 7  85361060.609 5
G18  20396853.547 7                  20396857.335 8 107186183.293 7                  83521723.945 8
G23  22409628.887 7                  22409635.676 7 117763400.715 7                  91763717.885 7
G27  22868332.866 7                  22868340.691 6 120173896.173 7                  93642029.699 6
G29  22648097.757 7                  22648104.396 7 119016552.782 7                  92740190.633 7
R12  22474448.838 7  22474453.159 7 120054442.811 7  93375699.327 7
R13  19756809.892 7                 105500257.104 7
R14  20909111.170 8  20909115.723 7 111457324.657 8  86689378.608 7
R22  20939610.809 8  20939613.358 7 111777058.397 8  86937716.963 7
R23  19175283.979 7                 102574834.654 7
R24  21993959.184 6  21993964.110 6 117611684.969 6  91475727.666 6
> 2025 06 15 06 57 40.0000000  0 22
C13  37370618.311 7  37370620.949 7 194598614.471 7 150475980.466 7
C26  25552864.681 5                 133060470.852 5
C29  21973697.210 7                 114422805.854 7
C30  21881223.067 7                 113941265.919 7
E02  26735650.058 6  26735650.985 7 140496792.862 6 106284914.982 7
E10  23356680.862 8  23356681.378 8 122740185.703 8  92852154.683 8
E11  23923314.353 7  23923313.253 8 125717865.533 7  95104744.304 8
E12  24434190.763 7  24434189.058 8 128402537.054 7  97135679.156 8
E16  23337439.251 8  23337439.862 9 122639070.105 8  92775659.872 9
E24  24350918.153 7  24350917.689 8 127964931.237 7  96804637.414 8
E25  23468079.530 8  23468080.954 9 123325590.432 8  93295013.324 9
G16  20843309.613 7  20843312.750 5                 109532322.554 7  85349876.206 5
G18  20395989.041 8                  20395993.147 8 107181641.845 8                  83518185.146 8
G23  22405599.507 7                  22405605.633 7 117742221.253 7                  91747214.410 7
G27  22864131.892 7                  22864140.201 6 120151823.229 7                  93624829.969 6
G29  22649627.657 7                  22649632.821 7 119024585.192 7                  92746449.597 7
R12  22477433.501 7  22477439.736 7 120070395.772 7  93388107.188 7
R13  19757609.897 7                 105504529.674 7
R14  20905460.898 8  20905465.259 7 111437867.941 8  86674245.591 7
R22  20941308.913 8  20941312.627 7 111786125.745 8  86944769.347 7
R23  19174397.585 7                 102570094.800 7
R24  21989741.350 6  21989747.637 6 117589132.609 6  91458186.917 6
> 2025 06 15 06 57 45.0000000  0 22
C13  37369170.752 6  37369173.177 7 194591075.956 6 150470151.204 7
C26  25549347.187 5                 133042158.930 5
C29  21971088.822 7                 114409223.739 7
C30  21881395.194 7                 113942161.169 7
E02  26731908.493 6  26731908.818 7 140477127.806 6 106270038.495 7
E10  23355487.975 8  23355488.359 9 122733916.298 8  92847411.924 9
E11  23920661.957 7  23920659.649 8 125703920.941 7  95094195.320 8
E12  24434286.311 7  24434284.769 8 128403039.939 7  97136059.582 8
E16  23337056.942 8  23337057.395 9 122637060.277 8  92774139.445 9
E24  24351781.158 8  24351780.956 8 127969467.794 8  96808069.280 8
E25  23466355.343 8  23466356.496 9 123316528.211 8  93288157.822 9
G16  20840580.508 7  20840583.305 5                 109517979.982 7  85338700.193 5
G18  20395126.697 8                  20395130.812 8 107177110.402 8                  83514654.153 8
G23  22401570.339 7                  22401576.472 7 117721047.134 7                  91730715.096 7
G27  22859932.135 7                  22859938.730 6 120129750.938 7                  93607630.801 6
G29  22651155.718 7                  22651162.066 7 119032619.187 7                  92752709.841 7
R12  22480420.200 7  22480427.101 7 120086350.975 7  93400516.767 7
R13  19758412.058 7                 105508818.715 7
R14  20901814.249 8  20901817.857 7 111418424.338 8  86659122.773 7
R22  20943008.480 8  20943011.086 7 111795195.687 8  86951823.720 7
R23  19173514.048 8                 102565365.464 8
R24  21985523.926 6  21985530.762 6 117566583.742 6  91440648.918 6
> 2025 06 15 06 57 50.0000000  0 22
C13  37367723.644 7  37367725.793 7 194583539.225 7 150464323.314 7
C26  25545831.998 5                 133023852.876 5
C29  21968481.850 7                 114395646.032 7
C30  21881568.110 7                 113943060.529 7
E02  26728166.056 6  26728166.660 7 140457462.853 6 106255162.075 7
E10  23354296.626 8  23354296.643 9 122727653.790 8  92842674.373 9
E11  23918008.907 7  23918007.216 8 125689982.186 7  95083650.747 8
E12  24434382.935 7  24434381.456 8 128403548.033 7  97136443.952 8
E16  23336675.945 8  23336676.288 9 122635057.594 8  92772624.425 9
E24  24352645.164 8  24352645.139 8 127974008.958 8  96811504.626 8
E25  23464631.985 8  23464633.239 9 123307472.804 8  93281307.462 9
G16  20837852.690 7  20837856.042 5                 109503648.735 7  85327532.986 5
G18  20394266.692 8                  20394270.432 8 107172589.524 8                  83511131.394 8
G23  22397541.639 7                  22397548.004 7 117699878.926 7                  91714220.375 7
G27  22855732.399 7                  22855739.138 6 120107679.981 7                  93590432.635 6
G29  22652685.669 7                  22652691.357 7 119040655.316 7                  92758971.743 7
R12  22483407.745 7  22483413.937 7 120102308.777 7  93412928.366 7
R13  19759218.548 7                 105513124.824 7
R14  20898168.523 8  20898173.165 7 111398994.607 8  86644010.774 7
R22  20944707.874 8  20944711.278 7 111804268.876 8  86958880.618 7
R23  19172632.900 7                 102560647.275 7
R24  21981308.304 7  21981314.190 6 117544038.996 7  91423114.159 6
> 2025 06 15 06 57 55.0000000  0 22
C13  37366276.860 6  37366279.019 7 194576005.114 6 150458497.473 7
C26  25542317.688 5                 133005553.471 5
C29  21965875.671 7                 114382073.467 7
C30  21881741.238 7                 113943964.659 7
E02  26724423.651 6  26724424.504 7 140437798.677 6 106240286.253 7
E10  23353105.974 8  23353106.358 9 122721398.842 8  92837942.545 9
E11  23915357.765 7  23915356.033 8 125676049.976 7  95073111.107 8
E12  24434480.061 7  24434479.221 8 128404061.965 7  97136832.729 8
E16  23336296.345 8  23336296.694 9 122633062.741 8  92771115.322 9
E24  24353509.876 7  24353510.209 8 127978555.473 7  96814944.029 8
E25  23462910.384 8  23462911.465 9 123298424.910 8  93274462.787 9
G16  20835127.611 7  20835131.097 5                 109489329.499 7  85316375.145 5
G18  20393408.566 8                  20393412.483 8 107168079.920 8                  83507617.403 8
G23  22393515.150 7                  22393520.944 7 117678717.322 7                  91697730.813 7
G27  22851532.439 7                  22851539.256 6 120085611.015 7                  93573236.036 6
G29  22654214.770 7                  22654220.811 7 119048694.328 7                  92765235.913 7
R12  22486395.680 7  22486401.376 7 120118269.998 7  93425342.604 7
R13  19760028.627 7                 105517448.684 7
R14  20894525.541 8  20894531.162 7 111379579.503 8  86628910.145 7
R22  20946408.252 8  20946411.323 7 111813345.985 8  86965940.602 7
R23  19171751.773 8                 102555940.824 8
R24  21977094.111 6  21977098.972 6 117521499.050 6  91405583.148 6
> 2025 06 15 06 58  0.0000000  0 22
C13  37664623.347 6  37664625.240 6 196129572.264 6 151659814.137 6
C26  25838598.091 5                 134548361.606 5
C29  22263062.200 7                 115929606.064 7
C30  22181708.538 7                 115505970.707 7
E02  27020475.117 6  27020475.571 7 141993558.566 6 107417208.472 7
E10  23651709.581 8  23651710.090 8 124290572.040 8  94025011.885 8
E11  24212500.409 7  24212498.899 8 127237546.341 7  96254372.980 8
E12  24734371.752 7  24734370.465 8 129980000.975 7  98329020.351 8
E16  23635710.433 8  23635710.977 9 124206495.416 8  93961406.925 9
E24  24654168.504 7  24654168.542 8 129558525.710 7  98010181.229 8
E25  23760982.736 8  23760983.792 8 124864805.649 8  94459419.639 8
G16  21132197.842 7  21132201.314 5                 111050444.508 7  86532828.406 5
G18  20692345.234 8                  20692348.982 8 108739001.771 8                  84731712.331 8
G23  22689281.990 7                  22689288.279 7 119232985.883 7                  92908849.187 7
G27  23147126.458 6                  23147133.393 6 121638967.782 6                  94783643.877 6
G29  22955537.455 7                  22955543.075 7 120632153.879 7                  93999100.469 7
R12  22789174.672 7  22789182.207 7 121735668.165 7  94683318.934 7
R13  20060633.625 7                 107122663.853 7
R14  21190679.865 8  21190684.830 7 112958244.702 8  87856760.857 7
R22  21247901.236 8  21247904.337 7 113422736.967 8  88217689.139 7
R23  19470667.001 7                 104154933.894 7
R24  22272672.748 7  22272678.754 6 119102092.692 7  92634933.812 6
> 2025 06 15 06 58  5.0000000  0 22
C13  37663177.375 7  37663179.078 6 196122041.043 7 151653990.506 6
C26  25835087.839 5                 134530073.448 5
C29  22260457.392 7                 115916041.659 7
C30  22181883.409 7                 115506882.324 7
E02  27016732.646 5  27016733.345 7 141973893.884 5 107402332.277 7
E10  23650522.170 8  23650522.282 9 124284330.142 8  94020289.933 9
E11  24209851.679 7  24209849.700 8 127223625.034 7  96243841.605 8
E12  24734471.866 7  24734470.109 8 129980524.531 7  98329416.414 8
E16  23635333.653 8  23635333.923 9 124204514.113 8  93959908.077 9
E24  24655035.979 8  24655035.367 8 129563080.747 8  98013627.084 8
E25  23759263.601 8  23759264.443 9 124855770.670 8  94452584.726 9
G16  21129477.548 7  21129480.578 5                 111036147.294 7  86521687.736 5
G18  20691490.875 8                  20691494.577 8 108734512.534 8                  84728214.231 8
G23  22685257.365 7                  22685263.226 7 119211835.434 7                  92892368.352 7
G27  23142927.059 6                  23142934.227 6 121616900.696 6                  94766448.738 6
G29  22957068.332 7                  22957073.591 7 120640196.434 7                  94005367.391 7
R12  22792162.342 7  22792171.626 7 121751633.896 7  94695736.720 7
R13  20061450.162 7                 107127021.152 7
R14  21187042.314 8  21187047.085 7 112938856.506 8  87841681.155 7
R22  21249603.173 8  21249605.884 7 113431819.687 8  88224753.480 7
R23  19469791.483 7                 104150248.791 7
R24  22268457.445 6  22268464.631 6 119079560.345 6  92617408.656 6
> 2025 06 15 06 58 10.0000000  0 22
C13  37661731.600 7  37661733.007 6 196114511.657 7 151648168.314 6
C26  25831577.087 5                 134511791.188 5
C29  22257853.198 7                 115902481.670 7
C30  22182059.097 7                 115507797.987 7
E02  27012989.136 6  27012991.157 7 141954229.243 6 107387456.110 7
E10  23649335.446 8  23649335.791 9 124278095.100 8  94015573.158 9
E11  24207203.683 7  24207201.629 8 127209709.558 7  96233314.649 8
E12  24734572.423 7  24734570.740 8 129981053.246 7  98329816.369 8
E16  23634957.984 8  23634958.285 9 124202539.919 8  93958414.612 9
E24  24655903.470 8  24655903.051 8 129567640.388 8  98017076.410 8
E25  23757545.674 8  23757546.433 8 124846742.492 8  94445754.977 8
G16  21126757.996 7  21126761.756 5                 111021861.456 7  86510555.896 5
G18  20690638.565 8                  20690642.307 8 108730033.817 8                  84724724.327 8
G23  22681233.574 7                  22681239.919 7 119190690.965 7                  92875892.175 7
G27  23138728.328 6                  23138734.639 6 121594834.859 6                  94749254.591 6
G29  22958598.482 7                  22958604.543 7 120648241.119 7                  94011635.967 7
R12  22795152.894 6  22795160.553 7 121767602.171 6  94708156.455 7
R13  20062268.430 7                 107131395.501 7
R14  21183408.746 8  21183412.775 7 112919482.213 8  87826612.262 7
R22  21251305.474 8  21251308.253 7 113440905.519 8  88231820.229 7
R23  19468917.564 7                 104145574.708 7
R24  22264244.799 6  22264251.340 6 119057032.013 6  92599886.632 6
> 2025 06 15 06 58 15.0000000  0 22
C13  37660286.434 7  37660287.661 6 196106984.633 7 151642347.936 6
C26  25828068.249 5                 134493515.599 5
C29  22255250.137 7                 115888926.808 7
C30  22182236.090 7                 115508718.417 7
E02  27009246.401 6  27009249.191 7 141934565.432 6 107372580.607 7
E10  23648149.926 8  23648150.748 9 124271867.611 8  94010862.108 9
E11  24204556.723 7  24204554.819 8 127195800.593 7  96222792.613 8
E12  24734674.397 7  24734672.408 8 129981587.771 7  98330220.729 8
E16  23634583.654 8  23634584.077 9 124200573.538 8  93956927.049 9
E24  24656772.318 8  24656771.740 8 129572205.311 8  98020529.737 8
E25  23755829.143 8  23755829.862 8 124837721.814 8  94438930.890 8
G16  21124041.844 7  21124045.695 5                 111007587.695 7  86499433.503 5
G18  20689787.969 8                  20689792.476 8 108725566.328 8                  84721243.163 8
G23  22677211.923 7                  22677217.740 7 119169553.146 7                  92859421.161 7
G27  23134529.633 6                  23134535.545 6 121572771.063 6                  94732062.053 6
G29  22960129.390 7                  22960135.782 7 120656288.681 7                  94017906.774 7
R12  22798141.999 7  22798151.217 7 121783573.771 7  94720578.768 7
R13  20063091.644 7                 107135787.536 7
R14  21179776.640 8  21179780.692 7 112900122.545 8  87811554.739 7
R22  21253007.657 8  21253011.064 7 113449995.226 8  88238889.979 7
R23  19468045.977 8                 104140912.433 8
R24  22260033.977 6  22260039.006 6 119034508.589 6  92582368.398 6
> 2025 06 15 06 58 20.0000000  0 22
C13  37658840.665 6  37658842.460 6 196099458.978 6 151636528.619 6
C26  25824557.384 4                 134475245.358 4
C29  22252648.557 7                 115875375.834 7
C30  22182413.273 7                 115509642.359 7
E02  27005506.568 6  27005507.193 7 141914901.187 6 107357704.762 7
E10  23646966.483 8  23646966.915 8 124265646.445 8  94006155.834 8
E11  24201911.040 7  24201909.053 8 127181896.899 7  96212274.571 8
E12  24734776.568 7  24734775.039 8 129982126.899 7  98330628.570 8
E16  23634210.828 8  23634211.141 9 124198613.750 8  93955444.478 9
E24  24657641.307 8  24657641.187 8 129576774.302 8  98023986.137 8
E25  23754113.954 8  23754114.440 8 124828707.455 8  94432111.586 8
G16  21121328.244 7  21121331.544 5                 110993324.754 7  86488319.507 5
G18  20688939.690 8                  20688943.972 8 108721108.838 8                  84717769.799 8
G23  22673190.045 7                  22673195.660 7 119148420.786 7                  92842954.390 7
G27  23130331.139 6                  23130337.162 6 121550708.029 6                  94714870.088 6
G29  22961661.884 7                  22961667.421 7 120664337.804 7                  94024178.802 7
R12  22801132.902 7  22801141.418 7 121799547.424 7  94733002.692 7
R13  20063917.226 7                 107140196.141 7
R14  21176146.751 8  21176151.546 7 112880776.318 8  87796507.678 7
R22  21254710.880 8  21254714.061 7 113459087.518 8  88245961.765 7
R23  19467176.025 8                 104136260.612 8
R24  22255823.137 6  22255828.184 6 119011988.790 6  92564853.005 6
> 2025 06 15 06 58 25.0000000  0 22
C13  37657395.372 6  37657397.697 7 196091935.645 6 151630711.093 7
C26  25821048.110 4                 134456981.82014
C29  22250047.157 7                 115861829.862 7
C30  22182591.740 7                 115510570.909 7
E02  27001764.967 6  27001765.448 7 141895237.665 6 107342829.423 7
E10  23645784.028 8  23645784.504 9 124259432.682 8  94001455.155 9
E11  24199267.026 7  24199264.414 8 127167999.598 7  96201761.354 8
E12  24734880.429 7  24734878.710 8 129982671.705 7  98331040.706 8
E16  23633839.246 8  23633839.652 9 124196661.649 8  93953967.722 9
E24  24658511.877 7  24658511.629 8 129581348.438 7  98027446.430 8
E25  23752399.728 8  23752400.429 8 124819700.446 8  94425297.830 8
G16  21118616.224 7  21118619.568 5                 110979073.732 7  86477214.838 5
G18  20688093.863 8                  20688097.947 8 108716662.427 8                  84714305.056 8
G23  22669170.516 7                  22669175.533 7 119127294.981 7                  92826492.709 7
G27  23126133.550 6                  23126139.262 5 121528646.841 6                  94697679.590 5
G29  22963194.162 7                  22963199.889 7 120672389.572 7                  94030452.885 7
R12  22804123.577 7  22804132.113 7 121815524.078 7  94745428.962 7
R13  20064746.179 7                 107144622.158 7
R14  21172519.823 8  21172524.857 7 112861444.582 8  87781471.873 7
R22  21256414.091 8  21256417.816 7 113468183.505 8  88253036.409 7
R23  19466309.001 7                 104131620.402 7
R24  22251613.259 6  22251617.920 5 118989473.671 6  92547341.267 5
> 2025 06 15 06 58 30.0000000  0 21
C13  37655951.479 7  37655953.610 7 196084415.005 7 151624895.660 7
C29  22247447.009 7                 115848289.150 7
C30  22182771.323 7                 115511504.379 7
E02  26998023.605 7  26998023.874 7 141875575.157 7 107327954.859 7
E10  23644603.646 8  23644603.537 9 124253226.653 8  93996760.336 9
E11  24196623.062 7  24196621.146 8 127154109.003 7  96191253.210 8
E12  24734985.106 7  24734983.526 8 129983222.486 7  98331457.359 8
E16  23633469.096 8  23633469.718 9 124194717.521 8  93952496.992 9
E24  24659383.719 8  24659383.055 8 129585928.031 8  98030910.851 8
E25  23750687.282 8  23750687.896 8 124810701.155 8  94418489.922 8
G16  21115906.479 7  21115909.913 5                 110964834.953 7  86466119.698 5
G18  20687249.632 8                  20687254.178 8 108712227.400 8                  84710849.193 8
G23  22665151.728 7                  22665156.779 7 119106176.026 7                  92810036.391 7
G27  23121935.521 7                  23121942.029 5 121506587.816 7                  94680490.800 5
G29  22964726.795 7                  22964732.497 7 120680444.309 7                  94036729.299 7
R12  22807114.884 7  22807123.500 7 121831504.188 7  94757857.908 7
R13  20065578.212 7                 107149066.131 7
R14  21168896.057 8  21168900.780 7 112842127.703 8  87766447.640 7
R22  21258119.636 8  21258123.085 7 113477283.442 8  88260114.125 7
R23  19465443.946 7                 104126992.109 7
R24  22247402.885 6  22247409.193 5 118966963.504 6  92529833.419 5
> 2025 06 15 06 58 35.0000000  0 21
C13  37654507.093 6  37654509.401 7 196076895.823 6 151619081.342 7
C29  22244847.401 7                 115834752.556 7
C30  22182952.090 7                 115512441.531 7
E02  26994282.072 7  26994282.330 7 141855912.447 7 107313080.102 7
E10  23643423.828 8  23643423.803 9 124247027.121 8  93992070.424 9
E11  24193980.907 7  24193978.838 8 127140223.854 7  96180749.197 8
E12  24735090.620 7  24735089.343 8 129983778.072 7  98331877.651 8
E16  23633100.477 8  23633101.036 9 124192780.171 8  93951031.397 9
E24  24660255.510 8  24660255.350 8 129590511.865 8  98034378.479 8
E25  23748975.959 8  23748976.596 8 124801708.339 8  94411686.913 8
G16  21113199.328 7  21113202.435 5                 110950607.216 7  86455033.158 5
G18  20686407.669 8                  20686412.218 8 108707802.528 8                  84707401.250 8
G23  22661133.054 7                  22661138.764 7 119085062.758 7                  92793584.506 7
G27  23117737.995 6                  23117745.340 6 121484529.831 6                  94663302.762 6
G29  22966259.930 7                  22966265.737 7 120688500.781 7                  94043007.051 7
R12  22810106.170 7  22810115.158 7 121847486.482 7  94770288.536 7
R13  20066414.073 7                 107153526.703 7
R14  21165274.695 8  21165280.379 7 112822824.347 8  87751433.919 7
R22  21259824.787 8  21259827.706 7 113486386.151 8  88267194.017 7
R23  19464580.710 8                 104122374.502 8
R24  22243194.441 6  22243200.290 5 118944457.226 6  92512328.574 5
> 2025 06 15 06 58 40.0000000  0 21
C13  37653063.442 6  37653065.882 7 196069379.085 6 151613268.921 7
C29  22242247.726 7                 115821221.021 7
C30  22183132.942 7                 115513383.396 7
E02  26990540.947 7  26990540.953 7 141836250.483 7 107298205.947 7
E10  23642245.253 8  23642245.502 9 124240835.061 8  93987386.174 9
E11  24191339.672 7  24191337.811 8 127126345.176 7  96170250.087 8
E12  24735197.391 7  24735196.154 8 129984339.325 7  98332302.238 8
E16  23632733.319 8  23632733.877 9 124190850.577 8  93949571.669 9
E24  24661128.921 8  24661128.605 8 129595100.935 8  98037850.079 8
E25  23747265.774 8  23747266.729 8 124792722.978 8  94404889.537 8
G16  21110494.309 7  21110497.092 5                 110936391.511 7  86443955.968 5
G18  20685567.463 8                  20685572.410 8 108703388.818 8                  84703961.995 8
G23  22657117.042 7                  22657122.515 7 119063956.136 7                  92777137.804 7
G27  23113540.628 6                  23113548.155 6 121462473.795 6                  94646116.280 6
G29  22967793.120 7                  22967799.419 7 120696559.970 7                  94049286.934 7
R12  22813098.655 7  22813108.220 7 121863471.882 7  94782721.591 7
R13  20067252.488 7                 107158004.793 7
R14  21161656.196 8  21161661.358 7 112803535.713 8  87736431.649 7
R22  21261530.786 8  21261533.313 7 113495492.599 8  88274276.805 7
R23  19463720.003 7                 104117768.586 7
R24  22238987.560 6  22238992.720 5 118921955.669 6  92494827.357 5
> 2025 06 15 06 58 45.0000000  0 21
C13  37651620.488 6  37651622.872 6 196061864.756 6 151607458.360 6
C29  22239650.238 7                 115807694.566 7
C30  22183314.456 7                 115514329.929 7
E02  26986800.187 7  26986799.671 7 141816589.332 7 107283332.390 7
E10  23641068.507 8  23641068.615 9 124234650.481 8  93982707.575 9
E11  24188699.624 7  24188698.058 8 127112472.983 7  96159755.857 8
E12  24735305.716 7  24735304.055 8 129984906.359 7  98332731.187 8
E16  23632367.518 8  23632368.122 9 124188928.735 8  93948117.802 9
E24  24662003.364 8  24662002.811 8 129599695.176 8  98041325.586 8
E25  23745557.462 8  23745558.287 8 124783745.085 8  94398097.827 8
G16  21107791.857 7  21107793.983 5                 110922187.853 7  86432888.179 5
G18  20684730.148 8                  20684734.760 8 108698986.231 8                  84700531.413 8
G23  22653101.543 7                  22653107.166 7 119042856.229 7                  92760696.295 7
G27  23109344.142 6                  23109351.547 6 121440419.715 6                  94628931.265 6
G29  22969326.744 7                  22969333.485 7 120704621.923 7                  94055568.968 7
R12  22816092.549 7  22816101.042 7 121879460.467 7  94795157.121 7
R13  20068094.837 7                 107162500.511 7
R14  21158040.993 8  21158045.665 7 112784261.607 8  87721440.690 7
R22  21263237.502 8  21263239.654 7 113504602.750 8  88281362.477 7
R23  19462861.288 8                 104113174.374 8
R24  22234779.750 6  22234784.973 5 118899458.921 6  92477329.955 5
> 2025 06 15 06 58 50.0000000  0 21
C13  37650178.149 6  37650180.130 6 196054353.304 6 151601650.041 6
C29  22237053.527 7                 115794173.586 7
C30  22183496.493 7                 115515281.586 7
E02  26983058.886 7  26983058.680 7 141796929.401 7 107268459.770 7
E10  23639892.456 8  23639893.213 9 124228473.824 8  93978034.976 9
E11  24186061.030 7  24186059.558 8 127098607.697 7  96149266.857 8
E12  24735414.802 7  24735413.116 8 129985479.570 7  98333164.811 8
E16  23632003.455 8  23632004.009 9 124187015.115 8  93946670.153 9
E24  24662878.659 8  24662878.180 8 129604295.132 8  98044805.403 8
E25  23743850.146 8  23743851.392 8 124774775.131 8  94391312.114 8
G16  21105090.871 7  21105093.201 5                 110907996.704 7  86421830.144 5
G18  20683894.521 8                  20683898.947 8 108694595.230 8                  84697109.860 8
G23  22649088.155 7                  22649093.477 7 119021763.434 7                  92744260.366 7
G27  23105147.543 6                  23105154.626 6 121418368.037 6                  94611748.196 6
G29  22970862.116 7                  22970868.207 7 120712687.034 7                  94061853.458 7
R12  22819085.577 7  22819094.476 7 121895452.566 7  94807595.386 7
R13  20068939.183 7                 107167014.362 7
R14  21154427.332 7  21154432.617 7 112765002.671 7  87706461.533 7
R22  21264944.456 8  21264947.277 7 113513717.044 8  88288451.360 7
R23  19462004.808 8                 104108592.195 8
R24  22230574.494 6  22230578.419 6 118876967.518 6  92459836.635 6
> 2025 06 15 06 58 55.0000000  0 21
C13  37648736.146 6  37648738.044 6 196046844.211 6 151595843.519 6
C29  22234458.295 7                 115780657.580 7
C30  22183680.027 7                 115516237.781 7
E02  26979316.928 6  26979317.606 7 141777270.127 6 107253587.657 7
E10  23638718.625 8  23638719.233 9 124222304.520 8  93973367.937 9
E11  24183423.623 7  24183422.251 8 127084748.768 7  96138782.664 8
E12  24735525.259 7  24735523.245 8 129986058.381 7  98333602.680 8
E16  23631641.169 8  23631641.341 9 124185109.117 8  93945228.277 9
E24  24663754.879 8  24663754.507 8 129608900.150 8  98048289.062 8
E25  23742144.873 8  23742145.852 8 124765812.546 8  94384531.972 8
G16  21102392.781 7  21102395.045 5                 110893817.529 7  86410781.423 5
G18  20683060.807 8                  20683065.678 8 108690215.264 8                  84693696.898 8
G23  22645075.715 7                  22645081.221 7 119000677.261 7                  92727829.599 7
G27  23100951.209 6                  23100959.351 6 121396318.248 6                  94594566.562 6
G29  22972397.191 7                  22972403.610 7 120720754.731 7                  94068139.977 7
R12  22822079.832 7  22822089.496 7 121911447.632 7  94820035.958 7
R13  20069788.178 7                 107171545.612 7
R14  21150817.339 7  21150822.578 7 112745758.257 7  87691493.655 7
R22  21266653.235 8  21266655.551 7 113522834.914 8  88295543.016 7
R23  19461150.155 8                 104104021.422 8
R24  22226368.916 7  22226373.844 6 118854480.739 7  92442346.901 6
> 2025 06 15 06 59  0.0000000  0 21
C13  37647293.977 6  37647296.410 6 196039337.350 6 151590038.747 6
C29  22231863.878 7                 115767146.546 7
C30  22183864.676 7                 115517198.526 7
E02  26975576.048 6  26975576.615 7 141757611.545 6 107238716.065 7
E10  23637546.409 8  23637546.657 9 124216142.591 8  93968706.476 9
E11  24180788.253 7  24180786.196 8 127070896.192 7  96128303.290 8
E12  24735635.945 7  24735634.407 8 129986642.831 7  98334044.810 8
E16  23631279.638 8  23631280.093 9 124183210.778 8  93943792.201 9
E24  24664631.816 8  24664631.793 8 129613510.291 8  98051776.594 8
E25  23740440.678 8  23740441.782 8 124756857.352 8  94377757.424 8
G16  21099696.718 7  21099698.903 5                 110879650.357 7  86399742.066 5
G18  20682230.089 8                  20682234.134 8 108685846.323 8                  84690292.534 8
G23  22641064.389 7                  22641070.165 7 118979597.685 7                  92711403.972 7
G27  23096756.493 6                  23096763.961 5 121374270.392 6                  94577386.372 5
G29  22973932.903 7                  22973939.164 7 120728825.074 7                  94074428.547 7
R12  22825076.118 7  22825084.347 7 121927445.620 7  94832478.813 7
R13  20070640.069 7                 107176094.369 7
R14  21147210.254 7  21147214.943 7 112726528.461 7  87676537.141 7
R22  21268362.086 8  21268364.718 7 113531956.330 8  88302637.435 7
R23  19460298.211 8                 104099462.429 8
R24  22222163.628 7  22222168.685 6 118831998.776 7  92424860.943 6
> 2025 06 15 06 59  5.0000000  0 21
C13  37645852.911 6  37645855.412 6 196031833.057 6 151584235.942 6
C29  22229270.238 7                 115753640.662 7
C30  22184050.315 7                 115518164.018 7
E02  26971834.535 6  26971835.843 7 141737953.864 6 107223845.183 7
E10  23636375.188 8  23636375.513 9 124209988.239 8  93964050.743 9
E11  24178153.027 7  24178151.345 8 127057050.204 7  96117828.890 8
E12  24735748.364 7  24735746.756 8 129987233.104 7  98334491.347 8
E16  23630920.167 8  23630920.360 9 124181320.307 8  93942362.060 9
E24  24665510.213 8  24665510.078 8 129618125.722 8  98055268.128 8
E25  23738737.550 8  23738739.100 8 124747909.734 8  94370988.613 8
G16  21097003.368 7  21097005.327 5                 110865495.353 7  86388712.193 5
G18  20681400.232 8                  20681405.081 8 108681488.597 8                  84686896.902 8
G23  22637054.115 7                  22637060.031 7 118958524.945 7                  92694983.689 7
G27  23092560.156 6                  23092567.598 5 121352224.566 6                  94560207.796 5
G29  22975469.515 7                  22975475.426 7 120736898.216 7                  94080719.285 7
R12  22828072.233 7  22828079.692 7 121943446.861 7  94844924.175 7
R13  20071495.160 7                 107180660.801 7
R14  21143605.130 8  21143610.225 7 112707313.662 8  87661592.293 7
R22  21270071.960 8  21270074.315 7 113541081.502 8  88309734.775 7
R23  19459447.380 8                 104094914.981 8
R24  22217959.013 7  22217965.439 6 118809521.615 7  92407378.717 6
> 2025 06 15 06 59 10.0000000  0 21
C13  37644412.931 6  37644414.509 7 196024331.200 6 151578435.030 7
C29  22226677.409 7                 115740139.891 7
C30  22184236.790 7                 115519134.188 7
E02  26968093.432 6  26968095.104 7 141718296.988 6 107208974.902 7
E10  23635205.849 8  23635205.807 9 124203841.348 8  93959400.662 9
E11  24175519.747 7  24175517.793 8 127043210.701 7  96107359.403 8
E12  24735861.876 7  24735860.173 8 129987829.084 7  98334942.193 8
E16  23630562.104 8  23630562.092 9 124179437.604 8  93940937.799 9
E24  24666389.132 7  24666389.321 8 129622746.360 7  98058763.596 8
E25  23737036.142 8  23737037.855 8 124738969.635 8  94364225.484 8
G16  21094311.476 7  21094313.926 5                 110851352.447 7  86377691.740 5
G18  20680573.574 8                  20680577.777 8 108677142.016 8                  84683509.936 8
G23  22633045.514 7                  22633051.482 7 118937458.989 7                  92678568.680 7
G27  23088364.701 6                  23088372.771 5 121330180.753 6                  94543030.777 5
G29  22977005.647 7                  22977011.896 7 120744974.092 7                  94087012.151 7
R12  22831068.546 8  22831075.512 7 121959451.086 8  94857371.867 7
R13  20072352.707 7                 107185244.726 7
R14  21140003.151 8  21140008.462 7 112688113.422 8  87646658.793 7
R22  21271781.899 8  21271784.365 7 113550210.443 8  88316835.036 7
R23  19458599.594 8                 104090379.146 8
R24  22213756.842 6  22213763.335 6 118787049.386 6  92389900.331 6
> 2025 06 15 06 59 15.0000000  0 21
C13  37642971.842 6  37642974.482 7 196016831.832 6 151572636.039 7
C29  22224085.116 7                 115726644.194 7
C30  22184423.726 7                 115520109.039 7
E02  26964353.362 6  26964354.590 7 141698640.940 6 107194105.233 7
E10  23634037.221 8  23634037.508 9 124197701.933 8  93954756.235 9
E11  24172887.342 7  24172885.445 8 127029377.650 7  96096894.797 8
E12  24735976.392 7  24735974.718 8 129988430.786 7  98335397.372 8
E16  23630204.962 8  23630205.301 9 124177562.662 8  93939519.411 9
E24  24667269.644 8  24667269.587 8 129627372.211 8  98062263.004 8
E25  23735336.841 8  23735338.054 8 124730037.041 8  94357468.031 8
G16  21091622.967 7  21091625.066 5                 110837221.648 7  86366680.732 5
G18  20679748.600 8                  20679752.990 8 108672806.544 8                  84680131.642 8
G23  22629038.425 7                  22629044.166 7 118916399.790 7                  92662158.942 7
G27  23084171.213 6                  23084177.853 6 121308138.980 6                  94525855.401 6
G29  22978542.589 7                  22978549.695 7 120753052.665 7                  94093307.132 7
R12  22834065.341 8  22834071.487 6 121975458.343 8  94869821.956 6
R13  20073214.996 7                 107189846.174 7
R14  21136404.116 8  21136408.960 7 112668928.083 8  87631736.871 7
R22  21273492.198 8  21273495.448 7 113559343.052 8  88323938.157 7
R23  19457753.255 7                 104085854.939 7
R24  22209555.689 6  22209561.695 6 118764582.132 6  92372425.795 6
> 2025 06 15 06 59 20.0000000  0 21
C13  37641532.393 6  37641535.038 7 196009335.350 6 151566839.271 7
C29  22221494.757 7                 115713154.052 7
C30  22184611.643 7                 115521088.993 7
E02  26960613.691 6  26960614.447 7 141678986.248 6 107179236.607 7
E10  23632870.964 8  23632870.711 9 124191570.461 8  93950117.813 9
E11  24170256.176 7  24170254.429 8 127015551.562 7  96086435.458 8
E12  24736092.212 7  24736090.396 8 129989038.642 7  98335857.208 8
E16  23629849.607 8  23629850.075 9 124175695.955 8  93938107.247 9
E24  24668150.884 7  24668150.920 8 129632003.735 7  98065766.716 8
E25  23733638.478 8  23733639.802 8 124721112.413 8  94350716.614 8
G16  21088936.277 7  21088938.600 5                 110823103.448 7  86355679.530 5
G18  20678925.546 8                  20678930.136 8 108668482.680 8                  84676762.385 8
G23  22625032.256 7                  22625038.374 7 118895347.843 7                  92645754.835 7
G27  23079977.089 6                  23079984.209 6 121286099.693 6                  94508681.945 6
G29  22980080.772 7                  22980087.742 7 120761134.396 7                  94099604.539 7
R12  22837062.934 8  22837068.629 6 121991469.108 8  94882274.784 6
R13  20074079.905 7                 107194465.614 7
R14  21132807.766 8  21132812.873 7 112649757.846 8  87616826.706 7
R22  21275204.399 8  21275207.054 7 113568479.728 8  88331044.453 7
R23  19456909.859 8                 104081342.752 8
R24  22205354.126 6  22205362.289 5 118742120.088 6  92354955.317 5
> 2025 06 15 06 59 25.0000000  0 21
C13  37640092.974 6  37640095.766 7 196001841.139 6 151561044.268 7
C29  22218905.295 7                 115699668.865 7
C30  22184800.295 7                 115522073.468 7
E02  26956874.149 7  26956874.395 7 141659332.278 7 107164368.496 7
E10  23631705.399 8  23631705.330 8 124185446.319 8  93945484.928 8
E11  24167625.951 7  24167624.625 8 127001731.852 7  96075980.933 8
E12  24736208.782 7  24736207.160 8 129989652.126 7  98336321.297 8
E16  23629496.128 8  23629496.314 9 124173836.891 8  93936700.873 9
E24  24669033.290 7  24669033.245 8 129636640.314 7  98069274.249 8
E25  23731941.860 8  23731942.896 8 124712195.188 8  94343970.796 8
G16  21086251.552 7  21086254.219 5                 110808997.260 7  86344687.693 5
G18  20678104.879 8                  20678109.386 8 108664169.798 8                  84673401.711 8
G23  22621027.856 7                  22621033.169 7 118874302.571 7                  92629355.949 7
G27  23075783.391 6                  23075790.879 6 121264062.320 6                  94491509.970 6
G29  22981619.389 7                  22981626.089 7 120769218.734 7                  94105904.006 7
R12  22840059.572 7  22840066.437 6 122007482.701 7  94894729.795 6
R13  20074950.092 7                 107199102.433 7
R14  21129214.283 7  21129219.213 7 112630602.437 7  87601928.067 7
R22  21276917.397 8  21276919.268 7 113577619.948 8  88338153.506 7
R23  19456067.418 7                 104076842.155 7
R24  22201155.429 6  22201162.290 5 118719662.714 6  92337488.480 5
> 2025 06 15 06 59 30.0000000  0 22
C13  37638654.077 6  37638656.944 7 195994349.603 6 151555251.356 7
C26  25775571.285 5                 134220153.79215
C29  22216316.610 7                 115686188.941 7
C30  22184990.674 7                 115523062.786 7
E02  26953134.290 7  26953134.611 7 141639679.351 7 107149501.173 7
E10  23630541.393 8  23630541.395 8 124179329.834 8  93940857.850 8
E11  24164997.750 7  24164996.067 8 126987918.794 7  96065531.454 8
E12  24736326.690 7  24736325.037 8 129990271.449 7  98336789.811 8
E16  23629143.972 8  23629144.065 9 124171985.766 8  93935300.511 9
E24  24669916.376 7  24669916.596 8 129641282.280 7  98072785.862 8
E25  23730246.616 8  23730247.510 8 124703285.672 8  94337230.804 8
G16  21083569.289 7  21083572.599 5                 110794903.432 7  86333705.469 5
G18  20677286.300 8                  20677290.480 8 108659868.219 8                  84670049.836 8
G23  22617023.930 7                  22617029.309 7 118853264.299 7                  92612962.479 7
G27  23071590.585 6                  23071597.606 6 121242027.168 6                  94474339.731 6
G29  22983158.518 7                  22983164.759 7 120777305.966 7                  94112205.723 7
R12  22843058.818 7  22843065.061 6 122023499.465 7  94907187.285 6
R13  20075820.826 7                 107203756.942 7
R14  21125623.653 7  21125628.086 7 112611461.854 7  87587040.962 7
R22  21278629.521 8  21278632.214 7 113586764.015 8  88345265.561 7
R23  19455228.175 7                 104072353.228 7
R24  22196956.365 6  22196963.005 6 118697210.436 6  92320025.619 6
> 2025 06 15 06 59 35.0000000  0 22
C13  37637216.748 6  37637219.000 7 195986860.986 6 151549460.660 7
C26  25772081.851 5                 134201984.491 5
C29  22213729.594 7                 115672714.662 7
C30  22185182.148 7                 115524057.279 7
E02  26949394.747 7  26949395.110 7 141620027.840 7 107134634.910 7
E10  23629378.866 8  23629378.977 9 124173221.375 8  93936236.834 9
E11  24162370.581 7  24162368.898 8 126974112.764 7  96055087.285 8
E12  24736445.754 7  24736444.101 8 129990897.011 7  98337263.045 8
E16  23628793.096 8  23628793.374 9 124170142.965 8  93933906.438 9
E24  24670801.022 7  24670801.029 8 129645929.976 7  98076301.807 8
E25  23728553.057 8  23728553.598 8 124694384.235 8  94330496.919 8
G16  21080890.318 7  21080893.410 5                 110780822.306 7  86322733.166 5
G18  20676469.946 8                  20676474.056 8 108655578.292 8                  84666707.036 8
G23  22613021.804 7                  22613027.861 7 118832233.397 7                  92596574.783 7
G27  23067397.649 6                  23067405.005 6 121219994.580 6                  94457171.506 6
G29  22984698.245 6                  22984704.346 7 120785396.426 6                  94118509.978 7
R12  22846057.742 7  22846063.761 6 122039519.762 7  94919647.494 6
R13  20076696.186 7                 107208429.605 7
R14  21122035.268 7  21122039.864 7 112592336.700 7  87572165.837 7
R22  21280343.461 8  21280346.129 7 113595912.186 8  88352380.796 7
R23  19454391.433 7                 104067876.557 7
R24  22192758.090 6  22192765.295 6 118674763.589 6  92302566.974 6
> 2025 06 15 06 59 40.0000000  0 22
C13  37635779.582 6  37635781.493 6 195979375.859 6 151543672.698 6
C26  25768595.428 5                 134183822.978 5
C29  22211142.803 7                 115659246.514 7
C30  22185374.127 7                 115525057.455 7
E02  26945655.741 7  26945656.008 7 141600378.244 7 107119770.113 7
E10  23628218.247 8  23628218.199 9 124167121.415 8  93931622.246 9
E11  24159744.753 7  24159743.086 8 126960314.313 7  96044648.849 8
E12  24736565.728 7  24736564.429 8 129991529.327 7  98337741.396 8
E16  23628443.797 8  23628444.388 9 124168308.991 8  93932519.048 9
E24  24671686.654 7  24671686.747 8 129650583.921 7  98079822.483 8
E25  23726860.615 8  23726861.336 8 124685491.380 8  94323769.528 8
G16  21078213.801 7  21078216.594 5                 110766754.405 7  86311771.155 5
G18  20675655.501 7                  20675660.087 8 108651300.532 7                  84663373.714 8
G23  22609021.157 7                  22609026.802 7 118811210.389 7                  92580193.229 7
G27  23063205.634 6                  23063213.063 6 121197965.103 6                  94440005.693 6
G29  22986238.999 7                  22986244.553 7 120793490.636 7                  94124817.152 7
R12  22849057.540 7  22849064.176 6 122055544.101 7  94932110.838 6
R13  20077574.181 7                 107213120.595 7
R14  21118449.706 7  21118455.444 7 112573227.387 7  87557303.042 7
R22  21282058.501 8  21282060.235 7 113605065.096 8  88359499.713 7
R23  19453557.817 7                 104063412.552 7
R24  22188561.442 7  22188568.976 6 118652322.644 7  92285112.941 6
> 2025 06 15 06 59 45.0000000  0 22
C13  37634342.271 6  37634345.145 6 195971894.338 6 151537887.516 6
C26  25765107.668 5                 134165669.474 5
C29  22208557.527 7                 115645784.710 7
C30  22185566.906 7                 115526063.544 7
E02  26941917.225 7  26941917.389 7 141580730.772 7 107104906.920 7
E10  23627058.513 8  23627059.114 8 124161030.177 8  93927014.265 8
E11  24157120.736 7  24157118.898 8 126946523.619 7  96034216.275 8
E12  24736687.984 7  24736686.074 8 129992168.583 7  98338224.986 8
E16  23628096.406 8  23628097.090 9 124166484.053 8  93931138.490 9
E24  24672572.889 7  24672573.552 8 129655244.319 7  98083348.044 8
E25  23725169.879 8  23725170.733 8 124676607.324 8  94317048.798 8
G16  21075538.797 7  21075542.451 5                 110752699.916 7  86300819.610 5
G18  20674843.973 7                  20674848.506 8 108647035.141 7                  84660050.040 8
G23  22605021.724 7                  22605028.293 7 118790195.483 7                  92563817.988 7
G27  23059014.050 6                  23059021.328 6 121175939.002 6                  94422842.518 6
G29  22987780.096 7                  22987785.744 7 120801588.828 7                  94131127.403 7
R12  22852057.491 7  22852064.272 6 122071572.641 7  94944577.464 6
R13  20078456.392 7                 107217830.510 7
R14  21114869.047 8  21114872.910 7 112554134.211 8  87542452.795 7
R22  21283773.556 8  21283776.554 7 113614222.930 8  88366622.466 7
R23  19452725.849 7                 104058961.541 7
R24  22184365.760 7  22184373.546 5 118629887.952 7  92267663.712 5
> 2025 06 15 06 59 50.0000000  0 22
C13  37632906.427 6  37632909.215 7 195964416.664 6 151532105.304 7
C26  25761623.808 5                 134147524.070 5
C29  22205973.226 8                 115632329.324 8
C30  22185761.561 7                 115527075.578 7
E02  26938178.333 7  26938179.162 7 141561085.512 7 107090045.416 7
E10  23625901.449 8  23625901.649 9 124154947.708 8  93922412.910 9
E11  24154498.136 7  24154496.139 8 126932740.733 7  96023789.604 8
E12  24736810.738 7  24736809.076 8 129992814.851 7  98338713.874 8
E16  23627751.018 8  23627751.565 9 124164668.203 8  93929764.798 9
E24  24673461.647 7  24673461.631 8 129659911.241 7  98086878.514 8
E25  23723480.956 8  23723481.800 8 124667732.139 8  94310334.771 8
G16  21072867.084 7  21072870.713 5                 110738658.941 7  86289878.587 5
G18  20674034.706 7                  20674039.215 8 108642782.169 7                  84656735.999 8
G23  22601025.092 7                  22601031.201 8 118769188.770 7                  92547449.125 8
G27  23054823.500 6                  23054830.847 6 121153916.282 6                  94405681.950 6
G29  22989321.471 7                  22989327.670 7 120809691.067 7                  94137440.789 7
R12  22855058.403 7  22855065.960 6 122087605.478 7  94957047.429 6
R13  20079342.185 7                 107222559.222 7
R14  21111290.196 8  21111294.560 7 112535057.256 8  87527615.198 7
R22  21285489.523 8  21285492.517 7 113623385.712 8  88373749.057 7
R23  19451895.906 7                 104054523.323 7
R24  22180172.428 6  22180177.917 6 118607459.474 6  92250219.307 6
> 2025 06 15 06 59 55.0000000  0 22
C13  37631471.067 6  37631473.526 7 195956941.026 6 151526324.663 7
C26  25758140.300 5                 134129385.060 5
C29  22203390.018 8                 115618878.654 8
C30  22185956.779 7                 115528091.843 7
E02  26934439.263 6  26934440.941 7 141541440.714 6 107075184.271 7
E10  23624745.364 8  23624745.542 9 124148872.320 8  93917816.920 9
E11  24151876.485 7  24151874.554 8 126918963.950 7  96013367.570 8
E12  24736934.738 7  24736933.107 8 129993466.394 7  98339206.761 8
E16  23627407.056 8  23627407.401 9 124162859.729 8  93928396.704 9
E24  24674350.233 7  24674350.608 8 129664582.931 7  98090412.616 8
E25  23721793.168 8  23721794.277 8 124658864.108 8  94303626.161 8
G16  21070197.133 7  21070201.277 5                 110724629.732 7  86278946.734 5
G18  20673226.962 7                  20673232.113 8 108638539.911 7                  84653430.348 8
G23  22597028.863 7                  22597034.750 7 118748188.531 7                  92531085.318 7
G27  23050633.436 6                  23050640.447 6 121131895.211 6                  94388522.709 6
G29  22990863.958 7                  22990870.181 7 120817795.618 7                  94143756.024 7
R12  22858062.249 7  22858067.739 6 122103640.801 7  94969519.327 6
R13  20080230.061 7                 107227304.891 7
R14  21107714.181 8  21107718.399 7 112515994.836 8  87512788.883 7
R22  21287206.915 8  21287209.735 7 113632551.683 8  88380878.137 7
R23  19451068.837 7                 104050096.346 7
R24  22175978.854 6  22175984.552 6 118585035.470 6  92232778.470 6
> 2025 06 15 07 00  0.0000000  0 22
C13  37630036.055 6  37630037.880 7 195949467.117 6 151520545.358 7
C26  25754657.766 5                 134111252.137 5
C29  22200807.223 7                 115605432.333 7
C30  22186152.893 7                 115529112.002 7
E02  26930700.326 6  26930702.684 7 141521796.042 6 107060323.237 7
E10  23623590.507 8  23623590.732 9 124142803.628 8  93913225.996 9
E11  24149256.619 7  24149254.111 8 126905192.929 7  96002949.888 8
E12  24737059.196 7  24737058.072 8 129994122.847 7  98339703.358 8
E16  23627063.868 8  23627064.642 9 124161058.277 8  93927033.911 9
E24  24675239.797 7  24675240.528 8 129669259.054 7  98093950.064 8
E25  23720106.947 8  23720108.071 8 124650002.874 8  94296922.692 8
G16  21067529.629 7  21067533.695 5                 110710611.989 7  86268023.816 5
G18  20672421.817 7                  20672426.720 8 108634307.980 7                  84650132.751 8
G23  22593032.343 7                  22593039.495 7 118727194.476 7                  92514726.312 7
G27  23046442.835 6                  23046450.384 6 121109875.465 6                  94371364.461 6
G29  22992406.200 7                  22992412.621 7 120825902.081 7                  94150072.729 7
R12  22861063.870 7  22861070.427 7 122119678.258 7  94981992.894 7
R13  20081121.836 7                 107232067.212 7
R14  21104140.508 8  21104145.147 7 112496946.560 8  87497973.557 7
R22  21288925.115 8  21288927.724 7 113641720.508 8  88388009.414 7
R23  19450243.133 7                 104045680.224 7
R24  22171788.731 6  22171792.396 5 118562615.669 6  92215340.780 5
> 2025 06 15 07 00  5.0000000  0 22
C13  37628600.905 7  37628603.097 7 195941995.423 7 151514767.768 7
C26  25751176.110 5                 134093125.822 5
C29  22198226.530 7                 115591990.936 7
C30  22186349.614 7                 115530136.622 7
E02  26926962.505 6  26926964.416 7 141502152.139 6 107045462.777 7
E10  23622437.175 8  23622437.282 9 124136742.212 8  93908640.570 9
E11  24146636.574 7  24146634.777 8 126891428.233 7  95992536.984 8
E12  24737185.985 7  24737184.024 8 129994784.775 7  98340204.102 8
E16  23626722.790 8  23626723.267 9 124159264.422 8  93925676.872 9
E24  24676130.816 7  24676131.364 8 129673940.202 7  98097491.308 8
E25  23718422.152 8  23718423.254 8 124641149.011 8  94290224.807 8
G16  21064864.472 7  21064868.812 5                 110696606.286 7  86257110.286 5
G18  20671618.768 7                  20671623.356 8 108630086.986 7                  84646843.655 8
G23  22589039.033 7                  22589045.829 8 118706207.110 7                  92498372.531 8
G27  23042253.258 6                  23042260.740 6 121087857.651 6                  94354207.735 6
G29  22993948.008 7                  22993956.168 7 120834011.072 7                  94156391.409 7
R12  22864066.710 7  22864072.951 7 122135718.391 7  94994468.537 7
R13  20082016.010 7                 107236846.849 7
R14  21100569.411 7  21100574.734 7 112477912.981 7  87483169.645 7
R22  21290643.123 8  21290645.763 7 113650892.730 8  88395143.358 7
R23  19449419.320 7                 104041275.511 7
R24  22167597.677 6  22167601.289 5 118540200.505 6  92197906.765 5
> 2025 06 15 07 00 10.0000000  0 22
C13  37627167.144 6  37627168.919 6 195934527.781 6 151508993.307 6
C26  25747696.797 5                 134075007.921 5
C29  22195646.416 7                 115578556.257 7
C30  22186547.269 7                 115531167.490 7
E02  26923225.026 7  26923226.558 7 141482510.775 7 107030604.225 7
E10  23621285.193 8  23621285.567 9 124130689.861 8  93904062.011 9
E11  24144018.105 7  24144016.948 8 126877671.660 7  95982130.225 8
E12  24737313.314 7  24737311.398 8 129995453.975 7  98340710.341 8
E16  23626383.416 8  23626383.727 9 124157479.974 8  93924326.939 9
E24  24677023.289 7  24677023.442 8 129678628.127 7  98101037.674 8
E25  23716739.137 8  23716740.145 8 124632304.336 8  94283533.871 8
G16  21062201.653 7  21062205.851 5                 110682614.434 7  86246207.535 5
G18  20670818.042 7                  20670822.465 8 108625878.688 7                  84643564.461 8
G23  22585046.726 7                  22585053.293 7 118685228.336 7                  92482025.429 7
G27  23038063.707 6                  23038071.684 6 121065843.507 6                  94337053.870 6
G29  22995493.815 7                  22995499.560 7 120842124.327 7                  94162713.423 7
R12  22867069.738 7  22867075.733 7 122151763.034 7  95006947.686 7
R13  20082916.465 7                 107241645.634 7
R14  21097001.993 7  21097006.661 7 112458895.966 7  87468378.637 7
R22  21292363.012 8  21292365.476 7 113660070.070 8  88402281.274 7
R23  19448598.374 7                 104036883.963 7
R24  22163405.294 6  22163409.549 5 118517791.893 6  92180477.921 5
> 2025 06 15 07 00 15.0000000  0 22
C13  37625734.411 7  37625735.734 6 195927064.154 7 151503221.958 6
C26  25744219.170 5                 134056898.476 5
C29  22193067.982 7                 115565128.254 7
C30  22186746.040 7                 115532204.536 7
E02  26919488.468 7  26919489.177 7 141462871.907 7 107015747.542 7
E10  23620135.465 8  23620135.571 9 124124646.561 8  93899490.287 9
E11  24141402.383 7  24141400.742 8 126863923.196 7  95971729.604 8
E12  24737441.411 7  24737440.129 8 129996130.414 7  98341222.067 8
E16  23626045.409 8  23626045.937 9 124155704.883 8  93922984.089 9
E24  24677916.654 7  24677916.841 8 129683322.832 7  98104589.169 8
E25  23715057.715 8  23715058.825 8 124623468.816 8  94276849.855 8
G16  21059542.061 7  21059545.505 5                 110668636.417 7  86235315.559 5
G18  20670019.542 8                  20670024.178 8 108621683.079 8                  84640295.161 8
G23  22581057.060 7                  22581063.081 7 118664258.067 7                  92465684.963 7
G27  23033875.796 6                  23033883.151 6 121043833.057 6                  94319902.877 6
G29  22997037.556 7                  22997044.185 7 120850241.911 7                  94169038.785 7
R12  22870074.396 7  22870080.937 7 122167812.081 7  95019430.278 7
R13  20083818.790 7                 107246463.417 7
R14  21093437.807 7  21093442.524 7 112439895.641 7  87453600.615 7
R22  21294082.355 8  21294085.452 7 113669252.581 8  88409423.229 7
R23  19447779.983 7                 104032505.535 7
R24  22159215.161 6  22159220.806 5 118495389.753 6  92163054.066 5
> 2025 06 15 07 00 20.0000000  0 22
C13  37624300.839 6  37624302.764 6 195919602.748 6 151497452.329 6
C26  25740743.195 5                 134038795.685 5
C29  22190490.074 7                 115551705.182 7
C30  22186946.059 7                 115533246.008 7
E02  26915751.890 7  26915751.976 7 141443233.801 7 107000891.448 7
E10  23618986.287 8  23618986.924 9 124118610.504 8  93894924.047 9
E11  24138787.004 7  24138785.675 8 126850181.054 7  95961333.759 8
E12  24737571.268 7  24737569.915 8 129996812.369 7  98341737.953 8
E16  23625709.329 8  23625709.575 9 124153937.373 8  93921646.979 9
E24  24678811.212 7  24678811.163 8 129688022.491 7  98108144.424 8
E25  23713377.863 8  23713378.909 8 124614640.685 8  94270171.427 8
G16  21056884.438 7  21056888.024 5                 110654670.434 7  86224432.978 5
G18  20669223.369 8                  20669227.699 8 108617498.340 8                  84637034.317 8
G23  22577067.258 7                  22577073.622 7 118643294.554 7                  92449349.788 7
G27  23029687.778 6                  23029695.176 6 121021824.544 6                  94302753.405 6
G29  22998582.460 7                  22998589.558 7 120858361.954 7                  94175366.064 7
R12  22873078.979 7  22873086.154 7 122183863.862 7  95031914.968 7
R13  20084723.478 7                 107251298.322 7
R14  21089876.185 7  21089880.819 7 112420910.066 7  87438834.038 7
R22  21295803.634 8  21295806.011 7 113678438.512 8  88416567.834 7
R23  19446963.623 8                 104028138.395 8
R24  22155027.034 6  22155030.569 5 118472992.453 6  92145633.875 5
> 2025 06 15 07 00 25.0000000  0 22
C13  37622869.304 6  37622870.671 7 195912145.037 6 151491685.569 7
C26  25737266.711 4                 134020701.016 4
C29  22187913.710 7                 115538288.444 7
C30  22187147.439 7                 115534293.345 7
E02  26912014.988 7  26912015.261 7 141423597.890 7 106986037.008 7
E10  23617839.809 8  23617839.955 9 124112583.138 8  93890364.386 9
E11  24136173.745 7  24136172.094 8 126836446.686 7  95950943.791 8
E12  24737702.389 7  24737700.995 8 129997501.205 7  98342259.052 8
E16  23625374.812 8  23625374.969 9 124152178.898 8  93920316.693 9
E24  24679706.553 7  24679706.705 8 129692728.569 7  98111704.532 8
E25  23711699.479 8  23711700.633 8 124605821.374 8  94263499.668 8
G16  21054229.611 7  21054232.885 5                 110640717.950 7  86213560.917 5
G18  20668429.753 8                  20668434.123 8 108613325.969 8                  84633783.093 8
G23  22573079.619 7                  22573086.089 7 118622339.286 7                  92433020.992 7
G27  23025499.803 6                  23025508.179 6 120999819.377 6                  94285606.529 6
G29  23000128.567 7                  23000135.526 7 120866485.899 7                  94181696.415 7
R12  22876084.113 7  22876091.731 7 122199919.625 7  95044402.774 7
R13  20085632.566 7                 107256151.965 7
R14  21086317.733 7  21086322.724 7 112401940.601 7  87424080.030 7
R22  21297524.369 8  21297527.889 7 113687629.293 8  88423716.196 7
R23  19446149.647 7                 104023784.210 7
R24  22150840.096 6  22150842.578 5 118450601.426 6  92128218.639 5
> 2025 06 15 07 00 30.0000000  0 22
C13  37621437.869 6  37621439.114 7 195904691.055 6 151485921.661 7
C26  25733792.507 4                 134002614.481 4
C29  22185338.233 7                 115524878.112 7
C30  22187348.988 7                 115535346.566 7
E02  26908279.284 7  26908279.029 7 141403964.210 7 106971184.238 7
E10  23616694.565 8  23616694.647 9 124106564.513 8  93885811.329 9
E11  24133561.506 7  24133560.020 8 126822720.138 7  95940559.749 8
E12  24737834.780 7  24737833.417 8 129998196.967 7  98342785.386 8
E16  23625041.487 8  23625042.058 9 124150429.483 8  93918993.268 9
E24  24680603.513 7  24680603.482 8 129697441.100 7  98115269.517 8
E25  23710022.641 8  23710024.052 8 124597010.924 8  94256834.618 8
G16  21051576.159 7  21051580.536 5                 110626778.974 7  86202699.383 5
G18  20667638.162 8                  20667642.182 8 108609165.929 8                  84630541.510 8
G23  22569093.406 7                  22569099.761 7 118601392.256 7                  92416698.639 7
G27  23021313.504 6                  23021320.623 6 120977817.643 6                  94268462.320 6
G29  23001675.590 7                  23001682.055 7 120874613.839 7                  94188029.864 7
R12  22879089.796 7  22879098.243 7 122215979.576 7  95056893.818 7
R13  20086544.620 7                 107261024.199 7
R14  21082761.345 7  21082767.306 7 112382987.631 7  87409338.837 7
R22  21299246.976 8  21299250.194 7 113696824.850 8  88430868.312 7
R23  19445338.330 8                 104019442.918 8
R24  22146654.730 6  22146657.872 5 118428216.507 6  92110808.227 5
> 2025 06 15 07 00 35.0000000  0 22
C13  37620007.212 7  37620008.527 7 195897240.561 7 151480160.460 7
C26  25730322.021 5                 133984535.874 5
C29  22182763.952 7                 115511473.968 7
C30  22187552.441 7                 115536405.473 7
E02  26904543.751 7  26904543.293 7 141384332.540 7 106956333.009 7
E10  23615550.877 8  23615550.948 9 124100554.390 8  93881264.699 9
E11  24130951.246 7  24130949.377 8 126809001.155 7  95930181.432 8
E12  24737968.311 7  24737967.070 8 129998899.419 7  98343316.773 8
E16  23624710.303 8  23624710.872 9 124148688.936 8  93917676.549 9
E24  24681501.778 7  24681501.448 8 129702159.869 7  98118839.229 8
E25  23708348.045 8  23708349.135 8 124588209.137 8  94250176.121 8
G16  21048926.866 7  21048930.493 5                 110612853.357 7  86191848.250 5
G18  20666848.396 8                  20666852.895 8 108605018.018 8                  84627309.381 8
G23  22565109.099 7                  22565115.652 7 118580453.308 7                  92400382.585 7
G27  23017127.389 6                  23017134.157 6 120955819.091 6                  94251320.596 6
G29  23003223.242 7                  23003229.598 7 120882745.530 7                  94194366.252 7
R12  22882098.512 6  22882105.977 7 122232043.294 6  95069387.767 7
R13  20087461.505 7                 107265914.893 7
R14  21079209.115 8  21079214.516 7 112364050.747 8  87394610.161 7
R22  21300970.343 8  21300973.557 7 113706025.011 8  88438023.975 7
R23  19444528.863 8                 104015114.191 8
R24  22142469.953 6  22142472.740 5 118405837.664 6  92093402.476 5
> 2025 06 15 07 00 40.0000000  0 22
C13  37618576.751 6  37618578.246 7 195889793.198 6 151474401.688 7
C26  25726852.210 5                 133966464.894 5
C29  22180191.067 7                 115498075.671 7
C30  22187756.699 7                 115537469.706 7
E02  26900807.332 6  26900808.002 7 141364702.575 6 106941483.077 7
E10  23614408.621 8  23614408.826 9 124094552.449 8  93876724.275 9
E11  24128341.935 7  24128340.144 8 126795289.423 7  95919808.592 8
E12  24738103.220 7  24738101.954 8 129999608.245 7  98343852.991 8
E16  23624380.902 8  23624381.273 9 124146956.896 8  93916366.261 9
E24  24682400.383 7  24682400.505 8 129706884.536 7  98122413.400 8
E25  23706674.462 8  23706675.779 8 124579415.673 8  94243523.924 8
G16  21046279.196 7  21046282.896 5                 110598940.742 7  86181007.266 5
G18  20666061.369 8                  20666066.071 8 108600881.916 8                  84624086.445 8
G23  22561126.383 7                  22561132.228 7 118559522.103 7                  92384072.571 7
G27  23012941.959 6                  23012948.159 6 120933823.400 6                  94234181.105 6
G29  23004771.458 7                  23004777.247 7 120890880.596 7                  94200705.245 7
R12  22885107.556 6  22885113.662 7 122248110.555 6  95081884.493 7
R13  20088380.395 7                 107270823.760 7
R14  21075659.709 8  21075665.550 7 112345129.710 8  87379893.808 7
R22  21302694.646 8  21302698.278 7 113715229.412 8  88445182.938 7
R23  19443723.196 8                 104010797.732 8
R24  22138287.127 7  22138290.504 5 118383464.532 7  92076001.170 5
> 2025 06 15 07 00 45.0000000  0 22
C13  37617147.290 6  37617148.619 7 195882348.721 6 151468645.145 7
C26  25723382.449 5                 133948401.290 5
C29  22177619.750 7                 115484682.936 7
C30  22187962.015 7                 115538539.004 7
E02  26897070.801 6  26897073.050 7 141345073.990 6 106926634.188 7
E10  23613267.849 8  23613268.184 9 124088558.390 8  93872189.801 9
E11  24125733.538 7  24125732.211 8 126781584.668 7  95909441.046 8
E12  24738239.309 7  24738237.972 8 130000323.151 7  98344393.812 8
E16  23624052.723 8  23624053.241 9 124145233.083 8  93915062.202 9
E24  24683300.139 7  24683300.689 8 129711614.795 7  98125991.809 8
E25  23705002.679 8  23705003.986 8 124570630.271 8  94236877.816 8
G16  21043634.171 7  21043637.769 5                 110585040.837 7  86170176.168 5
G18  20665276.744 8                  20665281.102 8 108596757.370 8                  84620872.511 8
G23  22557144.369 7                  22557150.723 7 118538598.370 7                  92367768.365 7
G27  23008755.666 6                  23008763.272 6 120911830.315 6                  94217043.635 6
G29  23006320.082 7                  23006326.287 7 120899018.753 7                  94207046.641 7
R12  22888115.641 6  22888122.026 7 122264181.084 6  95094383.753 7
R13  20089303.130 7                 107275750.485 7
R14  21072113.516 8  21072118.567 7 112326224.133 8  87365189.466 7
R22  21304419.525 8  21304423.182 7 113724437.813 8  88452345.030 7
R23  19442917.115 8                 104006493.309 8
R24  22134102.298 6  22134108.063 5 118361096.730 6  92058604.046 5
> 2025 06 15 07 00 50.0000000  0 22
C13  37615718.242 6  37615719.242 7 195874906.931 6 151462890.674 7
C26  25719914.339 4                 133930344.819 4
C29  22175048.896 8                 115471295.540 8
C30  22188168.757 7                 115539613.083 7
E02  26893335.642 6  26893338.316 7 141325446.582 6 106911786.193 7
E10  23612129.024 8  23612129.010 9 124082571.980 8  93867661.127 9
E11  24123127.455 7  24123125.577 8 126767886.655 7  95899078.603 8
E12  24738376.606 7  24738375.118 8 130001043.872 7  98344939.022 8
E16  23623725.838 8  23623726.738 9 124143517.261 8  93913764.188 9
E24  24684201.602 7  24684201.870 8 129716350.418 7  98129574.269 8
E25  23703332.398 8  23703333.634 8 124561852.680 8  94230237.622 8
G16  21040991.656 7  21040995.074 5                 110571153.465 7  86159354.838 5
G18  20664493.791 7                  20664498.225 8 108592644.074 7                  84617667.339 8
G23  22553164.086 7                  22553170.147 7 118517681.883 7                  92351469.820 7
G27  23004571.324 6                  23004578.507 6 120889839.561 6                  94199908.012 6
G29  23007869.487 7                  23007875.350 7 120907159.782 7                  94213390.277 7
R12  22891125.501 7  22891131.599 7 122280254.542 7  95106885.273 7
R13  20090228.105 7                 107280694.638 7
R14  21068570.624 8  21068574.974 7 112307333.942 8  87350497.104 7
R22  21306145.863 8  21306149.114 7 113733649.866 8  88459509.933 7
R23  19442115.415 7                 104002200.615 7
R24  22129921.642 7  22129925.445 5 118338734.200 7  92041210.995 5
> 2025 06 15 07 00 55.0000000  0 22
C13  37614289.106 6  37614290.646 7 195867467.481 6 151457138.025 7
C26  25716448.588 5                 133912295.138 5
C29  22172478.468 8                 115457913.211 8
C30  22188375.877 7                 115540691.732 7
E02  26889601.304 6  26889603.758 7 141305820.127 6 106896938.928 7
E10  23610990.991 8  23610991.228 9 124076592.932 8  93863138.018 9
E11  24120521.813 7  24120520.187 8 126754195.103 7  95888721.040 8
E12  24738514.567 7  24738513.321 8 130001770.133 7  98345488.433 8
E16  23623401.142 8  23623401.691 9 124141809.165 8  93912472.028 9
E24  24685103.892 7  24685104.007 8 129721091.160 7  98133160.596 8
E25  23701663.426 8  23701664.740 8 124553082.625 8  94223603.131 8
G16  21038351.149 7  21038354.199 5                 110557278.326 7  86148543.038 5
G18  20663713.906 8                  20663717.457 8 108588541.769 8                  84614470.734 8
G23  22549185.500 7                  22549191.520 7 118496772.381 7                  92335176.697 7
G27  23000386.460 6                  23000393.755 6 120867850.910 6                  94182774.006 6
G29  23009418.613 7                  23009425.265 7 120915303.366 7                  94219735.927 7
R12  22894134.437 7  22894140.847 7 122296330.619 7  95119388.885 7
R13  20091157.916 6                 107285656.105 6
R14  21065029.929 8  21065033.886 7 112288458.757 8  87335816.396 7
R22  21307871.842 8  21307875.573 7 113742865.346 8  88466677.510 7
R23  19441314.564 7                 103997919.400 7
R24  22125738.271 6  22125744.118 5 118316376.575 6  92023821.752 5
> 2025 06 15 07 01  0.0000000  0 22
C13  37612860.929 6  37612862.549 7 195860029.858 6 151451386.788 7
C26  25712982.773 4                 133894251.72114
C29  22169909.377 8                 115444535.358 8
C30  22188583.846 7                 115541774.313 7
E02  26885866.878 7  26885869.083 7 141286194.022 7 106882091.915 7
E10  23609854.561 8  23609854.734 8 124070620.660 8  93858620.030 8
E11  24117917.940 7  24117915.916 8 126740509.439 7  95878367.929 8
E12  24738653.671 7  24738652.503 8 130002501.375 7  98346041.613 8
E16  23623077.535 8  23623077.995 9 124140108.188 8  93911185.239 9
E24  24686006.816 7  24686006.981 8 129725836.385 7  98136750.310 8
E25  23699995.755 8  23699997.169 8 124544319.528 8  94216973.901 8
G16  21035712.885 7  21035716.012 5                 110543414.855 7  86137740.327 5
G18  20662934.522 8                  20662938.721 8 108584449.856 8                  84611282.229 8
G23  22545207.427 7                  22545213.519 7 118475869.274 7                  92318888.599 7
G27  22996202.563 6                  22996210.550 6 120845863.766 6                  94165641.187 6
G29  23010968.868 7                  23010975.397 7 120923448.985 7                  94226083.141 7
R12  22897144.050 7  22897150.821 7 122312408.684 7  95131894.021 7
R13  20092090.490 7                 107290634.122 7
R14  21061491.323 8  21061495.710 7 112269597.869 8  87321146.817 7
R22  21309598.801 8  21309602.971 7 113752083.681 8  88473847.329 7
R23  19440516.352 7                 103993649.089 7
R24  22121556.751 6  22121564.210 5 118294023.252 6  92006435.912 5
> 2025 06 15 07 01  5.0000000  0 22
C13  37611433.472 6  37611434.802 7 195852594.846 6 151445637.560 7
C26  25709518.043 4                 133876215.494 4
C29  22167341.223 8                 115431162.795 8
C30  22188792.587 7                 115542861.650 7
E02  26882132.546 7  26882134.499 7 141266569.072 7 106867245.761 7
E10  23608719.175 8  23608719.700 8 124064655.973 8  93854107.784 8
E11  24115314.481 7  24115312.919 8 126726830.471 7  95868019.880 8
E12  24738794.029 7  24738792.726 8 130003238.347 7  98346599.119 8
E16  23622755.276 8  23622755.837 9 124138415.156 8  93909904.471 9
E24  24686911.089 7  24686911.034 8 129730586.897 7  98140344.031 8
E25  23698329.937 8  23698331.084 8 124535564.201 8  94210350.546 8
G16  21033077.343 7  21033080.279 5                 110529563.879 7  86126947.347 5
G18  20662157.930 8                  20662162.291 8 108580369.164 8                  84608102.463 8
G23  22541231.426 7                  22541237.316 7 118454973.440 7                  92302606.138 7
G27  22992018.817 6                  22992027.287 6 120823878.934 6                  94148510.176 6
G29  23012519.535 7                  23012526.320 7 120931597.429 7                  94232432.567 7
R12  22900154.315 7  22900160.915 7 122328489.606 7  95144401.375 7
R13  20093024.977 7                 107295629.780 7
R14  21057956.235 8  21057960.192 7 112250752.441 8  87306489.265 7
R22  21311326.795 8  21311329.944 7 113761305.620 8  88481019.927 7
R23  19439720.860 8                 103989390.359 8
R24  22117378.218 6  22117385.533 5 118271675.126 6  91989054.082 5
> 2025 06 15 07 01 10.0000000  0 22
C13  37610006.269 6  37610007.682 7 195845163.879 6 151439891.456 7
C26  25706056.844 5                 133858187.892 5
C29  22164774.377 8                 115417797.042 8
C30  22189002.379 7                 115543955.272 7
E02  26878399.057 7  26878400.284 7 141246946.829 7 106852401.663 7
E10  23607585.928 8  23607586.397 9 124058700.433 8  93849602.454 9
E11  24112713.294 7  24112711.443 8 126713159.743 7  95857678.064 8
E12  24738935.694 7  24738934.352 8 130003982.641 7  98347162.170 8
E16  23622435.220 8  23622435.459 9 124136731.611 8  93908630.870 9
E24  24687816.352 8  24687816.347 8 129735344.290 8  98143942.953 8
E25  23696665.504 8  23696666.768 8 124526818.204 8  94203734.256 8
G16  21030444.252 7  21030446.989 5                 110515726.894 7  86116165.296 5
G18  20661384.293 8                  20661388.195 8 108576301.213 8                  84604932.636 8
G23  22537256.788 7                  22537262.608 8 118434086.373 7                  92286330.499 8
G27  22987836.615 6                  22987844.854 7 120801897.990 6                  94131382.180 7
G29  23014070.655 7                  23014077.795 7 120939750.220 7                  94238785.373 7
R12  22903164.219 7  22903172.855 7 122344574.984 7  95156912.181 7
R13  20093964.876 7                 107300644.364 7
R14  21054423.630 8  21054428.439 7 112231923.754 8  87291844.729 7
R22  21313055.869 8  21313058.287 7 113770532.737 8  88488196.556 7
R23  19438926.597 8                 103985144.927 8
R24  22113200.837 6  22113207.150 5 118249333.744 6  91971677.445 5
> 2025 06 15 07 01 15.0000000  0 22
C13  37608579.266 6  37608581.347 7 195837737.453 6 151434148.855 7
C26  25702598.302 5                 133840169.281 5
C29  22162209.169 7                 115404438.557 7
C30  22189214.506 7                 115545055.603 7
E02  26874666.564 7  26874666.607 7 141227327.765 7 106837559.948 7
E10  23606454.647 7  23606454.904 9 124052754.446 7  93845104.347 9
E11  24110113.301 7  24110111.654 8 126699497.673 7  95847342.801 8
E12  24739078.436 7  24739077.482 8 130004734.680 7  98347731.074 8
E16  23622116.483 8  23622116.987 9 124135057.991 8  93907364.787 9
E24  24688722.575 8  24688723.067 8 129740108.945 8  98147547.370 8
E25  23695002.942 8  23695004.323 8 124518081.957 8  94197125.339 8
G16  21027814.196 7  21027817.067 5                 110501904.379 7  86105394.511 5
G18  20660612.680 8                  20660616.879 8 108572246.441 8                  84601773.075 8
G23  22533284.098 7                  22533289.264 7 118413208.552 7                  92270062.080 7
G27  22983653.562 6                  22983663.535 6 120779921.400 6                  94114257.596 6
G29  23015623.310 7                  23015629.839 7 120947907.712 7                  94245141.853 7
R12  22906177.103 7  22906184.817 7 122360665.177 7  95169426.742 7
R13  20094906.888 7                 107305678.498 7
R14  21050894.967 8  21050898.705 7 112213112.450 8  87277213.714 7
R22  21314784.689 8  21314788.352 7 113779765.465 8  88495377.550 7
R23  19438135.658 7                 103980913.060 7
R24  22109021.771 5  22109031.248 5 118226999.430 5  91954306.348 5
> 2025 06 15 07 01 20.0000000  0 22
C13  37607153.890 6  37607156.158 7 195830315.387 6 151428409.642 7
C26  25699139.888 4                 133822159.561 4
C29  22159645.141 7                 115391087.071 7
C30  22189426.968 7                 115546162.395 7
E02  26870933.288 7  26870933.429 7 141207711.607 7 106822720.439 7
E10  23605324.753 8  23605325.196 8 124046817.797 8  93840613.305 8
E11  24107515.214 7  24107513.465 8 126685844.059 7  95837013.927 8
E12  24739223.164 7  24739222.013 8 130005494.206 7  98348305.644 8
E16  23621799.721 8  23621800.349 9 124133394.052 8  93906106.023 9
E24  24689630.837 8  24689631.091 8 129744880.621 8  98151157.100 8
E25  23693342.616 8  23693343.668 8 124509355.239 8  94190523.635 8
G16  21025186.267 7  21025189.419 5                 110488096.160 7  86094634.856 5
G18  20659843.163 8                  20659847.496 8 108568204.612 8                  84598623.604 8
G23  22529313.099 7                  22529318.343 7 118392339.788 7                  92253800.702 7
G27  22979473.439 6                  22979481.821 6 120757948.913 6                  94097136.188 6
G29  23017176.567 7                  23017182.929 7 120956069.763 7                  94251501.882 7
R12  22909190.293 7  22909198.611 7 122376759.969 7  95181944.894 7
R13  20095853.864 7                 107310731.749 7
R14  21047368.895 8  21047372.346 7 112194318.296 8  87262596.045 7
R22  21316516.261 8  21316519.358 7 113789003.588 8  88502562.739 7
R23  19437346.976 8                 103976694.731 8
R24  22104846.246 5  22104855.307 5 118204672.025 5  91936940.609 5
> 2025 06 15 07 01 25.0000000  0 22
C13  37605729.682 6  37605731.575 7 195822896.928 6 151422673.216 7
C26  25695683.389 4                 133804157.938 4
C29  22157082.910 7                 115377741.896 7
C30  22189640.927 7                 115547274.908 7
E02  26867201.399 7  26867200.741 7 141188097.647 7 106807882.600 7
E10  23604196.985 8  23604197.116 8 124040889.692 8  93836128.734 8
E11  24104918.235 7  24104916.727 8 126672198.155 7  95826690.886 8
E12  24739369.198 7  24739367.834 8 130006260.473 7  98348885.311 8
E16  23621484.979 8  23621485.411 9 124131739.046 8  93904854.019 9
E24  24690539.859 8  24690540.354 8 129749658.594 8  98154771.595 8
E25  23691683.488 8  23691684.697 8 124500637.326 8  94183928.591 8
G16  21022561.613 7  21022564.413 5                 110474301.458 7  86083885.737 5
G18  20659075.888 8                  20659080.706 8 108564174.979 8                  84595483.631 8
G23  22525343.173 7                  22525348.609 7 118371479.286 7                  92237545.785 7
G27  22975292.355 5                  22975301.518 6 120735979.716 5                  94080017.331 6
G29  23018730.038 7                  23018736.614 7 120964235.604 7                  94257864.858 7
R12  22912204.532 7  22912211.023 7 122392858.574 7  95194465.969 7
R13  20096802.630 7                 107315803.405 7
R14  21043846.012 8  21043850.177 7 112175540.557 8  87247991.146 7
R22  21318247.387 8  21318250.213 7 113798246.246 8  88509751.453 7
R23  19436560.963 8                 103972489.046 8
R24  22100670.533 6  22100681.105 5 118182350.798 6  91919579.704 5
> 2025 06 15 07 01 30.0000000  0 22
C13  37604305.770 6  37604307.577 7 195815482.408 6 151416939.838 7
C26  25692227.828 4                 133786164.81914
C29  22154521.144 7                 115364403.366 7
C30  22189855.341 7                 115548393.530 7
E02  26863468.631 7  26863468.662 7 141168486.214 7 106793046.683 7
E10  23603070.486 8  23603070.741 8 124034970.560 8  93831650.944 8
E11  24102323.232 7  24102321.497 8 126658560.296 7  95816373.933 8
E12  24739516.252 7  24739515.002 8 130007033.862 7  98349470.359 8
E16  23621171.919 8  23621172.255 9 124130093.371 8  93903609.068 9
E24  24691450.833 7  24691450.840 8 129754443.248 7  98158391.143 8
E25  23690026.462 8  23690027.492 8 124491928.571 8  94177340.476 8
G16  21019939.401 7  21019942.020 5                 110460520.651 7  86073147.444 5
G18  20658312.051 8                  20658316.008 8 108560157.908 8                  84592353.441 8
G23  22521374.861 7                  22521380.473 7 118350627.473 7                  92221297.635 7
G27  22971112.342 5                  22971122.022 7 120714014.337 5                  94062901.459 7
G29  23020285.236 7                  23020291.218 7 120972405.601 7                  94264231.083 7
R12  22915217.916 7  22915225.210 7 122408961.248 7  95206990.232 7
R13  20097756.510 7                 107320893.856 7
R14  21040326.322 8  21040330.600 7 112156779.544 8  87233399.263 7
R22  21319979.521 8  21319982.868 7 113807493.873 8  88516944.040 7
R23  19435777.073 8                 103968296.392 8
R24  22096498.633 6  22096508.131 5 118160036.306 6  91902223.969 5
> 2025 06 15 07 01 35.0000000  0 22
C13  37602882.174 6  37602884.508 7 195808071.771 6 151411209.447 7
C26  25688774.651 4                 133768180.12514
C29  22151961.103 7                 115351071.422 7
C30  22190071.626 7                 115549518.156 7
E02  26859736.901 6  26859737.172 7 141148877.275 6 106778212.672 7
E10  23601945.837 8  23601946.036 9 124029060.284 8  93827179.855 9
E11  24099729.724 7  24099727.821 8 126644930.419 7  95806063.030 8
E12  24739665.071 7  24739663.538 8 130007814.270 7  98350060.729 8
E16  23620860.552 8  23620860.849 9 124128456.921 8  93902371.104 9
E24  24692362.407 7  24692362.606 8 129759234.461 7  98162015.654 8
E25  23688371.034 8  23688372.009 8 124483228.907 8  94170759.238 8
G16  21017319.317 7  21017322.297 5                 110446753.664 7  86062419.924 5
G18  20657550.112 8                  20657554.154 8 108556153.316 8                  84589232.974 8
G23  22517409.185 7                  22517414.126 7 118329784.254 7                  92205056.170 7
G27  22966933.231 5                  22966942.848 7 120692052.592 5                  94045788.407 7
G29  23021840.716 7                  23021846.925 7 120980579.702 7                  94270600.486 7
R12  22918233.675 7  22918241.189 7 122425068.010 7  95219517.686 7
R13  20098713.383 7                 107326002.967 7
R14  21036810.502 8  21036814.398 7 112138035.205 8  87218820.335 7
R22  21321713.057 8  21321716.200 7 113816746.397 8  88524140.442 7
R23  19434995.942 8                 103964116.695 8
R24  22092328.420 6  22092335.538 5 118137728.198 6  91884873.166 5
> 2025 06 15 07 01 40.0000000  0 22
C13  37601459.707 6  37601462.018 7 195800663.956 6 151405481.259 7
C26  25685326.373 5                 133750202.803 5
C29  22149401.513 7                 115337745.003 7
C30  22190287.929 7                 115550647.761 7
E02  26856005.462 6  26856005.971 7 141129269.746 6 106763379.713 7
E10  23600822.227 8  23600822.867 9 124023157.810 8  93822714.683 9
E11  24097137.424 7  24097135.468 8 126631307.501 7  95795757.390 8
E12  24739814.430 7  24739813.177 8 130008600.634 7  98350655.602 8
E16  23620550.917 8  23620550.987 9 124126828.666 8  93901139.341 9
E24  24693275.184 7  24693275.394 8 129764031.178 7  98165644.319 8
E25  23686717.107 8  23686718.034 8 124474537.300 8  94164184.086 8
G16  21014701.924 7  21014705.014 6                 110432999.457 7  86051702.366 6
G18  20656790.151 8                  20656794.075 8 108552160.147 8                  84586121.410 8
G23  22513443.597 7                  22513448.619 7 118308948.605 7                  92188820.610 7
G27  22962753.286 5                  22962764.083 7 120670093.482 5                  94028677.383 7
G29  23023396.705 7                  23023402.904 7 120988756.810 7                  94276972.245 7
R12  22921249.991 7  22921255.887 7 122441177.627 7  95232047.384 7
R13  20099672.457 7                 107331129.874 7
R14  21033296.420 8  21033300.195 7 112119306.499 8  87204253.553 7
R22  21323447.268 8  21323450.020 7 113826002.729 8  88531339.811 7
R23  19434217.210 8                 103959948.745 8
R24  22088158.049 6  22088163.990 5 118115425.512 6  91867526.607 5
> 2025 06 15 07 01 45.0000000  0 22
C13  37600037.514 6  37600039.866 7 195793259.405 6 151399755.599 7
C26  25681875.224 5                 133732233.394 5
C29  22146843.426 7                 115324424.571 7
C30  22190505.848 7                 115551782.766 7
E02  26852274.929 6  26852275.302 6 141109664.146 6 106748548.221 6
E10  23599700.471 8  23599701.227 9 124017263.598 8  93818255.745 9
E11  24094546.428 7  24094544.519 8 126617691.971 7  95785457.334 8
E12  24739965.372 7  24739964.064 8 130009393.387 7  98351255.314 8
E16  23620242.449 8  23620242.735 9 124125209.013 8  93899914.072 9
E24  24694189.498 7  24694189.294 8 129768833.880 7  98169277.533 8
E25  23685064.871 8  23685065.680 8 124465854.166 8  94157615.350 8
G16  21012087.291 7  21012090.305 6                 110419258.480 7  86040995.119 6
G18  20656032.382 8                  20656036.581 8 108548178.823 8                  84583019.086 8
G23  22509480.823 7                  22509485.463 7 118288120.966 7                  92172591.286 7
G27  22958576.026 5                  22958586.113 6 120648137.360 5                  94011568.687 6
G29  23024953.712 7                  23024959.428 7 120996937.376 7                  94283346.688 7
R12  22924267.363 7  22924272.668 7 122457290.712 7  95244579.762 7
R13  20100637.032 7                 107336274.686 7
R14  21029786.310 8  21029790.503 7 112100593.974 8  87189699.348 7
R22  21325181.683 8  21325184.555 7 113835263.241 8  88538542.412 7
R23  19433440.331 8                 103955793.259 8
R24  22083992.347 6  22083995.479 6 118093128.742 6  91850184.692 6
> 2025 06 15 07 01 50.0000000  0 22
C13  37598616.399 6  37598618.747 7 195785858.268 6 151394032.554 7
C26  25678425.650 5                 133714272.021 5
C29  22144286.369 7                 115311110.285 7
C30  22190724.833 7                 115552923.318 7
E02  26848544.422 7  26848545.040 6 141090060.608 7 106733718.285 6
E10  23598580.611 8  23598581.280 9 124011377.792 8  93813803.168 9
E11  24091956.792 7  24091955.000 8 126604084.002 7  95775162.989 8
E12  24740117.140 7  24740116.312 8 130010192.737 7  98351860.000 8
E16  23619935.881 8  23619936.285 9 124123598.191 8  93898695.497 9
E24  24695104.384 7  24695104.381 8 129773642.704 7  98172915.369 8
E25  23683414.060 8  23683415.000 8 124457179.712 8  94151053.174 8
G16  21009475.028 7  21009478.376 6                 110405530.945 7  86030298.363 6
G18  20655277.185 7                  20655281.136 8 108544209.541 7                  84579926.148 8
G23  22505518.801 7                  22505523.846 7 118267301.550 7                  92156368.391 7
G27  22954400.443 5                  22954407.636 6 120626184.547 5                  93994462.651 6
G29  23026510.611 7                  23026517.211 7 121005121.602 7                  94289723.983 7
R12  22927283.776 7  22927289.383 7 122473407.437 7  95257114.983 7
R13  20101603.453 7                 107341437.737 7
R14  21026278.991 8  21026282.995 7 112081897.654 8  87175157.763 7
R22  21326917.668 8  21326920.294 7 113844528.215 8  88545748.485 7
R23  19432665.689 8                 103951650.243 8
R24  22079831.641 6  22079827.454 5 118070837.923 6  91832847.460 5
> 2025 06 15 07 01 55.0000000  0 22
C13  37597195.333 6  37597198.046 7 195778460.117 6 151388311.825 7
C26  25674976.040 5                 133696318.35115
C29  22141730.611 7                 115297801.737 7
C30  22190945.316 7                 115554069.033 7
E02  26844814.721 7  26844815.277 6 141070458.763 7 106718889.617 6
E10  23597462.244 8  23597462.773 9 124005499.993 8  93809356.656 9
E11  24089368.157 7  24089366.859 8 126590483.180 7  95764874.062 8
E12  24740271.280 7  24740269.567 8 130010998.190 7  98352469.313 8
E16  23619631.254 8  23619631.308 9 124121995.727 8  93897483.247 9
E24  24696019.967 7  24696020.527 8 129778457.248 7  98176557.539 8
E25  23681764.724 8  23681765.851 8 124448513.503 8  94144497.240 8
G16  21006864.827 8  21006868.423 6                 110391816.464 8  86019611.748 6
G18  20654524.088 8                  20654528.070 8 108540251.865 8                  84576842.242 8
G23  22501558.853 7                  22501563.783 7 118246489.954 7                  92140151.569 7
G27  22950223.759 5                  22950231.234 6 120604234.526 5                  93977358.679 6
G29  23028068.734 7                  23028075.243 7 121013309.020 7                  94296103.767 7
R12  22930301.912 7  22930307.438 7 122489527.316 7  95269652.621 7
R13  20102575.043 7                 107346618.675 7
R14  21022773.567 8  21022778.542 7 112063217.311 8  87160628.615 7
R22  21328653.467 8  21328656.991 7 113853797.152 8  88552957.659 7
R23  19431892.881 8                 103947519.247 8
R24  22075667.159 6  22075660.412 5 118048552.901 6  91815514.674 5
> 2025 06 15 07 02  0.0000000  0 22
C13  37595775.658 6  37595777.882 7 195771064.851 6 151382593.350 7
C26  25671527.892 4                 133678372.012 4
C29  22139175.748 7                 115284498.711 7
C30  22191166.574 7                 115555219.679 7
E02  26841085.198 7  26841085.677 6 141050858.386 7 106704062.036 6
E10  23596345.419 7  23596345.642 9 123999629.969 7  93804916.016 9
E11  24086782.002 7  24086780.000 8 126576889.312 7  95754590.386 8
E12  24740425.020 7  24740423.950 8 130011809.633 7  98353083.170 8
E16  23619327.670 8  23619327.925 9 124120401.449 8  93896277.179 9
E24  24696937.192 8  24696937.789 8 129783277.257 8  98180203.836 8
E25  23680117.287 8  23680118.313 8 124439855.342 8  94137947.399 8
G16  21004258.123 8  21004261.038 6                 110378114.774 8  86008935.102 6
G18  20653773.284 8                  20653776.896 8 108536305.582 8                  84573767.209 8
G23  22497600.079 7                  22497604.611 7 118225685.963 7                  92123940.672 7
G27  22946048.479 5                  22946054.386 6 120582287.168 5                  93960256.814 6
G29  23029627.333 7                  23029633.801 7 121021499.433 7                  94302485.898 7
R12  22933318.929 7  22933325.420 7 122505650.020 7  95282192.489 7
R13  20103546.420 7                 107351817.160 7
R14  21019272.259 8  21019277.195 7 112044552.618 8  87146111.633 7
R22  21330390.927 8  21330394.380 7 113863069.831 8  88560169.738 7
R23  19431123.616 8                 103943400.145 8
R24  22071491.936 6  22071494.216 5 118026273.232 6  91798185.992 5
> 2025 06 15 07 02  5.0000000  0 22
C13  37594356.493 6  37594358.359 7 195763672.810 6 151376877.359 7
C26  25668083.263 4                 133660433.624 4
C29  22136622.138 7                 115271201.681 7
C30  22191388.515 7                 115556375.749 7
E02  26837355.347 7  26837356.221 6 141031259.938 7 106689235.924 6
E10  23595229.655 7  23595230.192 9 123993768.194 7  93800481.623 9
E11  24084196.244 7  24084194.554 8 126563302.827 7  95744312.295 8
E12  24740580.822 7  24740579.583 8 130012627.432 7  98353701.813 8
E16  23619025.578 8  23619026.176 9 124118815.790 8  93895077.637 9
E24  24697855.525 7  24697856.140 8 129788103.251 7  98183854.651 8
E25  23678471.291 8  23678472.339 8 124431205.697 8  94131403.995 8
G16  21001653.534 8  21001656.490 6                 110364426.377 8  85998268.825 6
G18  20653024.479 8                  20653028.503 8 108532371.160 8                  84570701.414 8
G23  22493642.049 7                  22493647.127 7 118204890.069 7                  92107736.074 7
G27  22941871.607 5                  22941878.496 6 120560342.813 5                  93943157.340 6
G29  23031187.007 7                  23031192.651 7 121029693.317 7                  94308870.728 7
R12  22936338.675 7  22936344.886 7 122521776.160 7  95294734.984 7
R13  20104525.321 7                 107357033.633 7
R14  21015774.186 7  21015778.955 7 112025904.132 7  87131607.241 7
R22  21332128.961 8  21332131.778 7 113872346.657 8  88567385.034 7
R23  19430355.678 7                 103939293.239 7
R24  22067320.615 6  22067327.499 5 118003999.390 6  91780861.871 5
> 2025 06 15 07 02 10.0000000  0 22
C13  37592937.714 6  37592939.715 7 195756285.306 6 151371164.879 7
C26  25664640.144 4                 133642504.31614
C29  22134069.642 7                 115257911.871 7
C30  22191611.736 7                 115557538.401 7
E02  26833627.174 7  26833627.204 6 141011664.643 7 106674412.210 6
E10  23594116.192 8  23594116.504 9 123987915.878 8  93796054.393 9
E11  24081612.659 7  24081610.743 8 126549724.967 7  95734040.738 8
E12  24740737.887 7  24740736.671 8 130013452.855 7  98354326.239 8
E16  23618725.794 8  23618726.312 9 124117240.003 8  93893885.557 9
E24  24698775.272 7  24698775.868 8 129792936.391 7  98187510.876 8
E25  23676827.148 8  23676828.243 8 124422565.789 8  94124867.960 8
G16  20999051.347 8  20999054.187 6                 110350752.493 8  85987613.852 6
G18  20652278.480 8                  20652282.245 8 108528449.800 8                  84567645.805 8
G23  22489687.038 7                  22489691.685 7 118184103.473 7                  92091538.751 7
G27  22937695.781 5                  22937703.533 6 120538402.842 5                  93926061.278 6
G29  23032746.547 7                  23032753.229 7 121037891.874 7                  94315259.207 7
R12  22939357.880 7  22939364.677 7 122537906.758 7  95307281.004 7
R13  20105504.688 7                 107362269.365 7
R14  21012278.996 7  21012283.939 7 112007273.177 7  87117116.507 7
R22  21333867.733 8  21333870.671 7 113881629.006 8  88574604.623 7
R23  19429589.818 7                 103935199.961 7
R24  22063155.147 6  22063163.148 5 117981732.782 6  91763543.365 5
> 2025 06 15 07 02 15.0000000  0 22
C13  37591519.345 6  37591521.954 7 195748901.601 6 151365455.327 7
C26  25661197.667 4                                
C29  22131518.721 7                 115244628.555 7
C30  22191835.850 7                 115558706.971 7
E02  26829897.897 7  26829898.545 7 140992071.799 7 106659590.353 7
E10  23593003.909 8  23593004.516 8 123982072.353 8  93791633.796 8
E11  24079030.256 7  24079028.435 8 126536155.045 7  95723775.187 8
E12  24740896.226 7  24740895.057 8 130014285.178 7  98354955.885 8
E16  23618427.973 8  23618428.215 9 124115673.387 8  93892700.408 9
E24  24699695.558 7  24699696.832 8 129797776.054 7  98191172.044 8
E25  23675184.729 8  23675185.869 8 124413934.943 8  94118338.775 8
G16  20996451.804 8  20996454.673 6                 110337092.416 8  85976969.630 6
G18  20651534.110 8                  20651538.240 8 108524540.821 8                  84564599.836 8
G23  22485733.113 7                  22485738.089 7 118163325.539 7                  92075348.159 7
G27  22933519.706 5                  22933528.942 6 120516466.411 5                  93908967.982 6
G29  23034308.194 7                  23034313.545 7 121046094.441 7                  94321650.809 7
R12  22942377.363 7  22942384.468 7 122554041.176 7  95319829.975 7
R13  20106488.286 7                 107367523.559 7
R14  21008787.903 7  21008792.361 7 111988658.896 7  87102638.730 7
R22  21335607.083 8  21335610.878 7 113890916.071 8  88581827.885 7
R23  19428827.232 7                 103931119.468 7
R24  22058993.584 6  22058998.917 4 117959472.684 6  91746229.939 4
> 2025 06 15 07 02 20.0000000  0 21
C13  37590102.048 6  37590104.788 7 195741522.585 6 151359749.396 7
C29  22128969.151 7                 115231352.684 7
C30  22192061.609 7                 115559882.350 7
E02  26826170.144 7  26826170.537 7 140972482.366 7 106644771.086 7
E10  23591894.155 8  23591894.364 9 123976238.505 8  93787220.528 9
E11  24076449.643 7  24076447.814 8 126522593.960 7  95713516.311 8
E12  24741056.383 7  24741054.964 8 130015125.332 7  98355591.457 8
E16  23618131.631 8  23618131.988 9 124114116.837 8  93891522.883 9
E24  24700618.144 7  24700619.188 8 129802623.085 7  98194838.777 8
E25  23673544.119 8  23673545.354 8 124405314.054 8  94111817.132 8
G16  20993855.683 8  20993857.795 6                 110323447.083 8  85966336.903 6
G18  20650793.050 8                  20650796.889 8 108520645.128 8                  84561564.224 8
G23  22481781.210 7                  22481785.739 7 118142557.160 7                  92059165.034 7
G27  22929346.774 5                  22929355.259 6 120494534.676 5                  93891878.280 6
G29  23035869.494 7                  23035875.326 7 121054301.879 7                  94328046.202 7
R12  22945398.882 7  22945405.756 6 122570180.424 7  95332382.673 6
R13  20107476.795 7                 107372797.429 7
R14  21005298.766 8  21005303.364 7 111970062.376 8  87088174.766 7
R22  21337348.089 8  21337352.051 7 113900208.760 8  88589055.512 7
R23  19428066.340 7                 103927052.759 7
R24  22054832.889 6  22054835.815 3 117937219.902 6  91728922.215 3
> 2025 06 15 07 02 25.0000000  0 21
C13  37588685.376 6  37588688.568 6 195734147.717 6 151354046.677 6
C29  22126421.303 7                 115218083.699 7
C30  22192288.736 7                 115561064.006 7
E02  26822442.259 6  26822443.167 7 140952895.772 6 106629953.982 7
E10  23590785.414 7  23590785.974 9 123970413.797 7  93782814.174 9
E11  24073870.768 7  24073868.761 8 126509041.179 7  95703263.727 8
E12  24741216.979 7  24741216.231 8 130015972.717 7  98356232.497 8
E16  23617837.212 8  23617837.605 9 124112569.815 8  93890352.562 9
E24  24701542.143 7  24701542.850 8 129807476.930 7  98198510.675 8
E25  23671905.577 8  23671906.686 8 124396702.597 8  94105302.616 8
G16  20991261.404 8  20991263.602 6                 110309815.943 8  85955715.234 6
G18  20650054.442 8                  20650057.985 8 108516762.159 8                  84558538.536 8
G23  22477829.725 7                  22477835.523 8 118121797.838 7                  92042988.953 8
G27  22925174.101 4                  22925182.412 6 120472606.964 4                  93874791.714 6
G29  23037433.103 7                  23037437.949 7 121062513.651 7                  94334444.977 7
R12  22948421.265 7  22948427.508 6 122586323.904 7  95344938.690 6
R13  20108467.393 7                 107378090.046 7
R14  21001812.669 8  21001818.989 7 111951483.054 8  87073724.198 7
R22  21339089.640 8  21339093.207 7 113909506.613 8  88596287.156 7
R23  19427309.210 7                 103922999.198 7
R24  22050673.712 6  22050674.233 4 117914974.065 6  91711619.874 4
> 2025 06 15 07 02 30.0000000  0 21
C13  37587269.703 6  37587272.932 6 195726776.546 6 151348346.812 6
C29  22123874.447 7                 115204821.145 7
C30  22192517.026 7                 115562251.470 7
E02  26818715.421 6  26818716.272 7 140933311.600 6 106615138.703 7
E10  23589679.049 8  23589679.225 9 123964597.754 8  93778414.369 9
E11  24071293.178 7  24071291.213 8 126495496.265 7  95693017.096 8
E12  24741379.630 7  24741378.798 8 130016826.922 7  98356878.701 8
E16  23617544.588 8  23617544.927 9 124111031.862 8  93889189.110 9
E24  24702467.137 7  24702467.699 8 129812337.187 7  98202187.411 8
E25  23670268.669 8  23670269.707 8 124388100.133 8  94098794.908 8
G16  20988669.806 8  20988672.067 6                 110296198.564 8  85945104.295 6
G18  20649317.583 8                  20649321.468 8 108512891.455 8                  84555522.399 8
G23  22473881.268 7                  22473887.205 8 118101047.079 7                  92026819.555 8
G27  22921005.937 5                  22921010.294 6 120450682.792 5                  93857707.907 6
G29  23038995.586 7                  23039001.616 7 121070729.274 7                  94340846.750 7
R12  22951442.994 7  22951450.697 7 122602471.072 7  95357497.563 7
R13  20109462.331 7                 107383401.036 7
R14  20998331.044 8  20998336.361 7 111932920.331 8  87059286.512 7
R22  21340832.282 8  21340835.579 7 113918809.078 8  88603522.391 7
R23  19426553.168 7                 103918958.478 7
R24  22046515.021 6  22046516.307 4 117892734.463 6  91694322.401 4
> 2025 06 15 07 02 35.0000000  0 21
C13  37585854.841 6  37585858.158 7 195719408.827 6 151342649.628 7
C29  22121328.271 7                 115191564.816 7
C30  22192745.918 7                 115563444.509 7
E02  26814989.038 7  26814989.880 7 140913729.611 7 106600325.085 7
E10  23588573.857 8  23588574.079 9 123958790.179 8  93774020.975 9
E11  24068717.063 7  24068715.113 8 126481958.977 7  95682776.224 8
E12  24741543.466 7  24741542.632 8 130017687.684 7  98357529.853 8
E16  23617253.417 8  23617253.942 9 124109502.773 8  93888032.360 9
E24  24703393.308 7  24703393.757 8 129817203.593 7  98205868.800 8
E25  23668633.292 8  23668634.397 8 124379506.418 8  94092293.805 8
G16  20986080.992 8  20986083.035 5                 110282594.702 8  85934503.890 5
G18  20648583.681 8                  20648587.197 8 108509032.806 8                  84552515.651 8
G23  22469933.926 7                  22469940.214 8 118080304.725 7                  92010656.709 8
G27  22916833.484 5                  22916838.476 6 120428761.987 5                  93840626.770 6
G29  23040559.567 7                  23040565.921 7 121078948.587 7                  94347251.389 7
R12  22954466.551 7  22954474.439 6 122618621.746 7  95370059.187 6
R13  20110460.597 7                 107388730.265 7
R14  20994851.714 8  20994856.991 7 111914374.126 8  87044861.680 7
R22  21342576.032 8  21342579.538 7 113928115.873 8  88610761.001 7
R23  19425800.752 8                 103914930.175 8
R24  22042359.064 6  22042357.869 4 117870501.128 6  91677029.986 4
> 2025 06 15 07 02 40.0000000  0 21
C13  37584441.328 6  37584444.045 7 195712045.201 6 151336955.615 7
C29  22118783.641 7                 115178315.322 7
C30  22192976.582 7                 115564643.763 7
E02  26811263.804 7  26811264.142 7 140894150.460 7 106585513.599 7
E10  23587470.112 8  23587470.648 9 123952991.643 8  93769634.423 9
E11  24066142.348 7  24066140.629 8 126468429.947 7  95672541.588 8
E12  24741708.622 7  24741707.809 8 130018555.621 7  98358186.437 8
E16  23616964.235 8  23616964.759 9 124107983.152 8  93886882.774 9
E24  24704320.779 7  24704321.123 8 129822076.750 7  98209555.296 8
E25  23666999.493 8  23667000.881 8 124370922.060 8  94085799.801 8
G16  20983494.981 7  20983497.057 5                 110269005.040 7  85923914.548 5
G18  20647851.984 8                  20647855.226 8 108505186.807 8                  84549518.767 8
G23  22465988.359 7                  22465994.381 7 118059571.370 7                  91994500.849 7
G27  22912664.578 4                  22912667.885 6 120406845.124 4                  93823548.676 6
G29  23042124.197 7                  23042130.716 7 121087172.168 7                  94353659.347 7
R12  22957491.639 7  22957498.063 6 122634776.424 7  95382623.891 6
R13  20111461.596 7                 107394078.252 7
R14  20991376.074 8  20991381.328 7 111895845.178 8  87030450.309 7
R22  21344321.185 8  21344323.805 7 113937427.659 8  88618003.485 7
R23  19425050.086 8                 103910915.119 8
R24  22038202.774 6  22038202.604 4 117848274.447 6  91659742.574 4
> 2025 06 15 07 02 45.0000000  0 21
C13  37583028.056 6  37583030.972 7 195704684.861 6 151331264.118 7
C29  22116240.981 7                 115165071.848 7
C30  22193208.015 7                 115565848.406 7
E02  26807538.366 7  26807538.861 7 140874573.313 7 106570703.617 7
E10  23586368.399 8  23586368.793 8 123947201.360 8  93765254.110 8
E11  24063569.590 7  24063567.545 8 126454908.328 7  95662312.581 8
E12  24741874.850 7  24741874.169 8 130019429.935 7  98358847.845 8
E16  23616677.187 8  23616677.216 9 124106472.203 8  93885739.737 9
E24  24705249.115 7  24705249.636 8 129826955.886 7  98213246.322 8
E25  23665367.955 8  23665369.016 8 124362346.295 8  94079312.296 8
G16  20980911.639 8  20980913.689 5                 110255428.752 8  85913335.608 5
G18  20647122.007 8                  20647126.035 8 108501352.641 8                  84546531.122 8
G23  22462044.346 7                  22462050.644 8 118038846.264 7                  91978351.423 8
G27  22908494.919 4                  22908497.713 6 120384931.447 4                  93806473.030 6
G29  23043690.325 7                  23043696.305 7 121095399.188 7                  94360070.010 7
R12  22960517.003 7  22960522.874 6 122650934.370 7  95395191.156 6
R13  20112466.070 7                 107399444.259 7
R14  20987903.472 8  20987908.104 7 111877332.589 8  87016051.642 7
R22  21346065.740 8  21346069.125 7 113946743.631 8  88625249.240 7
R23  19424301.274 8                 103906912.196 8
R24  22034046.529 6  22034048.790 5 117826053.774 6  91642459.804 5
> 2025 06 15 07 02 50.0000000  0 21
C13  37581614.700 6  37581617.872 7 195697328.605 6 151325575.785 7
C29  22113699.147 7                 115151835.204 7
C30  22193440.325 7                 115567059.246 7
E02  26803813.637 7  26803814.145 6 140854998.992 7 106555895.759 6
E10  23585267.646 8  23585268.663 9 123941420.148 8  93760880.654 9
E11  24060998.270 7  24060996.053 8 126441394.968 7  95652089.811 8
E12  24742042.458 7  24742041.923 8 130020311.421 7  98359514.672 8
E16  23616391.375 8  23616391.490 9 124104970.702 8  93884603.860 9
E24  24706178.984 7  24706179.408 8 129831841.762 7  98216942.441 8
E25  23663737.934 8  23663738.900 8 124353779.902 8  94072831.872 8
G16  20978331.070 8  20978332.994 6                 110241866.657 8  85902767.740 6
G18  20646395.212 8                  20646398.432 8 108497531.132 8                  84543553.312 8
G23  22458103.061 7                  22458108.248 8 118018130.197 7                  91962209.025 8
G27  22904329.523 4                  22904328.986 6 120363021.78314                  93789400.58016
G29  23045256.694 7                  23045263.031 7 121103630.431 7                  94366483.957 7
R12  22963541.675 7  22963548.558 6 122667096.341 7  95407761.562 6
R13  20113474.456 7                 107404828.940 7
R14  20984434.246 8  20984438.401 7 111858837.078 8  87001666.244 7
R22  21347812.203 8  21347815.255 7 113956064.492 8  88632498.811 7
R23  19423555.284 7                 103902922.449 7
R24  22029892.850 7  22029896.935 5 117803839.849 7  91625182.254 5
> 2025 06 15 07 02 55.0000000  0 21
C13  37580203.244 6  37580206.370 7 195689977.239 6 151319891.245 7
C29  22111158.292 7                 115138606.136 7
C30  22193674.059 7                 115568277.012 7
E02  26800089.116 7  26800090.187 6 140835428.269 7 106541090.635 6
E10  23584169.679 8  23584170.399 9 123935648.734 8  93756514.615 9
E11  24058428.130 7  24058426.219 8 126427890.638 7  95641873.876 8
E12  24742211.875 7  24742211.199 8 130021200.853 7  98360187.519 8
E16  23616107.203 8  23616107.676 9 124103479.419 8  93883475.710 9
E24  24707110.639 7  24707110.614 8 129836735.139 7  98220644.233 8
E25  23662109.713 8  23662110.702 8 124345223.666 8  94066359.132 8
G16  20975753.189 8  20975754.699 6                 110228319.478 8  85892211.494 6
G18  20645670.231 8                  20645673.891 8 108493723.013 8                  84540585.924 8
G23  22454162.126 7                  22454167.727 7 117997423.932 7                  91946074.275 7
G27  22900160.761 4                  22900160.773 6 120341116.801 4                  93772331.775 6
G29  23046823.827 7                  23046830.256 7 121111866.712 7                  94372901.832 7
R12  22966568.795 7  22966575.136 6 122683263.208 7  95420335.747 6
R13  20114487.456 7                 107410233.131 7
R14  20980966.631 8  20980972.314 7 111840359.530 8  86987294.803 7
R22  21349559.904 8  21349562.028 7 113965391.126 8  88639752.835 7
R23  19422812.492 8                 103898946.459 8
R24  22025742.119 7  22025744.179 5 117781633.705 7  91607910.833 5
> 2025 06 15 07 03  0.0000000  0 21
C13  37578791.868 6  37578795.406 7 195682630.722 6 151314210.446 7
C29  22108618.931 7                 115125384.642 7
C30  22193908.835 7                 115569501.706 7
E02  26796365.248 7  26796366.907 6 140815861.136 7 106526288.238 6
E10  23583073.444 7  23583074.009 9 123929887.120 7  93752155.993 9
E11  24055859.941 7  24055858.156 8 126414395.289 7  95631664.736 8
E12  24742382.572 7  24742381.970 8 130022098.156 7  98360866.309 8
E16  23615825.483 8  23615825.823 9 124101998.357 8  93882355.296 9
E24  24708042.838 7  24708043.281 8 129841636.012 7  98224351.711 8
E25  23660483.336 8  23660484.457 8 124336677.573 8  94059894.063 8
G16  20973177.357 8  20973179.619 5                 110214787.245 8  85881666.909 5
G18  20644948.078 8                  20644952.295 8 108489928.281 8                  84537628.997 8
G23  22450224.177 7                  22450229.098 7 117976727.489 7                  91929947.175 7
G27  22895993.964 4                  22895993.765 6 120319216.521 4                  93755266.652 6
G29  23048392.794 7                  23048398.337 7 121120107.956 7                  94379323.566 7
R12  22969594.108 7  22969602.381 6 122699434.821 7  95432913.678 6
R13  20115502.764 7                 107415656.907 7
R14  20977503.940 8  20977509.718 7 111821899.977 8  86972937.382 7
R22  21351308.564 8  21351310.620 7 113974723.468 8  88647011.329 7
R23  19422072.026 8                 103894984.384 8
R24  22021589.185 6  22021592.146 5 117759435.040 6  91590645.251 5
> 2025 06 15 07 03  5.0000000  0 21
C13  37577381.868 6  37577385.208 7 195675287.140 6 151308531.911 7
C29  22106081.446 7                 115112168.891 7
C30  22194144.988 7                 115570731.462 7
E02  26792641.843 6  26792643.778 6 140796295.702 6 106511487.122 6
E10  23581978.814 8  23581979.126 9 123924133.445 8  93747803.365 9
E11  24053293.641 7  24053291.395 8 126400907.070 7  95621460.991 8
E12  24742554.021 7  24742553.879 8 130023001.509 7  98361549.684 8
E16  23615545.071 8  23615545.590 9 124100525.645 8  93881241.194 9
E24  24708976.689 7  24708976.964 8 129846542.528 7  98228063.442 8
E25  23658858.963 8  23658859.771 8 124328139.753 8  94053435.254 8
G16  20970604.814 8  20970606.870 6                 110201268.110 8  85871132.509 6
G18  20644228.040 8                  20644231.968 8 108486145.069 8                  84534681.041 8
G23  22446287.267 7                  22446292.245 7 117956039.011 7                  91913826.263 7
G27  22891820.713 4                  22891826.430 6 120297319.152 4                  93738203.839 6
G29  23049960.846 7                  23049967.283 7 121128352.309 7                  94385747.724 7
R12  22972622.918 7  22972629.543 6 122715609.214 7  95445493.731 6
R13  20116522.184 7                 107421098.341 7
R14  20974043.983 8  20974049.247 7 111803456.545 8  86958592.493 7
R22  21353057.089 8  21353059.454 7 113984059.632 8  88654272.776 7
R23  19421333.394 8                 103891034.328 8
R24  22017436.704 6  22017444.329 5 117737242.019 6  91573384.009 5
> 2025 06 15 07 03 10.0000000  0 21
C13  37575972.106 6  37575975.747 7 195667947.483 6 151302856.438 7
C29  22103545.266 7                 115098959.814 7
C30  22194382.590 7                 115571967.252 7
E02  26788918.887 6  26788921.080 6 140776732.957 6 106496688.063 6
E10  23580885.606 8  23580885.911 9 123918388.638 8  93743457.458 9
E11  24050728.632 7  24050726.183 8 126387426.958 7  95611263.370 8
E12  24742727.531 7  24742727.138 8 130023911.872 7  98362238.366 8
E16  23615266.363 8  23615267.108 9 124099062.253 8  93880134.147 9
E24  24709911.257 7  24709911.890 8 129851455.646 7  98231780.181 8
E25  23657236.109 8  23657236.845 8 124319611.188 8  94046983.444 8
G16  20968035.525 8  20968036.923 6                 110187763.042 8  85860609.068 6
G18  20643510.139 8                  20643514.568 8 108482374.322 8                  84531742.801 8
G23  22442352.722 7                  22442357.228 7 117935359.472 7                  91897712.352 7
G27  22887653.653 5                  22887659.723 6 120275425.706 5                  93721143.981 6
G29  23051530.131 7                  23051537.151 7 121136600.764 7                  94392175.076 7
R12  22975650.745 7  22975659.357 6 122731787.536 7  95458076.850 6
R13  20117544.192 7                 107426558.224 7
R14  20970586.815 8  20970592.493 7 111785030.102 8  86944260.814 7
R22  21354807.512 8  21354808.985 7 113993400.504 8  88661537.865 7
R23  19420596.744 8                 103887097.132 8
R24  22013289.008 6  22013294.607 5 117715055.656 6  91556128.003 5
> 2025 06 15 07 03 15.0000000  0 21
C13  37574563.003 6  37574567.011 7 195660611.537 6 151297183.823 7
C29  22101009.806 7                 115085757.170 7
C30  22194620.747 7                 115573208.781 7
E02  26785196.948 7  26785198.766 6 140757172.679 7 106481890.873 6
E10  23579794.036 8  23579794.386 9 123912652.482 8  93739118.088 9
E11  24048164.673 7  24048162.482 8 126373954.695 7  95601071.694 8
E12  24742901.975 7  24742901.684 8 130024828.954 7  98362932.131 8
E16  23614989.332 8  23614990.371 9 124097607.924 8  93879033.946 9
E24  24710848.011 7  24710848.064 8 129856375.079 7  98235501.690 8
E25  23655614.878 8  23655615.660 8 124311091.601 8  94040538.432 8
G16  20965468.086 8  20965469.593 6                 110174271.795 8  85850096.409 6
G18  20642794.882 8                  20642799.466 8 108478615.786 8                  84528814.067 8
G23  22438418.158 7                  22438423.558 7 117914688.618 7                  91881605.208 7
G27  22883490.208 5                  22883495.027 6 120253535.856 5                  93704086.954 6
G29  23053101.527 7                  23053107.539 6 121144853.008 7                  94398605.394 6
R12  22978680.824 7  22978688.545 6 122747969.377 7  95470662.693 6
R13  20118570.482 7                 107432036.344 7
R14  20967133.488 8  20967138.911 7 111766620.384 8  86929942.160 7
R22  21356557.155 8  21356559.716 7 114002745.893 8  88668806.473 7
R23  19419864.197 8                 103883172.607 8
R24  22009141.060 6  22009146.988 5 117692875.843 6  91538877.039 5
> 2025 06 15 07 03 20.0000000  0 21
C13  37573154.584 6  37573158.920 7 195653278.670 6 151291513.583 7
C29  22098476.230 7                 115072560.395 7
C30  22194860.209 7                 115574455.520 7
E02  26781476.062 7  26781476.826 7 140737614.323 7 106467095.108 7
E10  23578703.913 8  23578704.364 9 123906924.378 8  93734784.813 9
E11  24045602.476 7  24045600.161 8 126360489.686 7  95590885.506 8
E12  24743078.237 7  24743077.355 8 130025752.216 7  98363630.556 8
E16  23614714.545 8  23614715.241 8 124096162.064 8  93877940.163 8
E24  24711784.896 7  24711785.329 8 129861300.249 7  98239227.541 8
E25  23653995.213 8  23653996.027 8 124302580.450 8  94034099.802 8
G16  20962903.513 8  20962905.039 6                 110160793.810 8  85839594.091 6
G18  20642082.098 8                  20642086.331 8 108474868.888 8                  84525894.408 8
G23  22434486.911 7                  22434492.007 7 117894025.916 7                  91865504.405 7
G27  22879324.700 5                  22879330.322 6 120231648.960 5                  93687032.258 6
G29  23054672.010 7                  23054678.467 6 121153108.539 7                  94405038.241 6
R12  22981710.695 7  22981718.181 6 122764154.155 7  95483250.849 6
R13  20119599.518 7                 107437532.175 7
R14  20963683.229 8  20963687.906 7 111748227.185 8  86915636.357 7
R22  21358309.109 8  21358310.896 7 114012095.229 8  88676078.177 7
R23  19419133.685 8                 103879260.051 8
R24  22004995.964 7  22005001.104 5 117670701.752 7  91521630.531 5
> 2025 06 15 07 03 25.0000000  0 21
C13  37571747.491 6  37571751.514 7 195645950.675 6 151285847.109 7
C29  22095943.454 7                 115059371.196 7
C30  22195101.038 7                 115575709.169 7
E02  26777755.112 7  26777755.519 7 140718059.573 7 106452302.077 7
E10  23577615.781 8  23577616.233 9 123901206.046 8  93730458.933 9
E11  24043041.693 7  24043039.542 8 126347033.706 7  95580706.143 8
E12  24743255.968 7  24743254.539 8 130026683.329 7  98364334.934 8
E16  23614441.444 8  23614442.067 9 124094726.414 8  93876854.093 9
E24  24712723.174 7  24712724.003 8 129866232.943 7  98242959.080 8
E25  23652377.522 8  23652378.364 8 124294079.471 8  94027668.853 8
G16  20960341.736 8  20960343.486 6                 110147330.800 8  85829103.426 6
G18  20641370.996 8                  20641375.846 8 108471135.349 8                  84522985.158 8
G23  22430555.811 7                  22430561.769 7 117873373.058 7                  91849411.281 7
G27  22875160.749 5                  22875166.995 6 120209766.919 5                  93669981.313 6
G29  23056244.008 7                  23056250.345 6 121161369.030 7                  94411474.978 6
R12  22984741.198 7  22984749.285 7 122780343.643 7  95495842.637 7
R13  20120632.331 7                 107443047.504 7
R14  20960235.945 8  20960240.717 7 111729852.016 8  86901344.562 7
R22  21360061.497 8  21360063.778 6 114021450.221 8  88683354.256 6
R23  19418404.499 8                 103875361.405 8
R24  22000850.823 7  22000855.570 5 117648535.277 7  91504389.930 5
> 2025 06 15 07 03 30.0000000  0 21
C13  37570341.273 6  37570344.874 7 195638626.702 6 151280183.750 7
C29  22093411.282 7                 115046188.810 7
C30  22195342.731 7                 115576968.952 7
E02  26774034.447 7  26774034.879 7 140698507.677 7 106437511.198 7
E10  23576529.301 8  23576529.800 9 123895496.716 8  93726139.865 9
E11  24040482.504 7  24040480.526 8 126333585.943 7  95570533.000 8
E12  24743434.072 7  24743433.078 8 130027621.525 7  98365044.666 8
E16  23614170.366 8  23614170.675 9 124093300.208 8  93875775.172 9
E24  24713663.394 7  24713663.954 8 129871172.276 7  98246695.641 8
E25  23650761.542 8  23650762.464 8 124285587.850 8  94021245.001 8
G16  20957782.476 8  20957784.068 6                 110133882.044 8  85818623.869 6
G18  20640663.405 8                  20640667.733 8 108467414.386 8                  84520085.713 8
G23  22426627.501 7                  22426633.872 7 117852729.321 7                  91833325.277 7
G27  22870997.149 5                  22871003.564 6 120187888.901 5                  93652933.463 6
G29  23057817.192 7                  23057822.823 6 121169633.706 7                  94417914.974 6
R12  22987773.320 7  22987781.245 7 122796536.940 7  95508437.400 7
R13  20121669.077 7                 107448581.458 7
R14  20956791.898 8  20956797.462 7 111711494.013 8  86887066.095 7
R22  21361814.550 8  21361817.532 6 114030810.055 8  88690634.120 6
R23  19417677.780 8                 103871475.827 8
R24  21996707.298 7  21996710.167 6 117626375.646 7  91487154.617 6
> 2025 06 15 07 03 35.0000000  0 22
C13  37568935.752 6  37568938.852 7 195631306.038 6 151274522.940 7
C26  25606361.022 5                 133339002.50115
C29  22090880.834 7                 115033012.510 7
C30  22195585.419 7                 115578234.112 7
E02  26770314.716 7  26770314.647 7 140678957.934 7 106422721.943 7
E10  23575444.520 8  23575444.932 8 123889795.662 8  93721827.050 8
E11  24037924.650 7  24037922.859 8 126320145.681 7  95560365.531 8
E12  24743614.263 7  24743612.808 8 130028566.058 7  98365759.195 8
E16  23613900.457 8  23613900.914 9 124091882.689 8  93874702.826 9
E24  24714604.372 7  24714605.024 8 129876117.641 7  98250436.769 8
E25  23649147.236 8  23649148.203 8 124277104.900 8  94014827.701 8
G16  20955225.245 8  20955227.655 6                 110120446.780 8  85808154.825 6
G18  20639957.405 8                  20639962.029 8 108463705.277 8                  84517195.491 8
G23  22422700.937 7                  22422706.745 8 117832093.979 7                  91817245.791 8
G27  22866834.457 5                  22866840.001 6 120166014.179 5                  93635888.205 6
G29  23059390.355 7                  23059395.828 6 121177901.842 7                  94424357.637 6
R12  22990804.624 7  22990813.311 7 122812733.377 7  95521034.613 7
R13  20122708.567 7                 107454133.154 7
R14  20953351.293 8  20953356.357 7 111693152.610 8  86872800.563 7
R22  21363568.790 7  21363571.627 7 114040173.974 7  88697917.150 7
R23  19416953.946 7                 103867602.427 7
R24  21992563.400 7  21992566.789 6 117604222.088 7  91469924.057 6
> 2025 06 15 07 03 40.0000000  0 22
C13  37567530.683 6  37567533.517 7 195623989.151 6 151268865.059 7
C26  25602947.282 5                 133321229.027 5
C29  22088351.585 7                 115019842.737 7
C30  22195829.243 7                 115579505.114 7
E02  26766594.414 7  26766594.938 7 140659410.739 7 106407934.611 7
E10  23574361.105 8  23574361.726 9 123884103.302 8  93717520.809 9
E11  24035369.057 7  24035366.789 8 126306713.364 7  95550204.068 8
E12  24743794.850 7  24743793.861 8 130029517.431 7  98366478.892 8
E16  23613632.662 8  23613632.932 9 124090474.305 8  93873637.395 9
E24  24715547.058 7  24715547.310 8 129881069.353 7  98254182.702 8
E25  23647534.619 8  23647535.664 8 124268631.033 8  94008417.272 8
G16  20952671.663 7  20952673.672 6                 110107025.441 7  85797696.629 6
G18  20639254.020 8                  20639258.458 8 108460008.433 8                  84514314.837 8
G23  22418776.692 7                  22418781.563 7 117811467.497 7                  91801173.211 7
G27  22862672.192 6                  22862678.073 5 120144143.177 6                  93618845.841 5
G29  23060964.395 7                  23060970.090 6 121186173.888 7                  94430803.371 6
R12  22993837.232 7  22993846.182 7 122828933.439 7  95533634.622 7
R13  20123751.268 7                 107459703.417 7
R14  20949913.297 8  20949918.947 7 111674828.202 8  86858548.240 7
R22  21365323.957 7  21365326.843 7 114049542.465 7  88705203.764 7
R23  19416231.761 7                 103863741.771 7
R24  21988419.361 7  21988425.453 6 117582075.122 7  91452698.607 6
> 2025 06 15 07 03 45.0000000  0 22
C13  37566126.960 6  37566129.257 7 195616675.975 6 151263210.054 7
C26  25599535.668 5                 133303463.978 5
C29  22085823.770 7                 115006679.413 7
C30  22196074.664 7                 115580781.866 7
E02  26762874.852 7  26762875.764 7 140639866.033 7 106393149.188 7
E10  23573279.471 8  23573280.161 8 123878419.565 8  93713221.095 8
E11  24032814.668 7  24032812.182 8 126293288.893 7  95540048.543 8
E12  24743976.960 7  24743976.204 8 130030475.489 7  98367203.654 8
E16  23613366.757 7  23613366.666 9 124089074.995 7  93872578.820 9
E24  24716490.395 7  24716490.841 8 129886027.405 7  98257933.430 8
E25  23645923.870 8  23645924.844 8 124260166.204 8  94002013.682 8
G16  20950120.396 7  20950122.656 6                 110093617.991 7  85787249.267 6
G18  20638552.716 8                  20638557.184 8 108456323.791 8                  84511443.688 8
G23  22414852.509 7                  22414858.398 7 117790849.801 7                  91785107.480 7
G27  22858510.470 6                  22858516.834 5 120122275.768 6                  93601806.294 5
G29  23062539.198 7                  23062545.305 6 121194449.739 7                  94437252.074 6
R12  22996871.317 7  22996879.216 7 122845136.849 7  95546237.252 7
R13  20124797.825 7                 107465291.678 7
R14  20946479.284 8  20946483.653 7 111656520.647 8  86844309.031 7
R22  21367079.867 7  21367081.867 6 114058915.382 7  88712493.798 6
R23  19415511.570 8                 103859893.669 8
R24  21984279.399 7  21984285.654 5 117559934.546 7  91435478.152 5
> 2025 06 15 07 03 50.0000000  0 22
C13  37564723.525 6  37564725.962 7 195609367.271 6 151257558.497 7
C26  25596124.650 5                 133285708.302 5
C29  22083297.240 7                 114993523.355 7
C30  22196321.254 7                 115582065.191 7
E02  26759155.985 6  26759157.194 7 140620324.650 6 106378366.290 7
E10  23572199.844 8  23572200.372 8 123872745.267 8  93708928.533 8
E11  24030261.323 7  24030259.219 8 126279873.109 7  95529899.589 8
E12  24744161.150 7  24744159.925 8 130031441.076 7  98367934.112 8
E16  23613101.915 8  23613102.254 9 124087685.580 8  93871527.738 9
E24  24717435.559 7  24717435.704 8 129890992.592 7  98261689.544 8
E25  23644314.716 8  23644315.909 8 124251711.231 8  93995617.553 8
G16  20947571.701 7  20947574.346 6                 110080225.248 7  85776813.371 6
G18  20637854.348 8                  20637858.388 8 108452652.159 8                  84508582.681 8
G23  22410931.132 7                  22410936.658 7 117770241.720 7                  91769049.251 7
G27  22854348.078 5                  22854355.861 5 120100412.879 5                  93584770.302 5
G29  23064115.418 7                  23064120.843 6 121202730.203 7                  94443704.375 6
R12  22999905.733 7  22999913.593 7 122861344.608 7  95558843.259 7
R13  20125847.819 7                 107470899.217 7
R14  20943047.422 8  20943052.809 7 111638231.094 8  86830083.837 7
R22  21368835.358 7  21368839.839 6 114068293.611 7  88719787.959 6
R23  19414795.185 7                 103856059.022 7
R24  21980142.045 7  21980146.318 6 117537801.189 7  91418263.363 6
> 2025 06 15 07 03 55.0000000  0 22
C13  37563320.616 6  37563322.436 7 195602062.199 6 151251909.756 7
C26  25592717.098 5                 133267961.113 5
C29  22080772.404 7                 114980373.677 7
C30  22196568.627 7                 115583354.179 7
E02  26755437.500 6  26755439.168 7 140600785.727 6 106363585.246 7
E10  23571121.859 8  23571122.231 9 123867079.515 8  93704642.428 9
E11  24027710.413 7  24027707.773 8 126266465.111 7  95519756.536 8
E12  24744346.223 7  24744344.928 8 130032413.314 7  98368669.602 8
E16  23612839.446 8  23612839.582 9 124086305.150 8  93870483.449 9
E24  24718381.325 8  24718381.756 8 129895964.018 8  98265450.387 8
E25  23642707.758 8  23642708.669 8 124243265.215 8  93989228.193 8
G16  20945025.870 7  20945028.428 6                 110066846.326 7  85766388.233 6
G18  20637158.103 8                  20637161.922 8 108448992.671 8                  84505731.120 8
G23  22407011.596 7                  22407016.962 7 117749642.364 7                  91752997.823 7
G27  22850189.001 5                  22850196.597 5 120078553.625 5                  93567737.145 5
G29  23065692.132 7                  23065697.133 6 121211014.414 7                  94450159.563 6
R12  23002939.897 7  23002947.931 7 122877555.739 7  95571451.893 7
R13  20126901.984 7                 107476524.725 7
R14  20939619.450 8  20939624.752 7 111619958.370 8  86815871.718 7
R22  21370593.626 7  21370597.316 6 114077676.193 7  88727085.519 6
R23  19414080.924 7                 103852236.954 7
R24  21976003.853 7  21976008.359 6 117515674.300 7  91401053.553 6
> 2025 06 15 07 04  0.0000000  0 22
C13  37561918.979 6  37561920.307 7 195594760.863 6 151246263.900 7
C26  25589310.539 5                 133250222.470 5
C29  22078248.862 7                 114967230.530 7
C30  22196817.653 7                 115584648.970 7
E02  26751719.441 7  26751721.648 7 140581249.372 7 106348806.147 7
E10  23570044.981 8  23570045.728 8 123861422.452 8  93700362.897 8
E11  24025160.175 7  24025157.825 8 126253065.078 7  95509619.503 8
E12  24744532.085 7  24744531.210 8 130033392.280 7  98369410.182 8
E16  23612578.292 8  23612578.648 9 124084933.841 8  93869446.071 9
E24  24719328.708 8  24719329.022 8 129900941.811 8  98269216.053 8
E25  23641102.009 8  23641103.156 8 124234828.303 8  93982845.729 8
G16  20942482.186 7  20942485.231 6                 110053481.389 7  85755974.012 6
G18  20636464.212 8                  20636467.919 8 108445345.425 8                  84502889.104 8
G23  22403093.032 7                  22403098.480 7 117729051.897 7                  91736953.319 7
G27  22846029.886 5                  22846037.387 5 120056698.065 5                  93550706.868 5
G29  23067269.368 7                  23067274.311 7 121219302.475 7                  94456617.779 7
R12  23005976.031 7  23005982.989 6 122893770.343 7  95584063.224 6
R13  20127958.196 7                 107482168.510 7
R14  20936195.583 8  20936199.922 7 111601702.649 8  86801672.816 7
R22  21372351.760 7  21372355.740 7 114087063.237 7  88734386.520 7
R23  19413368.996 7                 103848427.534 7
R24  21971866.846 6  21971872.211 6 117493553.951 6  91383848.870 6
> 2025 06 15 07 04  5.0000000  0 22
C13  37560518.066 6  37560519.152 7 195587464.354 6 151240621.776 7
C26  25585904.990 5                 133232493.519 5
C29  22075725.753 7                 114954094.969 7
C30  22197067.697 7                 115585950.649 7
E02  26748003.314 7  26748004.775 7 140561716.721 7 106334029.842 7
E10  23568970.612 8  23568971.087 9 123855775.127 8  93696090.736 9
E11  24022611.842 7  24022609.601 8 126239674.034 7  95499489.265 8
E12  24744720.251 7  24744718.979 8 130034379.091 7  98370156.700 8
E16  23612318.818 8  23612319.671 9 124083572.760 8  93868416.410 9
E24  24720276.898 8  24720277.684 8 129905927.050 8  98272987.336 8
E25  23639498.645 8  23639499.583 8 124226401.583 8  93976470.977 8
G16  20939941.738 7  20939944.887 6                 110040131.494 7  85745571.501 6
G18  20635772.758 8                  20635776.481 8 108441711.484 8                  84500057.459 8
G23  22399175.888 7                  22399181.815 7 117708471.438 7                  91720916.574 7
G27  22841870.411 5                  22841878.801 5 120034847.346 5                  93533680.358 5
G29  23068846.880 7                  23068852.219 7 121227595.478 7                  94463079.849 7
R12  23009011.638 7  23009019.859 6 122909989.516 7  95596678.127 6
R13  20129018.509 7                 107487831.650 7
R14  20932773.360 8  20932778.794 7 111583465.063 8  86787488.033 7
R22  21374111.837 7  21374115.723 7 114096455.854 7  88741691.887 7
R23  19412659.809 7                 103844631.855 7
R24  21967731.698 6  21967737.389 6 117471441.246 6  91366650.122 6
> 2025 06 15 07 04 10.0000000  0 22
C13  37559116.817 6  37559118.970 7 195580172.033 6 151234982.879 7
C26  25582502.822 5                 133214773.592 5
C29  22073204.654 7                 114940966.333 7
C30  22197318.518 7                 115587258.533 7
E02  26744287.401 7  26744288.415 7 140542187.086 7 106319255.794 7
E10  23567897.607 8  23567898.177 9 123850136.902 8  93691825.459 9
E11  24020065.159 7  24020062.951 8 126226291.331 7  95489365.342 8
E12  24744909.096 7  24744908.135 8 130035373.036 7  98370908.609 8
E16  23612061.932 8  23612062.477 9 124082221.213 8  93867393.961 9
E24  24721227.588 8  24721227.650 8 129910919.059 8  98276763.738 8
E25  23637896.640 8  23637897.826 8 124217984.385 8  93970103.414 8
G16  20937404.027 7  20937407.310 6                 110026795.979 7  85735180.196 6
G18  20635083.470 8                  20635087.389 8 108438090.196 8                  84497235.679 8
G23  22395261.767 7                  22395267.497 7 117687900.290 7                  91704887.105 7
G27  22837713.660 5                  22837721.314 5 120013000.685 5                  93516657.009 5
G29  23070426.441 7                  23070431.227 6 121235892.762 7                  94469545.240 6
R12  23012050.229 7  23012056.322 6 122926212.528 7  95609296.010 6
R13  20130082.358 7                 107493513.417 7
R14  20929355.696 8  20929360.522 7 111565245.075 8  86773316.938 7
R22  21375872.271 7  21375875.718 7 114105853.292 7  88749001.002 7
R23  19411952.087 7                 103840849.153 7
R24  21963598.344 6  21963603.083 6 117449335.378 6  91349456.675 6
> 2025 06 15 07 04 15.0000000  0 22
C13  37557717.856 6  37557719.260 7 195572883.168 6 151229346.670 7
C26  25579104.179 5                 133197062.051 5
C29  22070684.319 8                 114927843.996 8
C30  22197570.875 7                 115588571.972 7
E02  26740572.205 7  26740572.413 7 140522659.822 7 106304483.542 7
E10  23566826.005 8  23566826.895 9 123844507.113 8  93687566.560 9
E11  24017519.639 7  24017517.756 8 126212916.339 7  95479247.236 8
E12  24745099.288 7  24745098.514 8 130036373.487 7  98371665.442 8
E16  23611806.402 8  23611807.011 9 124080878.561 8  93866378.255 9
E24  24722178.098 8  24722178.733 8 129915917.221 8  98280544.798 8
E25  23636297.061 8  23636297.719 8 124209576.073 8  93963742.568 8
G16  20934869.131 7  20934872.176 6                 110013474.232 7  85724799.629 6
G18  20634396.794 8                  20634400.480 8 108434480.910 8                  84494423.257 8
G23  22391348.913 7                  22391354.396 7 117667337.815 7                  91688864.407 7
G27  22833557.148 5                  22833562.741 4 119991157.654 5                  93499636.442 4
G29  23072005.388 7                  23072010.652 7 121244193.673 7                  94476013.488 7
R12  23015086.557 7  23015094.505 6 122942438.641 7  95621916.302 6
R13  20131150.312 7                 107499213.148 7
R14  20925941.204 8  20925946.024 7 111547041.955 8  86759158.962 7
R22  21377633.580 8  21377636.776 7 114115255.027 8  88756313.461 7
R23  19411248.134 8                 103837079.009 8
R24  21959465.305 7  21959470.013 6 117427236.002 7  91332268.269 6
> 2025 06 15 07 04 20.0000000  0 22
C13  37556318.999 6  37556320.551 7 195565598.913 6 151223714.022 7
C26  25575703.327 5                 133179360.039 5
C29  22068165.195 7                 114914729.021 7
C30  22197824.256 7                 115589892.043 7
E02  26736856.269 7  26736857.077 7 140503136.060 7 106289713.936 7
E10  23565756.699 8  23565757.362 9 123838886.845 8  93683314.863 9
E11  24014976.578 7  24014974.252 8 126199550.125 7  95469135.789 8
E12  24745291.034 7  24745290.336 8 130037381.529 7  98372428.010 8
E16  23611552.984 8  23611553.427 9 124079545.894 8  93865370.096 9
E24  24723131.046 7  24723131.278 8 129920922.615 7  98284331.326 8
E25  23634698.145 8  23634699.584 8 124201177.740 8  93957389.276 8
G16  20932336.346 7  20932339.947 6                 110000167.351 7  85714430.640 6
G18  20633712.346 8                  20633716.137 8 108430884.723 8                  84491621.019 8
G23  22387437.563 7                  22387443.111 7 117646785.178 7                  91672849.374 7
G27  22829401.699 5                  22829407.524 5 119969319.184 5                  93482619.378 5
G29  23073586.625 7                  23073591.071 7 121252499.309 7                  94482485.362 7
R12  23018124.436 7  23018131.911 6 122958669.113 7  95634539.988 6
R13  20132220.831 7                 107504931.908 7
R14  20922528.921 8  20922534.351 7 111528856.858 8  86745015.001 7
R22  21379396.032 8  21379399.302 7 114124662.077 8  88763630.033 7
R23  19410544.894 8                 103833322.288 8
R24  21955334.767 7  21955339.335 6 117405143.895 7  91315085.527 6
> 2025 06 15 07 04 25.0000000  0 22
C13  37554920.719 6  37554922.421 7 195558318.923 6 151218084.676 7
C26  25572306.566 5                 133161667.213 5
C29  22065648.132 7                 114901621.121 7
C30  22198079.439 7                 115591218.447 7
E02  26733141.906 6  26733142.342 7 140483615.472 6 106274946.720 7
E10  23564688.860 8  23564689.632 9 123833275.809 8  93679070.147 9
E11  24012434.542 7  24012432.381 8 126186192.414 7  95459030.771 8
E12  24745484.634 7  24745483.546 8 130038396.854 7  98373196.097 8
E16  23611301.516 8  23611301.699 9 124078222.903 8  93864369.254 9
E24  24724084.759 7  24724085.123 8 129925934.866 7  98288123.058 8
E25  23633102.053 8  23633103.299 8 124192789.070 8  93951043.313 8
G16  20929807.007 8  20929810.335 6                 109986875.012 8  85704072.974 6
G18  20633030.611 8                  20633034.134 8 108427301.320 8                  84488828.743 8
G23  22383528.692 7                  22383534.257 7 117626242.031 7                  91656841.704 7
G27  22825247.303 6                  22825253.244 4 119947485.141 6                  93465605.897 4
G29  23075167.853 7                  23075172.420 7 121260809.333 7                  94488960.720 7
R12  23021163.766 7  23021171.538 6 122974903.543 7  95647166.735 6
R13  20133294.953 7                 107510669.496 7
R14  20919121.405 8  20919126.085 7 111510689.338 8  86730884.742 7
R22  21381159.724 8  21381162.884 7 114134074.199 8  88770950.570 7
R23  19409845.749 8                 103829578.823 8
R24  21951205.410 7  21951209.957 6 117383058.942 7  91297908.381 6
> 2025 06 15 07 04 30.0000000  0 22
C13  37553523.870 6  37553524.967 7 195551044.104 6 151212459.311 7
C26  25568910.297 5                 133143984.430 5
C29  22063132.842 7                 114888521.149 7
C30  22198335.589 7                 115592552.045 7
E02  26729427.231 6  26729428.376 7 140464098.951 6 106260182.590 7
E10  23563622.790 8  23563623.796 9 123827674.842 8  93674833.056 9
E11  24009894.523 7  24009892.246 8 126172844.032 7  95448932.813 8
E12  24745679.162 7  24745678.345 8 130039420.336 7  98373970.347 8
E16  23611051.703 8  23611051.955 9 124076910.455 8  93863376.391 9
E24  24725040.237 8  24725040.425 8 129930954.907 8  98291920.672 8
E25  23631507.702 8  23631508.953 8 124184410.943 8  93944705.307 8
G16  20927280.509 7  20927284.070 6                 109973598.132 7  85693727.349 6
G18  20632351.818 8                  20632354.953 8 108423731.529 8                  84486047.099 8
G23  22379622.002 7                  22379627.024 7 117605709.242 7                  91640842.140 7
G27  22821093.218 6                  22821098.565 5 119925656.264 6                  93448596.381 5
G29  23076749.771 7                  23076755.097 7 121269124.588 7                  94495440.111 7
R12  23024204.903 7  23024212.265 6 122991142.864 7  95659797.304 6
R13  20134373.614 7                 107516426.649 7
R14  20915716.574 8  20915721.211 7 111492540.592 8  86716769.063 7
R22  21382923.772 8  21382927.019 7 114143492.184 8  88778275.644 7
R23  19409148.557 8                 103825849.446 8
R24  21947079.669 7  21947081.049 6 117360982.045 7  91280737.452 6
> 2025 06 15 07 04 35.0000000  0 22
C13  37552127.272 6  37552128.893 7 195543773.442 6 151206837.177 7
C26  25565515.919 5                 133126310.721 5
C29  22060618.714 7                 114875428.120 7
C30  22198593.438 7                 115593891.840 7
E02  26725713.769 6  26725715.010 7 140444585.439 6 106245420.754 7
E10  23562559.189 8  23562559.696 9 123822082.952 8  93670602.829 9
E11  24007355.741 7  24007353.745 8 126159504.036 7  95438841.191 8
E12  24745875.753 7  24745874.475 8 130040450.923 7  98374749.979 8
E16  23610803.635 8  23610804.034 9 124075607.544 8  93862390.743 9
E24  24725996.713 7  24725997.034 8 129935981.677 7  98295723.387 8
E25  23629915.357 8  23629916.460 8 124176042.376 8  93938374.538 8
G16  20924757.126 7  20924760.248 6                 109960335.693 7  85683392.975 6
G18  20631674.025 8                  20631678.080 8 108420174.383 8                  84483275.289 8
G23  22375716.291 7                  22375721.491 7 117585185.862 7                  91624849.895 7
G27  22816940.052 6                  22816945.191 4 119903831.555 6                  93431590.127 4
G29  23078333.215 7                  23078337.990 7 121277444.080 7                  94501922.817 7
R12  23027244.707 7  23027253.078 6 123007385.838 7  95672430.699 6
R13  20135455.027 7                 107522202.421 7
R14  20912315.063 8  20912319.638 7 111474409.244 8  86702666.908 7
R22  21384689.148 8  21384692.396 7 114152914.961 8  88785604.474 7
R23  19408453.730 8                 103822133.130 8
R24  21942952.392 7  21942952.832 6 117338912.061 7  91263571.896 6
> 2025 06 15 07 04 40.0000000  0 22
C13  37550731.927 6  37550733.510 7 195536506.662 6 151201218.046 7
C26  25562123.544 5                 133108645.897 5
C29  22058105.145 7                 114862341.792 7
C30  22198851.976 7                 115595237.590 7
E02  26721999.732 6  26722002.284 7 140425074.732 6 106230661.058 7
E10  23561496.675 8  23561497.274 9 123816499.900 8  93666379.279 9
E11  24004819.240 7  24004816.768 8 126146172.169 7  95428755.724 8
E12  24746073.247 7  24746071.923 8 130041488.435 7  98375534.850 8
E16  23610557.481 8  23610557.902 9 124074313.955 8  93861412.145 9
E24  24726954.793 8  24726954.860 8 129941015.025 8  98299531.066 8
E25  23628324.816 8  23628325.777 8 124167683.126 8  93932050.812 8
G16  20922236.290 7  20922239.248 6                 109947087.462 7  85673069.680 6
G18  20630999.644 8                  20631003.401 8 108416629.627 8                  84480513.136 8
G23  22371812.293 7                  22371818.215 7 117564671.651 7                  91608864.805 7
G27  22812788.488 6                  22812793.134 5 119882010.794 6                  93414586.936 5
G29  23079916.630 7                  23079922.123 7 121285767.612 7                  94508408.680 7
R12  23030286.278 7  23030294.570 6 123023632.405 7  95685066.878 6
R13  20136540.828 7                 107527996.616 7
R14  20908917.022 8  20908921.752 7 111456295.277 8  86688578.261 7
R22  21386455.564 8  21386458.757 7 114162342.336 8  88792936.841 7
R23  19407761.799 8                 103818429.719 8
R24  21938825.867 7  21938826.998 6 117316848.894 7  91246411.667 6
> 2025 06 15 07 04 45.0000000  0 22
C13  37549336.284 6  37549338.959 7 195529244.350 6 151195602.355 7
C26  25558732.403 5                 133090990.426 5
C29  22055593.313 7                 114849262.715 7
C30  22199111.670 7                 115596589.840 7
E02  26718287.642 6  26718290.208 7 140405567.404 6 106215903.914 7
E10  23560436.269 8  23560436.631 9 123810926.237 8  93662162.829 9
E11  24002283.621 7  24002281.477 8 126132848.962 7  95418676.805 8
E12  24746271.964 7  24746270.809 8 130042533.355 7  98376325.315 8
E16  23610313.427 8  23610313.635 9 124073030.212 8  93860440.993 9
E24  24727913.708 8  24727914.032 8 129946055.387 8  98303344.066 8
E25  23626736.017 8  23626736.939 8 124159333.721 8  93925734.546 8
G16  20919717.735 8  20919720.828 6                 109933854.012 8  85662757.903 6
G18  20630327.343 8                  20630331.768 8 108413097.813 8                  84477761.056 8
G23  22367910.214 7                  22367916.101 7 117544167.157 7                  91592887.295 7
G27  22808636.796 6                  22808642.676 5 119860194.615 6                  93397587.281 5
G29  23081500.914 7                  23081507.117 7 121294095.668 7                  94514898.070 7
R12  23033328.517 7  23033336.354 6 123039882.998 7  95697706.223 6
R13  20137629.285 7                 107533809.500 7
R14  20905522.069 8  20905526.784 7 111438199.306 8  86674503.620 7
R22  21388222.241 8  21388225.711 7 114171774.851 8  88800273.226 7
R23  19407072.062 8                 103814739.634 8
R24  21934701.981 7  21934702.973 6 117294792.984 7  91229257.081 6
> 2025 06 15 07 04 50.0000000  0 22
C13  37547942.635 6  37547945.146 7 195521985.830 6 151189989.609 7
C26  25555344.656 5                 133073343.643 5
C29  22053082.791 7                 114836190.171 7
C30  22199371.844 7                 115597947.852 7
E02  26714576.762 6  26714578.726 7 140386062.738 6 106201148.791 7
E10  23559377.349 8  23559377.672 9 123805361.207 8  93657952.917 9
E11  23999749.428 7  23999747.660 8 126119533.702 7  95408603.899 8
E12  24746471.996 7  24746470.940 8 130043584.979 7  98377120.854 8
E16  23610070.725 8  23610071.082 9 124071755.588 8  93859476.748 9
E24  24728874.029 8  24728874.407 8 129951102.116 8  98307161.879 8
E25  23625148.770 8  23625149.848 9 124150993.466 8  93919425.195 9
G16  20917202.489 7  20917205.155 6                 109920634.622 7  85652457.093 6
G18  20629657.628 8                  20629661.710 8 108409578.187 8                  84475018.497 8
G23  22364010.430 7                  22364016.452 8 117523671.686 7                  91576916.805 8
G27  22804486.573 6                  22804491.802 5 119838382.170 6                  93380590.562 5
G29  23083087.117 7                  23083092.555 7 121302427.565 7                  94521390.429 7
R12  23036371.561 7  23036378.935 6 123056136.889 7  95710348.097 6
R13  20138720.341 7                 107539640.599 7
R14  20902130.171 7  20902135.506 7 111420120.417 7  86660442.271 7
R22  21389989.693 8  21389993.262 7 114181211.798 8  88807613.065 7
R23  19406384.000 8                 103811062.100 8
R24  21930578.721 7  21930580.269 6 117272743.687 7  91212107.665 6
> 2025 06 15 07 04 55.0000000  0 22
C13  37546548.941 6  37546552.073 7 195514731.751 6 151184380.280 7
C26  25551955.925 5                 133055706.376 5
C29  22050573.433 7                 114823124.874 7
C30  22199633.863 7                 115599312.333 7
E02  26710866.447 6  26710867.870 7 140366561.454 6 106186396.188 7
E10  23558320.250 8  23558320.454 9 123799805.539 8  93653750.087 9
E11  23997217.446 7  23997215.505 8 126106227.103 7  95398537.539 8
E12  24746673.269 7  24746672.501 8 130044643.990 7  98377921.985 8
E16  23609830.013 8  23609830.398 9 124070490.798 8  93858519.934 9
E24  24729835.464 7  24729836.143 8 129956155.883 7  98310985.011 8
E25  23623563.533 8  23623564.627 8 124142663.067 8  93913123.305 8
G16  20914689.893 8  20914692.494 6                 109907429.977 8  85642167.751 6
G18  20628990.295 7                  20628994.434 8 108406071.450 7                  84472285.982 8
G23  22360111.673 7                  22360117.823 8 117503185.960 7                  91560953.913 8
G27  22800336.108 6                  22800343.209 5 119816574.288 6                  93363597.424 5
G29  23084673.198 7                  23084678.760 7 121310763.998 7                  94527886.346 7
R12  23039416.470 7  23039422.270 6 123072394.858 7  95722993.172 6
R13  20139815.868 6                 107545490.405 6
R14  20898741.621 7  20898747.328 7 111402059.618 7  86646394.975 7
R22  21391758.998 8  21391762.240 7 114190653.841 8  88814956.848 7
R23  19405699.372 7                 103807397.960 7
R24  21926456.568 7  21926456.818 5 117250701.809 7  91194964.009 5
> 2025 06 15 07 05  0.0000000  0 22
C13  37545157.759 6  37545159.711 7 195507482.295 6 151178774.540 7
C26  25548569.648 5                 133038078.675 5
C29  22048065.504 7                 114810067.017 7
C30  22199897.133 7                 115600683.491 7
E02  26707156.139 6  26707157.711 7 140347063.821 6 106171646.354 7
E10  23557264.789 8  23557265.056 9 123794259.423 8  93649554.487 9
E11  23994687.184 7  23994685.009 8 126092929.337 7  95388477.866 8
E12  24746876.550 7  24746875.495 8 130045710.600 7  98378728.876 8
E16  23609591.153 8  23609591.634 9 124069236.034 8  93857570.717 9
E24  24730798.819 8  24730799.215 8 129961216.872 8  98314813.604 8
E25  23621980.218 8  23621981.343 8 124134342.734 8  93906829.025 8
G16  20912179.546 7  20912182.481 6                 109894240.314 7  85631890.083 6
G18  20628325.522 7                  20628329.569 8 108402577.843 7                  84469563.697 8
G23  22356215.421 7                  22356221.198 7 117482710.193 7                  91544998.782 7
G27  22796187.442 6                  22796193.747 5 119794771.134 6                  93346607.956 5
G29  23086259.922 7                  23086266.590 7 121319105.163 7                  94534385.940 7
R12  23042460.195 7  23042466.575 6 123088657.021 7  95735641.493 6
R13  20140915.297 6                 107551359.333 6
R14  20895357.308 8  20895362.560 7 111384017.036 8  86632361.878 7
R22  21393529.060 7  21393531.917 7 114200101.175 7  88822304.764 7
R23  19405016.591 7                 103803747.342 7
R24  21922338.814 6  21922336.113 5 117228667.330 6  91177826.089 5
> 2025 06 15 07 05  5.0000000  0 22
C13  37543765.489 6  37543768.519 7 195500236.854 6 151173171.906 7
C26  25545186.167 5                 133020459.964 5
C29  22045559.395 7                 114797015.990 7
C30  22200161.860 7                 115602060.693 7
E02  26703447.164 6  26703448.161 7 140327569.124 6 106156898.727 7
E10  23556211.181 8  23556211.378 9 123788722.263 8  93645365.665 9
E11  23992158.654 7  23992156.082 8 126079639.808 7  95378424.429 8
E12  24747080.929 7  24747079.818 8 130046784.210 7  98379541.049 8
E16  23609354.437 8  23609354.650 9 124067990.726 8  93856628.642 9
E24  24731762.625 8  24731763.549 8 129966284.496 8  98318647.221 8
E25  23620398.680 8  23620399.858 8 124126031.861 8  93900541.896 8
G16  20909672.044 7  20909675.167 6                 109881065.024 7  85621623.628 6
G18  20627663.027 7                  20627666.987 8 108399096.736 7                  84466851.143 8
G23  22352321.324 7                  22352326.580 7 117462243.786 7                  91529050.940 7
G27  22792040.014 6                  22792045.032 5 119772972.108 6                  93329621.742 5
G29  23087848.524 7                  23087854.579 7 121327450.404 7                  94540888.715 7
R12  23045504.859 7  23045511.824 6 123104922.696 7  95748292.570 6
R13  20142018.216 7                 107557246.565 7
R14  20891976.349 8  20891980.635 7 111365992.038 8  86618342.446 7
R22  21395299.926 8  21395303.130 7 114209553.263 8  88829656.369 7
R23  19404336.429 8                 103800109.601 8
R24  21918218.918 6  21918215.794 5 117206639.776 6  91160693.577 5
> 2025 06 15 07 05 10.0000000  0 22
C13  37542375.573 6  37542378.143 7 195492996.715 6 151167573.374 7
C26  25541805.196 5                 133002851.469 5
C29  22043055.092 7                 114783972.987 7
C30  22200427.776 7                 115603445.146 7
E02  26699738.471 6  26699739.334 7 140308078.620 6 106142154.280 7
E10  23555158.924 8  23555159.629 9 123783195.245 8  93641184.508 9
E11  23989631.590 7  23989628.947 7 126066359.751 7  95368378.150 7
E12  24747286.685 7  24747285.681 8 130047865.997 7  98380359.402 8
E16  23609118.969 8  23609119.713 9 124066756.047 8  93855694.611 9
E24  24732728.308 8  24732729.392 8 129971359.978 8  98322486.771 8
E25  23618819.205 8  23618820.366 9 124117731.660 8  93894262.847 9
G16  20907168.340 7  20907171.097 6                 109867905.306 7  85611369.303 6
G18  20627003.353 7                  20627007.337 8 108395629.303 7                  84464149.249 8
G23  22348428.276 7                  22348433.943 7 117441787.938 7                  91513111.339 7
G27  22787890.931 6                  22787896.648 5 119751178.379 6                  93312639.602 5
G29  23089437.327 7                  23089444.057 7 121335801.020 7                  94547395.665 7
R12  23048550.753 7  23048557.434 6 123121193.233 7  95760947.424 6
R13  20143123.937 6                 107563153.430 6
R14  20888597.858 8  20888603.243 7 111347985.740 8  86604337.536 7
R22  21397071.554 8  21397074.732 7 114219011.124 8  88837012.476 7
R23  19403659.116 8                 103796485.888 8
R24  21914099.781 6  21914098.725 5 117184620.423 6  91143567.467 5
> 2025 06 15 07 05 15.0000000  0 22
C13  37540986.040 6  37540988.792 7 195485761.257 6 151161978.467 7
C26  25538425.424 5                 132985252.680 5
C29  22040552.154 7                 114770937.501 7
C30  22200694.962 7                 115604836.329 7
E02  26696029.446 6  26696031.163 7 140288591.830 6 106127412.630 7
E10  23554108.668 8  23554109.693 9 123777677.838 8  93637010.624 9
E11  23987106.041 7  23987103.539 7 126053088.640 7  95358338.643 7
E12  24747493.886 7  24747492.991 8 130048955.458 7  98381183.574 8
E16  23608886.132 8  23608886.654 9 124065531.451 8  93854768.204 9
E24  24733695.605 8  24733696.608 8 129976442.748 8  98326331.841 8
E25  23617241.413 8  23617242.801 8 124109441.581 8  93887991.456 8
G16  20904666.409 7  20904669.894 6                 109854760.645 7  85601126.720 6
G18  20626345.629 8                  20626350.418 8 108392175.033 8                  84461457.615 8
G23  22344538.021 7                  22344543.281 7 117421342.130 7                  91497179.565 7
G27  22783744.410 6                  22783750.757 5 119729389.497 6                  93295661.271 5
G29  23091026.917 7                  23091034.010 7 121344156.423 7                  94553906.354 7
R12  23051597.341 7  23051604.180 6 123137467.935 7  95773605.497 6
R13  20144232.865 6                 107569079.383 6
R14  20885224.122 8  20885229.261 7 111329997.831 8  86590346.924 7
R22  21398843.502 7  21398847.166 7 114228474.282 7  88844372.714 7
R23  19402983.897 8                 103792875.760 8
R24  21909979.075 6  21909982.836 5 117162608.550 6  91126447.140 5
> 2025 06 15 07 05 20.0000000  0 22
C13  37539597.418 6  37539599.989 7 195478530.544 6 151156387.214 7
C26  25535047.919 5                 132967663.703 5
C29  22038049.876 7                 114757909.558 7
C30  22200963.335 7                 115606234.268 7
E02  26692322.034 6  26692323.644 7 140269108.798 6 106112673.822 7
E10  23553061.030 8  23553061.607 9 123772170.077 8  93632844.033 9
E11  23984582.202 7  23984579.869 7 126039826.517 7  95348305.922 7
E12  24747703.062 7  24747701.798 8 130050052.594 7  98382013.543 8
E16  23608654.993 8  23608655.546 9 124064317.016 8  93853849.485 9
E24  24734664.781 8  24734665.263 8 129981532.844 8  98330182.447 8
E25  23615666.051 8  23615667.158 8 124101161.686 8  93881727.770 8
G16  20902168.213 7  20902171.473 6                 109841631.102 7  85590895.908 6
G18  20625690.992 7                  20625695.615 8 108388733.952 7                  84458776.241 8
G23  22340648.784 7                  22340654.673 7 117400906.474 7                  91481255.664 7
G27  22779598.943 6                  22779606.230 5 119707605.455 6                  93278686.672 5
G29  23092618.130 7                  23092624.708 7 121352516.662 7                  94560420.796 7
R12  23054645.135 7  23054652.013 6 123153746.907 7  95786266.892 6
R13  20145346.445 7                 107575024.542 7
R14  20881852.681 8  20881858.187 7 111312028.190 8  86576370.541 7
R22  21400617.599 7  21400620.845 6 114237942.866 7  88851737.151 6
R23  19402311.361 8                 103789279.278 8
R24  21905861.962 5  21905867.657 6 117140604.405 5  91109332.820 6
> 2025 06 15 07 05 25.0000000  0 22
C13  37538209.971 6  37538212.183 7 195471304.034 6 151150799.219 7
C26  25531671.444 5                 132950083.951 5
C29  22035549.436 7                 114744888.662 7
C30  22201233.285 7                 115607638.460 7
E02  26688614.477 5  26688616.693 7 140249628.823 5 106097937.363 7
E10  23552014.889 8  23552015.255 9 123766671.462 8  93628684.363 9
E11  23982059.815 7  23982057.795 8 126026572.843 7  95338279.604 8
E12  24747912.576 7  24747911.935 8 130051156.881 7  98382848.920 8
E16  23608425.358 8  23608426.290 9 124063112.205 8  93852938.042 9
E24  24735634.241 8  24735635.152 8 129986629.730 8  98334038.206 8
E25  23614092.212 8  23614093.366 8 124092891.478 8  93875471.406 8
G16  20899672.846 7  20899675.997 6                 109828516.177 7  85580676.489 6
G18  20625038.860 8                  20625043.064 8 108385305.537 8                  84456104.762 8
G23  22336761.907 7                  22336767.471 7 117380480.425 7                  91465339.276 7
G27  22775454.640 6                  22775462.756 5 119685825.807 6                  93261715.553 5
G29  23094209.232 7                  23094216.519 7 121360881.203 7                  94566938.580 7
R12  23057693.401 7  23057700.054 6 123170029.613 7  95798931.191 6
R13  20146463.253 7                 107580988.150 7
R14  20878485.422 8  20878489.897 7 111294076.350 8  86562407.995 7
R22  21402391.819 7  21402396.381 6 114247416.276 7  88859105.370 6
R23  19401641.951 7                 103785695.916 7
R24  21901748.790 5  21901755.258 6 117118607.545 5  91092224.087 6
> 2025 06 15 07 05 30.0000000  0 22
C13  37536822.843 6  37536825.353 7 195464081.135 6 151145214.022 7
C26  25528296.387 4                 132932512.925 4
C29  22033050.236 7                 114731874.224 7
C30  22201503.270 7                 115609048.290 7
E02  26684906.926 5  26684910.197 7 140230151.506 5 106083202.930 7
E10  23550970.166 8  23550970.524 9 123761181.367 8  93624531.139 9
E11  23979539.326 7  23979537.210 8 126013327.008 7  95328259.210 8
E12  24748124.486 7  24748123.320 8 130052267.726 7  98383689.261 8
E16  23608198.414 8  23608198.729 9 124061916.403 8  93852033.424 9
E24  24736605.512 8  24736606.263 8 129991732.853 8  98337898.665 8
E25  23612519.973 7  23612521.315 8 124084630.332 7  93869221.906 8
G16  20897179.710 7  20897182.933 6                 109815415.273 7  85570468.000 6
G18  20624388.010 8                  20624392.673 8 108381889.198 8                  84453442.670 8
G23  22332876.658 7                  22332882.267 7 117360063.386 7                  91449429.888 7
G27  22771310.496 5                  22771318.524 5 119664049.867 5                  93244747.343 5
G29  23095802.288 7                  23095809.137 7 121369249.444 7                  94573459.251 7
R12  23060741.654 7  23060747.968 6 123186315.380 7  95811597.885 6
R13  20147583.039 7                 107586969.669 7
R14  20875121.025 8  20875125.300 7 111276141.846 8  86548458.949 7
R22  21404167.275 7  21404171.550 7 114256893.904 7  88866476.869 7
R23  19400974.407 8                 103782125.007 8
R24  21897641.779 6  21897643.202 6 117096617.062 6  91075120.417 6
> 2025 06 15 07 05 35.0000000  0 22
C13  37535436.480 6  37535438.948 7 195456862.187 6 151139631.862 7
C26  25524922.998 4                 132914950.790 4
C29  22030551.463 7                 114718866.523 7
C30  22201774.990 7                 115610464.063 7
E02  26681201.099 6  26681204.308 7 140210677.128 6 106068470.726 7
E10  23549927.304 8  23549927.474 9 123755700.104 8  93620384.599 9
E11  23977020.629 7  23977018.162 8 126000089.318 7  95318244.984 8
E12  24748336.965 7  24748336.032 8 130053385.418 7  98384534.782 8
E16  23607972.247 8  23607972.965 9 124060729.939 8  93851135.861 9
E24  24737577.841 8  24737578.613 8 129996842.477 8  98341764.054 8
E25  23610949.980 8  23610951.054 8 124076378.564 8  93862979.490 8
G16  20894689.001 7  20894692.707 6                 109802328.727 7  85560270.687 6
G18  20623741.269 8                  20623745.204 8 108378485.214 8                  84450790.211 8
G23  22328993.440 7                  22328998.723 7 117339655.705 7                  91433527.809 7
G27  22767167.771 6                  22767174.702 5 119642278.017 6                  93227782.251 5
G29  23097395.828 7                  23097402.676 7 121377621.662 7                  94579983.025 7
R12  23063789.886 7  23063798.129 7 123202604.541 7  95824267.229 7
R13  20148707.120 7                 107592969.442 7
R14  20871759.917 8  20871764.671 7 111258224.874 8  86534523.538 7
R22  21405943.624 7  21405947.474 6 114266376.093 7  88873851.892 6
R23  19400309.358 8                 103778566.820 8
R24  21893540.465 6  21893532.299 6 117074633.396 6  91058022.032 6
> 2025 06 15 07 05 40.0000000  0 22
C13  37534050.865 6  37534053.415 7 195449647.373 6 151134052.926 7
C26  25521553.748 4                 132897397.842 4
C29  22028054.972 7                 114705865.745 7
C30  22202047.844 7                 115611885.940 7
E02  26677494.934 6  26677499.028 7 140191205.861 6 106053740.846 7
E10  23548885.801 8  23548886.119 8 123750227.833 8  93616244.859 8
E11  23974503.391 7  23974500.707 8 125986859.993 7  95308237.093 8
E12  24748550.776 7  24748550.046 8 130054510.153 7  98385385.636 8
E16  23607748.756 8  23607748.995 9 124059552.980 8  93850245.492 9
E24  24738551.689 8  24738552.207 8 130001958.768 8  98345634.480 8
E25  23609381.399 7  23609382.614 8 124068136.357 7  93856744.315 8
G16  20892201.968 7  20892205.300 6                 109789256.695 7  85550084.691 6
G18  20623095.456 8                  20623099.666 8 108375093.783 8                  84448147.543 8
G23  22325111.562 7                  22325117.234 7 117319257.533 7                  91417633.151 7
G27  22763025.173 6                  22763032.839 5 119620510.361 6                  93210820.478 5
G29  23098988.253 6                  23098996.480 7 121385998.081 6                  94586510.089 7
R12  23066840.691 7  23066848.517 7 123218897.177 7  95836939.236 7
R13  20149834.810 7                 107598987.654 7
R14  20868402.088 8  20868406.276 7 111240325.590 8  86520601.858 7
R22  21407721.193 7  21407724.838 6 114275862.960 7  88881230.557 6
R23  19399646.820 8                 103775021.600 8
R24  21889425.164 5  21889422.568 6 117052656.817 5  91040929.168 6
> 2025 06 15 07 05 45.0000000  0 22
C13  37532665.892 6  37532668.473 6 195442436.023 6 151128476.650 6
C26  25518183.826 4                 132879853.396 4
C29  22025560.686 7                 114692871.201 7
C30  22202321.927 7                 115613313.245 7
E02  26673791.074 6  26673794.231 7 140171737.062 6 106039012.827 7
E10  23547846.345 8  23547846.365 9 123744763.894 8  93612111.420 9
E11  23971987.637 7  23971984.666 8 125973638.305 7  95298234.979 8
E12  24748766.500 7  24748765.285 8 130055641.203 7  98386241.268 8
E16  23607526.388 8  23607526.695 9 124058384.838 8  93849361.792 9
E24  24739526.393 8  24739526.978 8 130007081.075 8  98349509.461 8
E25  23607814.755 7  23607815.853 8 124059903.052 7  93850515.875 8
G16  20889716.642 7  20889720.146 6                 109776198.476 7  85539909.454 6
G18  20622452.208 8                  20622456.605 8 108371714.191 8                  84445514.091 8
G23  22321230.981 7                  22321237.301 7 117298868.224 7                  91401745.380 7
G27  22758884.353 6                  22758892.030 5 119598746.347 6                  93193861.485 5
G29  23100584.579 7                  23100591.303 7 121394377.963 7                  94593039.854 7
R12  23069892.972 7  23069899.228 6 123235192.690 7  95849613.492 6
R13  20150964.390 7                 107605023.474 7
R14  20865047.678 8  20865051.963 7 111222443.486 8  86506693.537 7
R22  21409498.978 7  21409503.189 6 114285353.812 7  88888612.314 6
R23  19398985.670 8                 103771488.568 8
R24  21885309.793 5  21885314.948 6 117030686.595 5  91023841.254 6
> 2025 06 15 07 05 50.0000000  0 22
C13  37531281.587 6  37531284.496 6 195435228.601 6 151122903.414 6
C26  25514814.659 5                 132862318.087 5
C29  22023066.709 7                 114679883.513 7
C30  22202597.120 7                 115614746.573 7
E02  26670088.497 6  26670090.063 7 140152271.309 6 106024287.089 7
E10  23546807.754 8  23546808.319 9 123739308.850 8  93607984.712 9
E11  23969472.895 7  23969470.222 8 125960424.850 7  95288239.090 8
E12  24748982.736 7  24748981.857 8 130056779.176 7  98387102.134 8
E16  23607305.782 8  23607306.217 9 124057226.083 8  93848485.209 9
E24  24740502.314 8  24740502.990 8 130012209.944 8  98353389.407 8
E25  23606249.668 7  23606250.882 8 124051679.204 7  93844294.582 8
G16  20887234.763 7  20887237.972 6                 109763154.719 7  85529745.497 6
G18  20621811.611 8                  20621816.053 8 108368347.049 8                  84442890.340 8
G23  22317353.400 7                  22317358.881 7 117278488.402 7                  91385864.984 7
G27  22754743.025 6                  22754752.150 5 119576986.478 6                  93176905.723 5
G29  23102179.664 7                  23102186.217 7 121402761.918 7                  94599572.810 7
R12  23072942.002 7  23072949.823 6 123251491.499 7  95862290.319 6
R13  20152098.224 7                 107611077.582 7
R14  20861695.799 8  20861700.943 7 111204579.086 8  86492799.000 7
R22  21411278.542 7  21411281.168 6 114294849.240 7  88895997.620 6
R23  19398327.479 8                 103767968.320 8
R24  21881202.103 6  21881207.523 6 117008723.310 6  91006758.666 6
> 2025 06 15 07 05 55.0000000  0 22
C13  37529897.971 6  37529901.121 7 195428025.537 6 151117333.546 7
C26  25511449.496 5                 132844792.155 5
C29  22020573.664 7                 114666902.916 7
C30  22202873.619 7                 115616186.172 7
E02  26666385.279 6  26666386.540 7 140132808.835 6 106009563.825 7
E10  23545771.633 8  23545771.995 9 123733862.971 8  93603864.938 9
E11  23966960.034 7  23966957.393 8 125947219.922 7  95278249.648 8
E12  24749200.470 7  24749199.744 8 130057924.315 7  98387968.417 8
E16  23607087.056 8  23607087.551 9 124056077.036 8  93847615.955 9
E24  24741479.396 8  24741480.320 8 130017345.655 8  98357274.527 8
E25  23604686.641 7  23604687.753 8 124043465.112 7  93838080.676 8
G16  20884755.376 7  20884758.555 6                 109750125.654 7  85519592.984 6
G18  20621173.756 8                  20621177.008 8 108364992.596 8                  84440276.468 8
G23  22313476.449 7                  22313482.718 7 117258118.293 7                  91369992.168 7
G27  22750603.201 6                  22750611.648 5 119555231.062 6                  93159953.426 5
G29  23103775.824 7                  23103782.657 7 121411150.206 7                  94606109.131 7
R12  23075994.800 7  23076001.566 6 123267794.030 7  95874970.002 6
R13  20153235.273 7                 107617150.192 7
R14  20858348.469 8  20858352.974 7 111186732.604 8  86478918.410 7
R22  21413058.815 8  21413061.444 6 114304349.540 8  88903386.724 6
R23  19397672.789 8                 103764461.277 8
R24  21877095.980 6  21877102.073 5 116986767.195 6  90989681.690 5
> 2025 06 15 07 06  0.0000000  0 22
C13  37528516.449 6  37528518.424 7 195420826.505 6 151111766.785 7
C26  25508084.968 5                 132827275.390 5
C29  22018082.481 7                 114653929.249 7
C30  22203151.120 7                 115617631.847 7
E02  26662681.979 6  26662683.662 7 140113349.507 6 105994842.967 7
E10  23544737.291 8  23544737.395 9 123728426.075 8  93599751.960 9
E11  23964448.776 7  23964446.156 8 125934023.334 7  95268266.508 8
E12  24749419.838 7  24749418.979 8 130059076.447 7  98388839.993 8
E16  23606870.423 8  23606870.683 9 124054937.477 8  93846753.880 9
E24  24742457.766 8  24742458.891 8 130022488.010 8  98361164.677 8
E25  23603125.278 7  23603126.507 8 124035260.589 7  93831874.005 8
G16  20882278.801 8  20882281.969 6                 109737111.126 8  85509451.781 6
G18  20620537.696 8                  20620541.620 8 108361650.651 8                  84437672.355 8
G23  22309602.439 7                  22309608.009 7 117237757.773 7                  91354126.842 7
G27  22746463.651 6                  22746471.455 5 119533479.922 6                  93143004.476 5
G29  23105373.041 6                  23105379.748 7 121419542.690 6                  94612648.698 7
R12  23079047.478 7  23079054.734 6 123284100.056 7  95887652.422 6
R13  20154376.459 7                 107623241.146 7
R14  20855003.396 8  20855007.927 7 111168904.063 8  86465051.776 7
R22  21414838.840 7  21414841.620 6 114313854.438 7  88910779.397 6
R23  19397019.003 8                 103760967.101 8
R24  21872994.340 6  21872996.498 5 116964818.047 6  90972610.143 5
> 2025 06 15 07 06  5.0000000  0 22
C13  37527133.861 6  37527136.868 7 195413632.255 6 151106203.736 7
C26  25504722.356 5                 132809768.438 5
C29  22015592.336 7                 114640963.144 7
C30  22203430.551 7                 115619084.269 7
E02  26658980.616 6  26658981.482 7 140093893.991 6 105980124.979 7
E10  23543704.636 8  23543704.606 9 123722998.818 8  93595646.271 9
E11  23961938.847 7  23961936.627 8 125920835.743 7  95258290.188 8
E12  24749640.552 7  24749639.669 8 130060236.226 7  98389717.354 8
E16  23606655.517 8  23606655.759 9 124053808.054 8  93845899.472 9
E24  24743437.734 8  24743438.879 8 130027637.735 8  98365060.399 8
E25  23601565.869 7  23601567.183 8 124027066.287 7  93825675.066 8
G16  20879805.341 8  20879808.174 6                 109724111.773 8  85499322.418 6
G18  20619903.749 8                  20619907.878 8 108358321.865 8                  84435078.504 8
G23  22305730.118 7                  22305735.360 7 117217407.478 7                  91338269.472 7
G27  22742325.667 6                  22742333.040 5 119511733.682 6                  93126059.287 5
G29  23106971.269 6                  23106977.297 7 121427939.916 6                  94619191.993 7
R12  23082100.595 7  23082108.021 6 123300410.259 7  95900338.065 6
R13  20155521.066 7                 107629351.031 7
R14  20851661.969 8  20851667.093 7 111151093.917 8  86451199.438 7
R22  21416620.767 7  21416622.956 6 114323364.653 7  88918176.212 6
R23  19396368.721 8                 103757486.483 8
R24  21868888.644 6  21868892.897 5 116942876.669 6  90955544.597 5
> 2025 06 15 07 06 10.0000000  0 22
C13  37525753.494 6  37525756.025 7 195406442.490 6 151100644.156 7
C26  25501362.996 5                 132792271.137 5
C29  22013103.910 7                 114628004.398 7
C30  22203710.758 7                 115620543.180 7
E02  26655279.294 6  26655279.886 7 140074442.015 6 105965409.687 7
E10  23542673.784 8  23542673.612 9 123717580.954 8  93591547.689 9
E11  23959431.372 7  23959428.777 8 125907656.903 7  95248320.483 8
E12  24749863.031 7  24749861.780 8 130061403.390 7  98390600.305 8
E16  23606442.461 8  23606442.726 9 124052688.563 8  93845052.580 9
E24  24744419.277 8  24744420.190 8 130032794.502 8  98368961.438 8
E25  23600008.277 7  23600009.795 8 124018881.992 7  93819483.700 8
G16  20877334.675 8  20877337.616 6                 109711127.435 8  85489204.744 6
G18  20619273.651 8                  20619276.930 8 108355005.999 8                  84432494.718 8
G23  22301859.104 7                  22301864.874 7 117197067.215 7                  91322419.903 7
G27  22738188.614 6                  22738197.590 5 119489992.131 6                  93109117.854 5
G29  23108569.367 6                  23108576.394 7 121436341.717 6                  94625738.842 7
R12  23085155.447 7  23085161.738 7 123316724.265 7  95913026.693 7
R13  20156667.756 7                 107635479.632 7
R14  20848324.245 8  20848329.279 7 111133302.010 8  86437361.272 7
R22  21418403.337 7  21418406.034 6 114332879.922 7  88925576.977 6
R23  19395719.692 8                 103754019.129 8
R24  21864788.684 6  21864791.576 5 116920942.771 6  90938484.892 5
> 2025 06 15 07 06 15.0000000  0 22
C13  37524372.948 6  37524375.713 7 195399255.824 6 151095086.968 7
C26  25498004.405 5                 132774782.032 5
C29  22010616.096 7                 114615051.533 7
C30  22203991.831 7                 115622007.166 7
E02  26651578.131 6  26651578.715 7 140054992.146 6 105950695.987 7
E10  23541643.886 8  23541644.128 9 123712171.022 8  93587455.109 9
E11  23956924.731 7  23956922.294 7 125894485.361 7  95238356.304 7
E12  24750085.901 7  24750085.048 8 130062576.510 7  98391487.758 8
E16  23606231.090 8  23606231.314 9 124051577.509 8  93844212.071 9
E24  24745401.580 8  24745402.570 8 130037956.868 8  98372866.731 8
E25  23598452.519 8  23598454.013 8 124010706.224 8  93813298.784 8
G16  20874866.573 8  20874869.238 6                 109698156.604 8  85479097.598 6
G18  20618644.182 8                  20618648.197 8 108351701.605 8                  84429919.872 8
G23  22297990.372 7                  22297995.746 7 117176735.535 7                  91306577.046 7
G27  22734051.943 6                  22734063.180 5 119468253.863 6                  93092178.986 5
G29  23110169.033 6                  23110175.877 7 121444746.623 6                  94632288.107 7
R12  23088209.688 7  23088216.194 6 123333040.600 7  95925717.126 6
R13  20157819.860 7                 107641625.585 7
R14  20844989.599 8  20844995.148 7 111115526.972 8  86423536.242 7
R22  21420186.351 7  21420189.389 6 114342398.691 7  88932980.452 6
R23  19395074.327 8                 103750563.725 8
R24  21860687.486 6  21860690.300 5 116899014.746 6  90921429.764 5
> 2025 06 15 07 06 20.0000000  0 22
C13  37522994.729 6  37522996.572 7 195392073.869 6 151089533.424 7
C26  25494647.010 5                 132757302.734 5
C29  22008129.570 7                 114602106.263 7
C30  22204274.194 7                 115623477.871 7
E02  26647877.165 6  26647878.161 7 140035546.028 6 105935985.145 7
E10  23540616.018 8  23540616.495 9 123706770.729 8  93583369.823 9
E11  23954419.926 7  23954417.568 8 125881322.809 7  95228398.920 8
E12  24750310.746 7  24750309.750 8 130063757.259 7  98392380.979 8
E16  23606021.497 8  23606021.813 9 124050476.628 8  93843379.253 9
E24  24746385.612 8  24746386.357 8 130043126.554 8  98376777.552 8
E25  23596898.487 8  23596900.168 8 124002540.717 8  93807121.628 8
G16  20872401.275 8  20872404.017 6                 109685201.010 8  85469002.320 6
G18  20618017.800 8                  20618021.622 8 108348410.355 8                  84427355.241 8
G23  22294122.689 7                  22294128.709 7 117156414.135 7                  91290742.178 7
G27  22729917.181 6                  22729928.928 6 119446520.530 6                  93075243.936 6
G29  23111769.312 7                  23111776.576 7 121453156.350 7                  94638841.104 7
R12  23091266.493 7  23091272.098 7 123349360.990 7  95938410.722 7
R13  20158973.629 7                 107647790.359 7
R14  20841659.194 8  20841663.608 7 111097770.292 8  86409725.479 7
R22  21421970.648 7  21421973.330 6 114351922.723 7  88940388.012 6
R23  19394430.464 8                 103747121.664 8
R24  21856591.617 6  21856591.544 5 116877094.579 6  90904380.760 5
> 2025 06 15 07 06 25.0000000  0 23
C13  37521615.894 6  37521618.300 7 195384896.839 6 151083983.695 7
C26  25491293.752 5                 132739833.627 5
C29  22005645.394 8                 114589168.759 8
C30  22204558.238 7                 115624955.498 7
E02  26644177.324 6  26644178.351 7 140016103.970 6 105921277.385 7
E10  23539590.026 8  23539590.720 9 123701380.254 8  93579291.958 9
E11  23951916.695 7  23951914.586 8 125868169.476 7  95218448.505 8
E12  24750537.123 7  24750535.939 8 130064945.809 7  98393280.107 8
E16  23605813.575 8  23605814.272 9 124049386.082 8  93842554.256 9
E24  24747370.887 8  24747371.543 8 130048303.720 8  98380694.031 8
E25  23595346.575 8  23595348.319 8 123994385.651 8  93800952.374 8
G16  20869938.574 8  20869941.421 6                 109672260.823 8  85458919.076 6
G18  20617393.982 8                  20617397.966 8 108345132.457 8                  84424801.025 8
G23  22290257.447 7                  22290263.377 7 117136103.220 7                  91274915.505 7
G27  22725781.760 6                  22725793.987 6 119424792.361 6                  93058312.905 6
G29  23113371.335 7                  23113377.798 7 121461571.017 7                  94645397.966 7
G31  24875449.211 5                                 130721451.28315                
R12  23094321.700 7  23094327.879 6 123365685.653 7  95951107.635 6
R13  20160132.946 6                 107653974.332 6
R14  20838331.739 8  20838336.561 7 111080032.544 8  86395929.461 7
R22  21423755.505 7  21423758.466 6 114361452.242 7  88947799.854 6
R23  19393790.192 8                 103743693.553 8
R24  21852492.161 6  21852493.446 5 116855182.224 6  90887337.841 5
> 2025 06 15 07 06 30.0000000  0 23
C13  37520239.084 6  37520241.215 6 195377724.665 6 151078437.706 6
C26  25487941.661 5                 132722374.422 5
C29  22003161.821 7                 114576238.908 7
C30  22204843.500 7                 115626439.871 7
E02  26640478.175 6  26640479.326 7 139996665.837 6 105906572.562 7
E10  23538566.212 8  23538566.788 9 123695999.461 8  93575221.420 9
E11  23949415.444 7  23949413.343 8 125855025.188 7  95208504.938 8
E12  24750764.825 7  24750763.570 8 130066142.063 7  98394185.063 8
E16  23605608.297 8  23605608.682 9 124048305.739 8  93841736.981 9
E24  24748357.511 8  24748358.163 8 130053488.255 8  98384616.084 8
E25  23593796.949 8  23593798.405 8 123986240.873 8  93794790.910 8
G16  20867479.050 8  20867482.009 6                 109659335.939 8  85448847.744 6
G18  20616772.577 8                  20616776.616 8 108341867.730 8                  84422257.085 8
G23  22286394.370 7                  22286400.816 7 117115802.654 7                  91259096.886 7
G27  22721647.401 6                  22721660.119 6 119403069.196 6                  93041385.758 6
G29  23114972.892 7                  23114980.107 7 121469990.577 7                  94651958.644 7
G31  24877539.213 5                                 130732435.387 5                
R12  23097377.717 7  23097383.749 6 123382014.399 7  95963807.742 6
R13  20161293.513 6                 107660177.200 6
R14  20835007.374 8  20835011.703 7 111062313.430 8  86382147.927 7
R22  21425541.946 7  21425544.694 6 114370987.054 7  88955215.811 6
R23  19393151.318 7                 103740278.932 7
R24  21848397.271 7  21848397.597 6 116833277.734 7  90870301.027 6
> 2025 06 15 07 06 35.0000000  0 23
C13  37518862.344 6  37518864.359 7 195370556.188 6 151072894.588 7
C26  25484590.139 5                 132704924.124 5
C29  22000680.051 7                 114563315.600 7
C30  22205129.858 7                 115627929.957 7
E02  26636780.186 6  26636780.805 7 139977230.476 6 105891869.832 7
E10  23537543.726 8  23537544.472 9 123690627.246 8  93571157.367 9
E11  23946915.816 7  23946913.559 8 125841888.857 7  95198567.387 8
E12  24750993.381 7  24750992.497 8 130067344.896 7  98395094.982 8
E16  23605404.310 8  23605404.872 9 124047234.517 8  93840926.601 9
E24  24749345.128 8  24749345.972 8 130058679.041 8  98388542.868 8
E25  23592248.994 8  23592250.308 8 123978105.329 8  93788636.419 8
G16  20865021.941 8  20865025.233 6                 109646425.303 8  85438787.500 6
G18  20616153.705 8                  20616158.071 8 108338615.127 8                  84419722.584 8
G23  22282533.190 7                  22282539.218 7 117095511.359 7                  91243285.500 7
G27  22717514.015 6                  22717526.062 5 119381349.992 6                  93024461.741 5
G29  23116575.339 7                  23116582.587 7 121478413.875 7                  94658522.256 7
G31  24879630.252 5                                 130743419.395 5                
R12  23100434.646 7  23100441.792 6 123398346.133 7  95976510.156 6
R13  20162458.709 6                 107666397.949 6
R14  20831686.481 8  20831691.606 7 111044611.951 8  86368380.103 7
R22  21427329.081 8  21427330.634 6 114380526.066 8  88962635.044 6
R23  19392515.498 8                 103736876.719 8
R24  21844309.623 7  21844302.332 6 116811379.974 7  90853269.436 6
> 2025 06 15 07 06 40.0000000  0 23
C13  37517486.169 6  37517488.588 7 195363393.335 6 151067355.810 7
C26  25481241.715 5                 132687484.542 5
C29  21998199.710 7                 114550400.747 7
C30  22205417.437 7                 115629427.618 7
E02  26633082.813 7  26633083.224 7 139957799.867 7 105877170.715 7
E10  23536523.298 8  23536524.186 9 123685265.518 8  93567101.259 9
E11  23944417.807 7  23944415.628 8 125828762.385 7  95188637.298 8
E12  24751224.294 7  24751223.016 8 130068556.178 7  98396011.296 8
E16  23605202.633 8  23605203.140 8 124046174.288 8  93840124.544 8
E24  24750334.386 8  24750335.330 8 130063877.955 8  98392475.806 8
E25  23590702.851 8  23590704.296 8 123969980.907 8  93782490.340 8
G16  20862567.962 8  20862571.828 6                 109633530.788 8  85428739.839 6
G18  20615537.246 7                  20615541.368 8 108335376.515 7                  84417198.983 8
G23  22278673.942 7                  22278679.872 7 117075231.282 7                  91227482.862 7
G27  22713382.951 5                  22713392.579 5 119359636.634 5                  93007542.250 5
G29  23118180.061 7                  23118186.505 7 121486842.807 7                  94665090.257 7
G31  24881721.449 5                                 130754405.217 5                
R12  23103492.677 7  23103500.211 6 123414682.673 7  95989216.374 6
R13  20163627.811 7                 107672638.384 7
R14  20828369.799 8  20828374.218 7 111026929.754 8  86354627.305 7
R22  21429116.691 7  21429119.134 6 114390071.286 7  88970059.069 6
R23  19391882.264 8                 103733489.093 8
R24  21840217.141 6  21840209.178 6 116789490.787 6  90836244.511 6
> 2025 06 15 07 06 45.0000000  0 23
C13  37516111.355 6  37516114.178 7 195356234.931 6 151061820.468 7
C26  25477893.651 6                 132670054.686 6
C29  21995720.984 7                 114537493.211 7
C30  22205706.467 7                 115630931.739 7
E02  26629386.124 7  26629386.362 7 139938372.815 7 105862474.272 7
E10  23535505.288 8  23535505.642 9 123679913.132 8  93563052.199 9
E11  23941921.465 7  23941919.444 8 125815644.680 7  95178713.843 8
E12  24751455.895 7  24751454.905 8 130069774.809 7  98396933.179 8
E16  23605003.178 8  23605003.255 8 124045123.968 8  93839329.983 8
E24  24751325.522 8  24751326.046 8 130069083.903 8  98396414.049 8
E25  23589158.503 8  23589160.151 8 123961866.494 8  93776351.837 8
G16  20860117.057 8  20860120.842 6                 109620651.279 8  85418703.846 6
G18  20614923.571 7                  20614927.403 8 108332150.771 7                  84414685.411 8
G23  22274816.758 7                  22274822.781 7 117054961.316 7                  91211688.076 7
G27  22709251.645 6                  22709261.105 5 119337927.910 6                  92990626.412 5
G29  23119785.111 7                  23119791.243 7 121495276.290 7                  94671661.775 7
G31  24883811.208 5                                 130765391.739 5                
R12  23106551.702 7  23106559.030 6 123431022.931 7  96001925.453 6
R13  20164799.351 7                 107678897.512 7
R14  20825056.090 8  20825060.526 7 111009266.028 8  86340888.857 7
R22  21430905.755 7  21430908.363 6 114399621.431 7  88977486.931 6
R23  19391251.660 8                 103730114.700 8
R24  21836125.409 6  21836117.206 6 116767609.037 6  90819225.384 6
> 2025 06 15 07 06 50.0000000  0 23
C13  37514737.953 6  37514740.189 7 195349081.473 6 151056288.957 7
C26  25474549.862 6                 132652634.933 6
C29  21993244.118 7                 114524593.444 7
C30  22205996.554 7                 115632442.745 7
E02  26625690.655 6  26625690.355 7 139918949.837 6 105847780.916 7
E10  23534488.973 8  23534488.975 9 123674570.551 8  93559010.575 9
E11  23939426.969 7  23939424.917 8 125802536.177 7  95168797.351 8
E12  24751689.401 7  24751688.323 8 130071001.234 7  98397860.955 8
E16  23604804.833 8  23604805.368 8 124044083.997 8  93838543.240 8
E24  24752317.292 8  24752318.151 8 130074297.334 8  98400357.969 8
E25  23587616.617 8  23587618.054 8 123953762.516 8  93770221.229 8
G16  20857669.443 7  20857672.796 6                 109607787.252 7  85408679.923 6
G18  20614312.387 8                  20614316.354 8 108328938.317 8                  84412182.211 8
G23  22270961.935 7                  22270967.735 7 117034701.865 7                  91195901.510 7
G27  22705121.558 5                  22705130.965 5 119316224.444 5                  92973714.625 5
G29  23121390.910 7                  23121397.311 7 121503714.699 7                  94678237.138 7
G31  24885901.714 5                                 130776379.392 5                
R12  23109611.751 7  23109618.304 6 123447367.371 7  96014637.755 6
R13  20165974.038 6                 107685175.697 6
R14  20821745.503 8  20821750.390 7 110991620.942 8  86327164.895 7
R22  21432695.759 7  21432698.800 6 114409177.013 7  88984919.062 6
R23  19390623.456 8                 103726753.896 8
R24  21832030.213 6  21832026.111 6 116745735.249 6  90802212.401 6
> 2025 06 15 07 06 55.0000000  0 23
C13  37513366.005 6  37513367.549 7 195341933.844 6 151050761.966 7
C26  25471207.346 6                 132635226.196 6
C29  21990768.482 7                 114511702.359 7
C30  22206288.058 7                 115633961.536 7
E02  26621995.515 6  26621995.303 7 139899531.784 6 105833091.298 7
E10  23533474.161 8  23533474.383 9 123669238.666 8  93554977.042 9
E11  23936934.452 7  23936932.361 8 125789437.745 7  95158888.474 8
E12  24751924.100 7  24751923.351 8 130072236.309 7  98398795.283 8
E16  23604609.420 8  23604609.617 8 124043055.247 8  93837764.991 8
E24  24753310.864 8  24753311.836 8 130079519.122 8  98404308.202 8
E25  23586076.667 8  23586078.074 8 123945669.903 8  93764099.224 8
G16  20855224.359 7  20855227.801 6                 109594939.564 7  85398668.747 6
G18  20613703.470 8                  20613707.611 8 108325740.080 8                  84409690.089 8
G23  22267108.814 7                  22267114.588 7 117014453.908 7                  91180123.867 7
G27  22700990.731 5                  22701001.178 5 119294527.062 5                  92956807.549 5
G29  23122997.373 7                  23123004.033 7 121512158.938 7                  94684817.037 7
G31  24887990.571 5                                 130787369.013 5                
R12  23112672.552 7  23112679.373 6 123463716.867 7  96027354.040 6
R13  20167154.295 6                 107691473.866 6
R14  20818439.637 8  20818444.413 7 110973995.735 8  86313456.391 7
R22  21434486.296 7  21434489.681 6 114418738.898 7  88992356.086 6
R23  19389998.389 8                 103723407.703 8
R24  21827929.757 5  21827937.756 6 116723870.353 5  90785206.365 6
> 2025 06 15 07 07  0.0000000  0 23
C13  37511993.997 6  37511996.260 7 195334791.347 6 151045238.941 7
C26  25467865.989 6                 132617827.851 6
C29  21988293.915 7                 114498819.283 7
C30  22206581.731 7                 115635487.436 7
E02  26618300.634 6  26618300.946 7 139880118.007 6 105818404.937 7
E10  23532460.757 8  23532461.676 9 123663916.805 8  93550951.094 9
E11  23934444.020 7  23934441.600 8 125776348.755 7  95148986.734 8
E12  24752161.019 7  24752159.917 8 130073479.356 7  98399735.636 8
E16  23604415.285 8  23604415.856 9 124042037.072 8  93836994.741 9
E24  24754306.562 8  24754307.001 8 130084748.596 8  98408264.257 8
E25  23584538.628 8  23584540.089 8 123937587.983 8  93757985.306 8
G16  20852782.695 7  20852785.817 6                 109582107.590 7  85388669.807 6
G18  20613097.310 7                  20613101.846 8 108322555.389 7                  84407208.495 8
G23  22263257.709 7                  22263263.216 7 116994216.747 7                  91164354.646 7
G27  22696864.051 5                  22696873.115 6 119272835.097 5                  92939904.749 6
G29  23124605.905 7                  23124611.819 7 121520608.341 7                  94691400.972 7
G31  24890082.899 4                                 130798360.082 4                
R12  23115733.648 7  23115740.790 6 123480070.740 7  96040073.655 6
R13  20168336.859 6                 107697791.235 6
R14  20815136.847 8  20815141.470 7 110956389.714 8  86299762.833 7
R22  21436279.264 7  21436282.189 6 114428306.381 7  88999797.464 6
R23  19389375.177 8                 103720075.488 8
R24  21823843.017 5  21823850.229 6 116702013.750 5  90768206.796 6
