     3.04           OBSERVATION DATA    Mixed(MIXED)        RINEX VERSION / TYPE
cnvtToRINEX 3.14.0  convertToRINEX OPR  20250615 162729 UTC PGM / RUN BY / DATE 
----------------------------------------------------------- COMMENT             
36.1B                                                       MARKER NAME         
36.1B                                                       MARKER NUMBER       
GEODETIC                                                    MARKER TYPE         
GNSS Observer       Trimble                                 OBSERVER / AGENCY   
6203S17886          Geo Explorer 3      5.53                REC # / TYPE / VERS 
                    UNKNOWN EXT     NONE                    ANT # / TYPE        
  3913235.7670  1190474.1991  4878392.0749                  APPROX POSITION XYZ 
        1.3120        0.0000        0.0000                  ANTENNA: DELTA H/E/N
G    6 C1C C2W C2X L1C L2W L2X                              SYS / # / OBS TYPES 
R    4 C1C C2C L1C L2C                                      SYS / # / OBS TYPES 
C    4 C2I C7I L2I L7I                                      SYS / # / OBS TYPES 
E    4 C1X C8X L1X L8X                                      SYS / # / OBS TYPES 
     5.000                                                  INTERVAL            
  2025     6    15    10    40   25.0000000     GPS         TIME OF FIRST OBS   
  2025     6    15    11    20   30.0000000     GPS         TIME OF LAST OBS    
     0                                                      RCV CLOCK OFFS APPL 
  8 R01  1 R02 -4 R03  5 R08  6 R16 -1 R17  4 R18 -3 R24  2 GLONASS SLOT / FRQ #
G L2X -0.25000                                              SYS / PHASE SHIFT   
R L2C -0.25000                                              SYS / PHASE SHIFT   
    18                                                      LEAP SECONDS        
    27                                                      # OF SATELLITES     
   C12     6     6     6     6                              PRN / # OF OBS      
   C13     2     0     2     0                              PRN / # OF OBS      
   C19   477     0   477     0                              PRN / # OF OBS      
   C20   477     0   477     0                              PRN / # OF OBS      
   C22   321     0   319     0                              PRN / # OF OBS      
   C29   164     0   164     0                              PRN / # OF OBS      
   E02   476   475   476   475                              PRN / # OF OBS      
   E04   318   283   311   283                              PRN / # OF OBS      
   E06   477   477   477   477                              PRN / # OF OBS      
   E09   302   302   302   302                              PRN / # OF OBS      
   E11   420   414   416   414                              PRN / # OF OBS      
   E30   477   477   477   477                              PRN / # OF OBS      
   E34   477   477   477   477                              PRN / # OF OBS      
   E36   477   477   477   477                              PRN / # OF OBS      
   G01   477     0   477   477     0   477                  PRN / # OF OBS      
   G02   477   477     0   477   477     0                  PRN / # OF OBS      
   G03    78     0    75    77     0    75                  PRN / # OF OBS      
   G08   477     0   477   477     0   477                  PRN / # OF OBS      
   G10   477     0   477   477     0   477                  PRN / # OF OBS      
   G27   453     1   443   449     1   442                  PRN / # OF OBS      
   G32   477     0   477   477     0   477                  PRN / # OF OBS      
   R01   477     0   477     0                              PRN / # OF OBS      
   R02   477   477   477   477                              PRN / # OF OBS      
   R16   213   152   206   137                              PRN / # OF OBS      
   R17   477   477   477   477                              PRN / # OF OBS      
   R18   465   455   464   452                              PRN / # OF OBS      
   R24   477   477   477   477                              PRN / # OF OBS      
DBHZ                                                        SIGNAL STRENGTH UNIT
                                                            END OF HEADER       
>                              2  1
              *** Start of Kinematic Data ***               COMMENT             
> 2025 06 15 10 40 25.0000000  0 22
C19  22590634.296 7                 117635428.52117
C20  23369743.872 7                 121692626.66617
C29  23726081.069 6                 123548007.18816
E02  25715551.767 6  25715556.390 7 135136127.47516 102229627.33217
E04  25837342.865 5  25837360.126 5 135776263.03015 102713865.58715
E06  25581682.302 7  25581686.074 8 134432609.62117 101697447.01418
E11  25380778.703 7  25380777.582 7 133376938.36617 100898745.22717
E30  26445263.747 7  26445267.021 8 138970791.20617 105130520.77018
E34  25894568.536 7  25894571.515 8 136076889.97617 102941287.66618
E36  23463949.133 8  23463951.048 9 123303877.45218  93278600.51419
G01  23184153.129 5                  23184165.437 6 121833745.99615                  94935370.18916
G02  21411142.927 7  21411145.764 6                 112516433.53517  87675067.96916
G08  20404765.482 8                  20404772.468 7 107227993.94518                  83554138.70817
G10  21432065.550 8                  21432071.665 7 112626438.12918                  87760767.81117
G27  21598845.437 7                  21598852.431 7 113502787.73617                  88443705.11817
G32  22576800.954 7                  22576808.759 6 118641896.51617                  92448298.20016
R01  19952846.631 7                 106659620.95417
R02  20681249.583 7  20681254.986 7 110359208.91317  85834885.22917
R16  22393327.130 6  22393332.655 5 119621305.19016  93038686.78915
R17  19530479.956 8  19530484.870 7 104511760.27718  81286783.93517
R18  22448181.174 5  22448186.112 5 119830079.52115  93201063.97915
R24  20614240.277 8  20614244.536 7 110233645.92718  85737285.04417
> 2025 06 15 10 40 55.0000000  0 21
C19  22575126.340 7                 117554679.569 7
C20  23371909.746 7                 121703898.433 7
C29  23734392.469 6                 123591263.274 6
E02  25721985.510 5  25721986.414 7 135169918.755 5 102255190.056 7
E04  25829417.826 4  25829422.330 6 135734606.90114 102682353.40116
E06  25566085.505 7  25566088.607 8 134350643.919 7 101635440.562 8
E11  25385139.405 7  25385138.609 7 133399856.312 7 100916082.429 7
E30  26437012.078 7  26437015.379 8 138927427.861 7 105097716.663 8
E34  25875327.924 7  25875330.644 8 135975776.308 7 102864795.892 8
E36  23456228.209 8  23456230.434 9 123263304.835 8  93247907.580 9
G01  23160266.815 6                  23160272.696 5 121708218.629 6                  94837556.665 5
G02  21395378.672 7  21395381.449 6                 112433592.556 7  87610516.599 6
G08  20400786.579 8                  20400792.616 7 107207082.164 8                  83537843.796 7
G10  21435116.773 8                  21435122.425 7 112642471.387 8                  87773261.217 7
G27  21608164.219 7                  21608171.815 7 113551761.019 7                  88481866.052 7
G32  22558442.535 7                  22558449.370 6 118545419.168 7                  92373121.139 6
R01  19951058.611 8                 106650058.910 8
R02  20656466.080 7  20656470.918 7 110226961.393 7  85732026.135 7
R17  19516236.226 8  19516241.167 7 104435537.450 8  81227499.523 7
R18  22421925.346 5  22421927.552 5 119689921.127 5  93092052.099 5
R24  20620487.631 8  20620492.527 7 110267055.257 8  85763270.033 7
>                              3  5
              *** Start of Occupation ***                   COMMENT             
36.1B                                                       MARKER NAME         
36.1B                                                       MARKER NUMBER       
  3913235.7670  1190474.1991  4878392.0749                  APPROX POSITION XYZ 
        1.3120        0.0000        0.0000                  ANTENNA: DELTA H/E/N
> 2025 06 15 10 41  0.0000000  0 21
C19  22572551.705 7                 117541269.393 7
C20  23372279.085 7                 121705822.326 7
C29  23735781.411 6                 123598495.450 6
E02  25723061.400 6  25723063.607 7 135175579.736 6 102259472.515 7
E04  25828113.318 4  25828110.271 6 135727709.82814 102677135.76616
E06  25563492.880 7  25563496.436 8 134337021.677 7 101625135.425 8
E11  25385869.259 7  25385868.097 7 133403689.624 7 100918982.279 7
E30  26435645.574 7  26435648.662 8 138920245.932 7 105092283.602 8
E34  25872123.377 7  25872125.938 8 135958935.353 7 102852055.839 8
E36  23454945.616 8  23454947.863 9 123256565.008 8  93242808.939 9
G01  23156290.118 6                  23156294.142 5 121687312.237 6                  94821266.017 5
G02  21392756.975 7  21392758.632 6                 112419812.738 7  87599779.066 6
G08  20400133.435 8                  20400140.165 7 107203653.192 8                  83535171.864 7
G10  21435632.506 8                  21435638.425 7 112645183.019 8                  87775374.182 7
G27  21609725.312 7                  21609732.780 7 113559961.908 7                  88488256.343 7
G32  22555391.687 7                  22555398.382 6 118529385.128 7                  92360627.083 6
R01  19950775.849 8                 106648546.050 8
R02  20652346.462 7  20652351.581 7 110204978.029 7  85714927.962 7
R17  19513870.978 8  19513875.202 7 104422876.847 8  81217652.366 7
R18  22417548.412 5  22417554.669 5 119666571.97715  93073891.56915
R24  20621537.102 8  20621541.421 7 110272662.616 8  85767631.283 7
> 2025 06 15 10 41  5.0000000  0 19
C19  22569978.579 7                 117527871.750 7
C20  23372650.739 7                 121707757.950 7
C29  23737172.032 6                 123605732.953 6
E02  25724139.188 6  25724142.082 7 135181247.777 6 102263760.385 7
E06  25560902.496 7  25560906.090 8 134323409.318 7 101614837.762 8
E11  25386599.202 7  25386598.086 7 133407525.626 7 100921884.185 7
E30  26434281.523 7  26434284.279 8 138913075.782 7 105086859.418 8
E34  25868918.334 7  25868921.502 8 135942096.435 7 102839317.297 8
E36  23453663.556 8  23453666.290 9 123249830.322 8  93237714.204 9
G01  23152311.312 6                  23152315.532 5 121666408.893 6                  94804977.663 5
G02  21390135.671 7  21390136.932 6                 112406039.456 7  87589046.650 6
G08  20399484.087 8                  20399490.338 7 107200239.122 8                  83532511.569 7
G10  21436151.000 8                  21436156.292 7 112647904.686 8                  87777494.955 7
G27  21611287.112 7                  21611295.121 7 113568172.626 7                  88494654.285 7
G32  22552342.038 7                  22552349.671 6 118513362.935 7                  92348142.260 6
R01  19950497.033 8                 106647054.947 8
R02  20648229.133 7  20648234.699 7 110183010.053 7  85697841.762 7
R17  19511507.569 8  19511511.550 7 104410227.387 8  81207813.890 7
R24  20622587.008 8  20622591.546 7 110278279.900 8  85772000.282 7
> 2025 06 15 10 41 10.0000000  0 21
C19  22567408.241 7                 117514487.894 7
C20  23373025.932 7                 121709706.512 7
C29  23738562.525 6                 123612977.034 6
E02  25725219.868 6  25725222.281 7 135186924.124 6 102268054.481 7
E06  25558314.786 7  25558317.975 8 134309808.063 7 101604548.505 8
E11  25387329.811 7  25387328.794 7 133411365.576 7 100924789.072 7
E30  26432919.422 7  26432922.301 8 138905918.634 7 105081445.071 8
E34  25865715.018 7  25865717.648 8 135925260.800 7 102826581.252 8
E36  23452383.496 8  23452385.891 9 123243102.088 8  93232624.325 9
G01  23148333.516 6                  23148338.950 5 121645509.867 6                  94788692.755 5
G02  21387515.720 7  21387517.460 6                 112392273.984 7  87578320.316 6
G08  20398837.692 8                  20398843.945 7 107196841.227 8                  83529863.866 7
G10  21436670.872 8                  21436676.461 7 112650637.657 8                  87779624.544 7
G27  21612852.070 7                  21612860.021 7 113576394.402 7                  88501060.849 7
G32  22549295.610 7                  22549302.888 6 118497353.805 7                  92335667.600 6
R01  19950222.528 7                 106645586.979 7
R02  20644116.369 7  20644121.748 7 110161058.967 7  85680768.667 7
R16  22392640.987 6                 119617537.98216
R17  19509146.175 8  19509149.941 7 104397590.339 8  81197985.091 7
R18  22408802.104 5                 119619881.50415
R24  20623640.651 8  20623643.895 7 110283908.479 8  85776378.079 7
> 2025 06 15 10 41 15.0000000  0 22
C19  22564841.255 7                 117501119.219 7
C20  23373402.581 7                 121711669.450 7
C22  25223602.776 4                 131345894.72014
C29  23739954.471 6                 123620229.085 6
E02  25726302.351 6  25726304.315 7 135192610.228 6 102272355.968 7
E06  25555728.200 7  25555732.158 8 134296219.360 7 101594268.754 8
E11  25388061.204 7  25388060.582 7 133415210.881 7 100927698.005 7
E30  26431559.995 7  26431563.091 8 138898775.903 7 105076041.639 8
E34  25862511.957 7  25862514.728 8 135908429.877 7 102813848.768 8
E36  23451104.195 8  23451107.023 9 123236381.652 8  93227540.375 9
G01  23144358.074 6                  23144362.590 5 121624616.604 6                  94772412.303 5
G02  21384898.773 7  21384900.057 6                 112378517.770 7  87567601.177 6
G08  20398193.783 8                  20398200.736 7 107193460.870 8                  83527229.813 7
G10  21437193.276 8                  21437198.974 7 112653383.321 8                  87781764.017 7
G27  21614418.578 7                  21614427.092 7 113584628.675 7                  88507477.169 7
G32  22546252.304 7                  22546259.446 7 118481359.233 7                  92323204.284 7
R01  19949952.430 7                 106644143.567 7
R02  20640006.541 7  20640011.300 7 110139125.762 7  85663709.527 7
R16  22392576.243 5  22392570.119 6 119617228.065 5  93035511.17816
R17  19506786.758 8  19506790.786 7 104384967.212 8  81188167.091 7
R18  22404432.307 5  22404434.191 5 119596541.764 5  93019416.85115
R24  20624695.281 8  20624698.491 7 110289549.687 8  85780765.675 7
> 2025 06 15 10 41 20.0000000  0 21
C19  22562276.963 7                 117487765.503 7
C20  23373782.002 7                 121713646.496 7
C29  23741347.124 6                 123627488.846 6
E02  25727384.480 6  25727388.065 7 135198305.844 6 102276664.652 7
E06  25553144.902 7  25553148.547 8 134282642.932 7 101583998.303 8
E11  25388794.163 7  25388793.350 7 133419061.334 7 100930610.835 7
E30  26430203.700 8  26430206.644 8 138891647.336 8 105070648.907 8
E34  25859309.871 7  25859312.733 8 135891603.417 7 102801119.680 8
E36  23449826.847 8  23449829.623 9 123229668.817 8  93222462.164 9
G01  23140384.140 6                  23140387.830 6 121603728.801 6                  94756136.134 6
G02  21382282.401 7  21382283.844 6                 112364770.532 7  87556889.056 6
G08  20397553.888 8                  20397560.568 7 107190097.829 8                  83524609.260 7
G10  21437718.103 8                  21437723.871 7 112656141.429 8                  87783913.191 7
G27  21615988.547 6                  21615996.651 8 113592875.141 6                  88513902.970 8
G32  22543211.576 7                  22543218.806 6 118465378.913 7                  92310752.093 6
R01  19949687.192 7                 106642724.423 7
R02  20635898.529 8  20635904.087 7 110117210.416 8  85646664.269 7
R16  22392509.373 6  22392516.568 6 119616940.636 6  93035287.554 6
R17  19504430.532 8  19504434.701 7 104372357.651 8  81178359.653 7
R18  22400063.264 6  22400062.897 5 119573206.251 6  93001267.070 5
R24  20625752.743 8  20625756.279 7 110295203.329 8  85785162.940 7
> 2025 06 15 10 41 25.0000000  0 21
C19  22559715.464 7                 117474425.518 7
C20  23374163.954 7                 121715636.398 7
C29  23742743.081 6                 123634755.115 6
E02  25728471.918 6  25728473.433 7 135204009.697 6 102280979.548 7
E06  25550562.880 7  25550567.091 8 134269077.639 7 101573736.261 8
E11  25389528.006 7  25389526.842 7 133422915.651 7 100933526.601 7
E30  26428849.777 8  26428852.571 8 138884531.724 8 105065265.985 8
E34  25856108.639 7  25856111.347 8 135874780.211 7 102788393.047 8
E36  23448550.542 8  23448553.392 9 123222962.364 8  93217388.762 9
G01  23136410.108 6                  23136414.001 5 121582845.285 6                  94739863.263 5
G02  21379667.934 7  21379670.028 6                 112351031.046 7  87546182.971 6
G08  20396917.464 8                  20396923.674 7 107186750.896 8                  83522001.253 7
G10  21438245.635 8                  21438250.635 7 112658910.751 8                  87786071.099 7
G27  21617559.702 7                  21617567.587 7 113601132.642 7                  88520337.353 7
G32  22540173.380 7                  22540180.411 7 118449411.689 7                  92298310.116 7
R01  19949426.167 7                 106641328.344 7
R02  20631795.712 8  20631800.283 7 110095311.834 8  85629632.056 7
R16  22392460.695 5  22392465.822 6 119616674.764 5  93035080.807 6
R17  19502076.427 8  19502080.377 7 104359760.568 8  81168561.924 7
R18  22395686.678 6  22395693.296 5 119549873.852 6  92983119.680 5
R24  20626811.430 8  20626816.067 7 110300868.110 8  85789568.879 7
> 2025 06 15 10 41 30.0000000  0 22
C19  22557156.791 7                 117461099.154 7
C20  23374548.448 7                 121717639.047 7
C29  23744138.908 6                 123642027.703 6
E02  25729557.556 6  25729560.438 7 135209721.661 6 102285300.611 7
E04  25820324.836 5                 135686678.81215
E06  25547983.781 7  25547987.690 8 134255523.315 7 101563482.511 8
E11  25390262.036 7  25390261.081 7 133426773.742 7 100936445.215 7
E30  26427497.999 8  26427500.994 8 138877428.941 8 105059892.771 8
E34  25852907.372 7  25852910.511 8 135857960.106 7 102775668.751 8
E36  23447275.837 8  23447278.369 9 123216262.140 8  93212320.095 9
G01  23132436.015 6                  23132440.662 6 121561965.923 6                  94723593.650 6
G02  21377054.981 7  21377057.445 6                 112337299.146 7  87535482.803 6
G08  20396283.499 8                  20396290.492 7 107183419.921 8                  83519405.697 7
G10  21438774.181 8                  21438779.851 7 112661691.152 8                  87788237.636 7
G27  21619133.103 7                  21619140.980 7 113609400.962 7                  88526780.201 7
G32  22537136.862 7                  22537144.812 7 118433457.389 7                  92285878.217 7
R01  19949169.177 7                 106639955.085 7
R02  20627694.555 7  20627699.705 7 110073429.896 7  85612612.776 7
R16  22392414.301 5  22392420.347 6 119616430.229 5  93034890.601 6
R17  19499724.266 8  19499728.641 7 104347175.689 8  81158773.693 7
R18  22391317.090 6  22391322.103 5 119526544.397 6  92964974.536 5
R24  20627871.819 8  20627877.538 7 110306543.918 8  85793983.415 7
> 2025 06 15 10 41 35.0000000  0 22
C19  22554599.057 7                 117447784.182 7
C20  23374935.595 7                 121719652.176 7
C29  23745536.897 6                 123649304.430 6
E02  25730647.472 6  25730648.544 7 135215439.435 6 102289626.051 7
E04  25819021.136 5  25818997.031 5 135679871.626 5 102640952.82915
E06  25545406.650 7  25545409.965 8 134241977.688 7 101553235.334 8
E11  25390996.820 7  25390995.573 7 133430633.295 7 100939364.929 7
E30  26426148.709 8  26426151.310 8 138870336.694 8 105054527.516 8
E34  25849706.762 7  25849709.879 8 135841140.831 7 102762945.081 8
E36  23446001.125 8  23446004.101 9 123209565.866 8  93207254.401 9
G01  23128463.458 6                  23128468.881 6 121541088.435 6                  94707325.518 6
G02  21374443.141 8  21374445.202 6                 112323572.601 8  87524786.808 6
G08  20395651.872 8                  20395658.938 7 107180102.626 8                  83516820.772 7
G10  21439305.083 8                  21439310.679 7 112664480.322 8                  87790411.002 7
G27  21620708.901 7                  21620715.901 7 113617677.855 7                  88533229.717 7
G32  22534103.521 7                  22534110.809 7 118417513.787 7                  92273454.643 7
R01  19948915.876 7                 106638602.384 7
R02  20623597.460 8  20623602.072 7 110051561.929 8  85595604.360 7
R16  22392372.911 6  22392378.550 5 119616204.625 6  93034715.130 5
R17  19497374.051 8  19497378.738 7 104334600.803 8  81148993.226 7
R18  22386948.025 6  22386951.461 5 119503215.605 6  92946829.895 5
R24  20628935.548 8  20628940.473 7 110312228.436 8  85798404.717 7
> 2025 06 15 10 41 40.0000000  0 22
C19  22552044.557 7                 117434481.581 7
C20  23375323.907 7                 121721676.823 7
C29  23746935.486 6                 123656586.312 6
E02  25731734.874 6  25731737.964 7 135221164.117 6 102293956.682 7
E04  25817717.479 4  25817693.299 5 135673076.28714 102635812.70915
E06  25542830.659 7  25542834.129 8 134228441.830 7 101542995.540 8
E11  25391731.364 7  25391730.565 7 133434495.401 7 100942286.570 7
E30  26424801.252 8  26424803.821 8 138863256.048 8 105049171.052 8
E34  25846506.814 7  25846509.624 8 135824323.470 7 102750222.851 8
E36  23444728.166 8  23444730.790 9 123202874.612 8  93202192.513 9
G01  23124490.508 6                  23124496.835 6 121520213.848 6                  94691059.601 6
G02  21371832.501 8  21371834.494 6                 112309852.448 8  87514095.787 6
G08  20395023.684 8                  20395030.494 7 107176800.083 8                  83514247.367 7
G10  21439837.875 8                  21439843.312 7 112667279.343 8                  87792592.074 7
G27  21622285.259 7                  21622293.062 7 113625964.339 7                  88539686.714 7
G32  22531070.846 7                  22531079.411 7 118401581.944 7                  92261040.229 7
R01  19948666.348 7                 106637271.394 7
R02  20619501.765 8  20619507.040 7 110029709.392 8  85578607.970 7
R16  22392333.502 5  22392339.694 5 119615999.286 5  93034555.475 5
R17  19495025.727 8  19495030.545 7 104322036.994 8  81139221.370 7
R18  22382579.496 6  22382581.648 5 119479888.555 6  92928686.620 5
R24  20630000.478 8  20630005.688 7 110317922.722 8  85802833.588 7
> 2025 06 15 10 41 45.0000000  0 22
C19  22549492.365 7                 117421193.154 7
C20  23375714.996 7                 121723714.747 7
C29  23748335.702 6                 123663875.041 6
E02  25732826.566 6  25732829.043 7 135226897.466 6 102298293.907 7
E04  25816400.501 5  25816401.648 6 135666294.245 5 102630682.009 6
E06  25540256.938 7  25540260.504 8 134214917.495 7 101532764.477 8
E11  25392467.477 7  25392466.371 7 133438361.813 7 100945211.476 7
E30  26423456.592 8  26423458.917 8 138856188.782 8 105043824.705 8
E34  25843307.137 7  25843309.954 8 135807509.754 7 102737503.408 8
E36  23443456.473 8  23443458.816 9 123196190.138 8  93197135.752 9
G01  23120518.442 6                  23120525.952 6 121499344.035 6                  94674797.418 6
G02  21369223.402 8  21369225.204 6                 112296140.470 8  87503411.116 6
G08  20394397.880 7                  20394405.093 7 107173514.043 7                  83511686.806 7
G10  21440372.278 8                  21440378.112 7 112670089.948 8                  87794782.152 7
G27  21623863.789 7                  21623871.881 7 113634262.200 7                  88546152.575 7
G32  22528042.444 7                  22528050.105 7 118385663.600 7                  92248636.334 7
R01  19948422.013 7                 106635963.738 7
R02  20615409.236 8  20615414.802 7 110007874.043 8  85561624.961 7
R16  22392297.507 5  22392304.573 5 119615815.644 5  93034412.576 5
R17  19492680.559 8  19492685.364 7 104309485.979 8  81129459.479 7
R18  22378209.010 6  22378212.803 5 119456564.945 6  92910546.069 5
R24  20631068.143 8  20631072.624 7 110323628.622 8  85807271.467 7
> 2025 06 15 10 41 50.0000000  0 22
C19  22546942.889 7                 117407918.340 7
C20  23376109.036 7                 121725765.315 7
C29  23749737.018 6                 123671170.069 6
E02  25733918.905 6  25733921.533 7 135232638.856 6 102302637.178 7
E04  25815110.648 6  25815112.707 6 135659525.180 6 102625561.152 6
E06  25537685.111 7  25537688.916 8 134201404.093 7 101522541.694 8
E11  25393203.748 7  25393202.880 7 133442231.930 7 100948139.175 7
E30  26422114.135 8  26422116.452 8 138849134.289 8 105038488.023 8
E34  25840108.712 7  25840111.016 8 135790699.123 7 102724786.258 8
E36  23442186.277 8  23442187.917 9 123189511.848 8  93192083.668 9
G01  23116548.921 6                  23116555.544 6 121478478.311 6                  94658538.398 6
G02  21366614.151 7  21366616.790 5                 112282436.030 7  87492732.338 5
G08  20393776.080 7                  20393782.676 7 107170243.918 7                  83509138.657 7
G10  21440909.309 8                  21440914.503 7 112672911.535 8                  87796980.792 7
G27  21625445.137 7                  21625452.844 7 113642570.841 7                  88552626.834 7
G32  22525014.589 7                  22525023.127 7 118369758.231 7                  92236242.548 7
R01  19948181.265 7                 106634678.889 7
R02  20611320.459 7  20611325.420 7 109986055.167 7  85544654.744 7
R16  22392266.643 5  22392274.062 5 119615653.364 5  93034286.297 5
R17  19490337.215 8  19490342.552 7 104296947.235 8  81119707.124 7
R18  22373840.193 6  22373841.895 3 119433244.275 6  92892407.814 3
R24  20632137.108 8  20632141.799 7 110329345.483 8  85811717.914 7
> 2025 06 15 10 41 55.0000000  0 22
C19  22544396.063 7                 117394657.041 7
C20  23376504.742 7                 121727828.505 7
C29  23751139.183 6                 123678471.387 6
E02  25735014.050 6  25735015.778 7 135238388.176 6 102306986.495 7
E04  25813824.635 6  25813826.231 6 135652768.734 6 102620449.97116
E06  25535115.929 7  25535119.472 8 134187901.596 7 101512327.159 8
E11  25393941.113 7  25393940.061 7 133446105.700 7 100951069.640 7
E30  26420773.421 8  26420776.308 8 138842092.527 8 105033160.975 8
E34  25836909.629 7  25836912.668 8 135773891.481 7 102712071.420 8
E36  23440916.274 8  23440918.290 9 123182839.701 8  93187036.235 9
G01  23112579.037 6                  23112585.582 6 121457616.676 6                  94642282.546 6
G02  21364008.313 7  21364010.678 6                 112268739.139 7  87482059.431 6
G08  20393157.174 8                  20393163.706 7 107166989.655 8                  83506602.862 7
G10  21441447.682 8                  21441454.152 7 112675744.067 8                  87799187.972 7
G27  21627028.456 7                  21627036.249 7 113650890.172 7                  88559109.430 7
G32  22521990.346 7                  22521999.250 7 118353865.769 7                  92223858.807 7
R01  19947944.794 7                 106633416.780 7
R02  20607234.588 7  20607240.193 7 109964252.929 7  85527697.462 7
R16  22392238.068 4  22392247.021 5 119615512.068 4  93034176.353 5
R17  19487996.424 8  19488001.382 7 104284420.771 8  81109964.335 7
R18  22369473.523 7  22369472.860 5 119409926.440 7
R24  20633207.804 8  20633212.959 7 110335073.318 8  85816172.907 7
> 2025 06 15 10 42  0.0000000  0 22
C19  22541853.057 7                 117381409.896 7
C20  23376903.440 7                 121729904.877 7
C29  23752540.580 6                 123685779.606 6
E02  25736108.608 6  25736111.341 7 135244146.027 6 102311342.295 7
E04  25812540.441 5  25812542.510 6 135646025.794 5 102615348.903 6
E06  25532548.107 7  25532552.230 8 134174410.599 7 101502121.313 8
E11  25394677.991 7  25394678.037 7 133449983.684 7 100954003.296 7
E30  26419435.874 8  26419438.959 8 138835064.079 8 105027844.012 8
E34  25833711.935 7  25833715.028 8 135757087.487 7 102699359.305 8
E36  23439648.018 8  23439649.884 9 123176174.275 8  93181993.877 9
G01  23108609.708 6                  23108617.141 6 121436759.640 6                  94626030.331 6
G02  21361403.624 7  21361406.033 6                 112255050.338 7  87471392.855 6
G08  20392540.981 8                  20392547.533 7 107163751.828 8                  83504079.896 7
G10  21441989.434 8                  21441995.680 7 112678588.081 8                  87801404.097 7
G27  21628612.609 7                  21628620.895 7 113659220.784 7                  88565600.787 7
G32  22518969.603 7                  22518977.328 7 118337986.773 7                  92211485.599 7
R01  19947712.964 7                 106632177.976 7
R02  20603152.207 7  20603157.801 7 109942467.768 7  85510753.434 7
R16  22392221.889 5  22392224.360 5 119615392.758 5  93034083.434 5
R17  19485658.208 8  19485662.720 7 104271907.082 8  81100231.463 7
R18  22365105.189 6  22365104.943 5 119386612.146 6  92856126.56315
R24  20634281.099 8  20634286.374 7 110340812.710 8  85820636.856 7
> 2025 06 15 10 42  5.0000000  0 22
C19  22539311.051 7                 117368175.567 7
C20  23377304.285 7                 121731993.115 7
C29  23753946.108 6                 123693093.232 6
E02  25737206.926 6  25737208.273 7 135249911.116 6 102315703.506 7
E04  25811260.019 6  25811261.244 6 135639294.790 6 102610257.004 6
E06  25529982.542 7  25529987.035 8 134160929.820 7 101491923.200 8
E11  25395417.366 6  25395416.548 7 133453864.607 6 100956939.174 7
E30  26418100.679 8  26418103.741 8 138828047.665 8 105022536.110 8
E34  25830514.964 7  25830517.980 8 135740285.774 7 102686648.920 8
E36  23438380.842 8  23438382.510 9 123169514.274 8  93176955.621 9
G01  23104640.617 6                  23104647.921 6 121415905.991 6                  94609780.750 6
G02  21358799.543 7  21358802.444 6                 112241368.386 7  87460731.594 6
G08  20391927.320 8                  20391934.299 7 107160529.155 8                  83501568.711 7
G10  21442533.262 8                  21442538.350 7 112681442.303 8                  87803628.158 7
G27  21630200.633 7                  21630208.008 7 113667561.389 7                  88572099.938 7
G32  22515949.533 7                  22515958.138 7 118322120.017 7                  92199121.878 7
R01  19947485.806 7                 106630961.225 7
R02  20599073.046 8  20599077.325 7 109920698.416 8  85493821.737 7
R16  22392203.120 6  22392205.902 5 119615293.670 6  93034006.421 5
R17  19483321.907 8  19483326.313 7 104259404.898 8  81090507.555 7
R18  22360736.602 6  22360739.310 5 119363299.923 6  92837994.871 5
R24  20635356.139 8  20635361.475 7 110346562.182 8  85825108.665 7
> 2025 06 15 10 42 10.0000000  0 22
C19  22536772.004 7                 117354955.016 7
C20  23377708.055 7                 121734094.149 7
C29  23755352.870 6                 123700413.362 6
E02  25738305.559 6  25738306.871 7 135255684.392 6 102320070.966 7
E04  25809981.522 6  25809982.591 6 135632576.901 6 102605174.934 6
E06  25527419.730 7  25527423.760 8 134147460.140 7 101481733.497 8
E11  25396156.801 6  25396155.779 7 133457749.383 6 100959877.974 7
E30  26416767.620 7  26416771.111 8 138821044.155 7 105017238.001 8
E34  25827318.417 7  25827321.615 8 135723487.354 7 102673941.003 8
E36  23437114.576 8  23437116.385 9 123162860.618 8  93171922.174 9
G01  23100674.341 7                  23100680.257 6 121395056.664 7                  94593534.503 6
G02  21356197.667 7  21356200.900 6                 112227694.204 7  87450076.368 6
G08  20391317.226 8                  20391324.130 7 107157322.554 8                  83499070.042 7
G10  21443077.480 8                  21443083.958 7 112684307.691 8                  87805860.892 7
G27  21631789.986 7                  21631797.560 7 113675912.877 7                  88578607.612 7
G32  22512933.584 7                  22512941.302 7 118306266.415 7                  92186768.439 7
R01  19947262.407 7                 106629767.362 7
R02  20594996.606 8  20595000.895 7 109898945.791 8  85476903.041 7
R16  22392187.386 6  22392191.304 5 119615215.920 6  93033945.963 5
R17  19480988.317 8  19480992.546 7 104246915.128 8  81080793.302 7
R18  22356371.130 6  22356374.356 6 119339990.857 6  92819865.572 6
R24  20636433.479 8  20636438.434 7 110352322.784 8  85829589.109 7
> 2025 06 15 10 42 15.0000000  0 22
C19  22534235.690 7                 117341747.601 7
C20  23378113.331 7                 121736207.332 7
C29  23756759.779 6                 123707739.262 6
E02  25739406.244 6  25739406.886 7 135261465.206 6 102324444.088 7
E04  25808705.965 6  25808706.333 5 135625871.299 6 102600102.196 5
E06  25524858.935 7  25524862.486 8 134134000.974 7 101471551.721 8
E11  25396896.102 6  25396895.549 7 133461637.390 6 100962819.229 7
E30  26415438.137 7  26415440.800 8 138814052.953 7 105011949.202 8
E34  25824121.636 7  25824125.537 8 135706691.442 7 102661235.035 8
E36  23435849.558 8  23435851.328 9 123156212.656 8  93166893.037 9
G01  23096708.016 7                  23096712.892 6 121374210.982 7                  94577291.106 6
G02  21353596.826 7  21353600.405 6                 112214027.145 7  87439426.722 6
G08  20390710.044 8                  20390716.825 7 107154131.338 8                  83496583.391 7
G10  21443624.428 8                  21443631.370 7 112687183.521 8                  87808101.813 7
G27  21633381.735 7                  21633388.256 7 113684274.619 7                  88585123.229 7
G32  22509918.589 7                  22509926.524 7 118290425.304 7                  92174424.708 7
R01  19947043.202 7                 106628595.709 7
R02  20590922.125 8  20590927.546 7 109877209.416 8  85459996.967 7
R16  22392176.230 6  22392181.598 5 119615158.872 6  93033901.548 5
R17  19478656.368 8  19478661.043 7 104234437.278 8  81071088.308 7
R18  22352004.400 6  22352009.644 5 119316684.247 6  92801738.158 5
R24  20637512.459 7  20637517.501 7 110358093.788 7  85834077.637 7
> 2025 06 15 10 42 20.0000000  0 22
C19  22531701.907 7                 117328554.096 7
C20  23378522.401 7                 121738333.438 7
C29  23758168.692 6                 123715071.815 6
E02  25740507.861 6  25740508.385 7 135267254.238 6 102328823.483 7
E04  25807434.057 6  25807432.361 5 135619178.881 6 102595039.388 5
E06  25522299.951 7  25522303.509 8 134120553.097 7 101461378.481 8
E11  25397636.867 6  25397636.138 7 133465529.439 6 100965763.521 7
E30  26414109.843 7  26414112.834 8 138807074.857 7 105006670.315 8
E34  25820926.438 7  25820930.207 8 135689898.961 7 102648531.634 8
E36  23434585.807 8  23434587.515 9 123149571.189 8  93161868.811 9
G01  23092740.815 7                  23092746.642 6 121353369.731 7                  94561051.193 6
G02  21350997.331 7  21351001.110 6                 112200368.021 7  87428783.236 6
G08  20390106.288 8                  20390112.563 7 107150956.364 8                  83494109.391 7
G10  21444174.586 8                  21444181.180 7 112690070.597 8                  87810351.467 7
G27  21634975.026 7                  21634981.046 7 113692647.380 7                  88591647.422 7
G32  22506907.184 7                  22506914.769 7 118274597.512 7                  92162091.371 7
R01  19946828.547 7                 106627447.214 7
R02  20586852.325 8  20586857.529 7 109855490.059 8  85443104.140 7
R16  22392169.154 6  22392174.810 5 119615123.494 6  93033873.996 5
R17  19476327.289 8  19476331.171 7 104221972.065 8  81061393.130 7
R18  22347640.888 6  22347643.616 6 119293380.893 6  92783613.353 6
R24  20638594.191 8  20638599.037 7 110363876.162 8  85838575.039 7
> 2025 06 15 10 42 25.0000000  0 22
C19  22529170.669 7                 117315374.216 7
C20  23378932.778 7                 121740472.169 7
C29  23759577.640 6                 123722410.612 6
E02  25741610.491 6  25741611.684 7 135273051.270 6 102333208.887 7
E04  25806163.961 6  25806161.182 5 135612499.307 6 102589986.314 5
E06  25519743.419 7  25519746.580 8 134107116.212 7 101451213.574 8
E11  25398378.867 6  25398377.468 7 133469425.188 6 100968710.606 7
E30  26412784.787 7  26412787.595 8 138800109.547 7 105001401.090 8
E34  25817731.210 7  25817735.308 8 135673109.526 7 102635830.571 8
E36  23433323.035 8  23433324.900 9 123142935.936 8  93156849.286 9
G01  23088776.284 7                  23088781.450 6 121332532.652 7                  94544814.554 6
G02  21348399.685 7  21348402.928 6                 112186716.480 7  87418145.682 6
G08  20389504.850 8                  20389511.245 7 107147797.305 8                  83491647.796 7
G10  21444726.235 8                  21444732.849 8 112692968.628 8                  87812609.658 8
G27  21636570.050 7                  21636576.681 7 113701030.846 7                  88598179.967 7
G32  22503897.810 7                  22503905.531 7 118258782.735 7                  92149768.179 7
R01  19946619.303 7                 106626321.458 7
R02  20582784.412 8  20582790.288 7 109833787.189 8  85426224.165 7
R16  22392165.717 6  22392173.511 5 119615109.141 6  93033862.722 5
R17  19473999.611 8  19474004.140 7 104209519.114 8  81051707.494 7
R18  22343277.113 7  22343278.085 6 119270080.505 7  92765490.876 6
R24  20639678.648 8  20639682.565 7 110369669.563 8  85843080.986 7
> 2025 06 15 10 42 30.0000000  0 22
C19  22526642.852 7                 117302208.687 7
C20  23379346.573 7                 121742624.225 7
C29  23760988.127 6                 123729756.447 6
E02  25742714.542 6  25742716.524 7 135278857.038 6 102337600.913 7
E04  25804894.827 6  25804892.868 5 135605833.285 6 102584943.482 5
E06  25517188.744 7  25517191.925 8 134093691.060 7 101441057.549 8
E11  25399120.404 6  25399119.592 7 133473325.315 6 100971661.034 7
E30  26411461.968 7  26411464.714 8 138793157.760 7 104996142.110 8
E34  25814537.466 7  25814541.161 8 135656323.989 7 102623132.405 8
E36  23432061.238 8  23432063.594 9 123136307.611 8  93151834.999 9
G01  23084811.469 7                  23084817.413 6 121311700.448 7                  94528581.686 6
G02  21345803.885 7  21345806.137 6                 112173073.321 7  87407514.653 6
G08  20388906.374 8                  20388913.293 7 107144654.920 8                  83489199.157 7
G10  21445280.369 8                  21445286.267 7 112695878.324 8                  87814876.933 7
G27  21638167.778 7                  21638173.949 7 113709425.733 7                  88604721.442 7
G32  22500890.145 7                  22500899.171 7 118242981.740 7                  92137455.721 7
R01  19946412.690 7                 106625219.208 7
R02  20578721.060 8  20578726.730 7 109812101.866 8  85409357.787 7
R16  22392168.834 6  22392173.996 5 119615116.692 6  93033868.602 5
R17  19471675.108 8  19471679.819 7 104197079.355 8  81042032.135 7
R18  22338912.145 6  22338914.284 6 119246783.892 6  92747371.262 6
R24  20640763.596 8  20640768.232 7 110375474.526 8  85847595.957 7
> 2025 06 15 10 42 35.0000000  0 22
C19  22524116.672 7                 117289056.889 7
C20  23379763.059 7                 121744788.947 7
C29  23762399.690 6                 123737108.614 6
E02  25743819.565 6  25743822.988 7 135284670.831 6 102341998.991 7
E04  25803629.010 6  25803627.725 5 135599180.186 6 102579910.398 5
E06  25514635.698 7  25514639.438 8 134080276.970 7 101430909.896 8
E11  25399863.740 6  25399862.469 7 133477229.270 6 100974614.326 7
E30  26410141.815 7  26410144.288 8 138786218.831 7 104990892.858 8
E34  25811344.672 7  25811347.570 8 135639541.557 7 102610436.602 8
E36  23430800.896 8  23430803.478 9 123129685.536 8  93146825.440 9
G01  23080847.790 7                  23080853.931 6 121290872.489 7                  94512352.112 6
G02  21343209.060 7  21343211.172 6                 112159437.838 7  87396889.603 6
G08  20388312.043 8                  20388318.429 7 107141528.486 8                  83486762.969 7
G10  21445835.625 8                  21445842.061 7 112698799.005 8                  87817152.784 7
G27  21639767.687 7                  21639773.800 7 113717831.382 7                  88611271.282 7
G32  22497886.068 7                  22497895.032 7 118227193.855 7                  92125153.475 7
R01  19946210.176 7                 106624139.660 7
R02  20574660.190 7  20574665.811 7 109790433.202 7  85392504.374 7
R16  22392174.753 6  22392178.811 5 119615145.431 6  93033890.974 5
R17  19469352.990 8  19469357.122 7 104184651.854 8  81032366.295 7
R18  22334546.175 6  22334550.685 6 119223490.309 6  92729254.079 6
R24  20641851.092 8  20641855.837 7 110381290.524 8  85852119.510 7
> 2025 06 15 10 42 40.0000000  0 22
C19  22521593.902 7                 117275918.167 7
C20  23380179.758 7                 121746965.769 7
C29  23763813.032 6                 123744466.548 6
E02  25744929.219 6  25744930.847 7 135290492.084 6 102346402.709 7
E04  25802363.713 6  25802364.597 6 135592539.379 6 102574886.662 6
E06  25512085.028 7  25512088.836 8 134066873.395 7 101420770.169 8
E11  25400607.477 6  25400605.874 7 133481136.364 6 100977570.002 7
E30  26408823.527 7  26408826.198 8 138779292.165 7 104985652.892 8
E34  25808151.453 7  25808154.400 8 135622761.690 7 102597742.752 8
E36  23429541.787 8  23429544.411 9 123123069.120 8  93141820.176 9
G01  23076885.677 7                  23076891.894 6 121270048.201 7                  94496125.386 6
G02  21340616.138 8  21340617.703 6                 112145809.433 8  87386270.070 6
G08  20387719.890 8                  20387726.399 7 107138417.438 8                  83484338.769 7
G10  21446393.658 8                  21446399.667 7 112701730.050 8                  87819436.695 7
G27  21641368.859 7                  21641375.460 7 113726247.198 7                  88617829.047 7
G32  22494884.547 7                  22494892.671 7 118211418.498 7                  92112860.972 7
R01  19946012.056 7                 106623082.389 7
R02  20570603.206 7  20570607.921 7 109768780.981 7  85375663.760 7
R16  22392183.683 6  22392188.327 6 119615194.678 6  93033929.310 6
R17  19467033.058 8  19467037.149 7 104172236.298 8  81022709.745 7
R18  22330184.547 6  22330187.566 6 119200199.259 6  92711138.793 6
R24  20642940.731 8  20642945.230 7 110387116.894 8  85856651.117 7
> 2025 06 15 10 42 45.0000000  0 22
C19  22519073.530 7                 117262793.159 7
C20  23380601.144 7                 121749155.233 7
C29  23765227.728 6                 123751830.804 6
E02  25746037.568 6  25746040.309 7 135296321.298 6 102350812.488 7
E04  25801102.891 6  25801103.510 6 135585911.540 6 102569872.744 6
E06  25509536.513 7  25509540.400 8 134053480.860 7 101410638.805 8
E11  25401351.183 6  25401350.079 7 133485047.192 6 100980528.546 7
E30  26407507.567 7  26407510.490 8 138772378.353 7 104980422.641 8
E34  25804959.052 7  25804961.877 8 135605984.979 7 102585051.290 8
E36  23428284.020 8  23428286.533 9 123116458.976 8  93136819.637 9
G01  23072923.237 6                  23072929.900 6 121249228.104 6                  94479901.939 6
G02  21338023.628 8  21338026.124 6                 112132188.701 8  87375656.515 6
G08  20387130.939 8                  20387137.206 7 107135322.357 8                  83481927.018 7
G10  21446953.682 8                  21446959.614 7 112704672.054 8                  87821729.168 7
G27  21642972.396 7                  21642979.119 7 113734673.722 7                  88624395.186 7
G32  22491885.342 7                  22491893.217 7 118195656.256 7                  92100578.708 7
R01  19945817.965 7                 106622047.826 7
R02  20566548.794 8  20566553.854 7 109747145.442 8  85358836.155 7
R16  22392197.064 6  22392202.528 6 119615265.241 6  93033984.256 6
R17  19464714.466 8  19464719.356 7 104159832.975 8  81013062.727 7
R18  22325822.801 6  22325825.568 6 119176911.247 6  92693025.918 6
R24  20644032.823 8  20644037.141 7 110392954.379 8  85861191.374 7
> 2025 06 15 10 42 50.0000000  0 22
C19  22516554.959 7                 117249681.714 7
C20  23381023.502 7                 121751357.168 7
C29  23766642.830 6                 123759201.236 6
E02  25747148.589 6  25747151.082 7 135302158.396 6 102355228.190 7
E04  25799844.614 6  25799853.789 6 135579296.417 6 102564868.57816
E06  25506990.539 7  25506993.807 8 134040099.292 7 101400515.730 8
E11  25402094.950 6  25402094.980 7 133488961.669 6 100983489.795 7
E30  26406193.888 7  26406197.209 8 138765477.222 7 104975201.979 8
E34  25801766.817 7  25801769.925 8 135589211.272 7 102572362.095 8
E36  23427027.358 8  23427029.847 9 123109854.928 8  93131823.716 9
G01  23068963.014 6                  23068968.198 6 121228412.107 6                  94463681.671 6
G02  21335433.149 8  21335435.605 6                 112118575.518 8  87365048.838 6
G08  20386545.146 8                  20386551.652 8 107132243.094 8                  83479527.576 8
G10  21447515.476 8                  21447521.249 7 112707624.876 8                  87824030.059 7
G27  21644578.457 7                  21644584.615 7 113743110.834 7                  88630969.550 7
G32  22488887.775 7                  22488896.535 7 118179906.971 7                  92088306.550 7
R01  19945628.460 7                 106621035.900 7
R02  20562496.712 7  20562502.490 7 109725526.549 7  85342021.492 7
R16  22392215.393 6  22392219.812 6 119615356.809 6  93034055.447 6
R17  19462398.944 8  19462404.286 7 104147442.021 8  81003425.313 7
R18  22321461.846 6  22321462.696 6 119153626.126 6  92674915.257 6
R24  20645125.358 8  20645131.093 7 110398802.668 8  85865740.028 7
> 2025 06 15 10 42 55.0000000  0 22
C19  22514039.755 7                 117236584.144 7
C20  23381448.879 7                 121753571.890 7
C29  23768058.787 6                 123766578.158 6
E02  25748260.132 6  25748263.505 7 135308003.621 6 102359650.085 7
E04  25798586.684 6  25798597.787 6 135572694.408 6 102559874.533 6
E06  25504446.729 7  25504449.528 8 134026728.976 7 101390401.173 8
E11  25402841.914 6  25402840.637 7 133492880.091 6 100986454.049 7
E30  26404882.913 7  26404886.460 8 138758589.150 7 104969991.195 8
E34  25798575.437 7  25798578.581 8 135572440.865 7 102559675.410 8
E36  23425772.001 8  23425774.357 9 123103257.325 8  93126832.672 9
G01  23065002.874 7                  23065008.193 6 121207600.489 7                  94447464.835 6
G02  21332843.962 7  21332846.479 6                 112104970.148 7  87354447.277 6
G08  20385962.018 8                  20385968.292 8 107129179.968 8                  83477140.732 8
G10  21448079.231 8                  21448085.072 7 112710588.822 8                  87826339.616 7
G27  21646186.031 7                  21646191.634 7 113751558.816 7                  88637552.394 7
G32  22485893.007 7                  22485902.504 7 118164171.002 7                  92076044.766 7
R01  19945443.879 7                 106620046.915 7
R02  20558448.934 7  20558454.589 7 109703924.791 7  85325220.129 7
R16  22392235.194 6  22392240.812 5 119615469.800 6  93034143.317 5
R17  19460086.165 8  19460090.196 7 104135063.703 8  80993797.702 7
R18  22317114.121 6  22317102.762 6 119130344.151 6  92656807.127 6
R24  20646221.133 7  20646226.809 8 110404662.147 7  85870297.378 8
> 2025 06 15 10 43  0.0000000  0 22
C19  22511527.020 7                 117223499.957 7
C20  23381875.650 7                 121755798.962 7
C29  23769475.912 6                 123773961.077 6
E02  25749374.920 6  25749377.288 7 135313856.535 6 102364077.755 7
E04  25797333.094 6  25797343.500 5 135566104.939 6 102554889.610 5
E06  25501904.026 7  25501907.361 8 134013369.404 7 101380294.761 8
E11  25403587.224 6  25403586.962 7 133496801.898 6 100989420.863 7
E30  26403574.976 7  26403577.975 8 138751713.596 7 104964789.882 8
E34  25795384.747 7  25795387.745 8 135555673.306 7 102546990.873 8
E36  23424517.331 8  23424519.976 9 123096665.631 8  93121846.098 9
G01  23061043.390 7                  23061048.223 6 121186792.807 7                  94431251.051 6
G02  21330256.710 7  21330258.565 6                 112091372.036 7  87343851.356 6
G08  20385382.127 8                  20385388.348 7 107126132.495 8                  83474766.086 7
G10  21448645.774 8                  21448651.380 7 112713563.398 8                  87828657.465 7
G27  21647795.664 7                  21647801.349 7 113760017.206 7                  88644143.329 7
G32  22482901.011 7                  22482909.917 7 118148447.871 7                  92063792.956 7
R01  19945263.047 7                 106619080.347 7
R02  20554403.312 7  20554409.101 7 109682339.537 7  85308431.603 7
R16  22392260.240 6  22392266.581 5 119615603.468 6  93034247.264 5
R17  19457775.309 8  19457779.514 7 104122697.466 8  80984179.532 7
R18  22312764.980 5  22312740.068 6 119107064.918 5  92638701.132 6
R24  20647318.545 7  20647324.848 7 110410532.296 7  85874863.026 7
> 2025 06 15 10 43  5.0000000  0 21
C19  22509016.604 7                 117210429.026 7
C20  23382305.602 7                 121758038.160 7
C29  23770894.346 6                 123781349.842 6
E02  25750490.854 7  25750492.453 7 135319716.946 7 102368511.138 7
E04  25796081.740 5  25796091.575 5 135559528.003 5 102549914.16515
E06  25499363.980 7  25499367.137 8 134000020.472 7 101370196.388 8
E11  25404334.699 6  25404333.960 7 133500726.987 6 100992390.169 7
E30  26402268.680 7  26402271.941 8 138744850.441 7 104959597.937 8
E34  25792194.224 7  25792197.414 8 135538908.431 7 102534308.371 8
E36  23423264.190 8  23423266.712 8 123090079.718 8  93116863.903 8
G01  23057084.550 7                  23057090.113 7 121165988.920 7                  94415040.243 7
G02  21327670.284 7  21327672.189 6                 112077781.220 7  87333261.121 6
G08  20384804.879 8                  20384811.570 7 107123100.514 8                  83472403.510 7
G10  21449213.584 8                  21449219.254 7 112716548.414 8                  87830983.456 7
G27  21649407.065 7                  21649413.426 7 113768485.832 7                  88650742.243 7
G32  22479912.054 7                  22479920.378 7 118132737.473 7                  92051551.069 7
R01  19945086.741 7                 106618136.012 7
R02  20550362.345 7  20550366.714 7 109660770.532 7  85291655.721 7
R16  22392289.991 6  22392294.719 5 119615757.925 6  93034367.415 5
R17  19455466.317 8  19455470.921 7 104110343.175 8  80974570.638 7
R24  20648418.927 7  20648424.522 7 110416412.898 7  85879436.812 7
> 2025 06 15 10 43 10.0000000  0 21
C19  22506510.060 7                 117197371.834 7
C20  23382738.600 7                 121760289.965 7
C29  23772316.145 6                 123788744.895 6
E02  25751606.505 6  25751609.572 7 135325585.359 6 102372950.520 7
E04  25794831.979 5  25794841.996 5 135552963.872 5 102544948.516 5
E06  25496826.751 7  25496829.073 8 133986682.685 7 101360106.440 8
E11  25405081.794 6  25405081.651 7 133504655.875 6 100995362.325 7
E30  26400965.022 7  26400968.409 8 138738000.122 7 104954415.718 8
E34  25789004.653 7  25789007.705 8 135522146.711 7 102521628.250 8
E36  23422012.471 8  23422014.651 8 123083500.083 8  93111886.459 8
G01  23053126.160 7                  23053131.518 6 121145189.290 7                  94398832.731 6
G02  21325085.445 7  21325087.107 6                 112064198.128 7  87322676.892 6
G08  20384231.545 8                  20384237.866 8 107120084.543 8                  83470053.391 8
G10  21449783.514 8                  21449789.303 7 112719544.360 8                  87833317.965 7
G27  21651020.539 7                  21651027.029 7 113776965.188 7                  88657349.486 7
G32  22476924.910 7                  22476932.345 7 118117040.212 7                  92039319.443 7
R01  19944914.113 7                 106617214.469 7
R02  20546323.303 7  20546327.989 7 109639218.471 7  85274893.025 7
R16  22392323.547 6  22392327.127 5 119615933.627 6  93034503.979 5
R17  19453160.289 8  19453164.083 7 104098001.396 8  80964971.488 7
R24  20649520.991 7  20649526.094 7 110422304.587 7  85884019.231 7
> 2025 06 15 10 43 15.0000000  0 21
C19  22504005.379 7                 117184328.079 7
C20  23383173.215 7                 121762554.092 7
C29  23773738.500 6                 123796146.061 6
E02  25752725.904 6  25752727.991 7 135331461.436 6 102377395.719 7
E04  25793578.886 4  25793594.899 5 135546412.45014 102539992.48315
E06  25494289.701 7  25494293.073 8 133973355.691 7 101350024.671 8
E11  25405830.443 6  25405830.020 7 133508588.203 6 100998337.111 7
E30  26399664.288 7  26399667.235 8 138731162.381 7 104949243.029 8
E34  25785815.000 7  25785818.518 8 135505387.888 7 102508950.326 8
E36  23420761.344 8  23420763.726 9 123076926.434 8  93106913.532 9
G01  23049167.373 6                  23049174.267 6 121124393.645 6                  94382628.354 6
G02  21322502.036 7  21322503.826 6                 112050622.429 7  87312098.436 6
G08  20383660.120 8                  20383666.655 7 107117084.232 8                  83467715.497 7
G10  21450355.408 8                  21450361.511 7 112722550.954 8                  87835660.773 7
G27  21652635.710 7                  21652642.016 7 113785454.900 7                  88663964.859 7
G32  22473940.164 7                  22473948.016 7 118101355.841 7                  92027097.869 7
R01  19944745.720 7                 106616315.396 7
R02  20542287.913 8  20542292.244 7 109617683.023 8  85258143.220 7
R16  22392359.318 6  22392363.469 5 119616130.011 6  93034656.787 5
R17  19450855.769 8  19450860.295 7 104085671.828 8  80955381.847 7
R24  20650625.318 8  20650629.681 7 110428206.952 8  85888609.938 7
> 2025 06 15 10 43 20.0000000  0 21
C19  22501502.687 7                 117171297.247 7
C20  23383610.467 7                 121764830.003 7
C29  23775161.172 6                 123803552.620 6
E02  25753844.658 6  25753847.514 7 135337344.674 6 102381846.333 7
E06  25491755.967 7  25491758.956 8 133960039.022 7 101339950.696 8
E11  25406578.989 6  25406578.882 7 133512523.483 6 101001314.104 7
E30  26398365.281 7  26398368.306 8 138724336.708 7 104944079.453 8
E34  25782626.493 7  25782629.904 8 135488631.393 7 102496274.156 8
E36  23419511.601 8  23419513.834 9 123070358.206 8  93101944.708 9
G01  23045211.853 6                  23045217.772 6 121103601.419 6                  94366426.623 6
G02  21319919.840 7  21319922.498 6                 112037053.635 7  87301525.352 6
G08  20383092.019 8                  20383098.616 7 107114099.047 8                  83465389.376 7
G10  21450929.575 8                  21450935.353 7 112725567.649 8                  87838011.457 7
G27  21654252.967 7                  21654260.010 7 113793954.463 7                  88670587.877 7
G32  22470957.894 7                  22470965.733 7 118085683.868 7                  92014885.950 7
R01  19944581.904 7                 106615438.033 7
R02  20538255.206 8  20538259.603 7 109596163.685 8  85241405.969 7
R16  22392401.252 6  22392403.917 5 119616346.838 6  93034825.422 5
R17  19448553.679 8  19448558.994 7 104073353.755 8  80945801.124 7
R18  22295314.747 6  22295301.090 6 119013992.00116
R24  20651730.425 8  20651735.384 7 110434119.420 8  85893208.503 7
> 2025 06 15 10 43 25.0000000  0 21
C19  22499002.339 7                 117158280.372 7
C20  23384049.605 7                 121767118.702 7
C29  23776584.284 6                 123810965.740 6
E02  25754965.485 6  25754968.486 7 135343235.971 6 102386303.079 7
E06  25489223.560 7  25489227.061 8 133946733.639 7 101329885.276 8
E11  25407328.183 6  25407328.590 7 133516462.695 6 101004294.091 7
E30  26397069.344 7  26397071.905 8 138717524.091 7 104938925.743 8
E34  25779439.573 7  25779442.003 8 135471878.267 7 102483600.540 8
E36  23418263.355 8  23418265.183 9 123063796.455 8  93096980.790 9
G01  23041256.686 7                  23041261.772 6 121082813.675 7                  94350228.393 6
G02  21317339.188 7  21317341.882 6                 112023492.792 7  87290958.451 6
G08  20382527.381 8                  20382533.868 7 107111130.045 8                  83463075.869 7
G10  21451505.993 8                  21451511.502 7 112728595.433 8                  87840370.754 7
G27  21655872.495 7                  21655879.599 7 113802464.895 7                  88677219.373 7
G32  22467978.137 7                  22467986.095 7 118070025.259 7                  92002684.445 7
R01  19944422.169 7                 106614583.783 7
R02  20534225.240 8  20534229.630 7 109574661.475 8  85224682.031 7
R16  22392447.406 7  22392449.076 5 119616584.872 7  93035010.550 5
R17  19446254.852 8  19446258.774 7 104061048.505 8  80936230.362 7
R18  22290947.425 6  22290943.372 6 118990727.023 6  92548216.03516
R24  20652838.366 8  20652843.443 7 110440043.079 8  85897815.793 7
> 2025 06 15 10 43 30.0000000  0 21
C19  22496505.144 7                 117145276.905 7
C20  23384492.138 7                 121769419.629 7
C29  23778008.356 6                 123818384.878 6
E02  25756088.687 6  25756091.017 7 135349134.946 6 102390765.590 7
E06  25486693.169 7  25486697.104 8 133933439.098 7 101319828.059 8
E11  25408078.803 6  25408078.908 7 133520405.345 6 101007276.658 7
E30  26395775.058 7  26395777.855 8 138710724.010 7 104933781.529 8
E34  25776250.743 7  25776254.529 8 135455127.952 7 102470929.055 8
E36  23417015.595 8  23417017.616 9 123057240.620 8  93092021.339 9
G01  23037300.751 7                  23037307.068 6 121062029.859 7                  94334033.230 6
G02  21314760.340 7  21314762.467 6                 112009939.294 7  87280397.295 6
G08  20381965.215 8                  20381971.967 7 107108176.666 8                  83460774.529 7
G10  21452084.179 8                  21452089.873 7 112731633.779 8                  87842738.290 7
G27  21657493.394 7                  21657501.329 7 113810985.653 7                  88683858.937 7
G32  22464999.834 7                  22465009.000 7 118054379.549 7                  91990493.037 7
R01  19944265.864 7                 106613751.750 7
R02  20530199.457 8  20530203.596 7 109553175.871 8  85207971.036 7
R16  22392492.612 6  22392496.811 5 119616843.714 6  93035211.827 5
R17  19443958.144 8  19443961.324 7 104048755.349 8  80926669.018 7
R18  22286584.190 6  22286585.685 6 118967464.846 6  92530123.265 6
R24  20653947.242 7  20653952.570 7 110445977.332 7  85902431.331 7
> 2025 06 15 10 43 35.0000000  0 21
C19  22494010.139 7                 117132286.668 7
C20  23384936.397 7                 121771732.639 7
C29  23779435.078 6                 123825809.762 6
E02  25757212.393 6  25757214.994 7 135355041.376 6 102395233.755 7
E06  25484165.441 7  25484169.269 8 133920155.179 7 101309778.842 8
E11  25408830.201 6  25408829.870 7 133524351.260 6 101010261.719 7
E30  26394482.966 7  26394486.104 8 138703936.276 7 104928646.646 8
E34  25773063.762 7  25773067.582 8 135438380.336 7 102458259.604 8
E36  23415769.210 8  23415771.160 9 123050690.540 8  93087066.236 9
G01  23033346.678 7                  23033352.396 6 121041249.829 7                  94317840.982 6
G02  21312182.278 7  21312184.520 6                 111996393.046 7  87269841.771 6
G08  20381406.261 8                  20381412.753 7 107105238.770 8                  83458485.251 7
G10  21452663.916 8                  21452670.261 7 112734682.491 8                  87845113.919 7
G27  21659117.464 7                  21659124.574 7 113819516.502 7                  88690506.363 7
G32  22462025.610 7                  22462033.677 7 118038746.614 7                  91978311.506 7
R01  19944114.281 7                 106612941.913 7
R02  20526174.845 7  20526180.065 7 109531706.734 7  85191272.796 7
R16  22392547.816 7  22392549.429 5 119617123.035 7  93035429.177 5
R17  19441662.425 8  19441666.666 7 104036474.172 8  80917116.984 7
R18  22282224.196 6  22282229.082 5 118944205.331 6  92512032.598 5
R24  20655059.573 8  20655064.291 7 110451922.166 8  85907055.087 7
> 2025 06 15 10 43 40.0000000  0 21
C19  22491518.327 7                 117119309.890 7
C20  23385383.199 7                 121774057.950 7
C29  23780860.795 6                 123833240.679 6
E02  25758338.908 6  25758340.334 7 135360955.385 6 102399707.679 7
E06  25481639.673 7  25481643.511 8 133906882.099 7 101299737.851 8
E11  25409582.304 6  25409581.339 7 133528300.590 6 101013249.360 7
E30  26393194.339 7  26393196.739 8 138697161.133 7 104923521.277 8
E34  25769878.104 7  25769881.195 8 135421635.570 7 102445592.315 8
E36  23414524.181 8  23414525.896 9 123044146.432 8  93082115.659 9
G01  23029391.962 7                  23029398.206 6 121020473.776 7                  94301651.858 6
G02  21309605.757 7  21309608.138 6                 111982854.241 7  87259292.046 6
G08  20380850.413 8                  20380856.748 7 107102316.534 8                  83456208.185 7
G10  21453245.892 8                  21453252.059 7 112737741.782 8                  87847497.789 7
G27  21660742.498 7                  21660750.331 7 113828057.714 7                  88697161.902 7
G32  22459053.482 7                  22459061.554 7 118023126.582 7                  91966140.070 7
R01  19943967.178 7                 106612154.480 7
R02  20522155.140 8  20522160.041 7 109510254.190 8  85174587.490 7
R16  22392602.318 6  22392605.625 5 119617423.234 6  93035662.690 5
R17  19439370.039 8  19439373.881 7 104024205.145 8  80907574.407 7
R18  22277868.462 6  22277872.056 5 118920948.709 6  92493944.100 5
R24  20656173.479 8  20656178.116 7 110457877.594 8  85911687.075 7
> 2025 06 15 10 43 45.0000000  0 21
C19  22489029.301 7                 117106345.825 7
C20  23385831.752 7                 121776394.740 7
C29  23782289.328 6                 123840676.780 6
E02  25759463.900 6  25759467.282 7 135366876.205 6 102404186.726 7
E06  25479115.398 7  25479119.639 8 133893619.120 7 101289704.509 8
E11  25410333.630 6  25410333.361 7 133532252.612 6 101016239.040 7
E30  26391907.206 7  26391909.739 8 138690397.776 7 104918404.841 8
E34  25766691.690 7  25766695.226 8 135404892.946 7 102432926.627 8
E36  23413279.567 8  23413281.587 9 123037607.500 8  93077169.003 9
G01  23025439.402 6                  23025445.908 6 120999700.922 6                  94285465.266 6
G02  21307031.240 7  21307032.933 6                 111969322.067 7  87248747.490 6
G08  20380296.888 8                  20380303.016 7 107099409.178 8                  83453942.727 7
G10  21453830.086 8                  21453835.509 7 112740810.879 8                  87849889.317 7
G27  21662370.014 7                  21662377.211 7 113836608.520 7                  88703824.824 7
G32  22456083.506 7                  22456091.559 7 118007518.719 7                  91953978.118 7
R01  19943824.851 7                 106611388.689 7
R02  20518137.664 8  20518143.035 7 109488817.672 8  85157914.649 7
R16  22392662.044 6  22392665.237 5 119617743.446 6  93035911.728 5
R17  19437078.630 8  19437083.155 7 104011947.574 8  80898040.786 7
R18  22273511.457 5  22273514.821 5 118897694.137 5  92475857.266 5
R24  20657288.784 8  20657293.784 7 110463842.969 8  85916326.791 7
> 2025 06 15 10 43 50.0000000  0 21
C19  22486543.024 7                 117093394.614 7
C20  23386283.227 7                 121778743.170 7
C29  23783718.923 6                 123848118.328 6
E02  25760591.852 6  25760595.332 7 135372804.083 6 102408671.113 7
E06  25476594.224 7  25476597.776 8 133880366.400 7 101279678.908 8
E11  25411086.296 7  25411085.899 7 133536207.485 7 101019230.866 7
E30  26390622.317 7  26390625.044 8 138683646.380 7 104913297.449 8
E34  25763505.823 7  25763509.575 8 135388152.578 7 102420262.637 8
E36  23412036.240 8  23412038.302 9 123031073.938 8  93072226.415 9
G01  23021487.281 6                  23021493.458 6 120978931.480 6                  94269281.315 6
G02  21304457.076 7  21304459.624 6                 111955796.712 7  87238208.270 6
G08  20379746.744 8                  20379753.013 7 107096516.879 8                  83451688.988 7
G10  21454416.238 8                  21454422.280 7 112743889.937 8                  87852288.594 7
G27  21663998.949 7                  21664006.258 7 113845169.043 7                  88710495.339 7
G32  22453114.895 7                  22453123.859 7 117991923.198 7                  91941825.786 7
R01  19943686.236 7                 106610644.662 7
R02  20514124.119 8  20514129.017 7 109467397.247 8  85141254.333 7
R16  22392724.014 5  22392730.719 4 119618083.786 5  93036176.516 4
R17  19434791.002 8  19434794.943 7 103999701.666 8  80888516.203 7
R18  22269155.280 5  22269159.092 6 118874441.819 5  92457772.172 6
R24  20658406.079 8  20658411.110 7 110469818.356 8  85920974.314 7
> 2025 06 15 10 43 55.0000000  0 21
C19  22484058.406 7                 117080455.987 7
C20  23386736.815 7                 121781102.967 7
C29  23785148.829 6                 123855564.957 6
E02  25761722.020 7  25761724.547 7 135378738.641 7 102413160.568 7
E06  25474073.257 6  25474077.744 8 133867123.637 6 101269660.865 8
E11  25411840.093 7  25411838.943 7 133540164.899 7 101022224.612 7
E30  26389339.874 7  26389342.507 8 138676906.643 7 104908198.880 8
E34  25760321.763 7  25760324.390 8 135371414.195 7 102407600.157 8
E36  23410794.252 8  23410795.985 9 123024545.436 8  93067287.647 9
G01  23017535.470 6                  23017541.141 6 120958165.107 6                  94253099.733 6
G02  21301884.690 8  21301887.203 6                 111942277.912 8  87227674.152 6
G08  20379198.491 8                  20379205.497 7 107093639.361 8                  83449446.745 7
G10  21455003.651 8                  21455009.565 7 112746978.664 8                  87854695.380 7
G27  21665629.628 7                  21665636.960 7 113853738.977 7                  88717173.208 7
G32  22450149.797 7                  22450157.988 7 117976339.778 7                  91929682.863 7
R01  19943550.584 7                 106609921.990 7
R02  20510113.040 8  20510117.715 7 109445992.528 8  85124606.235 7
R16  22392787.229 4  22392799.500 4 119618443.753 4  93036456.571 4
R17  19432504.444 8  19432508.713 7 103987467.004 8  80879000.352 7
R18  22264800.580 5  22264803.953 5 118851191.426 5  92439688.524 5
R24  20659525.645 8  20659530.250 7 110475803.423 8  85925629.385 7
> 2025 06 15 10 44  0.0000000  0 21
C19  22481575.685 7                 117067529.558 7
C20  23387191.327 7                 121783473.756 7
C29  23786576.964 6                 123863016.277 6
E02  25762852.114 6  25762854.986 7 135384679.501 6 102417654.793 7
E06  25471555.606 6  25471559.536 8 133853890.461 6 101259650.044 8
E11  25412593.499 7  25412592.444 7 133544124.483 7 101025220.018 7
E30  26388059.409 7  26388062.251 8 138670178.208 7 104903108.855 8
E34  25757136.415 7  25757139.401 8 135354677.375 7 102394938.865 8
E36  23409552.171 8  23409554.544 9 123018021.626 8  93062352.423 9
G01  23013585.131 6                  23013590.331 7 120937401.502 6                  94236920.259 7
G02  21299314.374 8  21299315.753 6                 111928765.268 8  87217144.818 6
G08  20378654.023 8                  20378660.231 7 107090776.232 8                  83447215.731 7
G10  21455593.606 8                  21455599.577 7 112750076.640 8                  87857109.395 7
G27  21667262.158 7                  21667269.712 7 113862317.938 7                  88723858.095 7
G32  22447186.345 7                  22447195.037 7 117960768.048 7                  91917549.051 7
R01  19943419.781 7                 106609220.432 7
R02  20506104.519 8  20506109.591 7 109424603.418 8  85107970.253 7
R16  22392859.469 5  22392874.215 3 119618823.431 5  93036751.902 3
R17  19430220.584 8  19430224.711 8 103975243.351 8  80869493.060 8
R18  22260444.904 5  22260448.508 5 118827942.658 5  92421606.202 5
R24  20660646.469 7  20660650.873 7 110481797.974 7  85930291.787 7
> 2025 06 15 10 44  5.0000000  0 21
C19  22479095.713 7                 117054616.301 7
C20  23387649.334 7                 121785856.441 7
C29  23788010.250 6                 123870473.304 6
E02  25763983.532 6  25763986.655 7 135390627.648 6 102422154.501 7
E06  25469039.204 6  25469043.395 8 133840667.826 6 101249647.222 8
E11  25413347.490 7  25413346.531 7 133548087.183 7 101028217.754 7
E30  26386781.212 7  26386784.208 8 138663462.015 7 104898028.092 8
E34  25753951.704 7  25753954.951 8 135337943.128 7 102382279.524 8
E36  23408311.212 8  23408314.171 9 123011503.459 8  93057421.476 9
G01  23009634.519 6                  23009639.801 7 120916641.552 6                  94220743.690 7
G02  21296743.468 8  21296745.275 6                 111915259.788 8  87206621.058 6
G08  20378112.022 8                  20378118.637 7 107087928.451 8                  83444996.683 7
G10  21456184.673 8                  21456190.953 7 112753184.850 8                  87859531.365 7
G27  21668896.595 7                  21668904.857 7 113870906.879 7                  88730550.767 7
G32  22444225.932 7                  22444234.200 7 117945208.961 7                  91905425.112 7
R01  19943292.357 7                 106608540.868 7
R02  20502098.830 8  20502104.320 7 109403230.506 8  85091346.892 7
R16  22392935.172 5                 119619223.439 5
R17  19427939.125 8  19427942.251 7 103963031.584 8  80859995.017 7
R18  22256090.484 4  22256093.521 5 118804696.381 4  92403525.777 5
R24  20661769.132 8  20661773.862 7 110487802.777 8  85934962.184 7
> 2025 06 15 10 44 10.0000000  0 21
C19  22476617.882 7                 117041716.514 7
C20  23388108.945 7                 121788251.301 7
C29  23789444.986 6                 123877936.213 6
E02  25765116.791 6  25765119.907 7 135396583.293 6 102426659.908 7
E06  25466525.626 7  25466529.273 8 133827456.057 7 101239652.610 8
E11  25414101.856 6  25414101.190 7 133552053.254 6 101031218.071 7
E30  26385505.697 7  26385508.598 8 138656758.358 7 104892956.813 8
E34  25750766.876 7  25750771.030 8 135321211.708 7 102369622.321 8
E36  23407072.261 8  23407074.915 9 123004991.213 8  93052494.999 9
G01  23005685.084 6                  23005690.627 7 120895885.532 6                  94204570.182 7
G02  21294175.161 8  21294176.044 6                 111901761.725 8  87196103.078 6
G08  20377573.535 8                  20377580.026 7 107085096.263 8                  83442789.785 7
G10  21456778.086 8                  21456784.482 7 112756303.546 8                  87861961.510 7
G27  21670533.061 7                  21670541.258 7 113879506.076 7                  88737251.428 7
G32  22441267.971 7                  22441275.795 7 117929662.843 7                  91893311.257 7
R01  19943169.490 7                 106607883.654 7
R02  20498096.834 8  20498102.348 7 109381874.335 8  85074736.539 7
R16  22393016.737 6                 119619644.081 6
R17  19425659.069 8  19425662.476 7 103950832.006 8  80850506.455 7
R18  22251734.066 5  22251738.590 5 118781452.914 5  92385447.663 5
R24  20662894.999 8  20662898.838 7 110493818.242 8  85939640.843 7
> 2025 06 15 10 44 15.0000000  0 22
C19  22474143.397 7                 117028829.553 7
C20  23388570.497 7                 121790657.733 7
C29  23790879.497 6                 123885404.504 6
E02  25766252.114 6  25766254.444 7 135402545.883 6 102431170.552 7
E04  25778809.398 5                 135468775.19315
E06  25464012.871 7  25464017.092 8 133814254.519 7 101229665.748 8
E11  25414857.615 7  25414856.466 7 133556022.167 7 101034220.502 7
E30  26384232.670 7  26384235.285 8 138650066.626 7 104887894.542 8
E34  25747582.879 7  25747587.592 8 135304482.526 7 102356966.816 8
E36  23405834.061 8  23405836.670 9 122998484.264 8  93047572.542 9
G01  23001737.059 6                  23001741.508 7 120875132.936 6                  94188399.295 7
G02  21291607.625 8  21291608.736 6                 111888270.425 8  87185590.382 6
G08  20377037.519 8                  20377043.568 7 107082279.110 8                  83440594.586 7
G10  21457373.882 8                  21457379.884 7 112759432.135 8                  87864399.357 7
G27  21672170.538 7                  21672178.930 7 113888114.890 7                  88743959.562 7
G32  22438311.468 7                  22438320.300 7 117914129.104 7                  91881207.048 7
R01  19943050.101 7                 106607248.041 7
R02  20494097.616 8  20494103.004 7 109360534.451 8  85058138.882 7
R16  22393105.975 6                 119620084.881 6
R17  19423381.492 8  19423384.999 7 103938644.020 8  80841026.904 7
R18  22247378.995 4  22247384.649 5 118758211.752 4  92367371.162 5
R24  20664020.488 7  20664024.950 7 110499843.631 7  85944327.280 7
> 2025 06 15 10 44 20.0000000  0 22
C19  22471671.061 7                 117015955.572 7
C20  23389034.735 7                 121793075.917 7
C29  23792314.486 6                 123892878.291 6
E02  25767387.379 6  25767390.666 7 135408515.520 6 102435686.525 7
E04  25777596.977 4  25777591.558 6 135462382.446 4 102476241.85516
E06  25461503.348 7  25461506.938 8 133801063.395 7 101219686.756 8
E11  25415613.070 7  25415612.291 7 133559994.040 7 101037225.178 7
E30  26382961.531 7  26382964.277 8 138643386.993 7 104882841.436 8
E34  25744400.998 7  25744404.553 8 135287755.715 7 102344313.117 8
E36  23404597.164 8  23404599.479 9 122991982.808 8  93042654.241 9
G01  22997788.016 7                  22997792.901 7 120854383.858 7                  94172231.208 7
G02  21289041.307 7  21289042.929 6                 111874786.054 7  87175083.093 6
G08  20376504.294 8                  20376510.618 7 107079477.113 8                  83438411.219 7
G10  21457970.796 8                  21457977.013 7 112762570.744 8                  87866845.015 7
G27  21673810.657 7                  21673818.903 7 113896733.487 7                  88750675.329 7
G32  22435358.366 7                  22435366.992 7 117898607.863 7                  91869112.595 7
R01  19942934.537 7                 106606634.252 7
R02  20490101.588 8  20490107.004 7 109339210.840 8  85041553.869 7
R16  22393186.002 5  22393222.670 4 119620545.760 5  93038230.96514
R17  19421105.548 8  19421109.574 7 103926467.830 8  80831556.545 7
R18  22243025.521 4                                
R24  20665149.360 7  20665154.402 7 110505879.130 7  85949021.563 7
> 2025 06 15 10 44 25.0000000  0 20
C19  22469200.339 7                 117003095.041 7
C20  23389501.567 7                 121795506.140 7
C29  23793748.603 6                 123900357.956 6
E02  25768524.970 6  25768528.076 7 135414492.616 6 102440208.155 7
E04  25776379.254 5  25776377.776 6 135456002.400 5 102471415.282 6
E06  25458995.710 7  25458998.798 8 133787883.079 7 101209715.927 8
E11  25416369.857 7  25416368.798 7 133563969.213 7 101040232.379 7
E30  26381692.883 7  26381695.650 8 138636719.831 7 104877797.762 8
E34  25741218.029 7  25741222.038 8 135271031.727 7 102331661.534 8
E36  23403360.759 8  23403363.434 9 122985487.219 8  93037740.375 9
G01  22993839.667 7                  22993844.938 7 120833638.676 7                  94156066.113 7
G02  21286476.870 7  21286479.042 6                 111861309.029 7  87164581.526 6
G08  20375974.103 8                  20375980.365 7 107076690.694 8                  83436239.987 7
G10  21458570.352 8                  21458576.100 7 112765719.748 8                  87869298.784 7
G27  21675453.429 7                  21675460.455 7 113905362.249 7                  88757399.033 7
G32  22432406.695 7                  22432415.417 7 117883099.563 7                  91857028.211 7
R01  19942823.171 7                 106606042.657 7
R02  20486107.965 8  20486113.932 7 109317904.021 8  85024981.880 7
R17  19418832.130 8  19418836.298 7 103914303.813 8  80822095.650 7
R24  20666281.072 7  20666284.967 7 110511925.307 7  85953724.117 7
> 2025 06 15 10 44 30.0000000  0 20
C19  22466733.666 7                 116990248.026 7
C20  23389970.232 7                 121797948.679 7
C29  23795186.977 6                 123907843.593 6
E02  25769664.816 6  25769666.938 7 135420477.331 6 102444735.559 7
E04  25775171.108 5  25775166.122 6 135449634.952 5 102466598.351 6
E06  25456488.376 7  25456492.729 8 133774713.686 7 101199753.396 8
E11  25417127.340 7  25417125.946 7 133567947.884 7 101043242.221 7
E30  26380426.469 7  26380429.363 8 138630065.277 7 104872763.640 8
E34  25738036.495 7  25738040.020 8 135254310.685 7 102319012.176 8
E36  23402125.790 8  23402128.519 9 122978997.659 8  93032831.064 9
G01  22989892.502 7                  22989897.792 7 120812897.578 7                  94139904.233 7
G02  21283913.457 7  21283916.473 6                 111847839.516 7  87154085.803 6
G08  20375446.363 8                  20375453.027 7 107073919.989 8                  83434080.976 7
G10  21459171.288 8                  21459177.628 7 112768879.293 8                  87871760.758 7
G27  21677097.610 7                  21677104.738 7 113914001.288 7                  88764130.756 7
G32  22429458.646 7                  22429467.079 7 117867604.380 7                  91844954.043 7
R01  19942717.829 7                 106605473.360 7
R02  20482119.263 8  20482124.394 7 109296613.997 8  85008422.974 7
R17  19416560.943 8  19416565.495 7 103902152.238 8  80812644.432 7
R24  20667412.767 7  20667417.509 7 110517982.040 7  85958434.896 7
> 2025 06 15 10 44 35.0000000  0 21
C19  22464269.217 7                 116977413.532 7
C20  23390442.428 7                 121800402.360 7
C29  23796626.798 5                 123915334.162 5
E02  25770804.917 6  25770807.071 7 135426468.521 6 102449267.856 7
E04  25773954.477 5  25773956.894 6 135443279.122 5 102461790.221 6
E06  25453983.637 7  25453988.589 8 133761554.189 7 101189798.344 8
E11  25417884.547 7  25417883.445 7 133571929.008 7 101046253.925 7
E30  26379162.013 7  26379165.366 8 138623422.277 7 104867738.250 8
E34  25734854.429 7  25734858.424 8 135237591.522 7 102306364.242 8
E36  23400892.100 8  23400894.484 8 122972513.057 8  93027925.496 8
G01  22985945.962 7                  22985952.071 7 120792159.523 7                  94123744.733 7
G02  21281351.911 7  21281354.528 6                 111834376.446 7  87143595.101 6
G08  20374921.759 8                  20374928.596 7 107071163.916 8                  83431933.393 7
G10  21459774.852 8                  21459780.549 7 112772048.332 8                  87874230.129 7
G27  21678743.668 7                  21678749.986 7 113922649.616 7                  88770869.658 7
G32  22426512.728 7                  22426520.801 7 117852121.178 7                  91832889.239 7
R01  19942614.836 7                 106604925.396 7
R02  20478132.794 8  20478138.102 7 109275339.851 8  84991876.406 7
R16  22393467.538 5                                
R17  19414292.696 8  19414296.539 7 103890011.840 8  80803201.908 7
R24  20668547.824 8  20668551.965 7 110524048.399 8  85963153.177 7
> 2025 06 15 10 44 40.0000000  0 21
C19  22461806.933 7                 116964592.628 7
C20  23390915.565 7                 121802868.306 7
C29  23798067.324 6                 123922830.763 6
E02  25771946.572 6  25771948.736 7 135432467.303 6 102453805.935 7
E04  25772748.349 5  25772750.200 6 135436936.027 5 102456991.640 6
E06  25451481.734 7  25451486.470 8 133748405.697 7 101179851.603 8
E11  25418642.963 7  25418641.777 7 133575913.606 7 101049268.225 7
E30  26377899.934 7  26377903.758 8 138616791.938 7 104862722.449 8
E34  25731673.747 7  25731677.355 8 135220875.283 7 102293718.530 8
E36  23399659.301 8  23399661.659 9 122966034.489 8  93023024.494 9
G01  22982000.555 7                  22982006.202 7 120771425.571 7                  94107588.404 7
G02  21278791.716 8  21278793.820 6                 111820920.931 8  87133110.290 6
G08  20374400.620 8                  20374407.473 7 107068423.587 8                  83429798.074 7
G10  21460379.669 8                  21460385.123 7 112775227.941 8                  87876707.741 7
G27  21680389.901 7                  21680397.809 7 113931308.225 7                  88777616.608 7
G32  22423568.375 7                  22423576.962 7 117836651.125 7                  91820834.679 7
R01  19942517.409 7                 106604399.747 7
R02  20474149.288 8  20474154.072 7 109254082.766 8  84975343.115 7
R16  22393569.778 6  22393573.563 5 119622601.12016
R17  19412025.871 8  19412030.463 7 103877883.819 8  80793768.999 7
R24  20669683.885 8  20669688.385 7 110530125.437 8  85967879.759 7
> 2025 06 15 10 44 45.0000000  0 21
C19  22459347.152 7                 116951785.243 7
C20  23391391.326 7                 121805346.450 7
C29  23799506.788 6                 123930333.424 6
E02  25773089.050 6  25773091.572 7 135438473.693 6 102458349.723 7
E04  25771543.728 4  25771545.523 7 135430605.541 4 102452202.722 7
E06  25448981.789 7  25448986.452 8 133735268.190 7 101169913.187 8
E11  25419401.113 7  25419400.752 7 133579901.736 7 101052285.209 7
E30  26376640.694 7  26376644.429 8 138610174.221 7 104857716.207 8
E34  25728493.108 7  25728496.915 8 135204162.024 7 102281075.072 8
E36  23398427.641 8  23398429.977 9 122959561.947 8  93018128.063 9
G01  22978055.538 7                  22978061.515 7 120750695.721 7                  94091435.282 7
G02  21276232.382 7  21276234.717 6                 111807472.935 7  87122631.322 6
G08  20373882.304 8                  20373888.558 7 107065698.956 8                  83427674.996 7
G10  21460986.697 8                  21460992.509 7 112778418.059 8                  87879193.541 7
G27  21682040.066 7                  21682047.210 7 113939977.109 7                  88784371.561 7
G32  22420626.778 7                  22420635.594 7 117821194.203 7                  91808790.335 7
R01  19942422.784 7                 106603896.471 7
R02  20470168.171 8  20470173.513 7 109232842.474 8  84958822.899 7
R16  22393676.175 6  22393677.489 5 119623164.382 6
R17  19409762.257 8  19409766.156 7 103865768.172 8  80784345.729 7
R24  20670822.191 8  20670827.001 7 110536213.261 8  85972614.722 7
> 2025 06 15 10 44 50.0000000  0 21
C19  22456890.401 7                 116938991.280 7
C20  23391869.530 7                 121807836.662 7
C29  23800949.754 6                 123937841.874 6
E02  25774233.500 6  25774235.939 7 135444487.487 6 102462899.103 7
E04  25770341.515 5  25770343.376 7 135424287.662 5 102447423.239 7
E06  25446483.750 7  25446488.532 8 133722141.484 7 101159982.926 8
E11  25420160.589 6  25420160.246 7 133583893.137 6 101055304.687 7
E30  26375383.432 7  26375387.397 8 138603568.989 7 104852719.375 8
E34  25725314.033 7  25725317.007 8 135187451.559 7 102268433.696 8
E36  23397196.797 8  23397199.383 8 122953095.256 8  93013236.055 8
G01  22974110.989 7                  22974117.448 7 120729969.809 7                  94075285.209 7
G02  21273674.758 7  21273676.763 6                 111794032.284 7  87112158.076 6
G08  20373366.788 8                  20373373.281 8 107062989.860 8                  83425563.996 8
G10  21461596.255 8                  21461601.399 7 112781618.515 8                  87881687.388 7
G27  21683691.142 7                  21683698.254 7 113948656.073 7                  88791134.387 7
G32  22417688.085 7                  22417696.620 7 117805750.241 7                  91796756.077 7
R01  19942334.041 7                 106603415.279 7
R02  20466191.879 8  20466196.534 7 109211619.087 8  84942315.827 7
R16  22393783.815 5  22393785.832 5 119623748.268 5  93040569.40115
R17  19407500.562 8  19407504.127 7 103853664.717 8  80774931.905 7
R24  20671962.449 8  20671967.539 7 110542311.613 8  85977357.881 7
> 2025 06 15 10 44 55.0000000  0 22
C19  22454436.187 7                 116926210.932 7
C20  23392349.706 7                 121810339.101 7
C29  23802393.549 6                 123945356.393 6
E02  25775378.265 6  25775381.800 7 135450508.811 6 102467454.204 7
E04  25769139.859 5  25769143.521 7 135417982.485 5 102442653.398 7
E06  25443989.234 7  25443992.699 8 133709025.859 7 101150061.020 8
E11  25420920.255 6  25420920.539 7 133587888.121 6 101058326.846 7
E30  26374129.044 7  26374132.829 8 138596976.393 7 104847732.117 8
E34  25722134.667 7  25722137.682 8 135170744.042 7 102255794.577 8
E36  23395967.753 8  23395969.962 9 122946634.614 8  93008348.613 9
G01  22970168.006 7                  22970174.023 6 120709248.022 7                  94059138.375 6
G02  21271118.634 7  21271120.590 6                 111780599.188 7  87101690.723 6
G08  20372854.057 8                  20372860.720 7 107060296.507 8                  83423465.274 7
G10  21462206.613 8                  21462212.727 7 112784829.499 8                  87884189.460 7
G27  21685345.530 7                  21685352.161 7 113957345.343 7                  88797905.261 7
G32  22414751.771 7                  22414760.293 7 117790319.477 7                  91784732.087 7
R01  19942247.396 8                 106602956.372 8
R02  20462217.080 8  20462222.165 7 109190412.592 8  84925821.920 7
R16  22393898.307 6  22393901.628 6 119624352.682 6  93041039.534 6
R17  19405241.193 8  19405244.575 7 103841573.708 8  80765527.770 7
R18  22212591.253 5                 118572378.13915
R24  20673104.922 8  20673109.519 7 110548420.635 8  85982109.339 7
> 2025 06 15 10 45  0.0000000  0 22
C19  22451984.628 7                 116913443.719 7
C20  23392832.872 7                 121812853.321 7
C29  23803836.647 5                 123952876.478 5
E02  25776525.912 6  25776529.017 7 135456537.316 6 102472014.726 7
E04  25767947.535 5  25767945.977 7 135411689.475 5 102437892.838 7
E06  25441495.461 7  25441498.975 8 133695920.745 7 101140147.096 8
E11  25421681.099 6  25421681.431 7 133591886.097 6 101061351.261 7
E30  26372876.756 7  26372880.630 8 138590395.986 7 104842754.098 8
E34  25718955.895 7  25718958.873 8 135154039.030 7 102243157.350 8
E36  23394739.298 8  23394741.602 9 122940179.536 8  93003465.392 9
G01  22966225.750 7                  22966231.728 7 120688529.930 7                  94042994.409 7
G02  21268563.488 7  21268565.734 6                 111767173.156 7  87091228.885 6
G08  20372344.151 8                  20372351.118 7 107057618.412 8                  83421378.443 7
G10  21462819.830 8                  21462825.831 7 112788050.580 8                  87886699.378 7
G27  21687000.255 7                  21687007.883 7 113966044.431 7                  88804683.758 7
G32  22411817.747 7                  22411825.780 7 117774901.364 7                  91772717.985 7
R01  19942165.496 7                 106602519.361 7
R02  20458246.035 8  20458250.680 7 109169222.547 8  84909340.791 7
R16  22394013.877 6  22394019.995 6 119624977.464 6  93041525.441 6
R17  19402983.229 8  19402987.464 7 103829494.649 8  80756132.952 7
R18  22208229.386 5                 118549161.673 5
R24  20674249.854 7  20674253.955 7 110554539.887 7  85986868.740 7
> 2025 06 15 10 45  5.0000000  0 21
C19  22449535.444 7                 116900689.768 7
C20  23393317.810 7                 121815379.378 7
C29  23805283.027 6                 123960402.255 6
E02  25777673.795 6  25777677.647 7 135462572.971 6 102476580.646 7
E04  25766749.632 6  25766750.837 7 135405408.907 6 102433141.647 7
E06  25439003.950 7  25439007.101 8 133682826.290 7 101130241.211 8
E11  25422442.498 6  25422442.828 7 133595887.277 6 101064378.119 7
E30  26371627.263 7  26371630.635 8 138583827.886 7 104837785.360 8
E34  25715777.279 7  25715780.579 8 135137336.646 7 102230522.111 8
E36  23393511.953 8  23393514.313 9 122933730.163 8  92998586.487 9
G01  22962284.767 7                  22962289.708 7 120667815.572 7                  94026853.391 7
G02  21266009.974 7  21266012.300 6                 111753754.313 7  87080772.648 6
G08  20371837.531 8                  20371844.557 8 107054955.695 8                  83419303.616 8
G10  21463435.180 8                  21463440.652 7 112791281.801 8                  87889217.223 7
G27  21688658.102 7                  21688664.809 7 113974753.436 7                  88811470.000 7
G32  22408886.463 7                  22408894.417 7 117759496.133 7                  91760713.934 7
R01  19942088.451 7                 106602104.256 7
R02  20454279.202 8  20454283.063 7 109148049.385 8  84892872.767 7
R16  22394136.959 6  22394140.746 6 119625622.511 6  93042027.166 6
R17  19400727.765 8  19400732.793 7 103817427.544 8  80746747.448 7
R24  20675395.627 7  20675400.394 7 110560669.523 7  85991636.211 7
> 2025 06 15 10 45 10.0000000  0 21
C19  22447088.483 7                 116887949.265 7
C20  23393805.370 7                 121817917.496 7
C29  23806728.708 6                 123967933.880 6
E02  25778823.857 6  25778827.641 7 135468616.092 6 102481152.211 7
E04  25765556.646 5  25765558.259 7 135399140.831 5 102428399.865 7
E06  25436513.369 7  25436517.355 8 133669742.715 7 101120343.597 8
E11  25423204.939 6  25423204.829 7 133599891.757 6 101067407.469 7
E30  26370379.426 7  26370383.130 8 138577272.307 7 104832826.095 8
E34  25712599.909 8  25712602.733 8 135120637.071 8 102217888.995 8
E36  23392285.650 8  23392288.143 9 122927286.676 8  92993712.035 9
G01  22958343.185 7                  22958348.795 7 120647105.212 7                  94010715.438 7
G02  21263458.492 8  21263460.506 6                 111740342.854 8  87070322.164 6
G08  20371334.146 8                  20371340.347 8 107052308.543 8                  83417240.880 8
G10  21464051.844 8                  21464057.391 7 112794523.379 8                  87891743.114 7
G27  21690317.130 7                  21690323.781 7 113983472.552 7                  88818264.076 7
G32  22405957.635 7                  22405964.854 7 117744103.888 7                  91748720.009 7
R01  19942014.014 7                 106601711.314 7
R02  20450313.845 8  20450318.696 7 109126893.024 8  84876417.812 7
R16  22394259.294 5  22394264.960 6 119626288.065 5  93042544.833 6
R17  19398475.887 8  19398479.853 7 103805372.693 8  80737371.452 7
R24  20676543.597 8  20676548.685 7 110566809.614 8  85996411.839 7
> 2025 06 15 10 45 15.0000000  0 22
C19  22444644.871 7                 116875222.054 7
C20  23394295.228 7                 121820467.506 7
C29  23808175.062 6                 123975471.201 6
E02  25779976.074 6  25779978.789 7 135474666.396 6 102485729.198 7
E04  25764366.901 5  25764368.135 7 135392885.231 5 102423667.525 7
E06  25434025.487 7  25434029.607 8 133656669.871 7 101110454.086 8
E11  25423968.167 6  25423967.509 7 133603899.505 6 101070439.272 7
E30  26369134.862 7  26369137.914 8 138570729.079 7 104827876.201 8
E34  25709422.493 7  25709425.468 8 135103940.173 7 102205257.908 8
E36  23391061.057 8  23391063.113 9 122920848.933 8  92988841.924 9
G01  22954402.641 7                  22954408.645 7 120626398.705 7                  93994580.542 7
G02  21260908.439 8  21260909.867 6                 111726938.666 8  87059877.342 6
G08  20370833.179 8                  20370839.838 8 107049676.807 8                  83415190.163 8
G10  21464670.801 8                  21464676.297 7 112797775.155 8                  87894276.950 7
G27  21691978.943 7                  21691984.713 7 113992201.577 7                  88825065.893 7
G32  22403029.853 7                  22403038.178 7 117728724.568 7                  91736736.111 7
R01  19941945.032 7                 106601340.354 7
R02  20446351.798 8  20446357.028 7 109105753.495 8  84859975.970 7
R16  22394386.121 5  22394393.792 5 119626973.898 5  93043078.313 5
R17  19396225.102 8  19396229.473 7 103793330.128 8  80728005.008 7
R18  22195171.285 5                 118479524.07815
R24  20677693.998 7  20677699.033 7 110572960.150 7  86001195.566 7
> 2025 06 15 10 45 20.0000000  0 22
C19  22442202.511 7                 116862508.154 7
C20  23394787.008 7                 121823029.351 7
C29  23809624.574 6                 123983014.144 6
E02  25781127.172 6  25781131.483 7 135480723.914 6 102490311.648 7
E04  25763180.470 5  25763179.978 7 135386641.991 5 102418944.500 7
E06  25431539.514 7  25431543.844 8 133643607.720 7 101100572.648 8
E11  25424731.271 6  25424730.768 7 133607910.304 6 101073473.439 7
E30  26367891.686 7  26367894.949 8 138564198.116 7 104822935.571 8
E34  25706245.337 7  25706248.695 8 135087245.911 7 102192628.810 8
E36  23389837.032 8  23389839.150 9 122914416.886 8  92983976.119 9
G01  22950462.316 7                  22950468.712 7 120605695.974 7                  93978448.549 7
G02  21258358.566 8  21258359.970 6                 111713541.661 8  87049438.114 6
G08  20370335.599 8                  20370341.805 7 107047060.447 8                  83413151.441 7
G10  21465291.429 8                  21465297.009 7 112801037.072 8                  87896818.695 7
G27  21693641.257 7                  21693647.516 7 114000940.502 7                  88831875.464 7
G32  22400106.814 7                  22400114.800 7 117713358.147 7                  91724762.266 7
R01  19941879.752 7                 106600991.352 7
R02  20442393.298 8  20442398.763 7 109084630.387 8  84843546.890 7
R16  22394519.021 5  22394525.431 5 119627680.154 5  93043627.643 5
R17  19393976.927 8  19393980.845 7 103781299.524 8  80718647.870 7
R18  22190826.649 6                 118456318.813 6
R24  20678846.403 7  20678850.903 7 110579121.036 7  86005987.348 7
> 2025 06 15 10 45 25.0000000  0 22
C19  22439764.015 7                 116849807.373 7
C20  23395280.794 7                 121825602.900 7
C29  23811074.792 6                 123990562.675 6
E02  25782280.268 6  25782285.658 7 135486788.484 6 102494899.430 7
E04  25761995.615 5  25761994.052 6 135380410.941 5 102414230.747 6
E06  25429055.458 7  25429060.213 8 133630556.138 7 101090699.222 8
E11  25425495.088 6  25425494.507 7 133611924.230 6 101076509.917 7
E30  26366652.325 7  26366654.401 8 138557679.360 7 104818004.175 8
E34  25703069.158 8  25703072.363 8 135070554.119 8 102180001.589 8
E36  23388614.036 8  23388616.215 9 122907990.408 8  92979114.526 9
G01  22946524.067 7                  22946529.962 7 120584996.927 7                  93962319.418 7
G02  21255810.194 8  21255811.573 6                 111700151.766 8  87039004.423 6
G08  20369840.647 8                  20369846.785 7 107044459.332 8                  83411124.609 7
G10  21465913.786 8                  21465919.543 7 112804309.018 8                  87899368.250 7
G27  21695305.696 7                  21695312.676 7 114009689.161 7                  88838692.577 7
G32  22397184.485 7                  22397192.822 7 117698004.408 7                  91712798.341 7
R01  19941819.361 7                 106600664.101 7
R02  20438438.578 8  20438443.448 7 109063524.198 8  84827130.961 7
R16  22394656.313 6  22394660.596 6 119628406.572 6  93044192.627 6
R17  19391731.296 8  19391734.561 7 103769280.941 8  80709300.065 7
R18  22186480.238 6  22186494.196 5 118433116.042 6  92114534.34715
R24  20680000.609 8  20680004.774 7 110585292.091 8  86010787.063 7
> 2025 06 15 10 45 30.0000000  0 22
C19  22437326.924 7                 116837119.690 7
C20  23395778.644 7                 121828188.052 7
C29  23812525.447 6                 123998116.659 6
E02  25783434.903 6  25783441.073 7 135492860.033 6 102499492.481 7
E04  25760812.514 5  25760810.830 6 135374191.978 5 102409526.127 6
E06  25426574.102 7  25426578.669 8 133617515.044 7 101080833.719 8
E11  25426259.386 6  25426258.915 7 133615941.053 6 101079548.592 7
E30  26365413.760 7  26365416.184 8 138551172.672 7 104813081.923 8
E34  25699892.694 7  25699896.477 8 135053864.767 7 102167376.200 8
E36  23387392.168 8  23387394.354 9 122901569.409 8  92974257.076 9
G01  22942585.391 7                  22942591.672 7 120564301.470 7                  93946193.100 7
G02  21253262.236 7  21253264.817 6                 111686768.849 7  87028576.201 6
G08  20369348.299 8                  20369354.289 7 107041873.379 8                  83409109.551 7
G10  21466538.068 8                  21466543.848 7 112807590.834 8                  87901925.508 7
G27  21696972.697 7                  21696980.272 7 114018447.503 7                  88845517.234 7
G32  22394265.137 7                  22394272.463 7 117682663.376 7                  91700844.276 7
R01  19941761.390 7                 106600358.558 7
R02  20434486.181 8  20434491.179 7 109042434.327 8  84810727.742 7
R16  22394797.163 6  22394800.564 6 119629152.961 6  93044773.118 6
R17  19389486.997 8  19389490.665 7 103757274.126 8  80699961.450 7
R18  22182133.427 6  22182147.219 4 118409915.806 6  92096489.645 4
R24  20681157.083 8  20681160.288 7 110591473.183 8  86015594.551 7
> 2025 06 15 10 45 35.0000000  0 22
C19  22434893.534 7                 116824446.521 7
C20  23396278.066 6                 121830786.273 6
C29  23813977.870 6                 124005677.487 6
E02  25784593.727 6  25784597.875 7 135498939.963 6 102504091.913 7
E04  25759631.111 5  25759629.909 6 135367986.618 5 102404831.863 6
E06  25424094.637 7  25424099.211 8 133604485.903 7 101070977.283 8
E11  25427024.435 6  25427024.137 7 133619962.275 6 101082590.623 7
E30  26364178.397 7  26364180.652 8 138544679.602 7 104808169.939 8
E34  25696718.120 7  25696721.336 8 135037179.312 7 102154753.776 8
E36  23386171.625 8  23386173.844 9 122895155.371 8  92969404.906 9
G01  22938648.638 7                  22938654.624 7 120543611.105 7                  93930070.748 7
G02  21250717.262 7  21250720.118 5                 111673394.427 7  87018154.581 5
G08  20368859.351 8                  20368865.897 7 107039304.063 8                  83407107.492 7
G10  21467164.514 8                  21467170.629 7 112810884.059 8                  87904491.656 7
G27  21698641.330 7                  21698648.437 7 114027216.971 7                  88852350.583 7
G32  22391349.586 7                  22391355.721 7 117667336.510 7                  91688901.251 7
R01  19941709.416 7                 106600076.176 7
R02  20430537.088 8  20430541.916 7 109021362.545 8  84794338.583 7
R16  22394940.461 6  22394945.064 6 119629921.143 6  93045370.591 6
R17  19387245.760 8  19387249.689 7 103745280.773 8  80690633.302 7
R18  22177787.983 7  22177799.893 5 118386719.611 7  92078448.232 5
R24  20682315.286 8  20682319.228 6 110597665.866 8  86020411.091 6
> 2025 06 15 10 45 40.0000000  0 22
C19  22432462.205 7                 116811786.885 7
C20  23396778.129 6                 121833396.623 6
C29  23815429.702 6                 124013244.228 6
E02  25785752.004 6  25785756.326 7 135505027.283 6 102508696.909 7
E04  25758449.604 5  25758451.027 6 135361793.937 5 102400147.138 6
E06  25421618.034 7  25421621.825 8 133591467.734 7 101061129.118 8
E11  25427789.689 6  25427790.037 7 133623986.913 6 101085635.227 7
E30  26362945.208 7  26362947.337 8 138538199.070 7 104803267.454 8
E34  25693542.973 7  25693546.763 8 135020496.713 7 102142133.517 8
E36  23384952.322 8  23384954.439 9 122888747.274 8  92964557.224 9
G01  22934711.868 6                  22934718.098 7 120522924.797 6                  93913951.588 7
G02  21248173.369 7  21248176.251 6                 111660027.491 7  87007738.830 6
G08  20368373.531 8                  20368379.476 7 107036750.363 8                  83405117.602 7
G10  21467792.992 8                  21467799.375 7 112814187.595 8                  87907065.849 7
G27  21700311.960 7                  21700318.873 7 114035996.516 7                  88859191.796 7
G32  22388434.337 7                  22388441.637 7 117652022.770 7                  91676968.498 7
R01  19941660.663 8                 106599815.856 8
R02  20426591.771 8  20426596.402 7 109000307.826 8  84777962.716 7
R16  22395088.271 6  22395092.972 6 119630709.547 6  93045983.814 6
R17  19385006.479 8  19385011.333 7 103733299.812 8  80681314.786 7
R18  22173443.811 7  22173456.714 4 118363526.456 7  92060409.047 4
R24  20683475.446 8  20683478.957 7 110603869.175 8  86025235.886 7
> 2025 06 15 10 45 45.0000000  0 22
C19  22430033.351 7                 116799140.347 7
C20  23397281.967 6                 121836018.527 6
C29  23816882.935 6                 124020816.396 6
E02  25786912.276 6  25786916.149 7 135511121.598 6 102513307.206 7
E04  25757273.639 5  25757274.532 6 135355613.375 5 102395471.590 6
E06  25419142.759 7  25419146.553 8 133578460.076 7 101051288.920 8
E11  25428556.882 6  25428556.373 7 133628014.517 6 101088682.063 7
E30  26361714.678 8  26361716.234 8 138531730.617 8 104798374.134 8
E34  25690368.669 7  25690372.590 8 135003816.538 7 102129515.094 8
E36  23383733.862 8  23383736.049 9 122882344.676 8  92959713.696 9
G01  22930775.259 6                  22930782.912 7 120502242.090 6                  93897835.227 7
G02  21245631.267 8  21245634.057 6                 111646667.590 8  86997328.526 6
G08  20367889.860 8                  20367896.621 7 107034211.818 8                  83403139.527 7
G10  21468423.509 8                  21468429.656 7 112817501.068 8                  87909647.770 7
G27  21701984.908 7                  21701992.071 7 114044785.699 7                  88866040.479 7
G32  22385522.629 7                  22385529.334 7 117636721.682 7                  91665045.599 7
R01  19941616.660 8                 106599577.248 8
R02  20422648.741 8  20422653.603 7 108979269.773 8  84761599.806 7
R16  22395236.147 6  22395244.350 5 119631517.924 6  93046612.591 5
R17  19382769.969 8  19382774.853 7 103721330.747 8  80672005.512 7
R18  22169099.742 7                 118340335.852 7
R24  20684636.709 8  20684640.657 7 110610082.564 8  86030068.519 7
> 2025 06 15 10 45 50.0000000  0 22
C19  22427606.956 7                 116786506.285 7
C20  23397786.970 7                 121838651.424 7
C29  23818336.274 6                 124028393.429 6
E02  25788073.122 6  25788077.103 7 135517222.252 6 102517922.245 7
E04  25756096.900 4  25756100.287 6 135349444.351 4 102390804.831 6
E06  25416669.320 7  25416673.184 8 133565462.314 7 101041456.193 8
E11  25429324.195 6  25429323.302 7 133632044.435 6 101091730.664 7
E30  26360485.173 8  26360487.499 8 138525273.674 8 104793489.484 8
E34  25687195.102 8  25687198.898 8 134987138.183 8 102116898.058 8
E36  23382516.727 8  23382518.609 9 122875946.942 8  92954873.854 9
G01  22926839.862 6                  22926847.924 7 120481562.386 6                  93881721.212 7
G02  21243090.255 8  21243092.674 6                 111633314.112 8  86986923.201 6
G08  20367410.704 8                  20367416.191 7 107031687.801 8                  83401172.755 7
G10  21469055.765 8                  21469062.218 7 112820823.799 8                  87912236.918 7
G27  21703659.565 7                  21703666.074 7 114053583.866 7                  88872896.201 7
G32  22382612.396 7                  22382620.765 7 117621432.735 7                  91653132.170 7
R01  19941575.924 8                 106599359.701 8
R02  20418709.779 8  20418714.173 7 108958247.509 8  84745249.158 7
R16  22395392.751 5  22395399.331 5 119632345.874 5  93047256.563 5
R17  19380535.782 8  19380539.831 7 103709373.074 8  80662705.099 7
R18  22164755.062 7                 118317147.162 7
R24  20685800.235 8  20685804.643 7 110616305.424 8  86034908.513 7
> 2025 06 15 10 45 55.0000000  0 22
C19  22425183.856 7                 116773885.760 7
C20  23398295.531 6                 121841296.343 6
C29  23819792.849 6                 124035976.284 6
E02  25789235.527 6  25789239.384 7 135523330.160 6 102522542.838 7
E04  25754927.039 5  25754928.359 6 135343287.946 5 102386147.502 6
E06  25414198.023 7  25414201.787 8 133552475.519 7 101031631.806 8
E11  25430091.829 6  25430090.761 7 133636077.681 6 101094781.804 7
E30  26359258.798 8  26359261.262 8 138518829.277 8 104788614.329 8
E34  25684021.606 8  25684025.535 8 134970462.704 8 102104283.167 8
E36  23381300.040 8  23381302.298 9 122869555.140 8  92950038.501 9
G01  22922906.088 6                  22922913.865 7 120460886.812 6                  93865610.362 7
G02  21240551.350 7  21240553.107 6                 111619968.092 7  86976523.715 6
G08  20366932.878 8                  20366938.743 7 107029179.394 8                  83399218.165 7
G10  21469690.569 8                  21469696.243 7 112824156.846 8                  87914834.103 7
G27  21705334.294 7                  21705342.394 7 114062392.180 7                  88879759.781 7
G32  22379706.626 7                  22379713.468 7 117606156.983 7                  91641228.970 7
R01  19941538.115 7                 106599164.231 7
R02  20414774.115 8  20414778.357 7 108937242.381 8  84728911.855 7
R16  22395551.869 6  22395558.081 4 119633194.226 6  93047916.322 4
R17  19378303.707 8  19378307.507 7 103697427.659 8  80653414.227 7
R18  22160411.533 7                 118293961.525 7
R24  20686966.189 8  20686970.692 7 110622538.713 8  86039756.635 7
> 2025 06 15 10 46  0.0000000  0 22
C19  22422761.166 7                 116761278.923 7
C20  23398805.148 7                 121843953.384 7
C29  23821251.308 6                 124043565.085 6
E02  25790399.257 6  25790403.025 7 135529445.644 6 102527169.148 7
E04  25753757.220 5  25753758.582 6 135337144.241 5 102381499.812 6
E06  25411728.189 7  25411732.518 8 133539499.858 7 101021815.816 8
E11  25430860.048 6  25430858.956 7 133640114.535 6 101097835.627 7
E30  26358034.736 7  26358037.401 8 138512397.568 7 104783748.804 8
E34  25680849.192 8  25680852.763 8 134953790.279 8 102091670.592 8
E36  23380084.796 8  23380087.166 9 122863169.441 8  92945207.769 9
G01  22918972.820 6                  22918980.048 7 120440215.459 6                  93849502.777 7
G02  21238012.059 7  21238015.053 6                 111606629.692 7  86966130.167 6
G08  20366458.281 8                  20366464.256 7 107026686.767 8                  83397275.831 7
G10  21470326.914 8                  21470332.718 7 112827500.369 8                  87917439.434 7
G27  21707013.876 7                  21707020.420 7 114071210.641 7                  88886631.304 7
G32  22376802.044 7                  22376809.304 7 117590894.531 7                  91629336.201 7
R01  19941506.050 8                 106598990.986 8
R02  20410840.145 8  20410845.298 7 108916254.508 8  84712587.971 7
R16  22395714.329 6  22395718.614 5 119634063.271 6  93048592.157 5
R17  19376073.709 8  19376077.094 7 103685494.908 8  80644133.194 7
R18  22156068.811 7  22156072.510 4 118270779.072 7  91988260.60814
R24  20688133.508 8  20688138.021 7 110628782.858 8  86044613.169 7
> 2025 06 15 10 46  5.0000000  0 22
C19  22420342.890 7                 116748684.700 7
C20  23399317.934 7                 121846621.564 7
C29  23822711.213 5                 124051158.896 5
E02  25791565.513 6  25791567.718 7 135535567.544 6 102531800.327 7
E04  25752592.756 5  25752600.662 6 135331012.252 5 102376860.52416
E06  25409261.804 7  25409265.178 8 133526534.238 7 101012007.433 8
E11  25431627.970 6  25431627.555 7 133644153.809 6 101100891.332 7
E30  26356813.402 7  26356815.688 8 138505977.485 7 104778892.036 8
E34  25677676.802 8  25677680.370 8 134937119.794 8 102079059.496 8
E36  23378870.287 8  23378872.945 9 122856788.757 8  92940380.818 9
G01  22915039.790 6                  22915046.820 7 120419547.248 6                  93833397.698 7
G02  21235475.424 7  21235477.870 6                 111593297.820 7  86955741.694 6
G08  20365986.570 8                  20365993.156 7 107024208.810 8                  83395344.964 7
G10  21470964.846 8                  21470970.478 7 112830853.258 8                  87920052.071 7
G27  21708693.907 7                  21708700.383 7 114080038.200 7                  88893509.928 7
G32  22373900.848 7                  22373907.081 6 117575644.374 7                  91617452.977 6
R01  19941476.925 7                 106598838.850 7
R02  20406910.584 8  20406914.461 7 108895282.862 8  84696276.686 7
R16  22395881.679 6  22395885.094 6 119634951.756 6  93049283.192 6
R17  19373844.870 8  19373849.564 7 103673573.626 8  80634861.105 7
R18  22151726.351 7  22151730.675 4 118247598.768 7  91970231.452 4
R24  20689302.242 8  20689307.567 6 110635036.615 8  86049477.199 6
> 2025 06 15 10 46 10.0000000  0 22
C19  22417926.740 7                 116736104.634 7
C20  23399832.860 7                 121849302.309 7
C29  23824170.472 5                 124058759.146 5
E02  25792731.278 6  25792734.189 7 135541697.294 6 102536437.453 7
E04  25751427.225 5  25751436.086 6 135324893.463 5 102372231.709 6
E06  25406796.923 7  25406800.088 8 133513580.217 7 101002207.806 8
E11  25432398.125 6  25432396.998 7 133648197.016 6 101103949.989 7
E30  26355593.650 7  26355596.474 8 138499570.558 7 104774045.236 8
E34  25674505.221 7  25674508.691 8 134920452.778 7 102066451.020 8
E36  23377657.618 8  23377659.995 9 122850414.577 8  92935558.796 9
G01  22911107.669 6                  22911114.834 7 120398883.689 6                  93817296.231 7
G02  21232939.818 7  21232942.446 6                 111579974.025 7  86945359.524 6
G08  20365517.883 8                  20365524.683 7 107021747.035 8                  83393426.709 7
G10  21471605.337 8                  21471610.571 7 112834217.048 8                  87922673.212 7
G27  21710374.757 7                  21710382.227 7 114088876.421 7                  88900396.830 7
G32  22371001.047 7                  22371007.938 7 117560407.995 7                  91605580.479 7
R01  19941453.366 7                 106598709.443 7
R02  20402983.997 8  20402988.203 7 108874328.883 8  84679979.146 7
R16  22396053.057 6  22396058.304 6 119635861.093 6  93049990.438 6
R17  19371620.252 8  19371624.694 7 103661665.275 8  80625599.043 7
R18  22147383.069 7  22147387.162 4 118224422.036 7  91952205.186 4
R24  20690475.273 8  20690478.975 7 110641301.443 8  86054349.819 7
> 2025 06 15 10 46 15.0000000  0 22
C19  22415514.100 7                 116723537.931 7
C20  23400349.863 7                 121851994.886 7
C29  23825630.672 6                 124066365.146 6
E02  25793898.839 6  25793901.962 7 135547834.261 6 102541080.065 7
E04  25750268.004 5  25750273.852 6 135318787.061 5 102367612.356 6
E06  25404334.611 7  25404337.090 8 133500637.026 7 100992416.372 8
E11  25433167.919 6  25433166.994 7 133652243.463 6 101107011.125 7
E30  26354376.795 7  26354379.729 8 138493176.021 7 104769207.816 8
E34  25671333.960 7  25671337.530 8 134903788.507 7 102053844.603 8
E36  23376445.678 8  23376448.118 9 122844046.199 8  92930741.162 9
G01  22907176.911 6                  22907183.132 7 120378224.050 6                  93801197.815 7
G02  21230405.940 7  21230408.801 5                 111566657.547 7  86934983.039 5
G08  20365052.014 8                  20365058.841 7 107019300.684 8                  83391520.474 7
G10  21472246.825 8                  21472252.211 7 112837590.961 8                  87925302.220 7
G27  21712058.884 7                  21712066.142 7 114097724.476 7                  88907291.413 7
G32  22368103.858 7                  22368110.930 7 117545184.640 7                  91593718.166 7
R01  19941432.513 7                 106598601.942 7
R02  20399060.357 8  20399064.524 7 108853391.801 8  84663694.750 7
R16  22396225.617 6  22396232.601 5 119636790.809 6  93050713.496 5
R17  19369396.851 8  19369401.374 7 103649769.206 8  80616346.556 7
R18  22143042.233 6  22143044.855 4 118201248.277 6  91934181.173 4
R24  20691648.578 8  20691652.301 7 110647576.635 8  86059230.545 7
> 2025 06 15 10 46 20.0000000  0 22
C19  22413104.229 7                 116710984.132 7
C20  23400869.954 7                 121854698.824 7
C29  23827091.535 5                 124073976.355 5
E02  25795070.266 6  25795071.035 7 135553977.876 6 102545727.692 7
E04  25749107.590 5  25749113.819 6 135312692.699 5 102363002.036 6
E06  25401873.347 7  25401876.071 8 133487704.189 7 100982632.775 8
E11  25433938.416 6  25433937.590 7 133656292.698 6 101110074.335 7
E30  26353161.945 7  26353165.145 8 138486793.383 7 104764379.390 8
E34  25668163.896 7  25668166.844 8 134887126.506 7 102041239.888 8
E36  23375234.669 8  23375237.259 9 122837683.123 8  92925927.541 9
G01  22903246.541 7                  22903252.383 7 120357567.889 7                  93785102.122 7
G02  21227873.338 7  21227875.824 6                 111553347.931 7  86924611.911 6
G08  20364589.548 8                  20364596.541 7 107016869.301 8                  83389625.898 7
G10  21472890.756 8                  21472896.520 7 112840974.516 8                  87927938.767 7
G27  21713743.991 7                  21713751.614 7 114106581.948 7                  88914193.328 7
G32  22365209.370 7                  22365216.831 7 117529973.878 7                  91581865.647 7
R01  19941417.092 7                 106598515.914 7
R02  20395138.655 8  20395144.363 7 108832471.349 8  84647423.295 7
R16  22396404.180 6  22396410.239 5 119637740.400 6  93051451.988 5
R17  19367176.238 8  19367180.583 7 103637884.915 8  80607103.231 7
R18  22138702.389 7  22138703.048 3 118178076.932 7  91916158.878 3
R24  20692823.768 8  20692827.302 7 110653861.736 8  86064118.953 7
> 2025 06 15 10 46 25.0000000  0 22
C19  22410696.377 7                 116698443.700 7
C20  23401391.030 6                 121857414.520 6
C29  23828553.853 5                 124081593.186 5
E02  25796240.322 5  25796241.477 7 135560128.658 5 102550380.698 7
E04  25747952.007 5  25747956.144 5 135306610.664 5 102358401.025 5
E06  25399414.012 7  25399417.105 8 133474782.141 7 100972857.339 8
E11  25434709.203 6  25434708.679 7 133660345.061 6 101113139.907 7
E30  26351950.188 7  26351952.935 8 138480423.090 7 104759560.306 8
E34  25664993.531 7  25664996.658 8 134870467.152 7 102028637.193 8
E36  23374025.083 8  23374027.492 9 122831325.762 8  92921118.232 9
G01  22899316.032 7                  22899322.416 7 120336915.595 7                  93769009.437 7
G02  21225342.325 8  21225344.610 5                 111540045.563 8  86914246.438 5
G08  20364130.208 8                  20364136.636 7 107014453.317 8                  83387743.303 7
G10  21473536.141 8                  21473542.364 7 112844368.131 8                  87930583.131 7
G27  21715431.215 7                  21715438.665 7 114115449.190 7                  88921102.864 7
G32  22362317.977 7                  22362324.837 7 117514776.138 7                  91570023.257 7
R01  19941404.755 7                 106598451.596 7
R02  20391221.670 8  20391227.100 7 108811567.816 8  84631165.006 7
R16  22396584.899 6  22396591.638 5 119638709.985 6  93052206.111 5
R17  19364957.707 8  19364962.140 7 103626012.857 8  80597869.385 7
R18  22134360.991 6                 118154908.425 6
R24  20694001.295 8  20694005.073 7 110660157.209 8  86069015.438 7
> 2025 06 15 10 46 30.0000000  0 22
C19  22408290.766 7                 116685917.462 7
C20  23401914.484 6                 121860142.804 6
C29  23830016.261 5                 124089216.460 5
E02  25797411.747 6  25797413.508 7 135566287.411 6 102555039.744 7
E04  25746800.780 5  25746800.938 5 135300541.837 5 102353810.077 5
E06  25396957.229 7  25396960.340 8 133461871.703 7 100963090.683 8
E11  25435481.080 6  25435480.593 7 133664401.420 6 101116208.512 7
E30  26350739.957 7  26350743.275 8 138474065.956 7 104754751.177 8
E34  25661824.062 7  25661827.146 8 134853811.275 7 102016037.145 8
E36  23372816.446 8  23372818.918 9 122824974.950 8  92916313.888 9
G01  22895386.478 6                  22895393.446 7 120316267.985 6                  93752920.416 7
G02  21222811.933 7  21222814.861 6                 111526751.301 7  86903887.282 6
G08  20363672.961 8                  20363679.883 7 107012053.547 8                  83385873.329 7
G10  21474184.410 8                  21474189.855 7 112847772.628 8                  87933236.002 7
G27  21717120.898 7                  21717127.987 7 114124327.055 7                  88928020.678 7
G32  22359428.834 7                  22359435.560 7 117499592.237 7                  91558191.671 7
R01  19941396.908 7                 106598409.943 7
R02  20387308.098 8  20387312.710 7 108790681.994 8  84614920.485 7
R16  22396770.886 6  22396777.826 5 119639700.613 6  93052976.624 5
R17  19362741.423 8  19362745.768 7 103614153.785 8  80588645.650 7
R18  22130021.403 6  22130024.363 4 118131743.577 6
R24  20695180.283 8  20695185.123 7 110666463.879 8  86073920.624 7
> 2025 06 15 10 46 35.0000000  0 22
C19  22405887.677 7                 116673404.310 7
C20  23402439.630 6                 121862882.584 6
C29  23831481.350 5                 124096845.159 5
E02  25798586.013 6  25798586.692 6 135572452.923 6 102559703.931 6
E04  25745650.446 5  25745647.754 4 135294485.132 5 102349228.195 4
E06  25394502.534 7  25394505.575 8 133448971.822 7 100953332.009 8
E11  25436253.850 6  25436253.072 7 133668460.673 6 101119279.301 7
E30  26349532.807 7  26349535.875 8 138467720.900 7 104749951.183 8
E34  25658655.147 7  25658658.085 8 134837157.816 7 102003438.923 8
E36  23371608.716 8  23371611.424 9 122818629.597 8  92911513.675 9
G01  22891457.738 6                  22891464.572 7 120295624.044 6                  93736834.253 7
G02  21220283.375 7  21220286.153 6                 111513464.050 7  86893533.573 6
G08  20363219.255 8                  20363226.298 8 107009668.894 8                  83384015.142 8
G10  21474834.123 8                  21474839.610 7 112851186.895 8                  87935896.480 7
G27  21718811.863 7                  21718819.486 7 114133214.450 7                  88934945.899 7
G32  22356541.077 7                  22356549.173 7 117484421.118 7                  91546370.030 7
R01  19941393.503 7                 106598389.860 7
R02  20383397.942 8  20383401.900 7 108769812.899 8  84598688.980 7
R16  22396958.866 6  22396966.953 5 119640711.073 6  93053762.529 5
R17  19360527.743 8  19360531.650 7 103602306.808 8  80579431.332 7
R18  22125682.745 6  22125684.356 4 118108581.400 6  91862097.87014
R24  20696361.551 8  20696366.270 7 110672780.354 8  86078833.425 7
> 2025 06 15 10 46 40.0000000  0 22
C19  22403487.041 7                 116660904.585 7
C20  23402968.376 6                 121865634.154 6
C29  23832947.373 5                 124104479.531 5
E02  25799759.507 6  25799761.432 6 135578625.631 6 102564373.526 6
E04  25744501.398 4  25744497.175 4 135288440.971 4 102344655.737 4
E06  25392049.463 7  25392052.903 8 133436082.817 7 100943581.563 8
E11  25437027.103 6  25437026.149 7 133672523.162 6 101122352.532 7
E30  26348328.070 7  26348330.898 8 138461388.241 7 104745160.575 8
E34  25655486.726 7  25655489.571 8 134820507.118 7 101990842.778 8
E36  23370402.315 8  23370405.046 9 122812290.040 8  92906717.841 9
G01  22887530.972 7                  22887537.420 7 120274984.028 7                  93720751.141 7
G02  21217756.993 7  21217758.660 6                 111500184.169 7  86883185.609 6
G08  20362768.630 7                  20362775.230 7 107007299.655 7                  83382168.987 7
G10  21475485.907 8                  21475491.140 7 112854611.264 8                  87938564.806 7
G27  21720505.045 7                  21720512.449 7 114142111.649 7                  88941878.778 7
G32  22353656.273 7                  22353664.150 7 117469263.097 7                  91534558.585 7
R01  19941393.220 7                 106598391.607 7
R02  20379489.814 8  20379494.179 7 108748960.881 8  84582470.746 7
R16  22397152.853 6  22397159.732 5 119641741.681 6  93054564.194 5
R17  19358316.055 8  19358320.433 7 103590472.080 8  80570226.552 7
R18  22121344.482 6  22121344.108 3 118085422.163 6  91844085.129 3
R24  20697544.874 8  20697549.165 7 110679107.320 8  86083754.369 7
> 2025 06 15 10 46 45.0000000  0 21
C19  22401089.379 7                 116648418.192 7
C20  23403498.114 6                 121868397.440 6
C29  23834414.571 5                 124112119.451 5
E02  25800937.511 6  25800937.243 6 135584805.327 6 102569048.405 6
E06  25389598.666 7  25389602.263 8 133423204.573 7 100933839.258 8
E11  25437801.073 6  25437799.818 7 133676588.799 6 101125428.146 7
E30  26347125.286 7  26347128.295 8 138455067.896 7 104740379.281 8
E34  25652318.841 7  25652321.648 8 134803859.029 7 101978248.615 8
E36  23369197.180 8  23369199.730 9 122805956.195 8  92901926.321 9
G01  22883603.603 7                  22883610.553 7 120254347.902 7                  93704671.054 7
G02  21215231.274 7  21215232.625 6                 111486911.551 7  86872843.292 6
G08  20362320.637 8                  20362327.505 7 107004945.766 8                  83380334.799 7
G10  21476139.214 8                  21476144.976 7 112858045.646 8                  87941240.938 7
G27  21722200.366 7                  21722207.600 7 114151018.608 7                  88948819.241 7
G32  22350773.957 7                  22350782.160 7 117454118.106 7                  91522757.285 7
R01  19941397.747 7                 106598415.095 7
R02  20375584.799 8  20375589.732 7 108728125.978 8  84566265.841 7
R16  22397348.833 5  22397356.649 5 119642792.452 5  93055381.521 5
R17  19356107.295 8  19356110.974 7 103578649.591 8  80561031.300 7
R18  22117006.750 6  22117006.178 4 118062265.808 6  91826074.682 4
R24  20698730.364 8  20698734.897 7 110685444.538 8  86088683.315 7
> 2025 06 15 10 46 50.0000000  0 21
C19  22398694.314 7                 116635945.771 7
C20  23404031.487 6                 121871173.024 6
C29  23835881.468 5                 124119765.618 5
E02  25802112.714 5  25802114.541 6 135590992.763 5 102573729.132 6
E06  25387150.591 7  25387153.825 8 133410337.761 7 100924105.611 8
E11  25438574.705 6  25438574.145 7 133680658.201 6 101128506.621 7
E30  26345924.606 7  26345928.092 8 138448760.495 7 104735607.778 8
E34  25649151.475 7  25649154.342 8 134787214.248 7 101965656.963 8
E36  23367993.398 8  23367995.651 8 122799628.676 8  92897139.593 8
G01  22879677.384 6                  22879684.115 7 120233716.304 6                  93688594.483 7
G02  21212706.923 8  21212708.705 6                 111473646.816 8  86862507.145 6
G08  20361875.471 8                  20361882.804 7 107002607.880 8                  83378513.053 7
G10  21476794.937 8                  21476800.550 7 112861490.632 8                  87943925.341 7
G27  21723897.008 7                  21723904.440 7 114159935.916 7                  88955767.774 7
G32  22347895.549 7                  22347902.909 7 117438986.796 7                  91510966.656 7
R01  19941406.072 7                 106598461.099 7
R02  20371684.077 8  20371688.552 7 108707308.515 8  84550074.495 7
R16  22397548.648 6  22397557.277 5 119643863.919 6  93056214.917 5
R17  19353900.400 8  19353904.146 7 103566840.006 8  80551846.089 7
R18  22112670.244 6  22112670.617 5 118039112.990 6  91808066.900 5
R24  20699916.944 8  20699921.884 7 110691792.679 8  86093620.764 7
> 2025 06 15 10 46 55.0000000  0 21
C19  22396300.867 7                 116623487.383 7
C20  23404567.673 6                 121873960.976 6
C29  23837350.737 5                 124127418.036 5
E02  25803288.592 5  25803293.446 6 135597187.848 5 102578415.657 6
E06  25384704.194 7  25384707.568 8 133397482.431 7 100914380.639 8
E11  25439349.077 6  25439349.256 7 133684731.412 6 101131587.966 7
E30  26344726.572 7  26344730.435 8 138442466.103 7 104730846.115 8
E34  25645984.711 7  25645987.634 8 134770572.831 7 101953067.844 8
E36  23366790.361 8  23366792.793 9 122793307.534 8  92892357.691 9
G01  22875752.746 6                  22875758.948 7 120213089.278 6                  93672521.484 7
G02  21210184.572 8  21210186.400 6                 111460390.091 8  86852177.225 6
G08  20361433.680 8                  20361441.263 7 107000286.005 8                  83376703.801 7
G10  21477452.418 8                  21477458.569 7 112864946.293 8                  87946618.058 7
G27  21725595.565 7                  21725603.634 7 114168863.618 7                  88962724.412 7
G32  22345017.852 7                  22345025.799 7 117423869.200 7                  91499186.715 7
R01  19941419.319 7                 106598529.409 7
R02  20367785.847 8  20367790.483 7 108686508.814 8  84533896.971 7
R16  22397754.593 6  22397762.454 5 119644956.361 6  93057064.618 5
R17  19351695.461 8  19351699.739 7 103555043.276 8  80542670.857 7
R18  22108333.675 6  22108337.069 5 118015963.670 6  91790061.898 5
R24  20701106.131 8  20701111.275 7 110698151.839 8  86098566.779 7
> 2025 06 15 10 47  0.0000000  0 21
C19  22393911.166 7                 116611042.730 7
C20  23405105.795 6                 121876761.001 6
C29  23838823.972 5                 124135076.414 5
E02  25804466.393 5  25804473.726 6 135603390.41015 102583107.83616
E06  25382259.775 7  25382263.394 8 133384638.275 7 100904664.130 8
E11  25440124.207 6  25440125.071 7 133688808.157 6 101134671.987 7
E30  26343531.714 7  26343535.149 8 138436184.412 7 104726094.064 8
E34  25642818.357 7  25642821.460 8 134753934.431 7 101940481.007 8
E36  23365588.711 8  23365591.074 8 122786992.492 8  92887580.407 8
G01  22871828.856 7                  22871834.649 7 120192466.511 7                  93656451.784 7
G02  21207663.408 8  21207665.567 6                 111447141.039 8  86841853.296 6
G08  20360995.838 8                  20361002.613 8 106997979.874 8                  83374906.835 8
G10  21478111.450 8                  21478117.959 7 112868412.318 8                  87949318.853 7
G27  21727296.149 7                  21727304.286 7 114177801.400 7                  88969688.904 7
G32  22342143.565 7                  22342151.921 7 117408765.091 7                  91487417.291 7
R01  19941435.735 7                 106598619.832 7
R02  20363891.147 8  20363895.744 7 108665726.452 8  84517732.909 7
R16  22397961.374 5  22397974.393 4 119646069.046 5  93057930.047 4
R17  19349493.744 8  19349497.934 7 103543259.187 8  80533505.445 7
R18  22103997.588 6  22104002.334 5 117992817.676 6  91772059.461 5
R24  20702297.486 8  20702302.017 7 110704521.675 8  86103521.080 7
> 2025 06 15 10 47  5.0000000  0 21
C19  22391523.926 7                 116598610.486 7
C20  23405646.506 6                 121879571.784 6
C29  23840296.549 5                 124142739.427 5
E02  25805646.772 4  25805655.243 6 135609598.931 4 102587804.528 6
E06  25379817.269 7  25379821.118 8 133371804.013 7 100894955.107 8
E11  25440901.858 6  25440901.284 7 133692887.104 6 101137757.682 7
E30  26342339.109 7  26342342.008 8 138429914.106 7 104721350.604 8
E34  25639652.397 7  25639655.634 8 134737297.776 7 101927895.486 8
E36  23364388.177 8  23364390.274 9 122780682.209 8  92882806.717 9
G01  22867905.047 7                  22867910.782 7 120171846.717 7                  93640384.430 7
G02  21205142.906 8  21205145.746 6                 111433898.337 8  86831534.314 6
G08  20360559.696 8                  20360566.141 8 106995688.181 8                  83373121.090 8
G10  21478773.339 8                  21478779.144 7 112871887.368 8                  87952026.680 7
G27  21728999.295 7                  21729006.997 7 114186747.961 7                  88976660.229 7
G32  22339272.008 7                  22339280.072 7 117393673.106 7                  91475657.292 7
R01  19941456.992 7                 106598731.124 7
R02  20359999.861 8  20360004.311 7 108644960.383 8  84501581.498 7
R16  22398175.128 5  22398185.611 4 119647200.782 5  93058810.232 4
R17  19347293.555 8  19347297.971 7 103531486.408 8  80524348.837 7
R18  22099663.001 6  22099667.270 5 117969673.604 6  91754058.546 5
R24  20703490.793 8  20703494.912 7 110710900.817 8  86108482.645 7
> 2025 06 15 10 47 10.0000000  0 22
C19  22389138.774 7                 116586192.041 7
C20  23406188.053 6                 121882394.694 6
C29  23841772.022 5                 124150408.485 5
E02  25806835.981 5  25806838.272 6 135615814.926 5 102592506.921 6
E04  25737656.249 5  25737653.592 4 135252415.56615 102317471.93214
E06  25377377.451 7  25377380.989 8 133358980.997 7 100885254.585 8
E11  25441678.430 6  25441678.212 7 133696969.617 6 101140846.064 7
E30  26341148.244 7  26341151.269 8 138423656.563 7 104716616.813 8
E34  25636487.168 7  25636490.431 8 134720664.222 7 101915312.320 8
E36  23363188.784 8  23363190.645 9 122774378.082 8  92878037.680 9
G01  22863982.242 7                  22863987.401 7 120151231.249 7                  93624320.437 7
G02  21202624.932 7  21202627.321 6                 111420663.338 7  86821221.338 6
G08  20360126.991 8                  20360133.358 8 106993412.246 8                  83371347.639 8
G10  21479436.554 8                  21479442.684 7 112875372.832 8                  87954742.613 7
G27  21730703.587 7                  21730711.265 7 114195704.652 7                  88983639.436 7
G32  22336402.952 7                  22336410.193 7 117378594.597 7                  91463907.796 7
R01  19941482.608 8                 106598864.591 8
R02  20356111.918 8  20356116.330 7 108624211.659 8  84485443.604 7
R16  22398389.341 5  22398399.078 4 119648353.208 5  93059706.514 4
R17  19345096.358 8  19345100.415 7 103519726.378 8  80515202.149 7
R18  22095326.920 6  22095331.542 5 117946532.898 6  91736060.227 5
R24  20704685.877 8  20704690.094 7 110717290.547 8  86113452.421 7
> 2025 06 15 10 47 15.0000000  0 22
C19  22386756.673 7                 116573787.366 7
C20  23406732.967 6                 121885229.681 6
C29  23843246.085 5                 124158083.587 5
E02  25808022.005 5  25808022.608 6 135622038.413 5 102597214.914 6
E04  25736518.802 5  25736520.004 3 135246459.51015 102312966.08713
E06  25374939.154 7  25374943.038 8 133346169.223 7 100875562.566 8
E11  25442456.043 6  25442455.830 7 133701055.633 6 101143937.098 7
E30  26339959.793 7  26339962.920 8 138417411.746 7 104711892.651 8
E34  25633323.187 7  25633325.754 8 134704033.730 7 101902731.464 8
E36  23361990.100 8  23361992.188 9 122768080.064 8  92873273.272 9
G01  22860059.766 7                  22860065.286 7 120130620.102 7                  93608259.811 7
G02  21200107.689 8  21200110.337 6                 111407436.042 8  86810914.359 6
G08  20359696.951 8                  20359703.223 8 106991152.085 8                  83369586.466 8
G10  21480102.531 8                  21480107.544 7 112878868.666 8                  87957466.638 7
G27  21732409.902 7                  21732417.826 7 114204671.438 7                  88990626.523 7
G32  22333535.895 7                  22333543.399 7 117363529.591 7                  91452168.850 7
R01  19941511.565 8                 106599020.178 8
R02  20352227.418 8  20352231.033 7 108603480.431 8  84469319.313 7
R16  22398609.296 6  22398618.139 4 119649525.913 6  93060618.672 4
R17  19342900.618 8  19342904.392 7 103507979.082 8  80506065.355 7
R18  22090991.710 6  22090996.722 5 117923395.506 6  91718064.538 5
R24  20705881.897 8  20705886.682 7 110723691.013 8  86118430.548 7
> 2025 06 15 10 47 20.0000000  0 22
C19  22384377.194 7                 116561396.512 7
C20  23407278.727 7                 121888076.761 7
C29  23844721.305 5                 124165764.626 5
E02  25809202.599 4  25809208.273 6 135628269.16014 102601928.49816
E04  25735388.574 5  25735388.725 4 135240516.346 5 102308470.229 4
E06  25372503.276 7  25372507.155 8 133333368.721 7 100865879.084 8
E11  25443234.278 6  25443234.102 7 133705145.289 6 101147030.885 7
E30  26338774.179 7  26338777.006 8 138411179.698 7 104707178.137 8
E34  25630158.747 7  25630161.700 8 134687406.377 7 101890152.987 8
E36  23360792.787 8  23360794.881 9 122761788.222 8  92868513.527 9
G01  22856138.097 7                  22856144.039 7 120110013.316 7                  93592202.607 7
G02  21197591.894 8  21197594.136 6                 111394216.517 8  86800613.431 6
G08  20359269.192 8                  20359275.814 7 106988907.727 8                  83367837.608 7
G10  21480769.477 8                  21480775.303 7 112882374.888 8                  87960198.762 7
G27  21734117.471 6                  21734126.036 7 114213648.346 6                  88997621.519 7
G32  22330672.455 7                  22330678.567 7 117348478.128 7                  91440440.464 7
R01  19941544.707 8                 106599197.840 8
R02  20348345.342 8  20348349.210 7 108582766.845 8  84453208.762 7
R16  22398834.126 6  22398841.072 4 119650719.443 6  93061546.979 4
R17  19340707.945 8  19340711.954 7 103496244.474 8  80496938.440 7
R18  22086657.123 6  22086661.830 5 117900261.524 6  91700071.474 5
R24  20707081.067 8  20707086.099 7 110730102.215 8  86123417.028 7
> 2025 06 15 10 47 25.0000000  0 22
C19  22382000.186 7                 116549019.375 7
C20  23407828.107 7                 121890935.820 7
C29  23846196.776 5                 124173451.700 5
E02  25810401.758 4  25810395.396 6 135634507.231 4 102606647.603 6
E04  25734262.889 5  25734259.639 5 135234585.802 5 102303983.894 5
E06  25370069.370 7  25370073.470 8 133320579.399 7 100856204.054 8
E11  25444013.426 6  25444013.008 7 133709238.380 6 101150127.282 7
E30  26337590.280 7  26337593.471 8 138404960.319 7 104702473.205 8
E34  25626994.620 7  25626998.306 8 134670782.023 7 101877576.766 8
E36  23359596.511 8  23359598.746 9 122755502.408 8  92863758.352 9
G01  22852218.011 7                  22852223.633 7 120089410.785 7                  93576148.687 7
G02  21195078.075 8  21195080.037 6                 111381004.622 8  86790318.454 6
G08  20358845.059 8                  20358851.767 8 106986679.059 8                  83366100.984 8
G10  21481437.877 8                  21481444.331 7 112885891.376 8                  87962938.894 7
G27  21735828.350 7                  21735836.067 7 114222635.258 7                  89004624.291 7
G32  22327810.444 7                  22327817.535 7 117333440.127 7                  91428722.553 7
R01  19941582.282 8                 106599397.654 8
R02  20344466.664 8  20344470.706 7 108562070.559 8  84437111.659 7
R16  22399060.090 6  22399069.723 4 119651933.181 6  93062490.996 4
R17  19338517.054 8  19338521.585 7 103484522.539 8  80487821.376 7
R18  22082323.736 5  22082329.322 5 117877130.856 5  91682080.940 5
R24  20708282.052 8  20708286.853 7 110736524.049 8  86128411.800 7
> 2025 06 15 10 47 30.0000000  0 21
C19  22379625.832 7                 116536656.466 7
C20  23408379.128 7                 121893807.330 7
C29  23847674.537 5                 124181145.081 5
E02  25811612.788 5  25811583.816 6 135640753.367 5 102611372.731 6
E06  25367638.133 7  25367642.053 8 133307801.768 7 100846537.858 8
E11  25444792.288 7  25444792.647 7 133713335.436 7 101153226.692 7
E30  26336409.863 7  26336412.441 8 138398754.111 7 104697778.233 8
E34  25623832.187 7  25623835.443 8 134654161.189 7 101865003.211 8
E36  23358401.444 8  23358403.820 9 122749223.149 8  92859008.135 9
G01  22848298.186 7                  22848303.653 7 120068813.030 7                  93560098.494 7
G02  21192565.224 8  21192567.304 6                 111367800.899 8  86780029.842 6
G08  20358423.821 8                  20358431.089 8 106984466.543 8                  83364376.938 8
G10  21482109.294 8                  21482115.943 7 112889418.630 8                  87965687.402 7
G27  21737540.041 6                  21737548.663 7 114231632.675 6                  89011635.230 7
G32  22324950.093 7                  22324958.724 7 117318416.067 7                  91417015.525 7
R01  19941623.351 8                 106599619.952 8
R02  20340591.331 8  20340595.774 7 108541392.415 8  84421028.668 7
R16  22399290.904 5  22399301.875 4 119653167.775 5  93063451.212 4
R17  19336329.348 8  19336333.282 7 103472813.757 8  80478714.532 7
R18  22077993.064 6  22077996.790 5 117854003.930 6  91664093.391 5
R24  20709484.286 8  20709489.525 7 110742956.902 8  86133415.133 7
> 2025 06 15 10 47 35.0000000  0 21
C19  22377254.502 7                 116524308.858 7
C20  23408934.111 7                 121896692.427 7
C29  23849151.551 5                 124188846.002 5
E02  25812812.270 4  25812773.943 6 135647008.282 4 102616104.553 6
E06  25365209.490 7  25365212.991 8 133295036.902 7 100836881.335 8
E11  25445573.189 7  25445573.248 7 133717437.581 7 101156329.926 7
E30  26335231.735 7  26335234.040 8 138392562.145 7 104693094.051 8
E34  25620670.564 7  25620673.504 8 134637544.981 7 101852433.146 8
E36  23357207.888 8  23357210.405 8 122742951.546 8  92854263.708 8
G01  22844379.238 7                  22844385.182 7 120048221.118 7                  93544052.884 7
G02  21190054.552 8  21190056.427 6                 111354606.408 8  86769748.411 6
G08  20358006.351 8                  20358013.393 8 106982271.329 8                  83362666.385 8
G10  21482782.875 8                  21482789.530 7 112892957.744 8                  87968445.147 7
G27  21739254.460 6                  21739262.596 7 114240641.638 6                  89018655.192 7
G32  22322094.929 7                  22322101.891 7 117303407.113 7                  91405320.215 7
R01  19941670.093 8                 106599865.804 8
R02  20336720.314 8  20336724.265 7 108520733.383 8  84404960.533 7
R16  22399527.314 4  22399537.422 4 119654424.501 4  93064428.616 4
R17  19334144.633 8  19334147.727 7 103461119.271 8  80469618.836 7
R18  22073661.883 6  22073664.518 5 117830882.042 6  91646109.644 5
R24  20710690.247 8  20710694.577 7 110749402.042 8  86138428.010 7
> 2025 06 15 10 47 40.0000000  0 20
C19  22374885.923 7                 116511975.167 7
C20  23409490.159 7                 121899589.704 7
C29  23850631.905 6                 124196553.048 6
E02  25814006.154 4  25813965.506 6 135653535.74514 102620842.05216
E06  25362782.363 7  25362786.062 8 133282283.458 7 100827233.443 8
E11  25446354.238 6  25446354.638 7 133721543.416 6 101159435.952 7
E30  26334055.772 7  26334058.113 8 138386383.070 7 104688419.612 8
E34  25617508.549 7  25617512.097 8 134620931.972 7 101839865.539 8
E36  23356015.618 8  23356018.136 9 122736686.210 8  92849524.021 9
G01  22840461.895 7                  22840467.882 7 120027633.704 7                  93528010.757 7
G02  21187545.334 8  21187546.889 6                 111341419.763 8  86759473.104 6
G08  20357591.218 8                  20357598.511 8 106980092.006 8                  83360968.214 8
G10  21483458.630 8                  21483464.732 7 112896507.344 8                  87971211.074 7
G27  21740971.568 7                  21740979.029 7 114249660.832 7                  89025683.124 7
G32  22319241.463 7                  22319248.875 7 117288411.841 7                  91393635.577 7
R01  19941719.581 7                 106600133.939 7
R02  20332852.049 8  20332856.031 7 108500091.955 8  84388906.122 7
R17  19331960.642 8  19331964.501 7 103449437.726 8  80460533.189 7
R18  22069331.125 6  22069333.744 5 117807763.616 6  91628128.617 5
R24  20711896.939 8  20711901.984 7 110755858.066 8  86143449.344 7
> 2025 06 15 10 47 45.0000000  0 21
C19  22372519.688 7                 116499654.416 7
C20  23410048.017 7                 121902498.116 7
C29  23852112.778 6                 124204265.156 6
E02  25815190.707 5  25815158.493 6 135659804.66415 102625584.46616
E06  25360357.849 7  25360361.143 8 133269540.413 7 100817593.421 8
E11  25447137.180 6  25447136.494 7 133725651.893 6 101162543.985 7
E30  26332882.199 7  26332884.507 8 138380215.865 7 104683754.151 8
E34  25614348.134 7  25614351.116 8 134604321.169 7 101827299.590 8
E36  23354824.099 8  23354826.875 9 122730426.131 8  92844788.313 9
G01  22836545.242 7                  22836550.297 7 120007049.784 7                  93511971.363 7
G02  21185036.927 8  21185038.451 6                 111328239.966 8  86749203.133 6
G08  20357179.502 8                  20357186.358 8 106977927.562 8                  83359281.636 8
G10  21484135.785 8                  21484142.392 7 112900066.391 8                  87973984.348 7
G27  21742688.808 7                  21742697.087 7 114258689.178 7                  89032718.189 7
G32  22316390.194 7                  22316397.826 7 117273429.269 7                  91381960.850 7
R01  19941773.749 7                 106600423.247 7
R02  20328987.435 8  20328991.246 7 108479467.300 8  84372864.727 7
R16  22400005.220 5                 119656998.92015
R17  19329779.978 8  19329783.495 7 103437767.927 8  80451456.683 7
R18  22065000.991 6  22065003.219 5 117784647.692 6  91610149.592 5
R24  20713106.206 8  20713111.029 7 110762323.807 8  86148478.210 7
> 2025 06 15 10 47 50.0000000  0 21
C19  22370156.581 7                 116487347.307 7
C20  23410607.977 7                 121905418.409 7
C29  23853595.789 6                 124211983.106 6
E02  25816388.062 5  25816352.783 6 135666080.838 5 102630332.306 6
E06  25357934.590 7  25357938.300 8 133256808.483 7 100807961.804 8
E11  25447918.948 7  25447918.937 7 133729763.765 7 101165654.573 7
E30  26331710.964 7  26331713.279 8 138374061.229 7 104679098.206 8
E34  25611187.273 7  25611190.681 8 134587713.319 7 101814735.877 8
E36  23353634.138 8  23353636.739 9 122724172.020 8  92840057.111 9
G01  22832627.576 7                  22832634.119 7 119986470.032 7                  93495935.237 7
G02  21182530.816 7  21182531.547 6                 111315067.760 7  86738939.063 6
G08  20356770.660 8                  20356777.524 8 106975778.712 8                  83357607.210 8
G10  21484815.152 8                  21484821.383 7 112903635.585 8                  87976765.535 7
G27  21744408.633 7                  21744416.636 7 114267727.410 7                  89039760.958 7
G32  22313541.997 7                  22313549.778 7 117258460.085 7                  91370296.553 7
R01  19941832.898 7                 106600734.544 7
R02  20325124.187 8  20325129.753 7 108458859.980 8  84356836.832 7
R16  22400252.507 5                 119658315.793 5
R17  19327600.956 8  19327605.093 7 103426110.803 8  80442390.042 7
R18  22060670.878 6  22060673.716 5 117761535.004 6  91592173.096 5
R24  20714316.936 7  20714321.876 7 110768799.963 7  86153515.220 7
> 2025 06 15 10 47 55.0000000  0 20
C19  22367795.587 7                 116475052.995 7
C20  23411170.927 7                 121908349.679 7
C29  23855078.093 6                 124219706.002 6
E06  25355514.561 7  25355517.452 8 133244086.834 7 100798337.964 8
E11  25448701.025 6  25448701.834 7 133733878.202 6 101168767.087 7
E30  26330541.961 7  26330544.327 8 138367918.322 7 104674451.126 8
E34  25608027.072 8  25608030.686 8 134571107.542 8 101802173.723 8
E36  23352445.357 8  23352447.607 9 122717923.005 8  92835329.771 9
G01  22828712.488 7                  22828719.183 7 119965893.643 7                  93479901.702 7
G02  21180025.010 8  21180026.275 6                 111301902.245 8  86728680.229 6
G08  20356364.596 8                  20356371.381 8 106973644.585 8                  83355944.250 8
G10  21485495.690 8                  21485502.369 7 112907214.093 8                  87979553.962 7
G27  21746130.607 6                  21746137.895 7 114276774.641 6                  89046810.728 7
G32  22310696.368 7                  22310703.465 7 117243503.451 7                  91358642.082 7
R01  19941894.070 7                 106601066.679 7
R02  20321265.437 8  20321270.317 7 108438269.411 8  84340821.983 7
R16  22400505.507 6  22400506.821 3 119659651.920 6  93068489.53113
R17  19325424.804 8  19325429.184 7 103414465.439 8  80433332.540 7
R18  22056342.316 6  22056344.341 6 117738424.634 6  91574198.361 6
R24  20715530.517 8  20715535.337 7 110775285.806 8  86158559.754 7
> 2025 06 15 10 48  0.0000000  0 21
C19  22365437.064 7                 116462772.112 7
C20  23411736.000 7                 121911292.565 7
C29  23856560.307 5                 124227434.408 5
E02  25818779.133 5                 135678643.77915
E06  25353094.977 7  25353098.626 8 133231376.066 7 100788722.351 8
E11  25449484.978 6  25449485.364 7 133737995.729 6 101171881.964 7
E30  26329375.034 7  26329377.655 8 138361787.724 7 104669813.354 8
E34  25604867.462 7  25604871.162 8 134554504.455 7 101789613.602 8
E36  23351257.386 8  23351259.550 9 122711679.723 8  92830606.771 9
G01  22824797.110 7                  22824803.798 7 119945321.189 7                  93463871.222 7
G02  21177520.997 7  21177522.106 5                 111288744.061 7  86718427.103 5
G08  20355961.270 8                  20355968.695 8 106971525.835 8                  83354293.271 8
G10  21486178.291 8                  21486185.078 7 112910802.463 8                  87982350.086 7
G27  21747854.103 7                  21747861.670 7 114285831.469 7                  89053867.986 7
G32  22307851.485 7                  22307860.187 7 117228560.017 7                  91346997.859 7
R01  19941959.401 7                 106601420.466 7
R02  20317410.962 8  20317415.355 7 108417696.023 8  84324820.479 7
R16  22400757.298 5  22400761.377 4 119661008.038 5  93069544.226 4
R17  19323251.253 8  19323255.072 7 103402832.405 8  80424284.601 7
R18  22052013.679 7  22052016.111 5 117715317.287 7  91556225.948 5
R24  20716745.079 7  20716749.819 7 110781781.743 7  86163612.142 7
> 2025 06 15 10 48  5.0000000  0 22
C19  22363080.914 7                 116450505.182 7
C20  23412303.589 7                 121914247.582 7
C29  23858046.815 5                 124235168.946 5
E02  25819959.018 5  25819952.627 6 135684940.683 5 102644643.09616
E04  25725319.177 5                 135187630.86515
E06  25350678.303 7  25350681.975 8 133218676.729 7 100779115.381 8
E11  25450269.372 6  25450269.579 7 133742116.966 6 101174999.628 7
E30  26328211.832 8  26328213.443 8 138355670.043 8 104665185.362 8
E34  25601709.171 7  25601712.231 8 134537904.609 7 101777055.927 8
E36  23350070.527 8  23350072.659 9 122705442.695 8  92825888.496 9
G01  22820883.417 7                  22820889.331 7 119924753.278 7                  93447844.279 7
G02  21175018.870 8  21175020.332 6                 111275593.737 8  86708180.101 6
G08  20355560.823 8                  20355568.207 8 106969422.948 8                  83352654.652 8
G10  21486862.829 8                  21486870.085 7 112914401.250 8                  87985154.339 7
G27  21749580.410 7                  21749586.540 7 114294898.466 7                  89060933.151 7
G32  22305010.027 7                  22305019.088 7 117213630.356 7                  91335364.354 7
R01  19942030.316 7                 106601796.455 7
R02  20313557.959 7  20313563.127 7 108397140.375 7  84308832.759 7
R16  22401018.043 6  22401020.300 4 119662384.701 6  93070614.920 4
R17  19321079.119 8  19321083.333 7 103391212.222 8  80415246.695 7
R18  22047684.316 7  22047687.478 5 117692213.523 7  91538256.403 5
R24  20717961.887 7  20717966.964 7 110788288.647 7  86168673.067 7
> 2025 06 15 10 48 10.0000000  0 22
C19  22360728.330 7                 116438252.097 7
C20  23412873.342 6                 121917214.637 6
C29  23859534.124 5                 124242909.482 5
E02  25821138.228 5  25821152.036 6 135691244.952 5 102649413.09116
E04  25724218.512 5  25724211.374 5 135181815.301 5 102264030.25815
E06  25348263.716 7  25348267.435 8 133205988.724 7 100769516.991 8
E11  25451054.248 6  25451054.526 7 133746241.807 6 101178120.011 7
E30  26327049.763 8  26327051.640 8 138349565.095 8 104660567.012 8
E34  25598550.790 7  25598553.977 8 134521307.907 7 101764500.634 8
E36  23348884.585 8  23348886.975 9 122699211.840 8  92821174.896 9
G01  22816970.714 7                  22816976.542 7 119904189.751 7                  93431820.750 7
G02  21172518.287 8  21172519.155 6                 111262451.192 8  86697939.157 6
G08  20355163.897 8                  20355171.138 8 106967335.855 8                  83351028.335 8
G10  21487550.267 8                  21487557.119 7 112918010.395 8                  87987966.638 7
G27  21751306.798 7                  21751313.967 7 114303975.501 7                  89068006.168 7
G32  22302173.001 7                  22302180.849 7 117198714.334 7                  91323741.474 7
R01  19942104.781 7                 106602194.515 7
R02  20309709.115 7  20309714.126 7 108376602.496 7  84292858.852 7
R16  22401279.028 6  22401282.661 5 119663781.592 6  93071701.426 5
R17  19318910.384 8  19318913.998 7 103379604.915 8  80406218.800 7
R18  22043356.855 7  22043359.027 5 117669113.200 7  91520289.528 5
R24  20719180.892 7  20719185.942 7 110794806.214 7  86173742.271 7
> 2025 06 15 10 48 15.0000000  0 22
C19  22358378.073 7                 116426013.240 7
C20  23413445.678 6                 121920194.091 6
C29  23861021.542 5                 124250656.362 5
E02  25822338.733 5  25822353.063 6 135697556.932 5 102654187.96516
E04  25723110.555 5  25723107.397 6 135176012.860 5 102259640.821 6
E06  25345852.089 8  25345855.140 8 133193312.463 8 100759927.493 8
E11  25451840.336 7  25451840.140 7 133750370.551 7 101181243.357 7
E30  26325890.248 8  26325892.405 8 138343473.322 8 104655958.616 8
E34  25595393.191 7  25595396.392 8 134504714.736 7 101751948.003 8
E36  23347699.839 8  23347702.542 8 122692987.520 8  92816466.239 8
G01  22813057.607 7                  22813063.966 7 119883631.039 7                  93415800.974 7
G02  21170018.830 8  21170019.941 6                 111249316.828 8  86687704.591 6
G08  20354770.096 8                  20354776.725 8 106965264.939 8                  83349414.624 8
G10  21488238.229 8                  21488245.967 7 112921630.177 8                  87990787.259 7
G27  21753035.716 7                  21753042.721 7 114313062.913 7                  89075087.268 7
G32  22299337.573 7                  22299345.397 7 117183812.336 7                  91312129.521 7
R01  19942183.899 7                 106602615.146 7
R02  20305864.279 7  20305868.806 7 108356082.753 7  84276899.085 7
R16  22401545.728 6  22401547.886 5 119665199.203 6  93072804.083 5
R17  19316743.242 8  19316747.712 7 103368010.819 8  80397201.156 7
R18  22039028.735 6  22039032.757 5 117646016.745 6  91502325.608 5
R24  20720401.792 7  20720405.861 7 110801334.830 7  86178820.065 7
> 2025 06 15 10 48 20.0000000  0 22
C19  22356031.072 7                 116413788.661 7
C20  23414021.093 6                 121923185.950 6
C29  23862510.986 5                 124258409.687 5
E02  25823543.873 6  25823555.611 6 135703876.604 6 102658968.761 6
E04  25722004.279 5  25722005.693 5 135170223.646 5 102255261.357 5
E06  25343441.734 7  25343445.111 8 133180647.969 7 100750346.883 8
E11  25452627.476 7  25452626.523 7 133754503.347 7 101184369.766 7
E30  26324733.403 8  26324735.706 8 138337394.758 8 104651360.213 8
E34  25592236.268 7  25592239.496 8 134488125.112 7 101739398.076 8
E36  23346517.044 8  23346519.395 9 122686769.799 8  92811762.569 9
G01  22809145.948 6                  22809152.856 7 119863077.144 6                  93399784.957 7
G02  21167520.892 8  21167522.114 6                 111236190.689 8  86677476.439 6
G08  20354379.021 8                  20354385.927 8 106963210.235 8                  83347813.542 8
G10  21488929.264 7                  21488936.776 7 112925260.727 7                  87993616.263 7
G27  21754768.123 7                  21754774.350 7 114322160.779 7                  89082176.527 7
G32  22296503.881 7                  22296511.839 7 117168924.424 7                  91300528.563 7
R01  19942265.611 7                 106603058.124 7
R02  20302023.020 8  20302026.890 7 108335581.100 8  84260953.386 7
R16  22401813.378 6  22401820.180 5 119666637.580 6  93073922.805 5
R17  19314580.300 8  19314583.992 7 103356430.043 8  80388193.897 7
R18  22034702.611 6  22034706.516 6 117622924.226 6  91484364.761 6
R24  20721624.739 7  20721629.494 7 110807874.517 7  86183906.486 7
> 2025 06 15 10 48 25.0000000  0 22
C19  22353686.765 7                 116401577.819 7
C20  23414597.549 6                 121926189.700 6
C29  23864002.413 5                 124266168.778 5
E02  25824752.188 6  25824750.313 6 135710203.516 6 102663755.45016
E04  25720907.055 5  25720906.487 6 135164447.265 5 102250891.571 6
E06  25341033.839 7  25341037.295 8 133167994.686 7 100740774.757 8
E11  25453414.447 7  25453413.535 7 133758639.520 7 101187498.729 7
E30  26323579.234 7  26323581.470 8 138331328.822 7 104646771.353 8
E34  25589080.297 7  25589083.151 8 134471538.487 7 101726850.403 8
E36  23345334.730 8  23345337.362 8 122680558.092 8  92807063.454 8
G01  22805235.624 6                  22805242.808 7 119842527.551 6                  93383772.303 7
G02  21165024.200 8  21165025.659 6                 111223072.172 8  86667254.226 6
G08  20353990.598 8                  20353998.023 8 106961171.155 8                  83346224.627 8
G10  21489621.564 7                  21489629.081 7 112928901.416 7                  87996453.149 7
G27  21756501.341 7                  21756507.744 7 114331268.532 7                  89089273.461 7
G32  22293672.973 7                  22293681.542 7 117154050.037 7                  91288938.137 7
R01  19942353.028 7                 106603522.955 7
R02  20298183.071 7  20298188.513 7 108315097.066 7  84245021.366 7
R16  22402084.718 5  22402093.148 5 119668096.209 5  93075057.340 5
R17  19312417.753 8  19312422.462 7 103344861.958 8  80379196.504 7
R18  22030377.801 6  22030381.404 6 117599835.134 6  91466406.526 6
R24  20722848.385 8  20722854.836 7 110814424.799 8  86189001.148 7
> 2025 06 15 10 48 30.0000000  0 22
C19  22351344.083 7                 116389379.632 7
C20  23415176.305 7                 121929204.209 7
C29  23865494.733 5                 124273932.639 5
E02  25825951.243 5  25825955.119 6 135716536.571 5 102668546.402 6
E04  25719810.285 5  25719809.491 5 135158682.429 5 102246530.513 5
E06  25338628.073 7  25338631.349 8 133155351.521 7 100731210.282 8
E11  25454202.019 7  25454201.008 7 133762778.032 7 101190629.471 7
E30  26322426.803 7  26322429.369 8 138325274.440 7 104642191.229 8
E34  25585924.307 7  25585927.140 8 134454953.771 7 101714304.183 8
E36  23344153.787 8  23344156.256 9 122674351.332 8  92802368.087 9
G01  22801326.137 7                  22801333.174 7 119821981.133 7                  93367762.107 7
G02  21162529.213 8  21162530.201 6                 111209960.228 8  86657037.117 6
G08  20353605.999 8                  20353613.174 8 106959146.625 8                  83344647.072 8
G10  21490316.299 7                  21490323.599 7 112932551.122 7                  87999297.084 7
G27  21758236.804 7                  21758242.515 7 114340385.047 7                  89096377.220 7
G32  22290846.138 7                  22290853.069 7 117139188.106 7                  91277357.421 7
R01  19942443.959 7                 106604008.616 7
R02  20294347.961 7  20294352.642 7 108294629.558 7  84229102.213 7
R16  22402360.723 5  22402368.647 5 119669573.793 5  93076206.643 5
R17  19310259.250 8  19310262.990 7 103333305.392 8  80370208.062 7
R18  22026053.394 6  22026057.607 6 117576748.197 6  91448450.021 6
R24  20724075.708 8  20724081.029 7 110820984.379 8  86194103.023 7
> 2025 06 15 10 48 35.0000000  0 23
C19  22349004.448 7                 116377193.977 7
C20  23415756.999 6                 121932229.379 6
C22  24826871.882 4                 129280271.17614
C29  23866986.192 5                 124281701.173 5
E02  25827157.539 6  25827161.454 6 135722875.618 6 102673341.787 6
E04  25718715.772 4  25718705.598 5 135152929.041 4 102242178.65215
E06  25336224.120 7  25336227.352 8 133142718.376 7 100721653.400 8
E11  25454989.738 7  25454988.984 7 133766918.755 7 101193761.897 7
E30  26321276.959 7  26321279.617 8 138319231.475 7 104637619.760 8
E34  25582768.448 7  25582771.502 8 134438370.853 7 101701759.322 8
E36  23342973.510 8  23342976.088 9 122668149.385 8  92797676.353 9
G01  22797416.625 6                  22797423.532 7 119801437.819 6                  93351754.346 7
G02  21160035.198 8  21160036.248 6                 111196854.704 8  86646825.021 6
G08  20353223.088 8                  20353230.218 8 106957136.505 8                  83343080.754 8
G10  21491012.976 7                  21491020.179 7 112936209.804 7                  88002147.992 7
G27  21759972.625 7                  21759978.990 7 114349510.212 7                  89103487.699 7
G32  22288019.753 7                  22288027.252 7 117124338.516 7                  91265786.332 7
R01  19942538.366 7                 106604514.902 7
R02  20290514.927 7  20290520.025 7 108274178.300 7  84213195.689 7
R16  22402642.620 5  22402649.461 5 119671070.497 5  93077370.757 5
R17  19308101.416 8  19308105.194 7 103321760.349 8  80361228.580 7
R18  22021727.773 6  22021733.598 6 117553663.406 6  91430495.230 6
R24  20725303.873 7  20725309.815 7 110827553.348 7  86199212.206 7
> 2025 06 15 10 48 40.0000000  0 23
C19  22346667.213 7                 116365022.121 7
C20  23416341.098 7                 121935266.377 7
C22  24822394.217 5                 129256959.231 5
C29  23868480.871 5                 124289475.575 5
E02  25828366.536 6  25828369.126 6 135729221.841 6 102678142.609 6
E04  25717633.007 4  25717613.157 6 135147188.28514 102237835.85416
E06  25333822.242 7  25333825.402 8 133130096.499 7 100712105.031 8
E11  25455778.537 7  25455777.665 7 133771062.979 7 101196896.971 7
E30  26320129.409 7  26320132.142 8 138313201.182 7 104633057.899 8
E34  25579613.189 7  25579616.394 8 134421790.964 7 101689216.753 8
E36  23341794.258 8  23341797.041 9 122661953.480 8  92792989.198 9
G01  22793508.366 6                  22793515.302 7 119780898.834 6                  93335749.965 7
G02  21157542.504 7  21157543.645 6                 111183756.863 7  86636618.931 6
G08  20352843.562 8                  20352850.186 7 106955142.046 8                  83341526.633 7
G10  21491711.205 7                  21491718.269 7 112939878.612 7                  88005006.776 7
G27  21761710.088 7                  21761717.635 7 114358645.241 7                  89110605.910 7
G32  22285196.572 7                  22285203.844 7 117109502.517 7                  91254225.843 7
R01  19942637.143 7                 106605043.092 7
R02  20286686.263 7  20286690.755 7 108253744.976 7  84197303.119 7
R16  22402926.381 6  22402934.850 4 119672587.299 6  93078550.571 4
R17  19305947.194 8  19305950.706 7 103310228.076 8  80352259.030 7
R18  22017403.696 6  22017409.755 6 117530582.068 6  91412543.105 6
R24  20726535.150 8  20726539.778 7 110834132.857 8  86204329.601 7
> 2025 06 15 10 48 45.0000000  0 22
C19  22344331.964 7                 116352864.223 7
C20  23416927.100 7                 121938315.445 7
C22  24817922.366 4                 129233651.488 4
C29  23869973.447 5                 124297256.028 5
E02  25829576.803 6  25829578.153 6 135735575.432 6 102682949.039 6
E06  25331423.508 7  25331425.734 8 133117486.102 7 100702565.327 8
E11  25456568.182 7  25456566.987 7 133775210.827 7 101200034.778 7
E30  26318984.046 7  26318987.208 8 138307183.736 7 104628505.741 8
E34  25576459.020 7  25576461.943 8 134405214.336 7 101676676.642 8
E36  23340616.739 8  23340619.224 9 122655763.854 8  92788306.782 9
G01  22789600.885 6                  22789607.957 7 119760364.392 6                  93319749.083 7
G02  21155051.782 7  21155052.970 6                 111170666.926 7  86626418.979 6
G08  20352467.243 8                  20352473.471 7 106953163.450 8                  83339984.880 7
G10  21492411.474 8                  21492418.345 7 112943557.769 8                  88007873.665 7
G27  21763450.028 7                  21763458.133 7 114367790.289 7                  89117731.937 7
G32  22282375.694 7                  22282383.299 7 117094680.305 7                  91242676.117 7
R01  19942740.624 7                 106605593.291 7
R02  20282860.835 8  20282864.728 7 108233329.511 8  84181424.402 7
R16  22403214.866 6  22403222.434 3 119674124.574 6  93079746.187 3
R17  19303793.975 8  19303798.064 7 103298708.857 8  80343299.636 7
R18  22013079.054 6  22013085.850 6 117507504.341 6  91394593.806 6
R24  20727767.163 8  20727772.237 7 110840723.075 8  86209455.324 7
> 2025 06 15 10 48 50.0000000  0 22
C19  22341999.510 7                 116340721.131 7
C20  23417514.622 7                 121941377.389 7
C22  24813442.717 4                 129210348.943 4
C29  23871467.102 5                 124305043.356 5
E02  25830787.859 6  25830788.741 6 135741937.276 6 102687761.703 6
E06  25329025.645 7  25329028.417 8 133104887.995 7 100693034.940 8
E11  25457358.199 7  25457357.209 7 133779363.173 7 101203175.980 7
E30  26317841.118 7  26317844.792 8 138301179.990 7 104623963.962 8
E34  25573305.441 7  25573308.150 8 134388641.759 7 101664139.609 8
E36  23339439.968 8  23339442.702 9 122649581.316 8  92783629.728 9
G01  22785694.060 6                  22785701.132 7 119739835.325 6                  93303752.405 7
G02  21152563.340 8  21152564.435 6                 111157585.722 8  86616225.838 6
G08  20352093.548 8                  20352100.281 7 106951201.558 8                  83338456.121 7
G10  21493114.080 8                  21493120.587 7 112947248.102 8                  88010749.229 7
G27  21765192.916 7                  21765200.679 7 114376946.270 7                  89124866.443 7
G32  22279557.403 7                  22279565.765 7 117079872.752 7                  91231137.796 7
R01  19942847.810 7                 106606166.432 7
R02  20279038.307 8  20279042.684 7 108212932.769 8  84165560.265 7
R16  22403505.649 5                 119675682.810 5
R17  19301644.215 8  19301647.453 7 103287203.385 8  80334350.938 7
R18  22008758.634 6  22008763.866 6 117484431.052 6  91376647.911 6
R24  20729002.238 8  20729006.410 7 110847324.944 8  86214590.100 7
> 2025 06 15 10 48 55.0000000  0 23
C19  22339670.046 7                 116328591.485 7
C20  23418105.159 7                 121944450.883 7
C22  24808969.500 5                 129187050.076 5
C29  23872963.387 5                 124312836.125 5
E02  25831998.749 6  25832000.407 6 135748305.919 6 102692579.524 6
E04  25714363.818 5                 135130032.43515
E06  25326629.838 7  25326633.152 8 133092300.818 7 100683512.834 8
E11  25458148.558 7  25458147.950 7 133783518.631 7 101206319.553 7
E30  26316700.794 7  26316704.618 8 138295188.574 7 104619431.502 8
E34  25570151.904 8  25570155.129 8 134372071.902 8 101651604.625 8
E36  23338264.715 8  23338267.294 9 122643404.500 8  92778957.013 9
G01  22781789.233 6                  22781795.173 7 119719310.271 6                  93287758.859 7
G02  21150075.102 8  21150076.784 6                 111144511.872 8  86606038.427 6
G08  20351723.310 8                  20351729.995 7 106949254.999 8                  83336939.319 7
G10  21493818.227 8                  21493824.580 7 112950948.254 8                  88013632.472 7
G27  21766937.393 7                  21766944.571 7 114386111.751 7                  89132008.351 7
G32  22276742.773 7                  22276750.622 7 117065078.486 7                  91219609.808 7
R01  19942959.341 7                 106606761.041 7
R02  20275219.297 8  20275223.882 7 108192553.468 8  84149709.687 7
R16  22403799.842 5  22403804.020 5 119677261.101 5  93082178.46815
R17  19299495.636 8  19299499.725 7 103275710.338 8  80325411.932 7
R18  22004436.875 7  22004441.771 6 117461360.834 7  91358704.438 6
R24  20730239.211 7  20730242.946 7 110853936.962 7  86219732.781 7
> 2025 06 15 10 49  0.0000000  0 23
C19  22337343.326 7                 116316474.992 7
C20  23418697.715 7                 121947535.543 7
C22  24804499.113 5                 129163754.671 5
C29  23874461.168 5                 124320634.164 5
E02  25833212.933 6  25833213.426 6 135754681.080 6 102697402.258 6
E04  25713278.151 5  25713270.801 5 135124342.818 5 102220541.69515
E06  25324236.991 7  25324239.954 8 133079724.271 7 100673998.758 8
E11  25458939.958 7  25458939.229 7 133787676.893 7 101209465.233 7
E30  26315563.206 7  26315566.811 8 138289209.154 7 104614908.138 8
E34  25566998.932 7  25567002.378 8 134355504.441 7 101639071.455 8
E36  23337090.553 8  23337092.881 8 122637233.086 8  92774288.373 8
G01  22777885.212 6                  22777890.470 7 119698788.919 6                  93271768.220 7
G02  21147588.592 8  21147590.540 6                 111131445.092 8  86595856.521 6
G08  20351356.104 8                  20351362.305 7 106947323.430 8                  83335434.200 7
G10  21494524.505 8                  21494530.339 7 112954657.839 8                  88016523.047 7
G27  21768683.811 7                  21768690.668 7 114395286.408 7                  89139157.430 7
G32  22273930.141 7                  22273937.662 7 117050297.225 7                  91208091.943 7
R01  19943074.829 8                 106607376.805 8
R02  20271403.014 8  20271407.567 7 108172191.215 8  84133872.409 7
R16  22404097.728 5  22404104.867 5 119678858.818 5  93083421.141 5
R17  19297350.355 8  19297354.468 7 103264229.380 8  80316482.297 7
R18  22000116.026 6  22000120.745 6 117438293.429 6  91340763.102 6
R24  20731475.565 7  20731481.413 7 110860558.829 7  86224883.106 7
> 2025 06 15 10 49  5.0000000  0 23
C19  22335018.525 7                 116304372.239 7
C20  23419292.294 7                 121950631.996 7
C22  24800024.684 5                 129140463.406 5
C29  23875959.816 5                 124328438.060 5
E02  25834427.182 6  25834427.842 6 135761063.357 6 102702230.417 6
E04  25712197.119 5  25712190.523 5 135118665.978 5 102216247.188 5
E06  25321845.434 7  25321848.874 8 133067158.975 7 100664493.196 8
E11  25459731.803 7  25459731.226 7 133791838.602 7 101212613.521 7
E30  26314427.571 7  26314431.366 8 138283242.423 7 104610394.350 8
E34  25563847.380 7  25563850.134 8 134338939.966 7 101626540.553 8
E36  23335917.521 8  23335919.663 8 122631067.698 8  92769624.303 8
G01  22773980.487 6                  22773985.847 7 119678271.871 6                  93255780.910 7
G02  21145103.371 8  21145105.515 6                 111118385.949 8  86585680.568 6
G08  20350990.923 8                  20350997.697 7 106945407.471 8                  83333941.255 7
G10  21495232.814 8                  21495238.018 7 112958377.527 8                  88019421.513 7
G27  21770430.690 7                  21770438.303 7 114404470.835 7                  89146314.118 7
G32  22271119.859 7                  22271127.689 7 117035529.548 7                  91196584.676 7
R01  19943193.503 8                 106608014.398 8
R02  20267590.654 8  20267594.944 7 108151846.522 8  84118048.802 7
R16  22404401.105 5  22404408.699 5 119680476.487 5  93084679.303 5
R17  19295206.397 8  19295211.179 7 103252761.306 8  80307562.677 7
R18  21995794.879 7  21995799.918 6 117415229.439 7  91322824.442 6
R24  20732716.546 7  20732722.121 7 110867191.239 7  86230041.612 7
> 2025 06 15 10 49 10.0000000  0 23
C19  22332696.139 7                 116292283.237 7
C20  23419888.975 7                 121953740.248 7
C22  24795553.384 4                 129117176.18514
C29  23877459.600 5                 124336247.663 5
E02  25835643.325 6  25835643.751 6 135767452.795 6 102707063.957 6
E04  25711118.818 5  25711112.642 5 135113001.687 5 102211962.211 5
E06  25319456.939 7  25319459.859 8 133054604.929 7 100654996.156 8
E11  25460524.137 7  25460523.831 7 133796003.697 7 101215764.383 7
E30  26313295.110 7  26313298.368 8 138277288.300 7 104605890.105 8
E34  25560695.563 7  25560698.668 8 134322378.535 7 101614011.935 8
E36  23334745.174 8  23334747.560 8 122624908.324 8  92764964.784 8
G01  22770077.392 7                  22770082.825 7 119657759.122 7                  93239796.963 7
G02  21142619.697 8  21142621.094 6                 111105334.480 8  86575510.606 6
G08  20350629.583 8                  20350636.140 7 106943507.135 8                  83332460.485 7
G10  21495942.035 8                  21495948.127 7 112962107.259 8                  88022327.786 7
G27  21772180.501 7                  21772187.865 7 114413665.046 7                  89153478.440 7
G32  22268311.922 7                  22268319.960 7 117020775.461 7                  91185088.008 7
R01  19943316.969 7                 106608673.854 7
R02  20263781.598 8  20263786.141 7 108131519.630 8  84102239.009 7
R16  22404709.485 5  22404716.515 5 119682114.362 5  93085953.199 5
R17  19293065.808 8  19293070.476 7 103241305.955 8  80298652.970 7
R18  21991474.679 7  21991479.764 6 117392168.876 7  91304888.448 6
R24  20733959.037 7  20733964.210 7 110873834.184 7  86235208.336 7
> 2025 06 15 10 49 15.0000000  0 22
C19  22330377.858 7                 116280207.759 7
C20  23420488.234 7                 121956860.015 7
C22  24791101.088 4                 129093892.68914
C29  23878957.952 4                 124344062.913 4
E02  25836859.849 7  25836860.837 6 135773849.078 7 102711902.672 6
E06  25317070.131 7  25317073.005 8 133042061.924 7 100645507.456 8
E11  25461317.707 7  25461316.986 7 133800172.005 7 101218917.647 7
E30  26312163.816 7  26312167.698 8 138271346.594 7 104601395.241 8
E34  25557544.542 8  25557547.572 8 134305819.852 8 101601485.408 8
E36  23333574.227 8  23333576.582 8 122618754.754 8  92760309.647 8
G01  22766174.724 7                  22766180.396 7 119637250.463 7                  93223816.208 7
G02  21140137.118 8  21140138.658 6                 111092290.491 8  86565346.470 6
G08  20350271.282 8                  20350277.614 7 106941622.199 8                  83330991.710 7
G10  21496653.779 8                  21496660.043 7 112965846.840 8                  88025241.749 7
G27  21773931.515 7                  21773938.825 7 114422868.783 7                  89160650.186 7
G32  22265506.617 7                  22265515.071 7 117006034.798 7                  91173601.786 7
R01  19943443.457 7                 106609354.765 7
R02  20259975.466 8  20259979.886 7 108111210.381 8  84086442.933 7
R16  22405020.800 5  22405026.401 5 119683772.013 5  93087242.418 5
R17  19290928.030 8  19290932.270 7 103229863.223 8  80289753.072 7
R18  21987154.219 7  21987161.243 6 117369111.519 7  91286954.980 6
R24  20735202.793 7  20735208.060 7 110880487.321 7  86240382.995 7
> 2025 06 15 10 49 20.0000000  0 21
C19  22328061.915 7                 116268145.881 7
C20  23421089.114 7                 121959991.397 7
C29  23880460.824 5                 124351883.717 5
E02  25838079.014 7  25838079.321 6 135780252.262 7 102716746.634 6
E06  25314685.137 7  25314688.271 8 133029530.009 7 100636027.152 8
E11  25462111.813 7  25462110.749 7 133804343.501 7 101222073.356 7
E30  26311035.774 7  26311039.364 8 138265417.339 7 104596909.786 8
E34  25554393.800 7  25554397.080 8 134289264.023 7 101588961.035 8
E36  23332404.410 8  23332406.699 8 122612607.037 8  92755658.927 8
G01  22762272.417 7                  22762278.701 7 119616745.962 7                  93207838.684 7
G02  21137657.142 8  21137657.646 6                 111079254.027 8  86555188.161 6
G08  20349915.230 8                  20349921.737 7 106939752.693 8                  83329534.931 7
G10  21497367.452 8                  21497372.738 7 112969596.271 8                  88028163.380 7
G27  21775684.600 7                  21775692.415 7 114432082.126 7                  89167829.402 7
G32  22262704.485 7                  22262713.353 7 116991307.564 7                  91162126.050 7
R01  19943575.475 7                 106610057.343 7
R02  20256173.642 8  20256176.980 7 108090918.617 8  84070660.468 7
R16  22405336.887 5  22405339.261 5 119685449.642 5  93088547.272 5
R17  19288791.155 8  19288796.272 7 103218433.055 8  80280862.953 7
R18  21982835.918 7  21982841.987 6 117346057.420 7  91269024.045 6
R24  20736448.699 7  20736454.639 7 110887150.740 7  86245565.664 7
> 2025 06 15 10 49 25.0000000  0 21
C19  22325747.932 7                 116256097.295 7
C20  23421693.168 7                 121963134.060 7
C29  23881964.542 5                 124359709.863 5
E02  25839298.725 7  25839299.098 6 135786662.052 7 102721595.578 6
E06  25312302.453 7  25312305.604 8 133017008.876 7 100626555.003 8
E11  25462905.800 7  25462905.097 7 133808517.982 7 101225231.304 7
E30  26309909.805 7  26309913.357 8 138259500.251 7 104592433.550 8
E34  25551244.311 7  25551247.162 8 134272710.719 7 101576438.572 8
E36  23331235.799 8  23331237.878 9 122606464.876 8  92751012.425 9
G01  22758371.246 7                  22758377.705 7 119596245.335 7                  93191864.182 7
G02  21135177.028 7  21135178.230 5                 111066224.754 7  86545035.498 5
G08  20349562.467 8                  20349569.020 8 106937898.336 8                  83328089.975 8
G10  21498082.493 8                  21498088.116 7 112973355.319 8                  88031092.510 7
G27  21777439.940 7                  21777447.391 7 114441304.735 7                  89175015.832 7
G32  22259904.969 7                  22259913.311 7 116976593.508 7                  91150660.570 7
R01  19943711.805 7                 106610781.096 7
R02  20252373.777 8  20252377.433 7 108070644.103 8  84054891.423 7
R16  22405662.491 5  22405657.704 5 119687146.810 5  93089867.208 5
R17  19286658.132 8  19286662.393 7 103207015.222 8  80271982.398 7
R18  21978517.757 7  21978524.607 6 117323006.240 7  91251095.316 6
R24  20737696.650 7  20737702.330 7 110893824.225 7  86250756.141 7
> 2025 06 15 10 49 30.0000000  0 21
C19  22323435.606 7                 116244062.511 7
C20  23422298.482 7                 121966288.486 7
C29  23883468.878 5                 124367541.829 5
E02  25840520.076 7  25840520.341 7 135793078.939 7 102726449.919 7
E06  25309921.899 7  25309925.052 8 133004499.066 7 100617091.418 8
E11  25463701.160 7  25463700.105 7 133812695.863 7 101228391.841 7
E30  26308786.505 8  26308789.703 8 138253595.792 8 104587966.856 8
E34  25548094.502 7  25548097.799 8 134256160.457 7 101563918.408 8
E36  23330068.162 8  23330070.193 8 122600328.735 8  92746370.473 8
G01  22754470.984 7                  22754477.230 7 119575749.032 7                  93175893.060 7
G02  21132699.346 7  21132699.980 6                 111053203.177 7  86534888.819 6
G08  20349212.649 8                  20349219.384 7 106936059.579 8                  83326657.187 7
G10  21498799.602 8                  21498805.101 7 112977124.405 8                  88034029.436 7
G27  21779196.566 7                  21779204.145 7 114450537.100 7                  89182209.861 7
G32  22257106.865 7                  22257115.753 7 116961893.145 7                  91139205.743 7
R01  19943850.819 7                 106611526.583 7
R02  20248576.875 8  20248581.295 7 108050387.649 8  84039136.399 7
R16  22405981.464 5  22405979.441 5 119688863.935 5  93091202.774 5
R17  19284527.294 8  19284530.926 7 103195610.168 8  80263111.783 7
R18  21974200.318 7  21974206.137 6 117299958.541 7  91233169.328 6
R24  20738946.201 7  20738951.740 7 110900508.267 7  86255954.835 7
> 2025 06 15 10 49 35.0000000  0 21
C19  22321126.869 7                 116232041.206 7
C20  23422907.325 7                 121969454.375 7
C29  23884974.712 4                 124375379.277 4
E02  25841742.853 7  25841742.871 7 135799502.664 7 102731309.407 7
E06  25307543.265 7  25307546.592 8 132992000.244 7 100607636.151 8
E11  25464496.944 7  25464495.655 7 133816876.914 7 101231554.778 7
E30  26307665.435 8  26307668.458 8 138247703.708 8 104583509.521 8
E34  25544945.633 7  25544948.984 8 134239612.956 7 101551400.329 8
E36  23328901.565 8  23328903.637 9 122594198.354 8  92741732.882 9
G01  22750571.755 7                  22750577.873 7 119555256.802 7                  93159925.109 7
G02  21130222.877 8  21130223.692 6                 111040188.999 8  86524747.907 6
G08  20348865.863 8                  20348872.223 8 106934236.178 8                  83325236.355 8
G10  21499518.636 8                  21499523.854 7 112980903.245 8                  88036973.983 7
G27  21780955.724 7                  21780963.118 7 114459778.947 7                  89189411.282 7
G32  22254311.731 7                  22254320.876 7 116947206.139 7                  91127761.316 7
R01  19943994.133 7                 106612293.600 7
R02  20244784.550 8  20244788.346 7 108030148.576 8  84023394.898 7
R16  22406304.217 4  22406304.467 5 119690600.669 4  93092553.631 5
R17  19282398.325 8  19282402.019 7 103184217.712 8  80254250.980 7
R18  21969883.896 7  21969888.149 5 117276914.021 7  91215245.860 5
R24  20740198.512 7  20740204.478 7 110907202.218 7  86261161.233 7
> 2025 06 15 10 49 40.0000000  0 22
C19  22318820.563 7                 116220032.724 7
C20  23423516.814 7                 121972631.075 7
C29  23886480.119 5                 124383221.541 5
E02  25842965.818 6  25842966.355 6 135805932.430 6 102736173.464 6
E04  25704693.714 5                 135079286.22915
E06  25305166.804 8  25305170.094 8 132979511.735 8 100598188.683 8
E11  25465293.446 7  25465291.787 7 133821060.344 7 101234719.505 7
E30  26306546.636 8  26306549.387 8 138241823.269 8 104579061.013 8
E34  25541797.517 7  25541800.578 8 134223067.484 7 101538883.779 8
E36  23327736.063 8  23327738.042 9 122588073.023 8  92737099.113 9
G01  22746672.245 7                  22746678.294 7 119534767.939 7                  93143959.799 7
G02  21127747.394 8  21127748.959 5                 111027181.519 8  86514612.210 5
G08  20348521.155 8                  20348528.133 8 106932427.396 8                  83323826.917 8
G10  21500240.182 8                  21500245.154 7 112984691.135 8                  88039925.570 7
G27  21782715.971 7                  21782723.217 7 114469029.521 7                  89196619.521 7
G32  22251519.384 7                  22251528.180 7 116932531.844 7                  91116326.779 7
R01  19944140.551 7                 106613081.337 7
R02  20240994.111 8  20240999.303 7 108009926.401 8  84007666.533 7
R16  22406630.548 5  22406633.135 5 119692356.723 5  93093919.489 5
R17  19280271.758 8  19280275.092 7 103172837.061 8  80245399.358 7
R18  21965566.392 7  21965572.682 5 117253872.018 7  91197324.327 5
R24  20741452.166 7  20741457.579 7 110913905.900 7  86266375.216 7
> 2025 06 15 10 49 45.0000000  0 22
C19  22316517.102 7                 116208037.511 7
C20  23424128.124 7                 121975818.967 7
C29  23887988.162 4                 124391069.108 4
E02  25844191.337 7  25844191.292 7 135812368.798 7 102741042.519 7
E04  25703633.524 5  25703633.001 5 135073708.161 5 102182226.09415
E06  25302792.072 7  25302795.654 8 132967034.031 7 100588749.395 8
E11  25466089.830 7  25466088.439 7 133825246.729 7 101237886.484 7
E30  26305430.005 8  26305432.666 8 138235954.968 8 104574621.664 8
E34  25538648.971 7  25538652.569 8 134206524.557 7 101526369.153 8
E36  23326571.374 8  23326573.445 9 122581953.239 8  92732469.532 9
G01  22742773.328 7                  22742780.215 7 119514282.935 7                  93127997.464 7
G02  21125273.725 8  21125274.924 6                 111014181.234 8  86504482.123 6
G08  20348180.513 8                  20348186.638 8 106930633.737 8                  83322429.258 8
G10  21500962.048 8                  21500967.798 7 112988488.548 8                  88042884.581 7
G27  21784478.083 7                  21784485.323 7 114478289.318 7                  89203834.925 7
G32  22248729.572 7                  22248737.835 7 116917870.711 7                  91104902.511 7
R01  19944292.860 7                 106613890.258 7
R02  20237208.172 8  20237212.718 7 107989721.571 8  83991951.677 7
R16  22406962.809 5  22406965.227 4 119694132.103 5  93095300.320 4
R17  19278147.298 8  19278150.994 7 103161468.685 8  80236557.302 7
R18  21961250.669 7  21961256.136 5 117230832.936 7  91179405.032 5
R24  20742707.548 7  20742712.783 7 110920619.580 7  86271596.940 7
> 2025 06 15 10 49 50.0000000  0 22
C19  22314216.475 7                 116196056.400 7
C20  23424742.627 7                 121979018.924 7
C29  23889499.284 5                 124398922.743 5
E02  25845417.098 7  25845417.555 7 135818812.513 7 102745917.125 7
E04  25702571.319 5  25702573.764 5 135068143.068 5 102178016.22615
E06  25300419.982 7  25300423.496 8 132954567.919 7 100579318.871 8
E11  25466887.296 7  25466885.747 7 133829436.821 7 101241056.258 7
E30  26304315.828 8  26304318.418 8 138230099.638 8 104570192.143 8
E34  25535502.266 7  25535505.222 8 134189984.936 7 101513857.037 8
E36  23325408.122 8  23325410.086 9 122575839.773 8  92727844.743 9
G01  22738876.213 7                  22738883.290 7 119493802.635 7                  93112038.800 7
G02  21122801.225 8  21122802.254 6                 111001188.938 8  86494358.265 6
G08  20347841.912 8                  20347848.265 7 106928855.979 8                  83321043.997 7
G10  21501686.700 8                  21501692.809 7 112992296.249 8                  88045851.621 7
G27  21786242.141 7                  21786249.656 7 114487559.135 7                  89211058.132 7
G32  22245940.829 7                  22245950.576 7 116903223.563 7                  91093489.187 7
R01  19944448.905 7                 106614721.232 7
R02  20233425.386 8  20233429.853 7 107969535.026 8  83976251.057 7
R16  22407297.981 4  22407300.390 3 119695927.875 4  93096696.927 3
R17  19276024.921 8  19276029.071 7 103150113.469 8  80227725.468 7
R18  21956935.624 7  21956941.412 5 117207797.726 7  91161488.788 5
R24  20743965.730 7  20743971.382 7 110927343.841 7  86276826.904 7
> 2025 06 15 10 49 55.0000000  0 22
C19  22311918.519 7                 116184088.755 7
C20  23425359.268 7                 121982230.221 7
C29  23891005.144 4                 124406781.807 4
E02  25846644.041 7  25846645.215 7 135825262.932 7 102750796.818 7
E04  25701513.604 5  25701516.996 5 135062590.317 5 102173815.61615
E06  25298050.302 7  25298053.270 8 132942112.826 7 100569896.677 8
E11  25467684.525 7  25467683.817 7 133833630.023 7 101244228.378 7
E30  26303204.061 8  26303206.486 8 138224256.606 8 104565771.924 8
E34  25532355.609 7  25532358.379 8 134173448.035 7 101501346.983 8
E36  23324245.782 8  23324247.818 9 122569732.004 8  92723224.262 9
G01  22734978.995 7                  22734986.316 7 119473326.352 7                  93096083.265 7
G02  21120329.937 8  21120331.946 6                 110988204.041 8  86484240.174 6
G08  20347506.342 8                  20347513.325 7 106927093.530 8                  83319670.649 7
G10  21502413.574 8                  21502418.847 7 112996113.658 8                  88048826.224 7
G27  21788007.377 6                  21788015.474 7 114496838.304 6                  89218288.639 7
G32  22243157.127 7                  22243165.694 7 116888589.816 7                  91082086.262 7
R01  19944608.160 7                 106615573.463 7
R02  20229645.656 8  20229650.132 7 107949365.826 8  83960563.908 7
R16  22407641.939 5                 119697743.158 5
R17  19273905.419 8  19273909.505 7 103138770.871 8  80218903.445 7
R18  21952619.517 6  21952627.003 5 117184765.641 6  91143574.927 5
R24  20745226.112 7  20745230.166 7 110934078.405 7  86282064.879 7
> 2025 06 15 10 50  0.0000000  0 21
C19  22309623.387 7                 116172134.878 7
C20  23425978.923 7                 121985453.227 7
C29  23892517.724 5                 124414646.617 5
E02  25847873.072 7  25847874.106 7 135831720.348 7 102755681.810 7
E04  25700459.456 5  25700462.722 5 135057050.200 5 102169624.643 5
E06  25295682.134 7  25295685.284 8 132929669.007 7 100560483.014 8
E11  25468483.437 7  25468482.334 7 133837826.611 7 101247403.051 7
E30  26302094.824 8  26302096.888 8 138218426.172 8 104561361.231 8
E34  25529209.019 7  25529212.138 8 134156914.109 7 101488839.197 8
E36  23323084.531 8  23323086.677 9 122563630.247 8  92718608.324 9
G01  22731083.756 7                  22731090.383 7 119452854.353 7                  93080131.092 7
G02  21117860.174 7  21117862.948 6                 110975226.868 7  86474128.087 6
G08  20347174.187 8                  20347180.681 8 106925346.610 8                  83318309.424 8
G10  21503141.174 8                  21503147.426 7 112999940.999 8                  88051808.575 7
G27  21789775.278 7                  21789782.817 7 114506127.128 7                  89225526.670 7
G32  22240375.460 7                  22240383.629 7 116873969.721 7                  91070693.978 7
R01  19944771.040 8                 106616447.486 8
R02  20225869.108 8  20225873.639 7 107929214.402 8  83944890.581 7
R17  19271788.586 8  19271792.068 7 103127441.058 8  80210091.356 7
R18  21948307.060 7  21948311.949 5 117161737.030 7  91125663.801 5
R24  20746486.078 7  20746492.293 7 110940823.281 7  86287310.914 7
> 2025 06 15 10 50  5.0000000  0 21
C19  22307330.647 7                 116160196.385 7
C20  23426600.118 7                 121988689.498 7
C29  23894031.024 5                 124422518.835 5
E02  25849103.293 7  25849104.638 7 135838186.389 7 102760573.297 7
E04  25699405.945 5  25699411.300 4 135051524.394 5 102165444.448 4
E06  25293316.670 8  25293319.743 8 132917238.076 8 100551079.106 8
E11  25469283.199 7  25469281.827 7 133842028.202 7 101250581.542 7
E30  26300987.985 7  26300990.171 8 138212609.979 7 104556961.311 8
E34  25526062.920 7  25526066.693 8 134140384.820 7 101476334.919 8
E36  23321925.162 8  23321926.996 9 122557536.120 8  92713998.162 9
G01  22727190.628 7                  22727196.278 7 119432388.436 7                  93064183.591 7
G02  21115393.173 7  21115395.593 6                 110962259.032 7  86464023.272 6
G08  20346845.294 8                  20346852.000 8 106923616.908 8                  83316961.608 8
G10  21503871.927 8                  21503878.020 8 113003779.942 8                  88054799.949 8
G27  21791545.158 7                  21791552.825 7 114515427.254 7                  89232773.531 7
G32  22237595.069 7                  22237603.950 7 116859364.986 7                  91059313.674 7
R01  19944939.379 7                 106617344.726 7
R02  20222096.828 8  20222101.172 7 107909082.544 8  83929232.467 7
R17  19269673.843 8  19269677.295 7 103116125.811 8  80201290.612 7
R18  21943993.226 6  21943995.152 5 117138713.578 6  91107756.796 5
R24  20747749.865 7  20747755.688 7 110947580.272 7  86292566.314 7
> 2025 06 15 10 50 10.0000000  0 21
C19  22305040.800 7                 116148271.655 7
C20  23427222.640 6                 121991937.437 6
C29  23895541.935 5                 124430396.834 5
E02  25850333.572 7  25850336.604 7 135844659.431 7 102765470.108 7
E04  25698359.242 5  25698362.653 5 135046011.366 5 102161273.824 5
E06  25290952.827 7  25290956.364 8 132904818.464 7 100541683.760 8
E11  25470083.045 7  25470081.976 7 133846233.182 7 101253762.550 7
E30  26299883.556 7  26299885.805 8 138206806.371 7 104552570.918 8
E34  25522917.991 7  25522921.919 8 134123858.562 7 101463832.905 8
E36  23320766.853 8  23320768.437 9 122551448.019 8  92709392.547 9
G01  22723294.894 7                  22723302.146 7 119411926.811 7                  93048239.502 7
G02  21112926.640 7  21112928.896 6                 110949298.833 7  86453924.419 6
G08  20346519.155 8                  20346525.763 8 106921902.792 8                  83315625.916 8
G10  21504603.774 8                  21504610.738 7 113007628.822 8                  88057799.093 7
G27  21793316.765 7                  21793324.302 7 114524737.028 7                  89240027.851 7
G32  22234818.603 7                  22234827.011 7 116844773.903 7                  91047944.011 7
R01  19945110.079 8                 106618263.564 8
R02  20218328.083 8  20218331.827 7 107888968.672 8  83913588.354 7
R17  19267560.754 8  19267564.707 7 103104823.301 8  80192499.778 7
R18  21939679.253 6  21939684.199 5 117115693.637 6  91089852.416 5
R24  20749015.685 7  20749021.743 7 110954347.761 7  86297829.919 7
> 2025 06 15 10 50 15.0000000  0 21
C19  22302754.614 7                 116136360.461 7
C20  23427849.434 7                 121995196.760 7
C29  23897055.884 5                 124438280.16015
E02  25851567.684 7  25851569.895 7 135851139.192 7 102770372.000 7
E04  25697311.646 5  25697316.285 5 135040510.604 5 102157112.537 5
E06  25288591.523 7  25288595.210 8 132892409.890 7 100532296.762 8
E11  25470883.700 7  25470882.979 7 133850441.272 7 101256945.925 7
E30  26298781.407 7  26298783.897 8 138201015.154 7 104548189.898 8
E34  25519773.848 7  25519777.616 8 134107335.029 7 101451332.978 8
E36  23319608.931 8  23319610.944 9 122545365.644 8  92704791.268 9
G01  22719402.732 7                  22719408.916 7 119391469.295 7                  93032298.590 7
G02  21110462.230 8  21110463.890 6                 110936346.099 8  86443831.398 6
G08  20346195.377 8                  20346202.298 8 106920203.995 8                  83314302.182 8
G10  21505338.561 8                  21505345.098 8 113011487.404 8                  88060805.756 8
G27  21795089.903 7                  21795097.760 7 114534056.206 7                  89247289.546 7
G32  22232046.124 7                  22232053.146 7 116830196.297 7                  91036584.859 7
R01  19945286.720 8                 106619203.720 8
R02  20214561.387 8  20214565.821 7 107868872.651 8  83897958.128 7
R17  19265450.629 8  19265455.451 7 103093533.354 8  80183718.713 7
R18  21935368.498 6  21935373.770 6 117092676.944 6  91071950.569 6
R24  20750283.183 7  20750288.098 7 110961125.390 7  86303101.397 7
> 2025 06 15 10 50 20.0000000  0 21
C19  22300469.238 7                 116124463.244 7
C20  23428477.377 7                 121998467.927 7
C29  23898571.876 5                 124446169.446 5
E02  25852802.111 7  25852804.248 7 135857626.110 7 102775279.297 7
E04  25696265.764 5  25696272.039 5 135035022.713 5 102152961.05815
E06  25286232.288 8  25286236.063 8 132880012.806 8 100522918.457 8
E11  25471685.007 7  25471684.569 7 133854652.907 7 101260132.008 7
E30  26297681.986 7  26297684.150 8 138195236.676 7 104543818.521 8
E34  25516630.666 7  25516633.941 8 134090814.709 7 101438835.458 8
E36  23318452.673 8  23318454.703 9 122539289.462 8  92700194.685 9
G01  22715510.176 7                  22715517.079 7 119371016.319 7                  93016361.207 7
G02  21107999.424 8  21108000.512 6                 110923401.293 8  86433744.533 6
G08  20345875.129 8                  20345882.042 7 106918520.917 8                  83312990.688 7
G10  21506074.561 8                  21506081.233 8 113015356.052 8                  88063820.331 8
G27  21796865.082 7                  21796873.388 7 114543385.159 7                  89254558.843 7
G32  22229274.644 7                  22229281.882 7 116815632.564 7                  91025236.518 7
R01  19945466.389 7                 106620165.823 7
R02  20210798.807 8  20210803.084 7 107848794.222 8  83882341.596 7
R17  19263343.873 8  19263348.143 7 103082256.499 8  80174947.839 7
R18  21931058.974 6  21931063.387 6 117069663.949 6  91054051.506 6
R24  20751552.504 8  20751557.409 7 110967913.605 8  86308381.110 7
> 2025 06 15 10 50 25.0000000  0 21
C19  22298187.269 7                 116112579.375 7
C20  23429108.610 7                 122001750.324 7
C29  23900087.470 5                 124454064.149 5
E02  25854037.811 7  25854039.946 7 135864119.554 7 102780191.536 7
E04  25695224.605 5  25695230.685 5 135029546.992 5 102148818.806 5
E06  25283875.486 8  25283879.126 8 132867626.623 8 100513548.410 8
E11  25472487.101 7  25472486.581 7 133858867.530 7 101263320.323 7
E30  26296584.126 7  26296586.787 8 138189470.418 7 104539456.404 8
E34  25513486.619 7  25513490.572 8 134074296.940 7 101426339.896 8
E36  23317297.314 8  23317299.510 9 122533218.874 8  92695602.331 9
G01  22711619.261 7                  22711625.880 7 119350567.328 7                  93000426.921 7
G02  21105536.965 8  21105538.434 6                 110910463.780 8  86423663.345 6
G08  20345558.269 8                  20345564.686 8 106916852.974 8                  83311691.012 8
G10  21506812.070 7                  21506819.441 7 113019234.236 7                  88066842.306 7
G27  21798642.735 7                  21798649.768 7 114552723.260 7                  89261835.287 7
G32  22226505.755 7                  22226512.296 7 116801082.160 7                  91013898.533 7
R01  19945650.746 7                 106621149.021 7
R02  20207038.718 8  20207044.120 7 107828733.666 8  83866738.944 7
R17  19261238.591 8  19261243.322 7 103070992.090 8  80166186.666 7
R18  21926747.303 6  21926752.459 5 117046654.043 6  91036154.949 5
R24  20752824.097 8  20752828.827 7 110974711.880 8  86313668.646 7
> 2025 06 15 10 50 30.0000000  0 22
C19  22295908.008 7                 116100708.669 7
C20  23429741.020 7                 122005043.697 7
C29  23901607.493 5                 124461963.886 5
E02  25855274.174 7  25855276.958 7 135870619.353 7 102785108.594 7
E04  25694185.507 5  25694191.489 5 135024083.330 5 102144685.566 5
E06  25281521.303 8  25281524.164 8 132855251.118 8 100504186.429 8
E11  25473289.524 7  25473289.048 7 133863084.862 7 101266510.700 7
E30  26295488.974 7  26295491.704 8 138183716.139 7 104535103.322 8
E34  25510344.274 7  25510347.773 8 134057781.590 7 101413846.138 8
E36  23316142.961 8  23316145.318 9 122527153.653 8  92691014.019 9
G01  22707729.032 7                  22707734.881 7 119330122.029 7                  92984495.528 7
G02  21103075.690 8  21103077.674 6                 110897533.303 8  86413587.646 6
G08  20345243.451 8                  20345250.154 8 106915199.989 8                  83310402.958 8
G10  21507551.500 7                  21507558.995 7 113023121.689 7                  88069871.454 7
G27  21800421.584 7                  21800428.728 7 114562070.394 7                  89269118.741 7
G32  22223739.121 7                  22223745.928 7 116786544.878 7                  91002570.780 7
R01  19945838.182 7                 106622153.100 7
R02  20203283.608 8  20203287.290 7 107808690.343 8  83851149.689 7
R16  22410145.638 5  22410160.175 5 119711003.66115  93108595.46415
R17  19259135.521 8  19259140.311 7 103059739.893 8  80157434.941 7
R18  21922436.750 6  21922441.444 5 117023647.021 6  91018260.626 5
R24  20754097.427 8  20754101.818 7 110981519.780 8  86318963.698 7
> 2025 06 15 10 50 35.0000000  0 22
C19  22293629.958 7                 116088851.596 7
C20  23430375.747 7                 122008348.521 7
C29  23903121.748 5                 124469869.14915
E02  25856513.330 7  25856514.975 7 135877125.905 7 102790030.736 7
E04  25693150.080 6  25693162.875 6 135018632.234 6 102140562.03116
E06  25279168.655 8  25279171.425 8 132842886.759 8 100494832.885 8
E11  25474092.384 7  25474092.213 7 133867305.397 7 101269703.508 7
E30  26294396.282 7  26294399.120 8 138177974.291 7 104530759.646 8
E34  25507201.679 7  25507205.457 8 134041269.027 7 101401354.518 8
E36  23314989.648 8  23314992.247 9 122521094.266 8  92686430.129 9
G01  22703839.774 7                  22703845.129 7 119309680.965 7                  92968567.419 7
G02  21100616.679 7  21100618.705 6                 110884610.333 7  86403517.813 6
G08  20344931.677 8                  20344938.454 7 106913562.384 8                  83309126.886 7
G10  21508293.679 7                  21508300.701 8 113027018.872 7                  88072908.201 8
G27  21802201.207 7                  21802208.508 7 114571426.935 7                  89276409.522 7
G32  22220976.620 8                  22220982.246 7 116772021.146 8                  90991253.581 7
R01  19946029.773 7                 106623178.729 7
R02  20199530.185 8  20199534.758 7 107788664.819 8  83835574.284 7
R16  22410508.416 5  22410532.505 4 119712978.368 5  93110131.303 4
R17  19257036.064 8  19257040.243 7 103048500.548 8  80148693.223 7
R18  21918127.851 6  21918131.864 5 117000643.408 6  91000368.890 5
R24  20755370.941 7  20755376.954 7 110988338.022 7  86324266.760 7
> 2025 06 15 10 50 40.0000000  0 23
C19  22291356.455 7                 116077008.720 7
C20  23431012.914 7                 122011665.358 7
C22  24715181.861 5                 128698419.61915
C29  23904640.192 4                 124477780.558 4
E02  25857752.148 7  25857754.495 7 135883639.796 7 102794958.446 7
E04  25692114.869 6  25692126.915 6 135013194.176 6 102136448.367 6
E06  25276817.522 8  25276820.757 8 132830534.140 8 100485488.227 8
E11  25474896.740 7  25474896.056 7 133871529.771 7 101272899.201 7
E30  26293306.127 7  26293308.968 8 138172245.483 7 104526425.825 8
E34  25504059.942 7  25504063.925 8 134024759.952 7 101388865.513 8
E36  23313838.671 8  23313840.365 9 122515041.283 8  92681851.095 9
G01  22699950.741 7                  22699955.855 7 119289244.696 7                  92952643.060 7
G02  21098159.324 7  21098160.709 6                 110871695.449 7  86393454.297 6
G08  20344622.411 8                  20344629.774 8 106911940.752 8                  83307863.276 8
G10  21509037.290 7                  21509044.365 8 113030926.368 7                  88075952.998 8
G27  21803983.710 7                  21803991.244 7 114580793.478 7                  89283708.122 7
G32  22218215.447 8                  22218220.986 7 116757511.577 8                  90979947.421 7
R01  19946226.271 7                 106624226.238 7
R02  20195780.815 8  20195785.486 7 107768657.632 8  83820013.154 7
R16  22410868.024 5  22410908.099 4 119714973.447 5  93111683.231 4
R17  19254937.690 8  19254942.162 7 103037274.487 8  80139961.857 7
R18  21913819.918 6  21913822.709 6 116977643.697 6  90982480.276 6
R24  20756649.023 7  20756654.484 7 110995167.067 7  86329578.219 7
> 2025 06 15 10 50 45.0000000  0 23
C19  22289084.097 7                 116065178.722 7
C20  23431652.201 7                 122014992.911 7
C22  24710726.726 5                 128675208.684 5
C29  23906157.913 4                 124485696.70714
E02  25858992.850 7  25858995.230 7 135890159.729 7 102799890.713 7
E04  25691081.246 6  25691093.184 6 135007767.826 6 102132343.344 6
E06  25274468.606 8  25274472.024 8 132818191.940 8 100476151.446 8
E11  25475700.378 7  25475700.305 7 133875756.573 7 101276096.724 7
E30  26292218.234 7  26292221.055 8 138166528.324 7 104522100.844 8
E34  25500919.231 7  25500922.668 8 134008252.939 7 101376378.072 8
E36  23312687.476 8  23312689.567 9 122508993.396 8  92677275.902 9
G01  22696063.013 7                  22696068.392 7 119268811.840 7                  92936721.385 7
G02  21095703.367 8  21095704.305 6                 110858787.337 8  86383396.020 6
G08  20344316.625 7                  20344323.593 7 106910333.753 7                  83306611.083 7
G10  21509782.447 8                  21509789.359 7 113034842.812 8                  88079004.773 7
G27  21805768.092 7                  21805775.177 7 114590168.698 7                  89291013.477 7
G32  22215456.590 7                  22215462.117 7 116743014.837 7                  90968651.302 7
R01  19946426.207 7                 106625294.513 7
R02  20192033.800 8  20192039.204 7 107748667.470 8  83804465.244 7
R16  22411243.525 5  22411282.923 4 119716987.401 5  93113249.684 4
R17  19252841.891 8  19252846.634 7 103026060.236 8  80131239.652 7
R18  21909512.215 6  21909515.445 6 116954646.637 6  90964593.680 6
R24  20757928.125 7  20757933.129 7 111002005.583 7  86334897.047 7
> 2025 06 15 10 50 50.0000000  0 22
C19  22286815.312 7                 116053363.097 7
C20  23432294.113 7                 122018332.623 7
C22  24706270.915 5                 128652002.482 5
E02  25860233.873 6  25860237.328 7 135896687.137 6 102804828.643 7
E04  25690051.175 6  25690062.570 6 135002354.644 6 102128248.292 6
E06  25272122.448 8  25272125.637 8 132805861.648 8 100466823.679 8
E11  25476506.115 7  25476505.411 7 133879987.302 7 101279297.248 7
E30  26291133.529 7  26291135.573 8 138160824.385 7 104517785.837 8
E34  25497779.007 7  25497782.172 8 133991749.513 7 101363893.373 8
E36  23311537.833 8  23311539.933 9 122502952.104 8  92672705.707 9
G01  22692175.924 7                  22692181.378 7 119248383.983 7                  92920803.589 7
G02  21093248.328 8  21093249.866 5                 110845887.539 8  86373344.224 5
G08  20344014.485 8                  20344021.338 8 106908742.878 8                  83305371.450 8
G10  21510529.186 8                  21510536.569 7 113038769.743 8                  88082064.700 7
G27  21807553.537 7                  21807561.212 7 114599554.029 7                  89298326.738 7
G32  22212700.200 8                  22212706.960 7 116728532.456 8                  90957366.357 7
R01  19946629.611 7                 106626384.789 7
R02  20188291.981 8  20188296.724 7 107728696.030 8  83788931.913 7
R16  22411634.203 5  22411662.358 5 119719021.872 5  93114831.949 5
R17  19250748.488 8  19250753.648 8 103014859.478 8  80122527.965 8
R18  21905205.061 6  21905208.487 6 116931653.716 6  90946710.332 6
R24  20759208.525 7  20759213.596 7 111008855.169 7  86340224.494 7
> 2025 06 15 10 50 55.0000000  0 22
C19  22284548.887 7                 116041561.189 7
C20  23432937.118 7                 122021683.849 7
C22  24701813.095 4                 128628800.55114
E02  25861477.755 6  25861480.904 7 135903221.400 6 102809771.763 7
E04  25689024.751 6  25689034.528 6 134996954.060 6 102124162.780 6
E06  25269778.210 8  25269781.363 8 132793542.639 8 100457504.437 8
E11  25477312.751 7  25477311.112 7 133884221.317 7 101282500.265 7
E30  26290049.314 7  26290052.565 8 138155132.952 7 104513480.322 8
E34  25494640.105 7  25494642.084 8 133975249.055 7 101351410.890 8
E36  23310389.183 8  23310391.440 9 122496916.728 8  92668139.989 9
G01  22688288.967 7                  22688294.956 7 119227960.428 7                  92904889.148 7
G02  21090795.095 8  21090796.121 6                 110832995.387 8  86363298.402 6
G08  20343714.536 8                  20343721.048 7 106907167.499 8                  83304143.858 7
G10  21511278.800 7                  21511285.823 7 113042706.445 7                  88085132.257 7
G27  21809341.710 6                  21809348.809 7 114608948.806 6                  89305647.351 7
G32  22209946.766 7                  22209953.396 7 116714063.801 7                  90946092.091 7
R01  19946838.182 7                 106627496.584 7
R02  20184553.190 8  20184557.436 7 107708742.457 8  83773412.478 7
R16  22412029.176 5  22412042.594 5 119721075.829 5  93116429.525 5
R17  19248657.915 8  19248662.973 7 103003671.648 8  80113826.316 7
R18  21900897.380 6  21900901.407 6 116908664.272 6  90928829.687 6
R24  20760492.159 7  20760497.112 7 111015714.992 7  86345559.907 7
> 2025 06 15 10 51  0.0000000  0 22
C19  22282284.580 7                 116029772.991 7
C20  23433583.785 7                 122025046.537 7
C22  24697361.716 4                 128605605.91814
E02  25862723.505 7  25862725.716 7 135909762.484 7 102814720.018 7
E04  25687999.889 6  25688008.425 6 134991566.033 6 102120086.778 6
E06  25267435.434 8  25267439.190 8 132781234.837 8 100448193.674 8
E11  25478118.454 7  25478117.479 7 133888458.601 7 101285705.707 7
E30  26288968.896 8  26288971.905 8 138149454.007 8 104509184.232 8
E34  25491500.564 7  25491502.739 8 133958751.518 7 101338930.611 8
E36  23309241.804 8  23309244.077 9 122490887.254 8  92663578.729 9
G01  22684402.325 7                  22684409.781 7 119207541.159 7                  92888978.059 7
G02  21088343.168 8  21088344.515 6                 110820110.789 8  86353258.461 6
G08  20343418.054 8                  20343424.338 7 106905607.543 8                  83302928.306 7
G10  21512029.443 8                  21512037.445 7 113046652.906 8                  88088207.434 7
G27  21811131.265 6                  21811137.965 7 114618353.063 6                  89312975.341 7
G32  22207196.117 8                  22207202.800 7 116699608.796 8                  90934828.479 7
R01  19947049.832 7                 106628629.731 7
R02  20180815.891 8  20180820.878 7 107688806.849 8  83757907.005 7
R16  22412407.859 5  22412427.809 4 119723149.637 5  93118042.559 4
R17  19246569.257 8  19246574.910 7 102992496.613 8  80105134.627 7
R18  21896592.461 6  21896595.798 6 116885678.361 6  90910951.646 6
R24  20761777.193 7  20761782.012 7 111022584.934 7  86350903.157 7
> 2025 06 15 10 51  5.0000000  0 22
C19  22280022.691 7                 116017998.158 7
C20  23434232.019 7                 122028420.350 7
C22  24692904.326 5                 128582411.84215
E02  25863969.152 7  25863971.588 7 135916309.923 7 102819673.136 7
E04  25686976.348 6  25686981.772 5 134986190.325 6 102116020.11015
E06  25265095.791 8  25265099.129 8 132768937.957 8 100438891.148 8
E11  25478925.126 7  25478924.362 7 133892698.841 7 101288913.421 7
E30  26287890.837 7  26287893.545 8 138143787.205 7 104504897.321 8
E34  25488361.060 7  25488363.853 8 133942256.514 7 101326452.251 8
E36  23308095.612 8  23308097.816 9 122484863.314 8  92659021.665 9
G01  22680516.982 7                  22680524.445 7 119187125.802 7                  92873069.981 7
G02  21085892.040 8  21085894.192 6                 110807233.515 8  86343224.226 6
G08  20343123.544 7                  20343130.090 7 106904062.675 7                  83301724.496 7
G10  21512782.040 7                  21512790.155 7 113050608.734 7                  88091289.877 7
G27  21812922.248 6                  21812929.663 7 114627766.386 6                  89320310.381 7
G32  22204448.134 8                  22204454.861 7 116685167.142 8                  90923575.230 7
R01  19947266.367 7                 106629783.895 7
R02  20177083.776 8  20177088.771 7 107668888.814 8  83742415.232 7
R16  22412788.854 5  22412816.600 4 119725242.521 5  93119670.352 4
R17  19244484.141 8  19244487.948 7 102981334.097 8  80096452.660 7
R18  21892285.577 5  21892290.897 6 116862695.597 5  90893076.188 6
R24  20763063.377 7  20763068.182 7 111029465.038 7  86356254.320 7
> 2025 06 15 10 51 10.0000000  0 23
C19  22277765.012 7                 116006237.234 7
C20  23434881.131 7                 122031805.816 7
C22  24688449.689 5                 128559222.292 5
C29  23913781.705 4                 124525362.43614
E02  25865217.881 7  25865218.960 7 135922864.399 7 102824631.533 7
E04  25685953.995 6  25685955.434 5 134980827.185 6 102111964.01515
E06  25262757.923 8  25262761.199 8 132756652.545 8 100429597.348 8
E11  25479733.191 7  25479732.003 7 133896942.538 7 101292123.745 7
E30  26286814.585 7  26286817.575 8 138138133.146 7 104500620.066 8
E34  25485222.841 7  25485225.601 8 133925764.694 7 101313976.291 8
E36  23306950.559 8  23306952.645 9 122478845.528 8  92654469.246 9
G01  22676633.804 7                  22676640.518 7 119166715.009 7                  92857165.471 7
G02  21083444.185 8  21083445.591 6                 110794364.078 8  86333196.107 6
G08  20342832.231 7                  20342839.070 7 106902533.460 7                  83300532.913 7
G10  21513537.191 7                  21513544.155 7 113054574.573 7                  88094380.135 7
G27  21814716.129 7                  21814722.532 6 114637189.394 7                  89327652.967 6
G32  22201702.581 8                  22201709.189 7 116670739.411 8                  90912332.865 7
R01  19947484.886 7                 106630959.728 7
R02  20173354.457 8  20173359.648 7 107648988.954 8  83726937.565 7
R16  22413182.537 5  22413215.032 3 119727355.35415  93121314.02013
R17  19242401.288 8  19242404.968 7 102970184.692 8  80087780.896 7
R18  21887982.639 6  21887985.388 6 116839716.461 6  90875203.525 6
R24  20764352.467 8  20764356.540 7 111036355.498 8  86361613.545 7
> 2025 06 15 10 51 15.0000000  0 23
C19  22275508.991 7                 115994490.520 7
C20  23435534.338 7                 122035203.251 7
C22  24683998.003 5                 128536037.332 5
C29  23915306.113 5                 124533313.200 5
E02  25866466.520 7  25866467.565 7 135929426.124 7 102829595.427 7
E04  25684937.144 6  25684937.600 6 134975477.151 6 102107917.12816
E06  25260422.315 8  25260425.588 8 132744378.840 8 100420312.389 8
E11  25480540.395 7  25480540.237 7 133901189.968 7 101295336.891 7
E30  26285741.331 7  26285744.076 8 138132492.089 7 104496352.632 8
E34  25482085.271 7  25482088.011 8 133909276.239 7 101301502.897 8
E36  23305806.398 8  23305808.677 9 122472834.113 8  92649921.641 9
G01  22672750.333 7                  22672757.280 7 119146308.997 7                  92841264.710 7
G02  21080996.580 8  21080998.468 6                 110781502.732 8  86323174.271 6
G08  20342544.771 7                  20342551.733 7 106901020.175 7                  83299353.728 7
G10  21514294.005 8                  21514300.543 7 113058550.590 8                  88097478.312 7
G27  21816509.990 7                  21816517.488 6 114646622.231 7                  89335003.235 6
G32  22198959.655 8                  22198966.227 7 116656325.852 8                  90901101.506 7
R01  19947709.429 7                 106632157.449 7
R02  20169627.907 8  20169633.887 7 107629107.496 8  83711474.211 7
R16  22413581.182 5                 119729488.515 5
R17  19240319.421 8  19240323.464 7 102959048.463 8  80079119.368 7
R18  21883678.837 6  21883682.219 6 116816741.309 6  90857333.959 6
R24  20765642.226 8  20765647.269 7 111043256.762 8  86366981.203 7
> 2025 06 15 10 51 20.0000000  0 23
C19  22273256.757 7                 115982759.414 7
C20  23436188.996 7                 122038614.016 7
C22  24679545.359 4                                
C29  23916835.849 5                 124541271.453 5
E02  25867716.050 7  25867718.008 8 135935996.516 7 102834565.879 8
E04  25683922.194 6  25683922.364 5 134970141.622 6 102103880.816 5
E06  25258088.969 7  25258092.384 8 132732118.379 7 100411037.434 8
E11  25481350.523 7  25481349.488 7 133905442.578 7 101298553.957 7
E30  26284670.837 7  26284673.313 8 138126865.419 7 104492096.105 8
E34  25478948.579 7  25478951.316 8 133892792.647 7 101289033.154 8
E36  23304663.891 8  23304666.241 9 122466830.527 8  92645379.967 9
G01  22668868.713 7                  22668874.949 7 119125909.220 7                  92825368.779 7
G02  21078551.050 8  21078552.353 6                 110768650.933 8  86313159.884 6
G08  20342260.074 8                  20342266.631 7 106899524.250 8                  83298188.072 7
G10  21515052.137 8                  21515059.514 7 113062538.253 8                  88100585.594 7
G27  21818307.670 7                  21818314.318 6 114656066.474 7                  89342362.330 6
G32  22196218.965 8                  22196226.752 7 116641927.985 8                  90889882.373 7
R01  19947939.531 7                 106633378.417 7
R02  20165906.408 7  20165911.963 7 107609245.990 7  83696026.392 7
R16  22413988.276 6  22413988.603 4 119731643.105 6
R17  19238242.244 8  19238245.948 7 102947927.093 8  80070469.432 7
R18  21879374.150 7  21879378.987 6 116793771.604 7  90839468.678 6
R24  20766935.991 8  20766940.245 7 111050170.304 8  86372358.398 7
> 2025 06 15 10 51 25.0000000  0 22
C19  22271005.957 7                 115971042.809 7
C20  23436846.099 7                 122042036.986 7
C29  23918366.134 5                 124549236.103 5
E02  25868967.270 6  25868969.979 8 135942574.473 6 102839542.063 8
E04  25682908.686 5  25682909.635 6 134964819.340 5 102099854.563 6
E06  25255758.735 8  25255761.633 8 132719869.961 8 100401771.580 8
E11  25482160.527 7  25482159.592 7 133909699.220 7 101301774.071 7
E30  26283602.534 7  26283605.022 8 138121252.022 7 104487849.628 8
E34  25475812.216 7  25475815.301 8 133876312.756 7 101276566.240 8
E36  23303522.687 8  23303525.070 9 122460833.626 8  92640843.358 9
G01  22664986.533 7                  22664993.832 7 119105514.550 7                  92809476.828 7
G02  21076106.038 8  21076108.391 6                 110755807.521 8  86303152.046 6
G08  20341978.127 7                  20341985.302 7 106898044.536 7                  83297035.053 7
G10  21515813.193 7                  21515820.254 7 113066536.442 7                  88103701.051 7
G27  21820107.701 7                  21820113.471 7 114665520.855 7                  89349729.369 7
G32  22193482.491 7                  22193489.340 7 116627544.601 7                  90878674.537 7
R01  19948171.858 7                 106634621.549 7
R02  20162189.437 8  20162193.082 7 107589403.306 8  83680593.211 7
R16  22414393.332 6  22414398.183 5 119733818.156 6  93126194.13815
R17  19236166.266 8  19236169.902 7 102936819.370 8  80061830.100 7
R18  21875070.309 6  21875076.950 6 116770806.290 6  90821606.796 6
R24  20768230.234 8  20768235.187 7 111057094.836 8  86377744.162 7
> 2025 06 15 10 51 30.0000000  0 22
C19  22268758.113 7                 115959339.896 7
C20  23437505.534 7                 122045471.369 7
C29  23919897.843 5                 124557206.213 5
E02  25870221.650 6  25870223.156 7 135949159.139 6 102844523.289 7
E04  25681900.349 5  25681899.351 6 134959509.653 5 102095837.813 6
E06  25253429.556 8  25253432.779 8 132707632.753 8 100392514.230 8
E11  25482971.803 7  25482970.239 7 133913959.097 7 101304996.627 7
E30  26282536.375 7  26282539.064 8 138115651.123 7 104483612.577 8
E34  25472676.820 7  25472679.863 8 133859835.730 7 101264101.494 8
E36  23302382.892 8  23302385.049 9 122454842.604 8  92636311.193 9
G01  22661107.695 7                  22661113.628 7 119085124.182 7                  92793588.236 7
G02  21073663.460 7  21073665.847 6                 110742971.731 7  86293150.139 6
G08  20341700.543 8                  20341706.584 7 106896580.239 8                  83295894.037 7
G10  21516576.525 7                  21516583.004 7 113070544.290 7                  88106824.031 7
G27  21821908.334 7                  21821914.614 7 114674984.604 7                  89357103.725 7
G32  22190747.673 7                  22190754.912 7 116613174.925 7                  90867477.413 7
R01  19948407.722 7                 106635886.050 7
R02  20158473.489 8  20158478.092 7 107569578.509 8  83665173.941 7
R16  22414804.464 6  22414809.484 5 119736012.764 6  93127901.076 5
R17  19234092.546 8  19234096.802 7 102925724.566 8  80053200.818 7
R18  21870769.792 6  21870775.951 6 116747844.417 6  90803747.572 6
R24  20769527.901 8  20769531.857 7 111064029.575 8  86383137.831 7
> 2025 06 15 10 51 35.0000000  0 22
C19  22266513.531 7                 115947651.116 7
C20  23438166.625 7                 122048917.542 7
C29  23921430.113 5                 124565182.380 5
E02  25871475.005 6  25871477.568 8 135955750.943 6 102849509.924 8
E04  25680891.980 6  25680891.449 6 134954212.856 6 102091830.81316
E06  25251102.300 7  25251106.357 8 132695407.209 7 100383265.709 8
E11  25483782.486 7  25483781.623 7 133918222.673 7 101308221.984 7
E30  26281473.040 7  26281475.688 8 138110063.136 7 104479385.293 8
E34  25469541.998 7  25469545.043 8 133843362.048 7 101251639.269 8
E36  23301244.223 8  23301246.155 9 122448857.877 8  92631783.789 9
G01  22657227.826 7                  22657234.670 7 119064738.493 7                  92777703.303 7
G02  21071222.705 7  21071225.128 6                 110730143.959 7  86283154.490 6
G08  20341424.588 8                  20341431.125 7 106895131.767 8                  83294765.344 7
G10  21517341.031 8                  21517347.306 7 113074562.202 8                  88109954.902 7
G27  21823711.479 7                  21823717.556 7 114684458.143 7                  89364485.673 7
G32  22188015.880 7                  22188023.291 7 116598819.420 7                  90856291.309 7
R01  19948648.187 7                 106637172.269 7
R02  20154761.815 8  20154766.072 7 107549772.347 8  83649769.171 7
R16  22415217.965 5  22415222.680 5 119738227.534 5  93129623.645 5
R17  19232021.806 8  19232025.846 8 102914642.863 8  80044581.699 8
R18  21866470.342 6  21866475.202 6 116724886.529 6  90785891.396 6
R24  20770826.426 8  20770831.019 7 111070974.998 8  86388539.844 7
> 2025 06 15 10 51 40.0000000  0 22
C19  22264270.947 7                 115935976.037 7
C20  23438831.463 7                 122052375.133 7
C29  23922963.426 4                 124573163.979 4
E02  25872730.334 6  25872733.344 8 135962349.507 6 102854501.703 8
E04  25679883.204 5  25679885.835 6 134948928.572 5 102087833.314 6
E06  25248778.527 7  25248782.070 8 132683192.991 7 100374025.739 8
E11  25484593.907 7  25484593.641 7 133922489.470 7 101311449.770 7
E30  26280412.004 7  26280414.661 8 138104487.604 7 104475167.441 8
E34  25466407.906 7  25466410.847 8 133826891.296 7 101239179.273 8
E36  23300106.244 8  23300108.450 9 122442879.070 8  92627260.862 9
G01  22653349.565 7                  22653356.070 7 119044357.192 7                  92761821.755 7
G02  21068782.952 7  21068784.816 6                 110717323.832 7  86273164.796 6
G08  20341151.701 7                  20341158.313 7 106893698.724 7                  83293648.705 7
G10  21518107.607 8                  21518113.980 7 113078589.852 8                  88113093.345 7
G27  21825514.484 7                  21825521.995 7 114693941.002 7                  89371874.931 7
G32  22185286.838 7                  22185294.519 7 116584477.673 7                  90845115.905 7
R01  19948892.640 7                 106638479.805 7
R02  20151054.603 8  20151057.397 7 107529984.117 8  83634378.317 7
R16  22415636.888 6  22415641.310 5 119740461.758 6  93131361.424 5
R17  19229953.243 8  19229956.951 7 102903574.192 8  80035972.716 7
R18  21862167.202 6  21862175.887 6 116701932.132 6  90768038.061 6
R24  20772127.378 8  20772131.607 7 111077930.688 8  86393949.808 7
> 2025 06 15 10 51 45.0000000  0 22
C19  22262031.139 7                 115924314.072 7
C20  23439497.849 7                 122055843.475 7
C29  23924493.929 5                 124581150.589 5
E02  25873989.069 6  25873990.134 8 135968954.144 6 102859498.040 8
E04  25678884.905 5  25678882.713 6 134943656.327 5 102083844.883 6
E06  25246455.326 7  25246459.848 8 132670989.416 7 100364793.823 8
E11  25485406.628 7  25485406.077 7 133926758.908 7 101314679.561 7
E30  26279353.164 7  26279355.923 8 138098923.979 7 104470958.598 8
E34  25463273.224 7  25463276.912 8 133810422.821 7 101226721.002 8
E36  23298969.289 8  23298971.739 9 122436905.519 8  92622741.920 9
G01  22649472.342 7                  22649477.760 7 119023979.535 7                  92745943.060 7
G02  21066345.171 7  21066345.957 6                 110704510.699 7  86263180.539 6
G08  20340881.357 7                  20340888.254 8 106892280.478 7                  83292543.563 8
G10  21518876.045 8                  21518882.223 7 113082626.541 8                  88116238.819 7
G27  21827321.784 7                  21827327.967 7 114703432.639 7                  89379270.982 7
G32  22182560.807 8                  22182567.966 7 116570148.998 8                  90833950.745 7
R01  19949139.804 7                 106639808.096 7
R02  20147348.529 8  20147352.267 7 107510213.300 8  83619001.040 7
R16  22416060.438 5  22416063.134 5 119742714.938 5  93133113.865 5
R17  19227886.577 8  19227891.267 8 102892517.678 8  80027373.229 8
R18  21857868.627 6  21857876.176 6 116678980.668 6  90750186.907 6
R24  20773429.827 8  20773434.066 7 111084895.885 8  86399367.190 7
> 2025 06 15 10 51 50.0000000  0 21
C19  22259794.799 7                 115912666.257 7
C20  23440165.961 7                 122059323.647 7
C29  23926029.125 4                 124589143.174 4
E02  25875247.070 6  25875248.329 8 135975565.845 6 102864499.775 8
E06  25244135.826 7  25244139.828 8 132658797.528 7 100355570.751 8
E11  25486219.629 7  25486219.256 7 133931031.998 7 101317912.117 7
E30  26278296.692 7  26278299.643 8 138093373.244 7 104466759.522 8
E34  25460139.940 7  25460143.682 8 133793957.714 7 101214265.251 8
E36  23297834.061 8  23297836.229 9 122430938.295 8  92618227.753 9
G01  22645595.428 7                  22645600.690 7 119003606.666 7                  92730068.101 7
G02  21063908.248 7  21063909.356 6                 110691705.651 7  86253202.557 6
G08  20340614.751 7                  20340621.623 7 106890878.020 7                  83291450.760 7
G10  21519646.038 8                  21519652.750 7 113086673.294 8                  88119392.146 7
G27  21829130.430 7                  21829136.200 7 114712934.020 7                  89386674.625 7
G32  22179836.091 7                  22179843.809 7 116555834.541 7                  90822796.641 7
R01  19949393.386 7                 106641157.996 7
R02  20143645.995 8  20143651.078 7 107490461.079 8  83603638.208 7
R16  22416487.993 5  22416488.407 5 119744987.882 5  93134881.710 5
R17  19225822.893 8  19225827.175 7 102881474.492 8  80018784.106 7
R18  21853571.585 6  21853576.320 6 116656033.255 6  90732338.883 6
R24  20774734.578 8  20774738.800 7 111091871.893 8  86404792.964 7
> 2025 06 15 10 51 55.0000000  0 20
C19  22257560.379 7                 115901032.590 7
C20  23440836.991 7                 122062815.601 7
E02  25876505.820 6  25876507.796 8 135982184.771 6 102869506.907 8
E06  25241818.628 7  25241822.133 8 132646617.367 7 100346356.550 8
E11  25487034.150 7  25487033.085 7 133935308.764 7 101321147.442 7
E30  26277243.659 7  26277245.892 8 138087835.414 7 104462570.192 8
E34  25457007.284 7  25457011.128 8 133777495.948 7 101201812.063 8
E36  23296699.836 8  23296701.910 9 122424977.409 8  92613718.379 9
G01  22641719.983 7                  22641724.422 7 118983238.561 7                  92714196.869 7
G02  21061472.293 7  21061474.867 6                 110678908.688 7  86243230.913 6
G08  20340350.970 8                  20340358.058 7 106889491.469 8                  83290370.323 7
G10  21520417.675 8                  21520424.579 7 113090730.158 8                  88122553.326 7
G27  21830939.603 7                  21830945.997 7 114722445.146 7                  89394085.922 7
G32  22177114.389 7                  22177122.454 7 116541534.282 7                  90811653.594 7
R01  19949650.703 7                 106642529.703 7
R02  20139947.888 8  20139953.033 7 107470727.270 8  83588289.689 7
R16  22416916.514 5  22416917.834 5 119747281.013 5  93136665.220 5
R17  19223760.618 8  19223766.073 7 102870444.650 8  80010205.347 7
R18  21849273.500 6  21849278.524 6 116633089.784 6  90714493.992 6
R24  20776041.381 8  20776045.555 7 111098858.577 8  86410227.015 7
> 2025 06 15 10 52  0.0000000  0 20
C19  22255329.487 7                 115889413.595 7
C20  23441509.033 7                 122066319.858 7
E02  25877767.431 6  25877768.690 8 135988811.336 6 102874519.839 8
E04  25675884.407 5                 134927897.39015
E06  25239503.293 7  25239506.603 8 132634449.458 7 100337151.612 8
E11  25487848.260 7  25487847.742 7 133939589.691 7 101324385.938 7
E30  26276191.919 7  26276194.728 8 138082311.068 7 104458391.054 8
E34  25453876.205 8  25453879.417 8 133761038.075 8 101189361.793 8
E36  23295566.818 8  23295568.870 9 122419023.360 8  92609214.184 9
G01  22637844.908 7                  22637849.687 7 118962875.726 7                  92698329.742 7
G02  21059039.834 7  21059041.437 6                 110666120.320 7  86233265.946 6
G08  20340090.151 7                  20340096.733 7 106888121.228 7                  83289302.606 7
G10  21521192.107 8                  21521198.406 7 113094797.608 8                  88125722.754 7
G27  21832751.070 7                  21832758.299 7 114731966.563 7                  89401505.204 7
G32  22174396.471 8                  22174404.268 7 116527248.776 8                  90800522.021 7
R01  19949910.397 7                 106643923.598 7
R02  20136253.006 8  20136258.087 7 107451012.549 8  83572956.043 7
R17  19221702.227 8  19221707.386 7 102859428.698 8  80001637.353 7
R18  21844976.450 6  21844981.185 6 116610150.800 6  90696652.557 6
R24  20777349.545 8  20777354.442 7 111105856.378 8  86415669.737 7
> 2025 06 15 10 52  5.0000000  0 21
C19  22253100.941 7                 115877807.792 7
C20  23442185.051 7                 122069834.934 7
C22  24639521.826 5                 128304451.14215
E02  25879031.267 6  25879030.715 8 135995443.930 6 102879537.392 8
E04  25674893.961 6  25674894.564 6 134922676.423 6 102067978.89916
E06  25237189.637 7  25237193.192 8 132622292.307 7 100327954.813 8
E11  25488663.569 7  25488662.900 7 133943873.349 7 101327626.486 7
E30  26275142.817 7  26275145.967 8 138076798.658 7 104454220.938 8
E34  25450744.761 8  25450748.074 8 133744582.597 8 101176913.327 8
E36  23294434.859 8  23294436.893 9 122413074.672 8  92604714.030 9
G01  22633970.282 7                  22633975.620 7 118942516.688 7                  92682465.574 7
G02  21056607.484 7  21056609.590 6                 110653339.055 7  86223306.530 6
G08  20339832.702 8                  20339838.789 7 106886765.857 8                  83288246.467 7
G10  21521967.893 8                  21521974.783 7 113098874.149 8                  88128899.298 7
G27  21834565.058 7                  21834572.416 7 114741496.710 7                  89408931.310 7
G32  22171680.919 7                  22171687.926 7 116512976.481 7                  90789400.781 7
R01  19950176.491 7                 106645338.169 7
R02  20132562.415 8  20132567.849 7 107431315.345 8  83557636.037 7
R17  19219645.924 7  19219651.618 7 102848425.089 7  79993079.006 7
R18  21840681.248 7  21840684.769 6 116587214.835 7  90678813.496 6
R24  20778659.651 8  20778664.641 7 111112863.901 8  86421120.030 7
> 2025 06 15 10 52 10.0000000  0 21
C19  22250875.730 7                 115866216.305 7
C20  23442862.307 7                 122073361.952 7
C22  24635083.140 5                 128281317.072 5
E02  25880293.073 6  25880294.251 8 136002083.878 6 102884560.421 8
E04  25673903.491 6  25673904.146 6 134917468.681 6 102064039.264 6
E06  25234877.997 7  25234882.120 8 132610147.063 7 100318767.037 8
E11  25489479.313 7  25489478.846 7 133948160.851 7 101330869.948 7
E30  26274096.299 7  26274099.626 8 138071299.333 7 104450060.725 8
E34  25447614.322 8  25447617.392 8 133728130.630 8 101164467.550 8
E36  23293303.896 8  23293306.143 9 122407132.489 8  92600218.813 9
G01  22630097.413 7                  22630101.954 7 118922162.611 7                  92666605.252 7
G02  21054176.689 7  21054178.580 6                 110640566.089 7  86213353.581 6
G08  20339577.172 7                  20339584.338 7 106885426.528 7                  83287202.837 7
G10  21522744.782 7                  21522752.479 7 113102960.913 7                  88132083.768 7
G27  21836380.792 7                  21836387.901 7 114751036.774 7                  89416365.128 7
G32  22168966.769 7                  22168974.830 7 116498718.617 7                  90778290.755 7
R01  19950444.529 7                 106646774.576 7
R02  20128874.866 8  20128879.988 7 107411636.751 8  83542330.464 7
R17  19217592.880 8  19217597.494 7 102837434.990 8  79984531.145 7
R18  21836382.933 6  21836388.381 6 116564283.069 6  90660977.764 6
R24  20779971.976 8  20779977.214 7 111119882.162 8  86426578.668 7
> 2025 06 15 10 52 15.0000000  0 21
C19  22248652.599 7                 115854638.862 7
C20  23443541.023 7                 122076900.598 7
C22  24630645.390 5                 128258187.510 5
E02  25881559.104 6  25881558.916 8 136008730.761 6 102889588.716 8
E04  25672912.507 5  25672915.950 7 134912273.586 5 102060109.270 7
E06  25232569.305 7  25232573.185 8 132598013.406 7 100309588.003 8
E11  25490295.964 7  25490295.449 7 133952451.889 7 101334116.087 7
E30  26273052.609 8  26273055.646 8 138065812.777 8 104445910.174 8
E34  25444483.682 8  25444487.181 8 133711681.882 8 101152024.175 8
E36  23292173.964 8  23292176.531 9 122401196.461 8  92595728.249 9
G01  22626224.329 7                  22626229.913 7 118901813.154 7                  92650748.579 7
G02  21051747.769 7  21051749.094 5                 110627801.043 7  86203406.779 5
G08  20339325.111 7                  20339332.524 7 106884102.846 7                  83286171.382 7
G10  21523524.987 8                  21523532.084 7 113107057.594 8                  88135275.995 7
G27  21838197.915 7                  21838204.824 7 114760586.437 7                  89423806.404 7
G32  22166256.577 7                  22166264.553 7 116484474.821 7                  90767191.728 7
R01  19950717.632 7                 106648232.509 7
R02  20125190.051 8  20125195.357 7 107391976.709 8  83527039.337 7
R17  19215541.235 8  19215546.250 7 102826458.145 8  79975993.578 7
R18  21832088.421 7  21832092.684 6 116541355.169 7  90643144.961 6
R24  20781286.286 8  20781292.061 7 111126911.121 8  86432045.628 7
> 2025 06 15 10 52 20.0000000  0 22
C19  22246431.514 7                 115843075.325 7
C20  23444222.712 7                 122080450.695 7
C22  24626204.591 5                 128235062.416 5
E02  25882824.062 6  25882824.885 8 136015384.396 6 102894622.133 8
E04  25671933.482 5  25671930.253 6 134907091.250 5 102056188.834 6
E06  25230262.580 7  25230266.378 8 132585891.195 7 100300417.644 8
E11  25491113.272 7  25491112.644 7 133956746.297 7 101337364.763 7
E30  26272011.165 8  26272013.923 8 138060338.843 8 104441769.190 8
E34  25441354.572 8  25441357.640 8 133695236.204 8 101139583.121 8
E36  23291046.093 8  23291048.159 9 122395266.503 8  92591242.271 9
G01  22622353.615 7                  22622358.762 7 118881468.188 7                  92634895.360 7
G02  21049320.100 7  21049321.495 6                 110615043.761 7  86193466.071 6
G08  20339077.003 8                  20339083.411 8 106882794.719 8                  83285152.070 8
G10  21524306.909 8                  21524312.499 7 113111163.996 8                  88138475.791 7
G27  21840016.188 7                  21840025.061 7 114770145.508 7                  89431255.014 7
G32  22163549.122 7                  22163557.252 7 116470244.995 7                  90756103.576 7
R01  19950994.513 7                 106649711.803 7
R02  20121510.348 8  20121513.657 7 107372334.937 8  83511762.418 7
R16  22419114.523 5                 119759033.64915
R17  19213492.638 8  19213497.483 7 102815494.392 8  79967466.221 7
R18  21827794.703 7  21827798.481 6 116518431.050 7  90625315.055 6
R24  20782602.898 8  20782608.122 7 111133950.340 8  86437520.560 7
> 2025 06 15 10 52 25.0000000  0 21
C19  22244213.039 7                 115831525.585 7
C20  23444905.947 7                 122084012.222 7
E02  25884092.119 6  25884092.474 8 136022044.799 6 102899660.655 8
E04  25670957.033 4  25670946.802 7 134901921.712 4 102052278.010 7
E06  25227958.493 7  25227961.856 8 132573780.428 7 100291255.938 8
E11  25491930.339 7  25491930.454 7 133961043.993 7 101340615.947 7
E30  26270971.731 7  26270974.702 8 138054877.522 7 104437637.715 8
E34  25438225.322 7  25438228.676 8 133678793.570 7 101127144.393 8
E36  23289918.751 8  23289920.848 9 122389342.530 8  92586760.819 9
G01  22618482.140 7                  22618488.065 7 118861127.677 7                  92619045.632 7
G02  21046893.812 7  21046895.589 6                 110602294.271 7  86183531.398 6
G08  20338830.762 7                  20338837.120 8 106881502.104 7                  83284144.800 8
G10  21525089.487 8                  21525095.617 7 113115280.121 8                  88141683.165 7
G27  21841837.071 7                  21841845.560 7 114779713.944 7                  89438710.931 7
G32  22160843.614 7                  22160851.808 7 116456029.100 7                  90745026.258 7
R01  19951275.163 7                 106651212.456 7
R02  20117832.977 8  20117836.569 7 107352711.448 8  83496499.709 7
R16  22419565.566 5                 119761444.965 5
R17  19211446.753 8  19211450.851 7 102804543.606 8  79958948.957 7
R18  21823500.071 6  21823504.468 6 116495510.640 6  90607488.048 6
R24  20783921.772 8  20783926.271 7 111140999.906 8  86443003.561 7
> 2025 06 15 10 52 30.0000000  0 20
C19  22241997.848 7                 115819989.528 7
C20  23445593.620 7                 122087584.938 7
E02  25885360.681 6  25885361.227 8 136028711.795 6 102904704.177 8
E06  25225655.746 7  25225659.336 8 132561680.848 7 100282102.688 8
E11  25492749.607 6  25492748.933 7 133965344.926 6 101343869.542 7
E30  26269934.535 7  26269937.948 8 138049428.540 7 104433515.610 8
E34  25435097.092 7  25435100.274 8 133662353.746 7 101114707.772 8
E36  23288792.630 8  23288794.672 9 122383424.354 8  92582283.756 9
G01  22614613.085 7                  22614618.781 7 118840791.467 7                  92603199.258 7
G02  21044469.577 7  21044470.733 6                 110589552.367 7  86173602.627 6
G08  20338586.847 7                  20338593.942 7 106880224.720 7                  83283149.441 7
G10  21525874.867 8                  21525880.484 7 113119405.762 8                  88144897.931 7
G27  21843660.148 7                  21843667.741 7 114789291.568 7                  89446173.993 7
G32  22158141.294 7                  22158148.910 7 116441826.915 7                  90733959.624 7
R01  19951559.569 7                 106652734.188 7
R02  20114158.551 8  20114162.386 7 107333105.967 8  83481251.005 7
R16  22420019.294 5  22420026.922 4 119763875.708 5
R17  19209403.316 8  19209406.828 7 102793605.667 8  79950441.672 7
R18  21819207.355 7  21819211.244 6 116472593.621 7  90589663.793 6
R24  20785242.181 8  20785245.950 7 111148059.473 8  86448494.318 7
> 2025 06 15 10 52 35.0000000  0 20
C19  22239785.266 7                 115808466.651 7
C20  23446282.213 7                 122091168.426 7
E02  25886629.460 6  25886631.066 8 136035384.732 6 102909752.201 8
E06  25223355.177 7  25223358.872 8 132549592.056 7 100272957.605 8
E11  25493567.888 6  25493567.781 7 133969648.427 6 101347125.104 7
E30  26268900.379 7  26268903.295 8 138043991.509 7 104429402.514 8
E34  25431969.226 7  25431972.286 8 133645916.291 7 101102272.955 8
E36  23287667.227 8  23287669.470 9 122377511.512 8  92577810.721 9
G01  22610743.483 7                  22610749.498 7 118820459.037 7                  92587355.831 7
G02  21042045.873 8  21042047.308 6                 110576817.519 8  86163679.361 6
G08  20338346.940 7                  20338354.205 8 106878962.191 7                  83282165.678 8
G10  21526661.662 8                  21526667.298 7 113123540.396 8                  88148119.735 7
G27  21845484.004 7                  21845491.733 7 114798877.841 7                  89453643.799 7
G32  22155441.431 7                  22155449.197 7 116427638.014 7                  90722903.311 7
R01  19951847.952 7                 106654276.596 7
R02  20110488.309 8  20110491.642 7 107313518.100 8  83466015.989 7
R16  22420479.730 5                 119766325.426 5
R17  19207360.411 8  19207365.380 7 102782680.111 8  79941944.027 7
R18  21814915.797 7  21814919.936 5 116449679.818 7  90571841.949 5
R24  20786563.185 8  20786568.293 7 111155128.694 8  86453992.585 7
> 2025 06 15 10 52 40.0000000  0 20
C19  22237574.821 7                 115796957.746 7
C20  23446972.023 7                 122094763.420 7
E02  25887901.957 6  25887902.278 8 136042064.564 6 102914805.435 8
E06  25221056.867 7  25221060.645 8 132537514.806 7 100263821.268 8
E11  25494387.139 6  25494387.446 7 133973955.429 6 101350383.318 7
E30  26267868.249 7  26267871.165 8 138038567.179 7 104425299.043 8
E34  25428841.645 7  25428844.947 8 133629482.012 7 101089840.532 8
E36  23286543.240 8  23286545.420 8 122371604.794 8  92573342.330 8
G01  22606875.166 7                  22606881.055 7 118800131.220 7                  92571515.972 7
G02  21039624.174 7  21039625.647 5                 110564090.583 7  86153762.265 5
G08  20338110.560 7                  20338116.572 7 106877715.286 7                  83281194.050 7
G10  21527450.041 8                  21527455.994 7 113127684.834 8                  88151349.156 7
G27  21847310.000 6                  21847317.924 7 114808473.601 6                  89461121.010 7
G32  22152743.912 7                  22152751.659 7 116413463.195 7                  90711858.013 7
R01  19952141.587 7                 106655840.355 7
R02  20106820.870 8  20106825.063 7 107293948.732 8  83450795.375 7
R16  22420940.632 6  22420949.370 3 119768794.573 6
R17  19205321.901 8  19205326.198 8 102771767.786 8  79933456.663 8
R18  21810622.538 7  21810627.526 6 116426769.830 7  90554023.123 6
R24  20787887.643 8  20787892.888 7 111162208.325 8  86459498.951 7
> 2025 06 15 10 52 45.0000000  0 21
C19  22235367.576 7                 115785462.498 7
C20  23447663.791 7                 122098369.623 7
E02  25889174.512 6  25889174.670 8 136048750.899 6 102919863.608 8
E04  25667072.504 5                 134881350.27015
E06  25218761.101 7  25218764.630 8 132525448.795 7 100254693.406 8
E11  25495208.801 6  25495207.665 7 133978265.570 6 101353643.895 7
E30  26266838.688 7  26266841.289 8 138033155.241 7 104421204.938 8
E34  25425714.888 7  25425718.212 8 133613050.586 7 101077410.260 8
E36  23285419.809 8  23285422.538 9 122365703.878 8  92568878.330 9
G01  22603008.229 7                  22603013.266 7 118779807.699 7                  92555679.462 7
G02  21037203.464 7  21037205.669 6                 110551371.187 7  86143851.068 6
G08  20337875.353 7                  20337882.473 7 106876483.655 7                  83280234.336 7
G10  21528240.317 8                  21528246.261 7 113131838.749 8                  88154585.998 7
G27  21849138.086 7                  21849145.524 7 114818078.491 7                  89468605.305 7
G32  22150048.614 7                  22150057.304 7 116399302.099 7                  90700823.417 7
R01  19952436.876 7                 106657425.150 7
R02  20103156.727 8  20103160.957 7 107274397.500 8  83435588.850 7
R16  22421406.303 6  22421415.833 3 119771283.148 6  93155356.33113
R17  19203285.153 8  19203289.803 8 102760868.272 8  79924979.275 8
R18  21806331.266 7  21806336.857 6 116403863.392 7  90536206.980 6
R24  20789212.475 8  20789218.409 7 111169298.104 8  86465013.229 7
> 2025 06 15 10 52 50.0000000  0 21
C19  22233162.204 7                 115773980.907 7
C20  23448358.601 7                 122101986.991 7
E02  25890447.065 6  25890448.311 8 136055443.757 6 102924926.688 8
E04  25666106.505 5  25666062.747 7 134876242.42315 102032870.13517
E06  25216467.077 7  25216470.678 8 132513394.025 7 100245574.063 8
E11  25496028.847 6  25496028.469 7 133982578.802 6 101356906.824 7
E30  26265810.485 7  26265813.729 8 138027755.648 7 104417120.190 8
E34  25422589.039 7  25422591.924 8 133596621.965 7 101064982.139 8
E36  23284298.504 8  23284300.687 9 122359808.754 8  92564418.709 9
G01  22599141.299 7                  22599146.410 7 118759488.407 7                  92539846.261 7
G02  21034783.981 7  21034787.035 6                 110538659.346 7  86133945.759 6
G08  20337644.450 7                  20337650.880 7 106875267.298 7                  83279286.543 7
G10  21529032.692 8                  21529038.896 7 113136002.135 8                  88157830.169 7
G27  21850966.907 6                  21850975.203 7 114827692.497 6                  89476096.732 7
G32  22147356.913 7                  22147365.273 7 116385154.773 7                  90689799.521 7
R01  19952736.849 7                 106659031.013 7
R02  20099495.837 8  20099500.138 7 107254864.334 8  83420396.421 7
R16  22421875.963 6                 119773790.984 6
R17  19201250.325 8  19201255.156 8 102749981.674 8  79916511.923 8
R18  21802041.283 7  21802045.762 6 116380960.505 7  90518393.608 6
R24  20790540.530 8  20790546.314 7 111176397.932 8  86470535.309 7
> 2025 06 15 10 52 55.0000000  0 21
C19  22230960.216 7                 115762513.558 7
C20  23449055.748 7                 122105616.076 7
C29  23946083.023 5                 124693573.84015
E02  25891719.296 5  25891723.256 8 136062143.663 5 102929995.102 8
E06  25214175.045 7  25214178.993 9 132501351.043 7 100236463.635 9
E11  25496850.140 6  25496849.998 7 133986895.793 6 101360172.576 7
E30  26264786.128 7  26264788.709 8 138022369.049 7 104413045.234 8
E34  25419462.568 7  25419466.354 8 133580196.764 7 101052556.592 8
E36  23283177.934 8  23283180.062 9 122353919.994 8  92559963.900 9
G01  22595274.999 7                  22595281.204 7 118739173.983 7                  92524016.872 7
G02  21032367.475 7  21032369.359 6                 110525955.678 7  86124046.805 6
G08  20337415.613 7                  20337422.387 7 106874066.803 7                  83278351.096 7
G10  21529827.300 7                  21529833.553 7 113140175.525 7                  88161082.173 7
G27  21852799.479 7                  21852806.249 7 114837316.200 7                  89483595.714 7
G32  22144667.282 7                  22144675.843 7 116371021.818 7                  90678786.852 7
R01  19953041.936 7                 106660658.454 7
R02  20095838.417 8  20095843.602 7 107235349.930 8  83405218.558 7
R16  22422350.360 6                 119776318.747 6
R17  19199218.612 8  19199222.716 7 102739108.645 8  79908055.123 7
R18  21797751.550 7  21797756.408 6 116358061.745 7  90500583.447 6
R24  20791870.932 8  20791876.171 7 111183508.430 8  86476065.703 7
> 2025 06 15 10 53  0.0000000  0 21
C19  22228760.218 7                 115751060.237 7
C20  23449754.831 7                 122109256.713 7
C29  23947633.971 5                 124701645.681 5
E02  25892995.497 5  25892999.709 8 136068850.432 5 102935068.707 8
E06  25211886.128 7  25211889.470 8 132489319.705 7 100227362.020 8
E11  25497673.648 6  25497672.171 7 133991216.214 6 101363440.952 7
E30  26263762.906 7  26263766.220 8 138016995.183 7 104408979.934 8
E34  25416338.457 7  25416341.266 8 133563774.771 7 101040133.457 8
E36  23282058.379 8  23282060.650 9 122348037.392 8  92555513.759 9
G01  22591409.372 7                  22591417.042 7 118718864.208 7                  92508191.089 7
G02  21029951.085 7  21029953.384 6                 110513259.967 7  86114154.049 6
G08  20337190.023 7                  20337196.969 7 106872881.938 7                  83277427.822 7
G10  21530623.188 8                  21530629.223 7 113144358.729 8                  88164341.813 7
G27  21854632.992 7                  21854639.441 7 114846949.368 7                  89491102.071 7
G32  22141979.938 7                  22141989.486 7 116356902.975 7                  90667785.164 7
R01  19953349.602 7                 106662307.405 7
R02  20092184.751 8  20092190.020 7 107215854.101 8  83390055.164 7
R16  22422826.048 5                 119778866.004 5
R17  19197189.322 8  19197193.396 7 102728248.753 8  79899608.543 7
R18  21793461.969 7  21793466.117 6 116335166.923 7  90482776.365 6
R24  20793201.728 7  20793207.481 7 111190629.344 7  86481604.158 7
> 2025 06 15 10 53  5.0000000  0 22
C19  22226563.733 7                 115739619.921 7
C20  23450456.241 7                 122112907.877 7
C22  24586266.558 5                 128027133.12015
C29  23949183.376 5                 124709722.345 5
E02  25894276.778 5  25894277.218 8 136075563.039 5 102940146.695 8
E06  25209598.056 7  25209602.035 8 132477298.965 7 100218268.426 8
E11  25498496.161 6  25498494.784 7 133995539.163 6 101366711.229 7
E30  26262743.192 7  26262745.996 8 138011633.061 7 104404923.515 8
E34  25413212.798 7  25413216.702 8 133547354.988 7 101027712.002 8
E36  23280939.893 8  23280942.226 9 122342159.955 8  92551067.515 9
G01  22587545.236 7                  22587552.705 7 118698558.114 7                  92492368.167 7
G02  21027536.428 7  21027538.374 6                 110500571.186 7  86104266.680 6
G08  20336967.163 8                  20336974.114 7 106871711.700 8                  83276515.941 7
G10  21531420.866 8                  21531427.395 7 113148550.717 8                  88167608.276 7
G27  21856467.520 7                  21856474.407 7 114856590.984 7                  89498614.990 7
G32  22139295.776 7                  22139305.265 8 116342797.319 7                  90656793.759 8
R01  19953662.650 7                 106663976.612 7
R02  20088535.160 8  20088539.802 7 107196375.727 8  83374905.339 7
R16  22423306.298 5                 119781431.749 5
R17  19195161.529 8  19195166.548 7 102717401.138 8  79891171.507 7
R18  21789174.551 7  21789179.094 6 116312275.055 7  90464971.567 6
R24  20794536.254 8  20794541.078 7 111197759.765 8  86487150.042 7
> 2025 06 15 10 53 10.0000000  0 22
C19  22224369.201 7                 115728193.594 7
C20  23451159.081 7                 122116570.436 7
C22  24581833.546 5                 128004051.053 5
C29  23950734.993 5                 124717804.542 5
E02  25895555.304 5  25895555.845 8 136082282.394 5 102945229.812 8
E06  25207313.042 7  25207316.719 8 132465289.782 7 100209183.564 8
E11  25499318.255 6  25499318.101 7 133999865.494 6 101369984.056 7
E30  26261724.965 7  26261727.997 8 138006283.594 7 104400876.684 8
E34  25410088.997 7  25410092.685 8 133530938.277 7 101015292.912 8
E36  23279822.513 8  23279824.979 9 122336288.613 8  92546625.886 9
G01  22583682.906 7                  22583688.799 7 118678256.630 7                  92476548.807 7
G02  21025123.466 7  21025125.108 6                 110487890.287 7  86094385.465 6
G08  20336747.679 7                  20336754.489 7 106870557.034 7                  83275616.197 7
G10  21532220.337 8                  21532227.039 7 113152752.419 8                  88170882.333 7
G27  21858303.846 7                  21858310.779 7 114866241.967 7                  89506135.236 7
G32  22136614.340 7                  22136623.292 7 116328705.745 7                  90645813.321 7
R01  19953977.972 7                 106665667.116 7
R02  20084887.914 8  20084892.960 7 107176915.823 8  83359769.848 7
R16  22423792.791 5                 119784017.106 5
R17  19193137.237 8  19193141.638 7 102706566.776 8  79882744.777 7
R18  21784887.412 7  21784891.481 6 116289387.056 7  90447169.799 6
R24  20795871.586 8  20795876.565 7 111204900.431 8  86492703.883 7
> 2025 06 15 10 53 15.0000000  0 23
C19  22222177.533 7                 115716781.697 7
C20  23451864.092 7                 122120244.947 7
C22  24577400.886 5                 127980974.154 5
C29  23952288.256 5                 124725892.914 5
E02  25896836.694 6  25896835.930 8 136089008.959 6 102950318.412 8
E04  25661295.340 4                                
E06  25205030.005 7  25205033.807 9 132453292.671 7 100200107.827 9
E11  25500142.678 6  25500142.176 7 134004195.772 6 101373259.868 7
E30  26260709.348 7  26260712.558 8 138000947.310 7 104396839.814 8
E34  25406965.871 7  25406969.406 8 133514525.275 7 101002876.565 8
E36  23278706.793 8  23278708.924 9 122330423.865 8  92542189.245 9
G01  22579820.314 7                  22579826.553 7 118657960.214 7                  92460733.427 7
G02  21022712.382 7  21022713.609 6                 110475217.777 7  86084510.777 6
G08  20336530.892 7                  20336537.790 7 106869418.424 7                  83274728.948 7
G10  21533022.673 8                  21533028.154 7 113156964.330 8                  88174164.332 7
G27  21860141.903 7                  21860148.837 7 114875902.827 7                  89513663.149 7
G32  22133935.975 7                  22133943.941 7 116314628.747 7                  90634844.225 7
R01  19954299.521 7                 106667379.507 7
R02  20081245.071 8  20081249.625 7 107157475.038 8  83344649.272 7
R16  22424281.578 6  22424303.398 5 119786622.446 6  93167351.78315
R17  19191115.164 8  19191119.784 7 102695746.043 8  79874328.656 7
R18  21780599.262 7  21780604.024 6 116266503.414 7  90429371.438 6
R24  20797208.023 8  20797213.426 7 111212052.094 8  86498266.270 7
> 2025 06 15 10 53 20.0000000  0 22
C19  22219988.655 7                 115705383.430 7
C20  23452571.977 7                 122123930.521 7
C22  24572973.429 5                 127957901.450 5
C29  23953844.116 5                 124733986.671 5
E02  25898115.641 6  25898117.205 8 136095741.859 6 102955411.808 8
E06  25202749.437 7  25202752.919 9 132441306.767 7 100191040.574 9
E11  25500967.079 6  25500966.779 7 134008529.097 6 101376537.993 7
E30  26259695.807 7  26259699.305 8 137995623.333 7 104392812.287 8
E34  25403842.973 7  25403846.685 8 133498115.034 7 100990462.344 8
E36  23277591.833 8  23277594.023 9 122324564.873 8  92537756.944 9
G01  22575958.634 7                  22575964.561 7 118637668.060 7                  92444921.358 7
G02  21020302.296 7  21020303.836 6                 110462552.814 7  86074641.975 6
G08  20336317.259 7                  20336324.440 7 106868295.035 7                  83273853.589 7
G10  21533825.371 8                  21533831.644 7 113161185.613 8                  88177453.624 7
G27  21861982.409 7                  21861989.036 7 114885572.703 7                  89521198.107 7
G32  22131260.522 7                  22131268.173 7 116300565.535 7                  90623885.898 7
R01  19954623.881 7                 106669112.770 7
R02  20077605.986 8  20077609.712 7 107138052.306 8  83329542.705 7
R16  22424772.936 5  22424794.818 5 119789247.068 5  93169393.087 5
R17  19189094.993 8  19189100.057 7 102684938.209 8  79865922.557 7
R18  21776314.463 7  21776317.489 6 116243623.361 7  90411575.864 6
R24  20798548.787 8  20798553.201 7 111219213.784 8  86503836.450 7
> 2025 06 15 10 53 25.0000000  0 22
C19  22217802.807 7                 115693999.517 7
C20  23453281.627 7                 122127627.887 7
C22  24568543.667 5                 127934833.661 5
C29  23955399.644 5                 124742086.384 5
E02  25899397.103 5  25899399.895 8 136102481.897 5 102960510.609 8
E06  25200470.748 7  25200474.346 9 132429332.831 7 100181982.366 9
E11  25501792.542 6  25501792.186 7 134012866.198 6 101379818.974 7
E30  26258685.289 7  26258688.589 8 137990312.410 7 104388794.596 8
E34  25400721.137 8  25400724.547 8 133481708.320 8 100978050.780 8
E36  23276478.268 8  23276480.372 9 122318712.352 8  92533329.550 9
G01  22572098.345 7                  22572104.447 7 118617380.870 7                  92429113.173 7
G02  21017893.675 8  21017895.090 6                 110449896.085 8  86064779.588 6
G08  20336106.185 7                  20336113.429 7 106867187.561 7                  83272990.621 7
G10  21534630.812 8                  21534636.995 7 113165416.963 8                  88180750.764 7
G27  21863823.898 7                  21863831.210 7 114895252.295 7                  89528740.638 7
G32  22128585.986 7                  22128594.722 7 116286516.831 7                  90612938.854 7
R01  19954951.251 7                 106670867.719 7
R02  20073969.564 8  20073973.479 7 107118648.497 8  83314450.858 7
R16  22425267.911 4  22425287.828 5 119791891.46714  93171449.95915
R17  19187077.552 8  19187082.786 7 102674143.982 8  79857527.038 7
R18  21772027.313 7  21772033.017 6 116220747.566 7  90393783.603 6
R24  20799889.184 8  20799893.533 7 111226386.212 8  86509414.997 7
> 2025 06 15 10 53 30.0000000  0 22
C19  22215619.182 7                 115682629.014 7
C20  23453994.173 7                 122131336.066 7
C22  24564117.649 5                 127911769.990 5
C29  23956954.741 5                 124750191.224 5
E02  25900683.386 6  25900683.561 8 136109228.145 6 102965614.071 8
E06  25198193.771 7  25198197.859 9 132417369.865 7 100172932.450 9
E11  25502618.200 6  25502618.076 7 134017206.169 6 101383102.125 7
E30  26257677.635 7  26257680.250 8 137985013.541 7 104384786.076 8
E34  25397599.095 7  25397602.923 8 133465304.177 7 100965641.168 8
E36  23275365.414 8  23275367.722 9 122312865.336 8  92528906.319 9
G01  22568238.598 7                  22568244.907 7 118597097.726 7                  92413308.141 7
G02  21015486.075 7  21015488.193 6                 110437246.688 7  86054922.916 6
G08  20335898.306 7                  20335905.880 8 106866095.069 7                  83272139.335 8
G10  21535437.100 8                  21535443.869 8 113169657.401 8                  88184055.002 8
G27  21865667.272 7                  21865674.809 7 114904940.648 7                  89536289.995 7
G32  22125915.631 7                  22125924.024 7 116272481.637 7                  90602002.376 7
R01  19955283.646 7                 106672643.307 7
R02  20070335.740 8  20070340.826 7 107099262.676 8  83299372.991 7
R16  22425769.225 5  22425783.288 4 119794554.705 5  93173521.456 4
R17  19185062.936 8  19185067.744 7 102663362.445 8  79849141.411 7
R18  21767743.212 7  21767747.655 6 116197875.153 7  90375993.908 6
R24  20801231.502 8  20801236.553 7 111233568.324 8  86515001.077 7
> 2025 06 15 10 53 35.0000000  0 22
C19  22213437.975 7                 115671272.197 7
C20  23454709.185 7                 122135055.373 7
C22  24559688.668 5                 127888710.583 5
C29  23958514.810 5                 124758301.445 5
E02  25901969.346 6  25901968.631 8 136115980.818 6 102970722.428 8
E06  25195919.469 7  25195923.507 8 132405418.164 7 100163891.112 8
E11  25503444.444 6  25503444.455 7 134021549.297 6 101386387.655 7
E30  26256671.635 7  26256674.391 8 137979727.138 7 104380786.951 8
E34  25394478.143 7  25394481.903 8 133448902.889 7 100953233.710 8
E36  23274254.261 8  23274256.210 9 122307024.131 8  92524487.490 9
G01  22564379.346 7                  22564386.046 7 118576818.943 7                  92397506.492 7
G02  21013081.017 8  21013082.262 6                 110424604.904 8  86045072.182 6
G08  20335693.579 8                  20335700.614 8 106865017.865 8                  83271299.956 8
G10  21536245.976 8                  21536252.565 8 113173907.251 8                  88187366.572 8
G27  21867513.086 7                  21867520.247 7 114914638.040 7                  89543846.403 7
G32  22123247.196 7                  22123255.863 7 116258460.315 7                  90591076.699 7
R01  19955619.513 7                 106674439.882 7
R02  20066706.070 8  20066710.900 7 107079894.937 8  83284309.204 7
R16  22426271.253 5  22426281.944 3 119797237.371 5  93175608.014 3
R17  19183049.922 8  19183055.513 7 102652593.912 8  79840765.896 7
R18  21763459.898 6  21763464.183 6 116175006.362 6  90358207.031 6
R24  20802577.312 8  20802582.088 7 111240760.548 8  86520595.024 7
> 2025 06 15 10 53 40.0000000  0 22
C19  22211260.358 7                 115659928.179 7
C20  23455425.624 7                 122138784.880 7
C22  24555255.330 5                 127865654.725 5
C29  23960075.637 5                 124766416.184 5
E02  25903253.426 6  25903254.696 8 136122738.925 6 102975834.896 8
E06  25193647.159 7  25193651.228 9 132393476.887 7 100154857.615 9
E11  25504271.076 6  25504271.378 7 134025894.553 6 101389674.817 7
E30  26255668.032 7  26255670.562 8 137974452.186 7 104376796.483 8
E34  25391357.294 7  25391361.199 8 133432503.581 7 100940827.756 8
E36  23273143.721 8  23273145.593 9 122301187.839 8  92520072.376 9
G01  22560520.858 6                  22560527.298 7 118556543.598 6                  92381707.517 7
G02  21010676.180 7  21010677.790 6                 110411969.819 7  86035226.686 6
G08  20335491.104 8                  20335498.555 8 106863954.998 8                  83270471.759 8
G10  21537056.204 8                  21537062.627 7 113178165.563 8                  88190684.729 7
G27  21869359.258 7                  21869367.145 7 114924343.560 7                  89551409.141 7
G32  22120582.117 7                  22120589.699 7 116244451.986 7                  90580161.126 7
R01  19955959.301 7                 106676256.367 7
R02  20063080.861 8  20063085.231 7 107060544.705 8  83269259.029 7
R16  22426778.446 6  22426784.739 3 119799938.063 6  93177708.523 3
R17  19181040.239 8  19181045.184 7 102641837.269 8  79832399.627 7
R18  21759175.312 6  21759180.525 6 116152140.251 6  90340422.330 6
R24  20803924.255 8  20803928.222 7 111247961.921 8  86526196.072 7
> 2025 06 15 10 53 45.0000000  0 22
C19  22209084.956 7                 115648598.254 7
C20  23456143.545 7                 122142525.884 7
C22  24550827.948 5                 127842603.480 5
C29  23961632.985 5                 124774536.646 5
E02  25904539.960 5  25904542.182 8 136129503.894 5 102980952.545 8
E06  25191377.326 7  25191381.044 9 132381547.314 7 100145832.975 9
E11  25505099.573 6  25505099.005 7 134030243.405 6 101392964.687 7
E30  26254665.982 7  26254669.285 8 137969189.989 7 104372815.665 8
E34  25388237.836 7  25388241.125 8 133416107.516 7 100928424.246 8
E36  23272034.209 8  23272036.213 9 122295357.761 8  92515661.959 9
G01  22556663.674 6                  22556670.656 7 118536272.976 6                  92365912.238 7
G02  21008273.922 7  21008275.290 6                 110399342.752 7  86025387.410 6
G08  20335291.334 7                  20335298.950 7 106862907.791 7                  83269655.752 7
G10  21537868.832 8                  21537875.070 8 113182433.651 8                  88194010.521 8
G27  21871208.568 7                  21871215.632 7 114934058.507 7                  89558979.217 7
G32  22117918.870 8                  22117926.646 7 116230457.884 8                  90569256.654 7
R01  19956303.625 7                 106678094.264 7
R02  20059458.285 8  20059461.875 7 107041213.116 8  83254223.383 7
R16  22427293.206 5                 119802658.275 5
R17  19179033.409 8  19179037.711 7 102631094.178 8  79824043.877 7
R18  21754892.045 6  21754897.884 6 116129278.216 6  90322640.787 6
R24  20805271.753 7  20805277.009 7 111255173.694 7  86531805.233 7
> 2025 06 15 10 53 50.0000000  0 22
C19  22206912.060 7                 115637282.884 7
C20  23456864.552 7                 122146278.815 7
C22  24546402.846 5                 127819557.479 5
C29  23963191.928 5                 124782663.299 5
E02  25905830.798 6  25905831.088 8 136136276.129 6 102986075.686 8
E06  25189109.978 7  25189113.195 9 132369629.901 7 100136817.553 9
E11  25505927.618 6  25505927.370 7 134034596.248 6 101396257.551 7
E30  26253667.092 7  26253670.362 8 137963941.076 7 104368844.890 8
E34  25385119.043 7  25385121.789 8 133399715.188 7 100916023.575 8
E36  23270925.972 8  23270928.033 9 122289534.351 8  92511256.592 9
G01  22552807.693 6                  22552813.824 7 118516007.566 6                  92350121.009 7
G02  21005872.144 8  21005874.216 6                 110386724.154 8  86015554.743 6
G08  20335095.804 7                  20335102.535 7 106861876.699 7                  83268852.299 7
G10  21538682.547 8                  21538689.370 8 113186711.970 8                  88197344.272 8
G27  21873058.370 7                  21873066.108 7 114943783.345 7                  89566557.023 7
G32  22115259.201 8                  22115266.529 7 116216478.518 8                  90558363.666 7
R01  19956652.209 7                 106679953.925 7
R02  20055838.809 8  20055842.743 7 107021900.772 8  83239202.707 7
R16  22427818.160 5                 119805398.504 5
R17  19177028.690 8  19177032.900 7 102620364.849 8  79815698.851 7
R18  21750609.681 6  21750616.066 6 116106420.668 6  90304862.754 6
R24  20806622.729 7  20806627.821 7 111262396.511 7  86537422.979 7
> 2025 06 15 10 53 55.0000000  0 22
C19  22204741.575 7                 115625981.455 7
C20  23457586.530 7                 122150043.061 7
C22  24541978.977 5                 127796516.106 5
C29  23964754.565 5                 124790795.562 5
E02  25907120.577 6  25907121.099 8 136143054.990 6 102991203.839 8
E06  25186844.009 7  25186847.587 8 132357724.039 7 100127810.853 8
E11  25506756.625 6  25506756.281 7 134038952.466 6 101399552.990 7
E30  26252671.418 7  26252673.884 8 137958704.750 7 104364883.645 8
E34  25381999.629 7  25382003.030 8 133383325.927 7 100903625.229 8
E36  23269818.798 8  23269821.047 9 122283716.974 8  92506855.788 9
G01  22548952.616 7                  22548958.443 7 118495746.740 7                  92334333.358 7
G02  21003472.521 7  21003474.353 6                 110374113.432 7  86005728.216 6
G08  20334902.429 7                  20334909.336 7 106860861.121 7                  83268060.924 7
G10  21539498.894 8                  21539504.814 7 113190999.853 8                  88200685.460 7
G27  21874911.832 7                  21874918.648 7 114953517.400 7                  89574142.001 7
G32  22112600.900 8                  22112609.219 7 116202513.280 8                  90547481.655 7
R01  19957003.658 7                 106681834.670 7
R02  20052223.172 8  20052227.209 7 107002606.913 8  83224196.379 7
R16  22428335.462 5  22428316.492 3 119808158.29115  93184035.82913
R17  19175025.435 8  19175030.013 7 102609648.743 8  79807364.111 7
R18  21746327.851 7  21746334.435 6 116083567.051 7  90287087.736 6
R24  20807975.194 7  20807980.392 7 111269629.585 7  86543048.688 7
> 2025 06 15 10 54  0.0000000  0 22
C19  22202573.951 7                 115614693.786 7
C20  23458311.560 7                 122153818.440 7
C22  24537555.774 5                 127773479.177 5
C29  23966319.923 5                 124798933.242 5
E02  25908411.474 6  25908412.180 8 136149840.260 6 102996336.839 8
E06  25184580.392 7  25184584.156 9 132345829.555 7 100118812.746 9
E11  25507586.765 6  25507585.909 7 134043311.844 6 101402850.816 7
E30  26251676.600 7  26251679.811 8 137953480.887 7 104360931.839 8
E34  25378880.988 7  25378884.910 8 133366939.614 7 100891229.112 8
E36  23268712.932 8  23268715.140 9 122277905.486 8  92502459.425 9
G01  22545097.826 6                  22545103.167 7 118475490.341 6                  92318549.143 7
G02  21001074.335 8  21001076.515 6                 110361510.392 8  85995907.679 6
G08  20334712.240 8                  20334719.292 7 106859860.853 8                  83267281.477 7
G10  21540316.286 8                  21540322.546 7 113195297.163 8                  88204033.999 7
G27  21876765.534 7                  21876772.937 7 114963260.561 7                  89581734.046 7
G32  22109947.051 8                  22109954.538 7 116188561.995 8                  90536610.511 7
R01  19957360.393 7                 106683736.485 7
R02  20048611.192 8  20048615.183 7 106983331.405 8  83209204.319 7
R16  22428845.411 5                 119810937.021 5
R17  19173025.437 8  19173029.961 7 102598945.769 8  79799039.574 7
R18  21742046.644 7  21742053.438 6 116060717.225 7  90269315.676 6
R24  20809330.364 7  20809334.655 7 111276872.778 7  86548682.310 7
> 2025 06 15 10 54  5.0000000  0 22
C19  22500202.154 7                 117164521.818 7
C20  23758831.007 7                 123718703.854 7
C22  24832927.056 5                 129311551.048 5
C29  24267671.908 4                 126368174.363 4
E02  26209496.240 6  26209497.068 8 137732052.368 6 104193270.044 8
E06  25482112.198 7  25482116.015 9 133909370.529 7 101301621.365 9
E11  25808208.638 6  25808208.670 7 135623095.248 6 102597946.695 7
E30  26550477.843 7  26550481.086 8 139523692.223 7 105548786.521 8
E34  25675556.649 7  25675560.726 8 134925981.227 7 102070633.965 8
E36  23567400.796 8  23567403.380 9 123847522.731 8  93689864.686 9
G01  22841038.434 7                  22841043.129 7 120030664.094 7                  93530372.854 7
G02  21298471.128 8  21298473.078 6                 111924339.277 8  87213696.440 6
G08  20634316.974 7                  20634324.594 7 108434297.805 7                  84494115.459 7
G10  21840928.509 8                  21840934.820 7 114775024.729 8                  89434990.528 7
G27  22178414.044 7                  22178420.828 7 116548432.494 7                  90816932.949 7
G32  22407087.193 8                  22407095.436 7 117750049.155 8                  91753353.745 7
R01  20257512.016 7                 108288223.103 7
R02  20344794.909 8  20344799.918 7 108563830.020 8  84438481.027 7
R16  22729153.392 5  22729153.728 4 121415173.546 5
R17  19470821.483 8  19470825.069 7 104192509.676 8  81038478.168 7
R18  22037561.669 7  22037567.464 6 117638189.907 7  91496238.880 6
R24  21110478.578 7  21110483.688 7 112887251.290 7  87801198.928 7
> 2025 06 15 10 54 10.0000000  0 22
C19  22498040.312 7                 117153265.759 7
C20  23759561.887 7                 123722505.507 7
C22  24828505.460 5                 129288527.083 5
C29  24269235.963 5                 126376326.864 5
E02  26210790.298 6  26210791.513 8 137738854.579 6 104198415.857 8
E06  25479853.944 7  25479857.717 9 133897502.914 7 101292643.602 9
E11  25809039.483 6  25809040.190 7 135627465.104 6 102601252.442 7
E30  26549488.315 7  26549492.533 8 139518497.347 7 105544856.624 8
E34  25672440.809 7  25672444.420 8 134909604.918 7 102058245.400 8
E36  23566297.824 8  23566300.525 9 123841727.071 8  93685480.304 9
G01  22837185.425 7                  22837191.052 7 120010420.621 7                  93514598.733 7
G02  21296076.243 8  21296078.403 6                 111911755.758 8  87203891.095 6
G08  20634134.552 7                  20634140.677 7 108433332.231 7                  84493363.085 7
G10  21841750.465 8                  21841756.800 7 114779344.918 8                  89438356.913 7
G27  22180271.459 7                  22180279.216 7 116558197.795 7                  90824542.257 7
G32  22404439.509 8                  22404446.725 7 117736129.897 8                  91742507.587 7
R01  20257877.272 7                 108290170.848 7
R02  20341191.242 8  20341194.749 7 108544595.449 8  84423520.831 7
R16  22729678.414 5  22729683.080 4 121417994.690 5  94436128.90414
R17  19468827.420 8  19468831.128 7 104181837.035 8  81030177.214 7
R18  22033283.425 7  22033288.169 6 117615351.766 7  91478475.895 6
R24  21111838.059 7  21111843.568 7 112894518.791 7  87806851.397 7
> 2025 06 15 10 54 15.0000000  0 22
C19  22495881.489 7                 117142024.526 7
C20  23760294.244 7                 123726319.285 7
C22  24824084.149 5                 129265508.633 5
C29  24270803.339 4                 126384485.878 4
E02  26212085.213 6  26212087.216 8 137745664.286 6 104203567.354 8
E06  25477597.989 7  25477601.716 8 133885647.706 7 101283675.223 8
E11  25809872.346 6  25809872.551 7 135631839.164 6 102604561.381 7
E30  26548502.669 7  26548506.535 8 139513315.937 7 105540936.922 8
E34  25669325.391 8  25669328.821 8 134893232.545 8 102045859.802 8
E36  23565196.521 8  23565198.925 9 123835938.330 8  93681101.158 9
G01  22833335.070 7                  22833339.527 7 119990182.597 7                  93498828.852 7
G02  21293683.046 8  21293685.848 6                 111899180.938 8  87194092.543 6
G08  20633953.936 7                  20633960.091 7 108432383.004 7                  84492623.422 7
G10  21842575.103 8                  21842580.857 7 114783675.543 8                  89441731.417 7
G27  22182132.156 7                  22182139.712 7 116567973.192 7                  90832159.428 7
G32  22401792.708 8                  22401801.019 7 117722225.628 8                  91731673.126 7
R01  20258244.838 7                 108292140.668 7
R02  20337589.387 8  20337594.139 7 108525380.429 8  84408575.827 7
R16  22730210.653 4  22730214.902 4 121420835.979 4  94438338.815 4
R17  19466835.953 8  19466838.650 7 104171178.455 8  81021887.194 7
R18  22029005.798 7  22029010.936 6 117592518.378 7  91460716.605 6
R24  21113199.407 7  21113204.859 7 112901797.402 7  87812512.495 7
> 2025 06 15 10 54 20.0000000  0 22
C19  22493725.726 7                 117130798.212 7
C20  23761028.869 7                 123730145.319 7
C22  24819664.047 5                 129242495.783 5
C29  24272370.631 4                 126392651.28514
E02  26213380.887 6  26213384.480 8 137752481.558 6 104208724.591 8
E04  25948770.434 5                 136361678.28615
E06  25475344.771 7  25475348.148 9 133873805.079 7 101274716.354 9
E11  25810705.735 6  25810705.720 7 135636217.586 6 102607873.625 7
E30  26547519.973 7  26547523.077 8 139508148.179 7 105537027.529 8
E34  25666210.719 7  25666214.016 8 134876864.298 7 102033477.332 8
E36  23564096.396 8  23564098.673 9 123830156.640 8  93676727.340 9
G01  22829484.878 7                  22829489.896 7 119969950.198 7                  93483063.368 7
G02  21291292.285 8  21291294.406 6                 111886614.985 8  87184300.883 6
G08  20633776.001 7                  20633782.874 8 108431450.250 7                  84491896.596 8
G10  21843401.077 8                  21843406.988 7 114788016.684 8                  89445114.123 7
G27  22183994.290 7                  22184002.187 7 116577758.773 7                  90839784.545 7
G32  22399149.926 8                  22399157.738 7 117708336.522 8                  91720850.452 7
R01  20258616.534 7                 108294132.437 7
R02  20333992.703 8  20333997.197 7 108506185.167 8  84393646.178 7
R17  19464846.423 8  19464849.798 7 104160534.044 8  81013608.199 7
R18  22024728.818 7  22024734.718 6 117569689.989 7  91442961.178 6
R24  21114562.091 7  21114567.624 7 112909087.294 7  87818182.423 7
> 2025 06 15 10 54 25.0000000  0 22
C19  22491571.281 7                 117119583.643 7
C20  23761765.566 7                 123733980.399 7
C22  24815245.210 5                 129219485.373 5
C29  24273939.157 4                 126400820.23014
E02  26214678.988 6  26214682.669 8 137759303.206 6 104213885.102 8
E04  25947846.876 5  25947846.340 7 136356813.462 5 103153071.60417
E06  25473093.076 7  25473096.316 9 133861971.770 7 101265764.547 9
E11  25811538.649 6  25811539.116 7 135640597.082 6 102611186.677 7
E30  26546538.724 7  26546541.623 8 139502990.779 7 105533125.981 8
E34  25663095.955 8  25663099.418 8 134860496.923 8 102021095.525 8
E36  23562996.729 8  23562999.188 9 123824378.752 8  93672356.416 9
G01  22825635.270 7                  22825640.063 7 119949720.162 7                  93467299.715 7
G02  21288902.058 8  21288904.266 6                 111874054.666 8  87174513.628 6
G08  20633601.212 8                  20633607.756 8 108430530.743 8                  84491180.096 8
G10  21844228.696 8                  21844234.497 7 114792365.153 8                  89448502.537 7
G27  22185857.497 7                  22185865.150 7 116587551.309 7                  90847415.052 7
G32  22396509.887 8                  22396516.357 7 117694459.369 8                  91710037.096 7
R01  20258992.417 7                 108296143.086 7
R02  20330399.041 8  20330403.033 7 108487006.236 8  84378729.225 7
R17  19462858.778 8  19462862.752 7 104149900.763 8  81005337.891 7
R18  22020453.491 7  22020458.062 6 117546863.292 7  91425207.105 6
R24  21115927.265 7  21115932.764 7 112916385.277 7  87823858.624 7
> 2025 06 15 10 54 30.0000000  0 22
C19  22489419.331 7                 117108382.837 7
C20  23762503.409 7                 123737826.565 7
C22  24810827.436 5                 129196479.443 5
C29  24275508.102 4                 126408994.45414
E02  26215977.974 6  26215981.987 8 137766131.232 6 104219050.472 8
E04  25946925.418 5  25946923.061 7 136351961.109 5 103149400.859 7
E06  25470843.413 7  25470846.688 9 133850149.873 7 101256821.373 9
E11  25812373.321 6  25812373.092 7 135644979.778 6 102614502.157 7
E30  26545559.865 7  26545562.554 8 139497845.815 7 105529233.853 8
E34  25659981.575 8  25659985.368 8 134844132.470 8 102008715.932 8
E36  23561898.356 8  23561900.808 9 123818606.726 8  93667989.917 9
G01  22821786.046 7                  22821790.918 7 119929494.570 7                  93451539.519 7
G02  21286513.712 8  21286515.826 6                 111861502.058 8  87164732.376 6
G08  20633429.041 8                  20633435.826 8 108429626.510 8                  84490475.495 8
G10  21845057.965 8                  21845063.826 7 114796722.991 8                  89451898.247 7
G27  22187722.168 7                  22187730.573 7 116597352.804 7                  90855052.560 7
G32  22393871.297 8                  22393878.379 7 117680596.197 8                  91699234.633 7
R01  20259372.753 7                 108298174.739 7
R02  20326807.829 8  20326812.290 7 108467845.717 8  84363826.599 7
R17  19460874.043 8  19460878.312 7 104139280.589 8  80997077.747 7
R18  22016177.194 7  22016182.478 6 117524040.337 7  91407455.930 6
R24  21117293.423 7  21117299.063 7 112923693.243 7  87829542.602 7
> 2025 06 15 10 54 35.0000000  0 22
C19  22487270.824 7                 117097195.526 7
C20  23763243.115 7                 123741683.497 7
C22  24806408.210 5                 129173477.745 5
C29  24277079.848 4                 126417173.82314
E02  26217279.031 6  26217282.536 8 137772965.336 6 104224220.397 8
E04  25946005.933 5  25946002.128 7 136347120.970 5 103145739.314 7
E06  25468595.899 7  25468599.212 8 133838339.105 7 101247886.602 8
E11  25813208.099 6  25813207.618 7 135649365.338 6 102617819.795 7
E30  26544582.992 7  26544585.832 8 139492712.967 7 105525350.896 8
E34  25656868.528 8  25656871.838 8 134827770.675 8 101996338.342 8
E36  23560801.008 8  23560803.491 9 123812840.286 8  93663627.644 9
G01  22817938.100 7                  22817943.226 7 119909273.111 7                  93435782.549 7
G02  21284126.815 8  21284128.735 6                 111848956.861 8  87154956.899 6
G08  20633259.460 7                  20633266.628 7 108428737.289 7                  84489782.591 7
G10  21845888.736 8                  21845894.980 7 114801089.870 8                  89455301.010 7
G27  22189589.231 7                  22189597.676 7 116607162.974 7                  90862696.849 7
G32  22391236.410 8                  22391242.911 7 117666746.731 8                  91688442.864 7
R01  20259756.930 7                 108300226.881 7
R02  20323220.475 8  20323225.011 7 108448703.287 8  84348938.063 7
R17  19458892.095 8  19458896.456 8 104128673.113 8  80988827.482 8
R18  22011903.365 7  22011907.440 6 117501220.888 7  91389707.476 6
R24  21118660.347 7  21118667.848 7 112931010.990 7  87835234.188 7
> 2025 06 15 10 54 40.0000000  0 21
C19  22485125.580 7                 117086022.563 7
C20  23763986.054 7                 123745552.052 7
C22  24801990.796 4                 129150481.175 4
E02  26218580.358 6  26218584.426 8 137779806.357 6 104229395.588 8
E04  25945088.599 5  25945083.695 7 136342293.901 5 103142087.648 7
E06  25466350.711 7  25466353.971 8 133826540.318 7 101238960.903 8
E11  25814043.739 7  25814042.843 7 135653754.686 7 102621140.302 7
E30  26543608.870 7  26543611.624 8 139487593.142 7 105521477.782 8
E34  25653755.078 8  25653758.921 8 134811412.377 8 101983963.406 8
E36  23559704.973 8  23559707.417 9 123807080.297 8  93659270.246 9
G01  22814091.171 7                  22814096.049 7 119889056.704 7                  93420029.513 7
G02  21281740.933 8  21281743.032 6                 111836419.988 8  87145187.911 6
G08  20633093.740 7                  20633100.181 8 108427863.916 7                  84489102.041 8
G10  21846721.829 8                  21846727.628 7 114805466.653 8                  89458711.492 7
G27  22191458.268 7                  22191465.726 7 116616982.737 7                  90870348.602 7
G32  22388603.358 8                  22388610.294 7 117652911.882 8                  91677662.479 7
R01  20260145.268 7                 108302300.472 7
R02  20319637.132 8  20319641.521 7 108429580.132 8  84334064.502 7
R17  19456912.411 8  19456916.611 7 104118079.300 8  80980587.862 7
R18  22007628.811 7  22007633.060 6 117478405.902 7  91371962.499 6
R24  21120031.213 7  21120037.720 7 112938339.327 7  87840933.998 7
> 2025 06 15 10 54 45.0000000  0 21
C19  22482983.020 7                 117074863.617 7
C20  23764730.965 7                 123749431.895 7
C22  24797578.973 5                 129127489.268 5
E02  26219884.279 6  26219887.580 8 137786654.031 6 104234575.807 8
E04  25944173.741 5  25944167.493 7 136337479.477 5 103138445.565 7
E06  25464107.521 7  25464110.986 8 133814753.179 7 101230044.014 8
E11  25814880.162 7  25814878.758 7 135658147.408 7 102624463.369 7
E30  26542637.565 7  26542639.790 8 139482485.988 7 105517614.262 8
E34  25650642.521 8  25650646.684 8 134795057.260 8 101971590.861 8
E36  23558609.911 8  23558612.482 9 123801326.404 8  93654917.473 9
G01  22810244.248 7                  22810250.181 7 119868844.971 7                  93404280.143 7
G02  21279356.242 8  21279358.764 6                 111823891.065 8  87135425.115 6
G08  20632930.111 7                  20632937.155 7 108427006.056 7                  84488433.582 7
G10  21847556.444 8                  21847562.135 7 114809852.995 8                  89462129.427 7
G27  22193328.142 6                  22193335.956 7 116626811.660 6                  90878007.489 7
G32  22385972.653 8                  22385979.954 7 117639091.291 8                  91666893.182 7
R01  20260537.567 7                 108304395.112 7
R02  20316056.445 8  20316061.526 7 108410475.648 8  84319205.478 7
R17  19454934.548 8  19454939.780 8 104107498.949 8  80972358.704 8
R18  22003355.283 7  22003360.374 6 117455594.896 7  91354220.629 6
R24  21121404.902 7  21121410.423 7 112945678.087 7  87846641.879 7
> 2025 06 15 10 54 50.0000000  0 21
C19  22480841.632 7                 117063717.931 7
C20  23765478.044 7                 123753322.212 7
C22  24793164.849 5                 129104501.323 5
E02  26221188.633 6  26221191.751 8 137793507.473 6 104239760.378 8
E04  25943259.026 5  25943253.480 7 136332677.051 5 103134812.557 7
E06  25461866.542 8  25461870.026 9 133802976.876 8 101221135.334 9
E11  25815716.034 7  25815715.200 7 135662542.738 7 102627788.406 7
E30  26541667.978 7  26541670.161 8 139477390.691 7 105513759.722 8
E34  25647531.193 8  25647534.889 8 134778704.532 8 101959220.139 8
E36  23557515.941 8  23557518.613 9 123795577.837 8  93650568.722 9
G01  22806399.626 7                  22806404.816 7 119848637.159 7                  93388533.824 7
G02  21276973.504 8  21276976.058 6                 111811369.280 8  87125667.885 6
G08  20632769.450 7                  20632776.478 8 108426162.925 7                  84487776.598 8
G10  21848392.367 8                  21848398.290 7 114814248.099 8                  89465554.176 7
G27  22195201.137 7                  22195208.159 7 116636649.017 7                  90885672.950 7
G32  22383346.045 8                  22383352.715 7 117625284.185 8                  91656134.374 7
R01  20260932.162 7                 108306510.047 7
R02  20312479.609 8  20312484.878 7 108391388.965 8  84304360.318 7
R17  19452959.155 8  19452964.970 8 104096931.107 8  80964139.291 8
R18  21999083.274 7  21999087.253 6 117432787.204 7  91336481.300 6
R24  21122778.800 7  21122784.236 7 112953026.315 7  87852357.142 7
> 2025 06 15 10 54 55.0000000  0 21
C19  22478704.548 7                 117052585.506 7
C20  23766227.611 7                 123757223.047 7
C22  24788752.619 4                 129081517.428 4
E02  26222494.253 6  26222497.104 8 137800366.705 6 104244949.366 8
E04  25942342.111 4  25942341.848 7 136327886.549 4 103131188.547 7
E06  25459627.455 7  25459631.179 8 133791211.502 7 101212234.928 8
E11  25816552.522 7  25816552.067 7 135666940.728 7 102631115.441 7
E30  26540700.583 7  26540702.829 8 139472307.321 7 105509914.188 8
E34  25644420.021 8  25644423.564 8 134762354.231 8 101946851.252 8
E36  23556422.972 8  23556425.724 9 123789834.619 8  93646224.016 9
G01  22802554.418 7                  22802560.041 7 119828433.289 7                  93372790.562 7
G02  21274592.750 8  21274594.500 6                 111798854.723 8  87115916.280 6
G08  20632612.349 7                  20632619.130 8 108425334.561 7                  84487131.133 8
G10  21849230.576 8                  21849236.401 7 114818652.018 8                  89468985.812 7
G27  22197074.773 7                  22197081.918 7 116646494.793 7                  90893344.979 7
G32  22380721.334 8                  22380727.719 7 117611490.581 8                  91645386.126 7
R01  20261332.477 7                 108308645.240 7
R02  20308906.357 8  20308910.999 7 108372320.452 8  84289529.271 7
R17  19450987.281 8  19450991.896 7 104086375.865 8  80955929.675 7
R18  21994810.535 7  21994815.298 6 117409982.785 7  91318744.545 6
R24  21124154.930 7  21124160.460 7 112960384.052 7  87858079.827 7
> 2025 06 15 10 55  0.0000000  0 21
C19  22476568.791 7                 117041465.606 7
C20  23766979.214 7                 123761133.623 7
C22  24784334.342 4                 129058536.944 4
E02  26223799.561 6  26223803.413 8 137807231.030 6 104250142.186 8
E04  25941427.780 4  25941432.424 7 136323107.32214 103127573.00817
E06  25457390.303 7  25457394.218 9 133779456.257 7 101203342.176 9
E11  25817389.726 7  25817389.398 7 135671340.593 7 102634443.920 7
E30  26539735.081 7  26539737.565 8 139467235.095 7 105506077.097 8
E34  25641309.258 8  25641312.511 8 134746005.584 8 101934483.604 8
E36  23555331.151 8  23555333.690 9 123784095.993 8  93641882.778 9
G01  22798710.284 7                  22798716.034 7 119808232.598 7                  93357049.774 7
G02  21272211.806 8  21272214.603 6                 111786346.594 8  87106169.689 6
G08  20632456.886 7                  20632464.216 7 108424520.182 7                  84486496.560 7
G10  21850069.821 8                  21850075.910 7 114823063.960 8                  89472423.685 7
G27  22198949.626 7                  22198956.614 7 116656348.238 7                  90901022.982 7
G32  22378098.731 8                  22378104.941 7 117597709.734 8                  91634647.824 7
R01  20261734.839 7                 108310799.977 7
R02  20305336.213 8  20305341.042 7 108353269.270 8  84274711.686 7
R17  19449016.837 8  19449022.089 7 104075832.461 8  80947729.231 7
R18  21990539.840 7  21990543.575 6 117387180.854 7  91301009.753 6
R24  21125532.045 7  21125538.681 7 112967750.572 7  87863809.329 7
> 2025 06 15 10 55  5.0000000  0 20
C19  22474436.062 7                 117030359.028 7
C20  23767732.446 7                 123765054.764 7
C22  24779919.079 4                 129035560.40114
E02  26225107.483 6  26225110.869 8 137814101.214 6 104255339.443 8
E06  25455155.499 7  25455159.345 9 133767711.995 7 101194457.721 9
E11  25818227.595 7  25818227.156 7 135675743.174 7 102637774.437 7
E30  26538771.806 7  26538774.602 8 139462174.815 7 105502249.028 8
E34  25638198.874 8  25638201.918 8 134729659.420 8 101922117.845 8
E36  23554239.837 8  23554242.689 9 123778362.781 8  93637545.644 9
G01  22794867.084 7                  22794872.412 7 119788035.907 7                  93341312.094 7
G02  21269833.133 8  21269835.257 6                 111773845.722 8  87096428.745 6
G08  20632305.311 7                  20632312.362 7 108423720.614 7                  84485873.527 7
G10  21850911.461 8                  21850916.895 7 114827484.716 8                  89475868.431 7
G27  22200826.306 7                  22200833.242 7 116666210.135 7                  90908707.557 7
G32  22375478.012 8                  22375485.053 7 117583942.486 8                  91623920.106 7
R01  20262141.577 7                 108312975.061 7
R02  20301770.134 8  20301774.510 7 108334236.110 8  84259908.087 7
R17  19447049.248 8  19447053.986 8 104065301.860 8  80939538.772 8
R18  21986268.690 8  21986272.883 6 117364382.374 8  91283277.594 6
R24  21126912.411 8  21126917.674 7 112975126.621 8  87869546.229 7
> 2025 06 15 10 55 10.0000000  0 21
C19  22472306.744 7                 117019266.838 7
C20  23768487.926 7                 123768987.483 7
C22  24775507.800 4                 129012589.10614
E02  26226416.039 6  26226419.465 8 137820978.296 6 104260541.888 8
E04  25939638.604 4                                
E06  25452922.912 7  25452926.760 9 133755979.757 7 101185582.365 9
E11  25819066.021 7  25819065.706 7 135680149.500 7 102641107.791 7
E30  26537811.691 7  26537814.058 8 139457127.573 7 105498430.823 8
E34  25635088.826 8  25635091.995 8 134713316.788 8 101909754.749 8
E36  23553150.548 8  23553152.946 9 123772636.024 8  93633213.384 9
G01  22791024.743 7                  22791030.211 7 119767844.272 7                  93325578.350 7
G02  21267455.674 8  21267457.572 6                 111761353.157 8  87086694.283 6
G08  20632155.782 7                  20632162.747 7 108422936.887 7                  84485262.833 7
G10  21851754.760 7                  21851760.269 7 114831915.337 7                  89479320.853 7
G27  22202705.323 7                  22202711.622 7 116676081.524 7                  90916399.528 7
G32  22372860.797 8                  22372867.986 7 117570189.913 8                  91613203.782 7
R01  20262552.737 8                 108315171.445 8
R02  20298207.221 8  20298211.312 7 108315222.099 8  84245119.425 7
R17  19445083.302 8  19445088.633 7 104054784.950 8  80931358.981 7
R18  21981998.973 8  21982002.293 6 117341588.377 8  91265548.934 6
R24  21128293.461 8  21128298.718 7 112982513.385 8  87875291.466 7
> 2025 06 15 10 55 15.0000000  0 21
C19  22470179.214 7                 117008189.289 7
C20  23769244.735 7                 123772932.008 7
C22  24771098.185 4                 128989623.09614
E02  26227725.379 6  26227729.474 8 137827862.533 6 104265749.758 8
E04  25938739.591 4  25938718.414 7 136308864.81714 103116785.40917
E06  25450692.950 7  25450696.470 9 133744259.790 7 101176716.288 9
E11  25819905.243 7  25819904.945 7 135684559.808 7 102644444.161 7
E30  26536853.343 7  26536856.098 8 139452093.556 7 105494622.641 8
E34  25631979.584 8  25631982.827 8 134696977.938 8 101897394.529 8
E36  23552061.761 8  23552064.449 9 123766915.970 8  93628886.203 9
G01  22787183.481 7                  22787189.013 7 119747657.976 7                  93309848.773 7
G02  21265079.842 7  21265081.567 6                 111748869.184 7  87076966.505 6
G08  20632009.822 7                  20632016.969 8 108422169.289 7                  84484664.679 8
G10  21852599.657 8                  21852605.334 7 114836356.082 8                  89482781.158 7
G27  22204585.528 7                  22204591.968 7 116685962.682 7                  90924099.105 7
G32  22370247.252 7                  22370253.927 7 117556452.231 7                  91602499.104 7
R01  20262968.014 7                 108317389.377 7
R02  20294647.068 8  20294651.390 7 108296227.565 8  84230345.919 7
R17  19443121.396 8  19443125.581 7 104044282.045 8  80923190.034 7
R18  21977729.014 8  21977732.870 6 117318799.006 8  91247823.857 6
R24  21129677.384 8  21129682.500 7 112989911.004 8  87881045.167 7
> 2025 06 15 10 55 20.0000000  0 21
C19  22468054.209 7                 116997126.313 7
C20  23770005.411 7                 123776888.285 7
C22  24766689.747 5                 128966662.443 5
E02  26229037.724 6  26229040.814 8 137834753.825 6 104270962.984 8
E04  25937839.027 4  25937818.808 7 136304136.999 4 103113208.896 7
E06  25448464.431 7  25448468.477 8 133732552.044 7 101167859.465 8
E11  25820745.437 7  25820744.950 7 135688974.068 7 102647783.520 7
E30  26535897.488 7  26535900.629 8 139447072.762 7 105490824.455 8
E34  25628871.040 8  25628874.370 8 134680642.796 8 101885037.108 8
E36  23550974.646 8  23550977.249 9 123761202.566 8  93624564.055 9
G01  22783343.235 7                  22783348.617 7 119727476.937 7                  93294123.312 7
G02  21262706.242 8  21262707.616 6                 111736393.695 8  87067245.350 6
G08  20631866.330 7                  20631873.865 8 108421417.696 7                  84484079.012 8
G10  21853446.660 8                  21853452.114 7 114840806.864 8                  89486249.314 7
G27  22206468.148 7                  22206474.828 7 116695853.496 7                  90931806.221 7
G32  22367635.989 7                  22367643.417 7 117542729.421 7                  91591806.018 7
R01  20263385.623 7                 108319628.961 7
R02  20291091.370 8  20291095.918 7 108277252.431 8  84215587.478 7
R17  19441161.663 8  19441165.879 7 104033793.068 8  80915031.939 7
R18  21973460.265 8  21973465.183 6 117296014.302 8  91230102.449 6
R24  21131063.343 8  21131067.364 7 112997319.509 8  87886807.332 7
> 2025 06 15 10 55 25.0000000  0 23
C19  22465932.165 7                 116986077.456 7
C20  23770767.754 7                 123780855.851 7
C22  24762282.078 5                 128943706.729 5
E02  26230350.050 6  26230353.435 8 137841651.745 6 104276181.209 8
E04  25936931.472 4                                
E06  25446239.181 7  25446242.753 8 133720856.063 7 101159011.540 8
E09  25973574.160 6  25973579.280 6 136492054.56416 103255374.84316
E11  25821586.259 7  25821585.651 7 135693391.796 7 102651125.487 7
E30  26534944.086 7  26534947.623 8 139442064.734 7 105487035.905 8
E34  25625763.050 8  25625766.540 8 134664310.939 8 101872682.177 8
E36  23549888.592 8  23549891.178 9 123755495.357 8  93620246.581 9
G01  22779503.466 7                  22779509.431 7 119707300.703 7                  93278401.591 7
G02  21260333.481 8  21260335.362 6                 111723926.232 8  87057530.438 6
G08  20631726.390 7                  20631733.762 8 108420681.689 7                  84483505.504 8
G10  21854295.293 8                  21854301.332 7 114845267.241 8                  89489724.930 7
G27  22208350.872 7                  22208358.541 7 116705753.519 7                  90939520.513 7
G32  22365027.207 8                  22365034.797 7 117529020.997 8                  91581124.122 7
R01  20263808.382 7                 108321889.682 7
R02  20287538.373 8  20287543.333 7 108258296.170 8  84200843.743 7
R16  22738029.097 4                 121462599.57314
R17  19439203.297 8  19439208.189 7 104023317.600 8  80906884.366 7
R18  21969192.891 8  21969197.229 6 117273233.854 8  91212384.315 6
R24  21132449.742 8  21132455.267 7 113004738.390 8  87892577.558 7
> 2025 06 15 10 55 30.0000000  0 23
C19  22463813.378 7                 116975042.175 7
C20  23771532.288 7                 123784834.172 7
C22  24757874.127 5                 128920755.406 5
E02  26231664.261 6  26231667.248 8 137848555.754 6 104281404.016 8
E04  25936028.678 5  25936026.701 6 136294719.24915 103106084.52216
E06  25444015.642 7  25444019.178 8 133709171.326 7 101150172.124 8
E09  25970256.918 6  25970262.839 6 136474628.295 6 103242192.028 6
E11  25822427.810 7  25822426.951 7 135697812.453 7 102654469.681 7
E30  26533993.453 7  26533996.931 8 139437068.917 7 105483256.588 8
E34  25622655.515 8  25622659.190 8 134647981.801 8 101860329.309 8
E36  23548803.535 8  23548806.224 9 123749793.798 8  93615933.396 9
G01  22775665.169 7                  22775670.855 7 119687128.753 7                  93262683.199 7
G02  21257962.732 8  21257964.362 6                 111711466.302 8  87047821.398 6
G08  20631589.172 7                  20631596.858 8 108419960.726 7                  84482943.723 8
G10  21855145.843 8                  21855152.085 7 114849736.627 8                  89493207.565 7
G27  22210237.273 7                  22210244.133 7 116715662.190 7                  90947241.534 7
G32  22362421.052 7                  22362428.833 7 117515326.466 7                  91570453.040 7
R01  20264235.213 7                 108324170.756 7
R02  20283989.298 8  20283994.141 7 108239358.416 8  84186114.411 7
R16  22738612.507 4                 121465725.020 4
R17  19437248.588 8  19437252.977 7 104012855.089 8  80898746.879 7
R18  21964926.304 8  21964931.390 6 117250457.063 8  91194668.994 6
R24  21133838.682 7  21133844.401 7 113012166.929 7  87898355.272 7
> 2025 06 15 10 55 35.0000000  0 23
C19  22461696.716 7                 116964020.409 7
C20  23772297.735 7                 123788823.150 7
C22  24753468.340 5                 128897808.354 5
E02  26232979.302 6  26232982.141 8 137855465.722 6 104286631.335 8
E04  25935132.016 5  25935134.131 6 136290028.568 5 103102536.139 6
E06  25441793.596 7  25441797.674 8 133697497.722 7 101141341.130 8
E09  25966942.083 6  25966948.115 6 136457210.070 6 103229015.263 6
E11  25823269.334 7  25823268.792 7 135702236.004 7 102657816.057 7
E30  26533044.822 7  26533048.497 8 139432085.183 7 105479486.430 8
E34  25619548.591 8  25619552.380 8 134631655.299 8 101847978.435 8
E36  23547719.435 8  23547722.303 9 123744097.797 8  93611624.404 9
G01  22771826.808 7                  22771833.389 7 119666960.988 7                  93246968.042 7
G02  21255592.915 8  21255594.923 6                 111699013.776 8  87038118.141 6
G08  20631455.060 7                  20631462.215 7 108419254.693 7                  84482393.564 7
G10  21855998.179 8                  21856004.514 7 114854214.940 8                  89496697.160 7
G27  22212123.592 7                  22212131.476 7 116725579.419 7                  90954969.219 7
G32  22359817.998 8                  22359825.334 7 117501645.722 8                  91559792.720 7
R01  20264665.273 7                 108326472.343 7
R02  20280444.007 8  20280448.232 7 108220438.855 8  84171399.197 7
R16  22739207.677 4  22739237.514 4 121468869.171 4  94475830.73114
R17  19435295.148 8  19435300.119 7 104002405.556 8  80890619.451 7
R18  21960660.504 8  21960664.571 6 117227683.846 8  91176956.511 6
R24  21135229.757 7  21135235.120 7 113019605.295 7  87904140.653 7
> 2025 06 15 10 55 40.0000000  0 22
C19  22459582.743 7                 116953013.170 7
C20  23773066.462 7                 123792823.792 7
C22  24749062.530 5                 128874866.593 5
E02  26234294.621 6  26234298.354 8 137862382.657 6 104291863.935 8
E04  25934241.588 5  25934244.110 6 136285351.185 5 103098997.729 6
E06  25439574.890 7  25439578.523 8 133685836.328 7 101132519.363 8
E09  25963629.118 6  25963635.393 6 136439800.774 6 103215845.276 6
E11  25824111.946 7  25824111.341 7 135706663.429 7 102661165.369 7
E30  26532099.439 7  26532102.574 8 139427114.614 7 105475726.224 8
E34  25616442.691 8  25616446.288 8 134615332.493 8 101835630.353 8
E36  23546636.589 8  23546639.624 9 123738408.390 8  93607320.417 9
G01  22767989.965 7                  22767996.126 7 119646798.444 7                  93231256.979 7
G02  21253225.039 8  21253226.919 6                 111686569.724 8  87028421.498 6
G08  20631323.972 7                  20631331.167 8 108418564.627 7                  84481855.857 8
G10  21856852.031 8                  21856858.515 7 114858703.198 8                  89500194.501 7
G27  22214012.822 7                  22214020.511 7 116735506.241 7                  90962704.403 7
G32  22357217.869 8                  22357224.851 7 117487979.816 8                  91549143.987 7
R01  20265100.483 7                 108328795.284 7
R02  20276902.329 8  20276906.935 7 108201538.906 8  84156699.259 7
R17  19433344.999 8  19433350.195 7 103991969.829 8  80882502.769 7
R18  21956395.085 8  21956398.884 6 117204915.292 8  91159247.625 6
R24  21136621.892 7  21136628.386 7 113027054.265 7  87909934.253 7
> 2025 06 15 10 55 45.0000000  0 22
C19  22457471.657 7                 116942020.106 7
C20  23773837.452 7                 123796835.733 7
C22  24744659.027 6                 128851929.804 6
E02  26235613.064 6  26235615.764 8 137869306.196 6 104297101.538 8
E04  25933353.750 5  25933356.472 6 136280686.589 5 103095468.983 6
E06  25437358.458 7  25437361.600 8 133674186.765 7 101123706.551 8
E09  25960318.209 6  25960324.263 6 136422400.147 6 103202681.837 6
E11  25824955.084 7  25824954.518 7 135711094.355 7 102664517.337 7
E30  26531156.275 7  26531159.112 8 139422156.817 7 105471975.680 8
E34  25613336.481 7  25613340.817 8 134599012.984 7 101823284.768 8
E36  23545555.057 8  23545558.138 9 123732725.228 8  93603021.139 9
G01  22764153.931 7                  22764160.394 7 119626640.772 7                  93215549.724 7
G02  21250858.582 8  21250860.955 6                 111674133.782 8  87018731.158 6
G08  20631195.136 7                  20631202.766 8 108417890.177 7                  84481330.301 8
G10  21857708.218 8                  21857714.219 7 114863201.052 8                  89503699.329 7
G27  22215904.181 7                  22215911.343 7 116745442.234 7                  90970446.725 7
G32  22354619.709 8                  22354626.807 7 117474328.366 8                  91538506.519 7
R01  20265540.604 7                 108331139.378 7
R02  20273363.975 8  20273368.407 7 108182657.739 8  84142013.931 7
R17  19431397.586 8  19431401.983 7 103981547.702 8  80874396.659 7
R18  21952130.356 8  21952135.133 6 117182151.005 8  91141542.105 6
R24  21138017.479 7  21138023.263 7 113034513.707 7  87915736.017 7
