     3.04           OBSERVATION DATA    Mixed(MIXED)        RINEX VERSION / TYPE
cnvtToRINEX 3.14.0  convertToRINEX OPR  20250615 162727 UTC PGM / RUN BY / DATE 
----------------------------------------------------------- COMMENT             
35.1B                                                       MARKER NAME         
35.1B                                                       MARKER NUMBER       
GEODETIC                                                    MARKER TYPE         
GNSS Observer       Trimble                                 OBSERVER / AGENCY   
6203S17886          Geo Explorer 3      5.53                REC # / TYPE / VERS 
                    UNKNOWN EXT     NONE                    ANT # / TYPE        
  3913458.4064  1190449.2685  4878209.1893                  APPROX POSITION XYZ 
        1.4350        0.0000        0.0000                  ANTENNA: DELTA H/E/N
G    6 C1C C2W C2X L1C L2W L2X                              SYS / # / OBS TYPES 
R    4 C1C C2C L1C L2C                                      SYS / # / OBS TYPES 
C    4 C2I C7I L2I L7I                                      SYS / # / OBS TYPES 
E    4 C1X C8X L1X L8X                                      SYS / # / OBS TYPES 
     5.000                                                  INTERVAL            
  2025     6    15     9    40   50.0000000     GPS         TIME OF FIRST OBS   
  2025     6    15    10    40   20.0000000     GPS         TIME OF LAST OBS    
     0                                                      RCV CLOCK OFFS APPL 
  9 R01  1 R02 -4 R08  6 R14 -7 R15  0 R16 -1 R17  4 R18 -3 GLONASS SLOT / FRQ #
    R24  2                                                  GLONASS SLOT / FRQ #
G L2X -0.25000                                              SYS / PHASE SHIFT   
R L2C -0.25000                                              SYS / PHASE SHIFT   
    18                                                      LEAP SECONDS        
    31                                                      # OF SATELLITES     
   C13   458   458   458   458                              PRN / # OF OBS      
   C19   459     0   459     0                              PRN / # OF OBS      
   C20   459     0   459     0                              PRN / # OF OBS      
   C26    61     0    61     0                              PRN / # OF OBS      
   C29   459     0   459     0                              PRN / # OF OBS      
   E02   459   459   459   459                              PRN / # OF OBS      
   E04     1     1     1     1                              PRN / # OF OBS      
   E06     1     1     1     1                              PRN / # OF OBS      
   E10   176   167   174   167                              PRN / # OF OBS      
   E11   459   459   459   459                              PRN / # OF OBS      
   E25   237   237   237   237                              PRN / # OF OBS      
   E30   449   442   447   442                              PRN / # OF OBS      
   E34   212   207   210   207                              PRN / # OF OBS      
   E36   459   459   459   459                              PRN / # OF OBS      
   G01    39     0    39    39     0    39                  PRN / # OF OBS      
   G02   459   459     0   459   459     0                  PRN / # OF OBS      
   G08   459     0   459   459     0   459                  PRN / # OF OBS      
   G10   459     0   459   459     0   459                  PRN / # OF OBS      
   G16   238   229     0   235   229     0                  PRN / # OF OBS      
   G23   287     0   258   275     0   258                  PRN / # OF OBS      
   G27   459     0   459   459     0   459                  PRN / # OF OBS      
   G32     8     0     5     7     0     5                  PRN / # OF OBS      
   R01   459     0   459     0                              PRN / # OF OBS      
   R02   237   234   235   232                              PRN / # OF OBS      
   R08   441   423   439   418                              PRN / # OF OBS      
   R14    49    49    49    49                              PRN / # OF OBS      
   R15   451   442   448   439                              PRN / # OF OBS      
   R16   454   441   453   438                              PRN / # OF OBS      
   R17   459   459   459   459                              PRN / # OF OBS      
   R18     1     1     1     1                              PRN / # OF OBS      
   R24   459   459   459   459                              PRN / # OF OBS      
DBHZ                                                        SIGNAL STRENGTH UNIT
                                                            END OF HEADER       
>                              2  1
              *** Start of Kinematic Data ***               COMMENT             
> 2025 06 15 09 40 50.0000000  0 24
C13  38339059.410 6  38339064.080 6 199641557.84416 154375521.26416
C19  24117620.271 7                 125586837.75417
C20  22898836.982 7                 119240318.79017
C26  25578029.261 5                 133191420.57415
C29  22172563.657 7                 115458595.28817
E02  24519228.259 7  24519229.445 8 128849383.37317  97473751.11618
E10  26058354.032 7  26058356.660 8 136937618.65817 103592391.55818
E11  24150208.391 7  24150206.690 8 126910214.68317  96006734.31418
E25  26210446.269 7  26210451.116 8 137736864.40717 104197025.90018
E30  27109792.267 6  27109796.383 5 142462919.25016 107772288.35515
E36  23774842.838 8  23774845.397 8 124937642.37318  94514522.36518
G02  22713350.083 5  22713353.412 2                 119359472.08115  93007368.87912
G08  20722449.430 8                  20722455.461 7 108897440.64218                  84854998.19217
G10  20785378.316 8                  20785384.354 7 109227983.94918                  85112675.85917
G16  23503868.258 6  23503876.147 4                 123513618.23416  96244426.94614
G23  22014778.356 7                  22014783.732 7 115688440.19217                  90146858.78117
G27  20196071.183 8                  20196077.678 8 106131200.41418                  82699546.35418
R01  20381326.552 7                 108950038.77917
R08  21359127.796 7  21359133.188 7 114377250.87017  88960030.91117
R14  23355582.526 7  23355589.922 6 124498339.22917  96832120.70916
R15  21500958.347 6  21500961.858 6 114894607.10116  89362484.60716
R16  22616329.438 7  22616335.873 6 120812399.63817  93965201.94816
R17  20809590.753 7  20809596.818 7 111356475.06317  86610503.25117
R24  19511679.718 8  19511682.881 7 104337851.91518  81151572.26517
> 2025 06 15 09 40 55.0000000  0 24
C13  38338827.265 6  38338831.211 6 199640348.069 6 154374585.796 6
C19  24113557.810 7                 125565685.897 7
C20  22897227.882 7                 119231938.156 7
C26  25579071.885 5                 133196844.988 5
C29  22172972.523 7                 115460726.599 7
E02  24518897.213 7  24518898.030 8 128847641.785 7  97472433.612 8
E10  26059362.254 7  26059364.316 7 136942914.359 7 103596397.703 7
E11  24150377.777 7  24150375.760 8 126911103.663 7  96007406.840 8
E25  26212164.738 7  26212169.318 8 137745893.708 7 104203856.474 8
E30  27106870.825 5  27106883.994 5 142447565.780 5 107760673.02115
E36  23772745.334 8  23772747.322 9 124926617.001 8  94506181.738 9
G02  22709867.559 5  22709869.246 2                 119341164.968 5  92993103.722 2
G08  20719788.251 8                  20719794.525 7 108883457.487 8                  84844102.231 7
G10  20784074.820 8                  20784081.172 8 109221135.344 8                  85107339.291 8
G16  23506187.303 7  23506194.578 4                 123525800.797 7  96253919.828 4
G23  22016041.963 7                  22016047.479 7 115695079.421 7                  90152032.175 7
G27  20195840.181 8                  20195846.383 8 106129986.203 8                  82698600.230 8
R01  20377986.704 7                 108932183.168 7
R08  21359817.598 7  21359824.076 7 114380952.548 7  88962910.030 7
R14  23358347.146 6  23358356.761 5 124513084.539 6  96843589.218 5
R15  21501489.242 5  21501492.759 6 114897441.370 5  89364689.000 6
R16  22613317.885 7  22613323.469 6 120796310.373 7  93952688.110 6
R17  20805997.715 8  20806002.535 7 111337241.008 8  86595543.386 7
R24  19511193.399 8  19511197.237 7 104335253.228 8  81149551.077 7
>                              3  5
              *** Start of Occupation ***                   COMMENT             
35.1B                                                       MARKER NAME         
35.1B                                                       MARKER NUMBER       
  3913458.4064  1190449.2685  4878209.1893                  APPROX POSITION XYZ 
        1.4350        0.0000        0.0000                  ANTENNA: DELTA H/E/N
> 2025 06 15 09 41  0.0000000  0 24
C13  38338595.347 6  38338598.957 6 199639138.540 6 154373650.544 6
C19  24109498.368 7                 125544540.562 7
C20  22895620.960 7                 119223571.592 7
C26  25580118.802 5                 133202276.260 5
C29  22173383.512 7                 115462864.772 7
E02  24518568.538 7  24518568.653 8 128845911.426 7  97471124.579 8
E10  26060369.857 7  26060372.159 7 136948211.360 7 103600404.873 7
E11  24150547.396 7  24150545.711 8 126911996.577 7  96008082.338 8
E25  26213883.225 7  26213888.267 8 137754926.184 7 104210689.485 8
E30  27103951.451 5  27103963.821 5 142432220.876 5 107749064.75415
E36  23770647.819 8  23770650.340 8 124915596.784 8  94497845.023 8
G02  22706386.096 6  22706385.985 2                 119322862.205 6  92978841.823 2
G08  20717129.606 8                  20717135.778 7 108869486.090 8                  84833215.429 7
G10  20782774.363 7                  20782780.591 7 109214300.737 7                  85102013.630 7
G16  23508505.911 6  23508513.969 3                 123537986.929 6  96263415.526 3
G23  22017306.764 7                  22017312.159 7 115701727.842 7                  90157212.811 7
G27  20195611.757 7                  20195618.347 8 106128785.746 7                  82697664.799 8
R01  20374650.657 7                 108914346.408 7
R08  21360513.853 7  21360518.735 7 114384673.725 7  88965804.270 7
R14  23361114.037 5  23361123.280 5 124527832.666 5  96855059.998 5
R15  21502023.717 6  21502027.407 6 114900294.939 6  89366908.445 6
R16  22610310.560 6  22610314.488 6 120780239.983 6  93940188.854 6
R17  20802403.754 7  20802409.415 7 111318012.549 7  86580587.939 7
R24  19510709.272 8  19510713.158 7 104332665.218 8  81147538.185 7
> 2025 06 15 09 41  5.0000000  0 23
C13  38338362.869 6  38338367.022 6 199637929.838 6 154372715.881 6
C19  24105437.928 6                 125523402.321 6
C20  22894017.259 7                 119215219.599 7
C29  22173795.253 7                 115465010.358 7
E02  24518241.106 7  24518241.470 8 128844192.524 7  97469824.237 8
E10  26061378.830 7  26061380.464 7 136953510.099 7 103604413.351 7
E11  24150718.962 7  24150716.586 8 126912893.935 7  96008761.170 8
E25  26215603.326 7  26215608.003 8 137763962.380 7 104217525.289 8
E30  27101035.372 4  27101045.284 4 142416884.913 4 107737463.210 4
E36  23768551.722 8  23768554.362 8 124904582.088 8  94489512.484 8
G02  22702903.178 6  22702904.452 3                 119304564.354 6  92964583.769 3
G08  20714473.538 7                  20714479.522 7 108855526.800 7                  84822338.058 7
G10  20781475.935 7                  20781482.419 7 109207480.614 7                  85096699.271 7
G16  23510826.567 6  23510833.672 3                 123550176.967 6  96272914.227 3
G23  22018573.795 7                  22018579.084 7 115708386.014 7                  90162401.008 7
G27  20195386.743 8                  20195392.377 8 106127599.431 8                  82696740.386 8
R01  20371316.707 7                 108896529.131 7
R08  21361212.943 7  21361217.398 7 114388414.771 7  88968713.982 7
R14  23363890.793 5  23363890.049 5 124542584.111 5  96866533.337 5
R15  21502559.543 6  21502564.334 5 114903167.873 6  89369142.979 5
R16  22607306.063 7  22607309.399 6 120764188.955 7  93927704.763 6
R17  20798813.296 7  20798816.877 7 111298790.297 7  86565637.291 7
R24  19510227.688 8  19510232.037 7 104330088.384 8  81145533.955 7
> 2025 06 15 09 41 10.0000000  0 24
C13  38338131.154 6  38338134.860 6 199636722.179 6 154371782.007 6
C19  24101380.209 7                 125502271.531 7
C20  22892416.593 7                 119206882.559 7
C26  25582206.146 5                 133213156.87615
C29  22174208.488 7                 115467163.650 7
E02  24517915.360 8  24517916.768 8 128842485.396 8  97468532.825 8
E10  26062386.966 7  26062389.091 7 136958810.971 7 103608423.388 7
E11  24150890.822 7  24150887.945 8 126913796.080 7  96009443.601 8
E25  26217323.341 7  26217327.969 8 137773002.515 7 104224364.050 8
E30  27098112.749 5  27098128.630 5 142401558.36815 107725868.77915
E36  23766457.240 8  23766459.311 9 124893573.211 8  94481184.345 9
G02  22699421.530 6  22699423.503 3                 119286271.618 6  92950329.608 3
G08  20711818.935 8                  20711825.296 7 108841579.930 8                  84811470.372 7
G10  20780182.027 8                  20780188.155 8 109200675.334 8                  85091396.439 8
G16  23513146.167 7  23513153.949 4                 123562371.228 7  96282416.202 4
G23  22019842.786 7                  22019848.369 7 115715054.279 7                  90167597.014 7
G27  20195163.174 8                  20195169.300 7 106126427.645 8                  82695827.306 7
R01  20367987.820 7                 108878731.896 7
R08  21361914.674 7  21361919.584 7 114392175.979 7  88971639.342 7
R14  23366648.209 7  23366657.676 6 124557339.164 7  96878009.292 6
R15  21503101.616 6  21503105.733 6 114906060.790 6  89371392.920 6
R16  22604303.805 7  22604309.483 7 120748157.693 7  93915235.994 7
R17  20795221.105 8  20795225.738 7 111279574.362 8  86550691.583 7
R24  19509747.905 8  19509751.538 7 104327523.143 8  81143538.749 7
> 2025 06 15 09 41 15.0000000  0 24
C13  38337899.924 6  38337903.266 6 199635515.704 6 154370849.095 6
C19  24097323.839 7                 125481148.175 7
C20  22890818.768 7                 119198560.438 7
C26  25583252.400 5                 133218610.608 5
C29  22174623.322 7                 115469324.652 7
E02  24517593.269 7  24517594.224 8 128840790.334 7  97467250.521 8
E10  26063396.605 7  26063398.124 7 136964113.989 7 103612435.070 7
E11  24151062.962 7  24151060.459 8 126914702.979 7  96010129.663 8
E25  26219044.673 7  26219048.878 8 137782046.701 7 104231205.881 8
E30  27095201.030 5  27095213.777 4 142386241.166 5 107714281.44314
E36  23764363.212 8  23764365.539 9 124882570.377 8  94472860.765 9
G02  22695940.887 6  22695943.034 3                 119267984.246 6  92936079.747 3
G08  20709167.392 8                  20709173.959 7 108827645.688 8                  84800612.536 7
G10  20778889.669 8                  20778895.885 8 109193884.895 8                  85086105.193 8
G16  23515466.928 7  23515475.499 4                 123574569.823 7  96291921.571 4
G23  22021113.049 7                  22021119.892 7 115721732.596 7                  90172800.906 7
G27  20194942.660 8                  20194948.831 8 106125270.476 8                  82694925.610 8
R01  20364661.753 7                 108860954.546 7
R08  21362621.750 8  21362625.181 7 114395957.444 8  88974580.437 7
R14  23369418.666 7  23369426.320 6 124572097.682 7  96889488.134 6
R15  21503646.279 6  21503650.788 6 114908973.516 6  89373658.446 6
R16  22601306.360 7  22601311.580 6 120732146.253 7  93902782.665 6
R17  20791631.382 8  20791636.269 7 111260365.029 8  86535751.008 7
R24  19509269.691 8  19509273.864 7 104324969.385 8  81141552.498 7
> 2025 06 15 09 41 20.0000000  0 24
C13  38337668.514 6  38337672.115 6 199634310.242 6 154369916.964 6
C19  24093268.438 7                 125460032.227 7
C20  22889223.278 7                 119190253.153 7
C26  25584301.287 5                 133224072.031 5
C29  22175039.608 7                 115471493.341 7
E02  24517272.648 7  24517273.899 8 128839107.144 7  97465977.194 8
E10  26064405.891 7  26064407.550 7 136969419.057 7 103616448.318 7
E11  24151236.482 7  24151233.980 8 126915614.630 7  96010819.321 8
E25  26220766.533 7  26220770.829 8 137791094.932 7 104238050.797 8
E30  27092287.491 5  27092300.527 4 142370933.374 5 107702701.259 4
E36  23762270.631 8  23762272.939 9 124871573.381 8  94464541.625 9
G02  22692461.414 6  22692464.499 3                 119249702.040 6  92921833.872 3
G08  20706517.637 8                  20706524.747 7 108813723.964 8                  84789764.424 7
G10  20777599.757 8                  20777606.381 8 109187109.274 8                  85080825.465 8
G16  23517790.180 7  23517797.180 4                 123586772.682 7  96301430.257 4
G23  22022385.924 7                  22022392.235 7 115728420.900 7                  90178012.538 7
G27  20194725.117 8                  20194731.652 8 106124127.775 8                  82694035.210 8
R01  20361339.098 7                 108843197.017 7
R08  21363331.331 7  21363335.248 7 114399758.977 7  88977537.222 7
R14  23372187.466 6  23372196.152 6 124586859.651 6  96900969.669 6
R15  21504194.208 6  21504199.039 6 114911906.323 6  89375939.524 6
R16  22598311.318 7  22598318.610 6 120716154.541 7  93890344.639 6
R17  20788042.717 7  20788047.345 7 111241162.155 7  86520815.432 7
R24  19508794.717 8  19508798.732 7 104322427.231 8  81139575.260 7
> 2025 06 15 09 41 25.0000000  0 24
C13  38337436.827 6  38337440.707 6 199633105.251 6 154368985.177 6
C19  24089215.269 7                 125438923.096 7
C20  22887629.997 7                 119181960.186 7
C26  25585351.225 5                 133229540.311 5
C29  22175457.621 7                 115473669.145 7
E02  24516954.670 7  24516955.815 8 128837435.252 7  97464712.403 8
E10  26065415.524 7  26065417.112 7 136974725.613 7 103620462.691 7
E11  24151410.549 7  24151408.297 8 126916530.425 7  96011512.116 8
E25  26222488.204 7  26222493.138 8 137800146.518 7 104244898.225 8
E30  27089375.927 5  27089388.851 4 142355634.396 5 107691127.608 4
E36  23760179.230 8  23760181.296 9 124860581.718 8  94456226.509 9
G02  22688985.553 6  22688986.380 3                 119231424.524 6  92907591.715 3
G08  20703871.245 8                  20703877.697 7 108799814.167 8                  84778925.609 7
G10  20776313.569 8                  20776319.643 8 109180347.848 8                  85075556.838 8
G16  23520113.139 7  23520120.076 4                 123598979.134 7  96310941.746 4
G23  22023660.805 7                  22023667.100 7 115735118.597 7                  90183231.521 7
G27  20194510.638 8                  20194516.895 8 106122999.038 8                  82693155.658 8
R01  20358022.005 7                 108825458.863 7
R08  21364044.673 8  21364048.781 7 114403580.063 8  88980509.193 7
R14  23374958.145 7  23374965.629 6 124601624.554 7  96912453.395 6
R15  21504746.722 6  21504751.278 6 114914858.209 6  89378235.426 6
R16  22595321.962 7  22595327.900 6 120700182.013 7  93877921.552 6
R17  20784454.410 8  20784460.128 7 111221965.205 8  86505884.490 7
R24  19508321.522 8  19508325.117 7 104319895.967 8  81137606.505 7
> 2025 06 15 09 41 30.0000000  0 24
C13  38337206.018 6  38337209.416 6 199631901.824 6 154368054.619 6
C19  24085162.501 7                 125417821.915 7
C20  22886040.581 7                 119173682.579 7
C26  25586403.008 5                 133235016.568 5
C29  22175876.775 7                 115475853.095 7
E02  24516639.117 8  24516640.080 8 128835775.695 8  97463456.951 8
E10  26066425.804 7  26066427.390 7 136980034.756 7 103624479.016 7
E11  24151585.560 7  24151583.675 8 126917451.465 7  96012208.878 8
E25  26224211.735 7  26224216.460 8 137809202.545 7 104251749.059 8
E30  27086468.345 5  27086478.706 5 142340345.218 5 107679561.477 5
E36  23758088.393 8  23758090.758 9 124849596.430 8  94447916.218 9
G02  22685507.167 6  22685508.809 3                 119213152.670 6  92893353.918 3
G08  20701226.417 8                  20701233.464 7 108785917.388 8                  84768096.958 7
G10  20775029.864 8                  20775036.050 8 109173601.725 8                  85070300.133 8
G16  23522435.639 7  23522443.525 4                 123611190.277 7  96320456.905 4
G23  22024936.871 7                  22024943.367 7 115741826.791 7                  90188458.679 7
G27  20194298.746 8                  20194304.745 8 106121885.292 8                  82692287.804 8
R01  20354707.469 7                 108807741.061 7
R08  21364761.550 7  21364766.101 7 114407421.916 7  88983497.263 7
R14  23377728.066 7  23377736.952 6 124616393.375 7  96923940.269 6
R15  21505305.094 7  21505307.913 6 114917830.540 7  89380547.198 6
R16  22592336.574 6  22592341.875 6 120684229.892 6  93865514.329 6
R17  20780868.340 8  20780874.199 7 111202775.251 8  86490958.973 7
R24  19507850.469 8  19507853.910 7 104317376.704 8  81135647.086 7
> 2025 06 15 09 41 35.0000000  0 24
C13  38336975.219 6  38336978.356 6 199630699.463 6 154367124.866 6
C19  24081110.751 6                 125396728.192 6
C20  22884453.333 7                 119165419.884 7
C26  25587454.931 5                 133240500.436 5
C29  22176297.523 7                 115478044.771 7
E02  24516326.306 8  24516326.542 8 128834128.044 8  97462210.515 8
E10  26067436.448 7  26067438.094 7 136985345.969 7 103628496.904 7
E11  24151762.091 7  24151759.885 8 126918377.258 7  96012909.230 8
E25  26225935.304 7  26225940.614 8 137818262.549 7 104258602.885 8
E30  27083561.601 5  27083570.523 5 142325065.498 5 107668002.458 5
E36  23755999.086 8  23756001.421 9 124838617.051 8  94439610.390 9
G02  22682031.312 6  22682032.845 3                 119194886.145 6  92879120.234 3
G08  20698584.361 8                  20698591.157 7 108772033.169 8                  84757278.082 7
G10  20773748.611 8                  20773755.258 8 109166870.421 8                  85065054.960 8
G16  23524760.656 7  23524767.875 4                 123623405.614 7  96329975.335 4
G23  22026215.537 7                  22026221.534 7 115748544.955 7                  90193693.613 7
G27  20194089.450 8                  20194095.857 8 106120786.089 8                  82691431.288 8
R01  20351396.458 7                 108790043.104 7
R08  21365484.216 8  21365488.334 7 114411283.813 8  88986500.912 7
R14  23380499.677 7  23380508.195 6 124631165.704 7  96935429.790 6
R15  21505863.020 6  21505867.758 6 114920822.616 6  89382874.387 6
R16  22589353.400 6  22589359.207 7 120668297.355 6  93853122.386 7
R17  20777284.414 7  20777289.073 7 111183591.838 7  86476038.521 7
R24  19507381.529 8  19507385.219 7 104314868.943 8  81133696.604 7
> 2025 06 15 09 41 40.0000000  0 24
C13  38336744.697 6  38336747.914 6 199629498.829 6 154366196.468 6
C19  24077061.599 7                 125375642.542 7
C20  22882869.842 7                 119157172.686 7
C26  25588509.861 5                 133245992.514 5
C29  22176720.287 7                 115480244.710 7
E02  24516014.669 8  24516015.405 8 128832492.889 8  97460973.524 8
E10  26068448.057 7  26068449.307 7 136990659.917 7 103632516.850 7
E11  24151939.464 7  24151937.076 8 126919308.411 7  96013613.633 8
E25  26227660.437 7  26227665.644 8 137827327.156 7 104265460.168 8
E30  27080655.032 6  27080664.521 6 142309795.683 6 107656450.960 6
E36  23753910.901 8  23753913.509 9 124827644.178 8  94431309.481 9
G02  22678558.179 5  22678557.898 2                 119176625.431 5  92864891.096 2
G08  20695944.885 8                  20695952.178 7 108758162.094 8                  84746469.473 7
G10  20772470.551 8                  20772476.968 8 109160154.540 8                  85059821.791 8
G16  23527086.347 7  23527093.503 4                 123635625.728 7  96339497.465 4
G23  22027495.956 7                  22027501.605 7 115755273.725 7                  90198936.824 7
G27  20193883.306 8                  20193889.490 8 106119702.017 8                  82690586.538 8
R01  20348089.210 7                 108772365.765 7
R08  21366208.496 8  21366213.450 7 114415166.523 8  88989520.797 7
R14  23383271.202 7  23383280.142 6 124645942.072 7  96946922.521 6
R15  21506427.993 7  21506432.013 6 114923835.145 7  89385217.407 6
R16  22586376.828 7  22586380.216 7 120652385.317 7  93840746.366 7
R17  20773699.645 7  20773705.214 7 111164415.496 7  86461123.636 7
R24  19506915.261 8  19506918.394 7 104312373.261 8  81131755.504 7
> 2025 06 15 09 41 45.0000000  0 24
C13  38336514.457 6  38336517.180 6 199628298.650 6 154365268.406 6
C19  24073014.161 7                 125354563.702 7
C20  22881288.764 7                 119148939.721 7
C26  25589566.591 6                 133251491.439 6
C29  22177144.392 7                 115482451.712 7
E02  24515705.484 8  24515706.404 8 128830868.931 8  97459744.999 8
E10  26069459.225 7  26069460.692 7 136995975.243 7 103636537.854 7
E11  24152117.253 7  24152115.142 8 126920243.645 7  96014321.116 8
E25  26229386.212 7  26229391.251 8 137836395.016 7 104272319.927 8
E30  27077751.981 6  27077760.659 5 142294534.628 6 107644906.017 5
E36  23751824.075 8  23751826.300 9 124816676.560 8  94423012.553 9
G02  22675081.328 6  22675084.126 3                 119158369.318 6  92850665.620 3
G08  20693307.659 8                  20693314.949 7 108744302.925 8                  84735670.108 7
G10  20771195.501 8                  20771202.068 8 109153452.792 8                  85054599.656 8
G16  23529412.012 7  23529419.139 4                 123647849.351 7  96349022.347 4
G23  22028777.762 7                  22028783.544 7 115762011.834 7                  90204187.271 7
G27  20193679.555 8                  20193685.890 8 106118631.790 8                  82689752.606 8
R01  20344786.725 7                 108754707.706 7
R08  21366937.881 8  21366941.775 7 114419068.667 8  88992555.776 7
R14  23386044.748 7  23386053.088 6 124660721.261 7  96958417.354 6
R15  21506996.753 6  21506999.213 6 114926866.915 6  89387575.359 6
R16  22583400.259 7  22583404.506 6 120636492.448 7  93828385.243 6
R17  20770117.201 8  20770123.140 7 111145244.951 8  86446213.221 7
R24  19506450.819 8  19506453.723 7 104309888.509 8  81129822.911 7
> 2025 06 15 09 41 50.0000000  0 24
C13  38336283.490 6  38336286.947 6 199627099.157 6 154364340.881 6
C19  24068967.625 7                 125333492.003 7
C20  22879710.026 7                 119140721.338 7
C26  25590623.634 6                 133256997.527 6
C29  22177568.958 7                 115484666.035 7
E02  24515398.678 8  24515399.627 8 128829256.528 8  97458525.221 8
E10  26070471.272 7  26070472.534 7 137001292.311 7 103640560.175 7
E11  24152296.018 7  24152294.064 8 126921183.266 7  96015031.934 8
E25  26231112.424 7  26231117.484 8 137845466.485 7 104279182.397 8
E30  27074847.824 6  27074858.546 5 142279282.663 6 107633368.025 5
E36  23749737.703 8  23749740.305 9 124805714.490 8  94414719.822 9
G02  22671608.240 5  22671611.077 3                 119140118.074 5  92836443.938 3
G08  20690672.473 8                  20690679.752 7 108730455.997 8                  84724880.282 7
G10  20769922.850 8                  20769928.917 8 109146765.499 8                  85049388.779 8
G16  23531738.321 7  23531745.524 4                 123660076.814 7  96358550.201 4
G23  22030062.788 7                  22030067.925 7 115768759.562 7                  90209445.222 7
G27  20193478.340 8                  20193484.929 8 106117575.754 8                  82688929.707 8
R01  20341486.661 7                 108737069.266 7
R08  21367668.823 8  21367674.449 7 114422990.442 8  88995606.037 7
R14  23388818.440 7  23388826.637 6 124675503.438 7  96969914.559 6
R15  21507568.289 6  21507570.270 6 114929918.022 6  89389948.435 6
R16  22580427.838 7  22580432.925 6 120620619.064 7  93816039.329 6
R17  20766536.208 8  20766541.702 7 111126080.701 8  86431307.664 7
R24  19505987.897 8  19505991.648 7 104307414.978 8  81127899.067 7
> 2025 06 15 09 41 55.0000000  0 24
C13  38336053.161 6  38336056.592 6 199625900.469 6 154363413.966 6
C19  24064922.479 7                 125312427.539 7
C20  22878134.882 7                 119132517.562 7
C26  25591681.342 5                 133262510.826 5
C29  22177996.280 7                 115486887.754 7
E02  24515094.325 8  24515095.007 8 128827655.708 8  97457314.203 8
E10  26071483.460 7  26071484.682 7 137006611.192 7 103644583.868 7
E11  24152475.957 7  24152473.822 8 126922127.331 7  96015746.111 8
E25  26232839.362 7  26232844.507 8 137854541.605 7 104286047.662 8
E30  27071949.378 6  27071957.848 6 142264039.856 6 107621836.963 6
E36  23747652.843 8  23747655.344 9 124794758.028 8  94406431.331 9
G02  22668137.586 6  22668139.103 3                 119121871.782 6  92822226.020 3
G08  20688040.251 8                  20688047.200 7 108716621.362 8                  84714100.037 7
G10  20768653.117 8                  20768659.783 8 109140092.764 8                  85044189.234 8
G16  23534066.561 7  23534072.812 4                 123672308.148 7  96368081.082 4
G23  22031348.408 7                  22031353.871 7 115775516.937 7                  90214710.665 7
G27  20193280.393 8                  20193286.696 8 106116533.936 8                  82688117.911 8
R01  20338190.843 7                 108719450.563 7
R08  21368404.946 8  21368409.804 7 114426932.095 8  88998671.788 7
R14  23391591.051 7  23391600.367 6 124690288.635 7  96981414.169 6
R15  21508143.332 7  21508144.782 6 114932988.455 7  89392336.583 6
R16  22577460.435 6  22577464.515 6 120604765.269 6  93803708.569 6
R17  20762956.644 8  20762962.086 7 111106922.680 8  86416406.994 7
R24  19505526.891 8  19505530.415 7 104304952.653 8  81125983.925 7
> 2025 06 15 09 42  0.0000000  0 24
C13  38335823.889 6  38335827.021 6 199624703.211 6 154362488.161 6
C19  24060879.639 7                 125291371.018 7
C20  22876562.876 7                 119124329.114 7
C26  25592741.457 6                 133268032.060 6
C29  22178424.472 7                 115489117.589 7
E02  24514791.509 7  24514792.744 8 128826067.192 7  97456112.495 8
E10  26072495.984 7  26072497.401 7 137011932.531 7 103648609.425 7
E11  24152656.722 7  24152654.559 8 126923076.561 7  96016464.208 8
E25  26234567.353 7  26234572.397 8 137863621.070 7 104292916.188 8
E30  27069050.408 6  27069059.612 6 142248806.815 6 107610313.262 6
E36  23745569.573 8  23745571.606 9 124783807.907 8  94398147.638 9
G02  22664665.544 6  22664667.581 3                 119103631.210 6  92808012.636 3
G08  20685410.082 8                  20685417.220 7 108702799.729 8                  84703329.939 7
G10  20767386.212 8                  20767392.656 8 109133435.214 8                  85039001.551 8
G16  23536394.996 7  23536401.135 4                 123684544.030 7  96377615.526 4
G23  22032636.553 7                  22032642.047 7 115782284.663 7                  90219984.190 7
G27  20193085.124 8                  20193091.299 8 106115507.048 8                  82687317.729 8
R01  20334897.950 7                 108701852.340 7
R08  21369145.774 8  21369149.891 7 114430894.262 8  89001753.476 7
R14  23394366.098 7  23394373.826 6 124705077.780 7  96992916.830 6
R15  21508720.329 6  21508722.904 6 114936079.184 6  89394740.482 6
R16  22574496.556 6  22574500.666 6 120588931.885 6  93791393.741 6
R17  20759377.964 8  20759382.508 7 111087771.686 8  86401511.778 7
R24  19505069.233 8  19505072.883 7 104302502.260 8  81124078.035 7
> 2025 06 15 09 42  5.0000000  0 24
C13  38335593.968 6  38335596.822 6 199623505.953 6 154361562.379 6
C19  24056837.424 7                 125270320.922 7
C20  22874994.014 7                 119116154.470 7
C26  25593804.652 6                 133273559.686 6
C29  22178854.479 7                 115491354.019 7
E02  24514491.020 7  24514492.569 8 128824489.421 7  97454918.928 8
E10  26073508.771 7  26073510.195 7 137017254.847 7 103652635.718 7
E11  24152837.552 7  24152835.916 8 126924029.418 7  96017185.051 8
E25  26236295.420 7  26236300.675 8 137872703.352 7 104299786.847 8
E30  27066152.209 5  27066162.798 5 142233582.136 5 107598795.901 5
E36  23743486.957 8  23743488.788 9 124772862.576 8  94389867.573 9
G02  22661196.216 6  22661197.390 3                 119085394.845 6  92793802.464 3
G08  20682781.715 7                  20682789.200 7 108688989.577 7                  84692568.798 7
G10  20766122.170 8                  20766128.635 8 109126791.395 8                  85033824.544 8
G16  23538724.629 7  23538729.613 4                 123696782.931 7  96387152.300 4
G23  22033926.199 7                  22033931.757 7 115789061.223 7                  90225264.632 7
G27  20192892.123 8                  20192898.486 8 106114493.601 8                  82686528.031 8
R01  20331610.109 7                 108684272.894 7
R08  21369889.538 8  21369893.465 7 114434875.365 8  89004849.884 7
R14  23397139.874 7  23397148.959 6 124719869.023 7  97004421.119 6
R15  21509302.885 6  21509304.454 6 114939188.642 6  89397158.954 6
R16  22571536.243 6  22571540.157 6 120573117.048 6  93779093.309 6
R17  20755799.867 8  20755805.241 7 111068626.032 8  86386620.720 7
R24  19504612.582 8  19504616.293 7 104300062.347 8  81122180.320 7
> 2025 06 15 09 42 10.0000000  0 24
C13  38335363.487 6  38335367.202 6 199622310.781 6 154360638.170 6
C19  24052795.954 7                 125249279.390 7
C20  22873426.689 7                 119107995.763 7
C26  25594867.274 6                 133279095.806 6
C29  22179285.381 7                 115493599.141 7
E02  24514193.667 7  24514194.793 8 128822924.564 7  97453735.117 8
E10  26074522.077 7  26074523.775 7 137022580.298 7 103656664.358 7
E11  24153020.222 7  24153018.287 8 126924988.038 7  96017910.236 8
E25  26238024.586 7  26238029.922 8 137881790.595 7 104306661.266 8
E30  27063257.280 5  27063267.645 6 142218367.990 5 107587286.512 6
E36  23741405.449 8  23741407.328 9 124761924.179 8  94381592.750 9
G02  22657727.402 7  22657728.304 4                 119067164.787 7  92779597.232 4
G08  20680156.489 8                  20680163.777 7 108675193.061 8                  84681818.259 7
G10  20764860.556 8                  20764866.890 8 109120163.378 8                  85028659.860 8
G16  23541053.861 7  23541058.995 4                 123709026.982 7  96396693.100 4
G23  22035218.140 7                  22035223.271 7 115795848.734 7                  90230553.582 7
G27  20192702.372 8                  20192708.797 8 106113495.674 8                  82685750.425 8
R01  20328324.308 7                 108666714.584 7
R08  21370636.239 8  21370640.801 7 114438877.473 8  89007962.641 7
R14  23399915.422 7  23399924.487 5 124734664.675 7  97015928.795 5
R15  21509886.851 6  21509890.437 6 114942318.821 6  89399593.514 6
R16  22568577.256 6  22568583.903 6 120557323.271 6  93766809.257 6
R17  20752223.853 8  20752229.090 7 111049488.009 8  86371735.606 7
R24  19504159.406 8  19504162.296 7 104297635.001 8  81120292.380 7
> 2025 06 15 09 42 15.0000000  0 24
C13  38335134.256 6  38335138.208 6 199621117.360 6 154359715.353 6
C19  24048756.708 7                 125228246.096 7
C20  22871862.836 7                 119099852.695 7
C26  25595931.335 6                 133284640.106 6
C29  22179718.486 7                 115495852.644 7
E02  24513898.268 7  24513899.369 8 128821372.273 7  97452560.816 8
E10  26075535.662 7  26075538.004 7 137027908.528 7 103660695.114 7
E11  24153203.436 7  24153201.699 8 126925952.105 7  96018639.558 8
E25  26239754.756 7  26239760.051 8 137890882.407 7 104313539.158 8
E30  27060364.971 6  27060374.401 5 142203163.964 6 107575784.76915
E36  23739324.926 8  23739327.032 9 124750992.394 8  94373322.927 9
G02  22654261.618 7  22654260.440 4                 119048940.761 7  92765396.654 4
G08  20677533.211 7                  20677540.918 7 108661409.857 7                  84671078.120 7
G10  20763602.029 8                  20763608.497 8 109113550.881 8                  85023507.270 8
G16  23543384.749 7  23543389.931 4                 123721275.800 7  96406237.604 4
G23  22036511.270 7                  22036517.052 7 115802646.851 7                  90235850.789 7
G27  20192515.499 8                  20192521.988 8 106112512.990 8                  82684984.703 8
R01  20325044.089 7                 108649177.055 7
R08  21371387.968 7  21371392.434 7 114442900.396 7  89011091.571 7
R14  23402692.065 6  23402700.678 6 124749464.330 6  97027439.607 6
R15  21510478.649 6  21510479.708 6 114945469.563 6  89402044.044 6
R16  22565626.331 6  22565630.955 6 120541550.110 6  93754541.276 6
R17  20748649.057 8  20748654.006 7 111030357.339 8  86356856.201 7
R24  19503707.572 8  19503710.284 7 104295219.928 8  81118413.999 7
> 2025 06 15 09 42 20.0000000  0 24
C13  38334905.665 6  38334909.314 6 199619924.505 6 154358792.968 6
C19  24044718.477 7                 125207219.961 7
C20  22870302.019 7                 119091724.094 7
C26  25596998.143 6                 133290191.395 6
C29  22180152.703 7                 115498113.441 7
E02  24513604.673 8  24513606.243 8 128819831.431 8  97451395.181 8
E10  26076550.472 7  26076552.306 7 137033238.396 7 103664727.124 7
E11  24153387.451 7  24153385.856 8 126926920.471 7  96019372.119 8
E25  26241485.838 7  26241490.915 8 137899977.748 7 104320419.694 8
E30  27057472.628 6  27057482.814 5 142187968.906 6 107564289.86315
E36  23737245.951 8  23737247.830 9 124740066.116 8  94365057.267 9
G02  22650792.958 6  22650793.786 4                 119030721.536 6  92751199.878 4
G08  20674912.765 8                  20674920.163 7 108647638.873 8                  84660347.496 7
G10  20762346.327 8                  20762352.693 8 109106952.779 8                  85018365.892 8
G16  23545716.485 7  23545721.456 4                 123733528.297 7  96415784.968 4
G23  22037807.091 7                  22037812.120 7 115809454.422 7                  90241155.411 7
G27  20192330.775 8                  20192337.636 8 106111544.395 8                  82684229.940 8
R01  20321767.678 7                 108631659.210 7
R08  21372142.535 7  21372147.213 7 114446942.909 7  89014235.754 7
R14  23405469.280 6  23405477.838 5 124764266.655 6  97038952.464 5
R15  21511070.528 6  21511072.923 6 114948639.396 6  89404509.472 6
R16  22562678.163 6  22562681.580 6 120525796.521 6  93742288.465 6
R17  20745074.684 8  20745079.822 7 111011232.659 8  86341981.423 7
R24  19503258.073 8  19503261.129 7 104292815.924 8  81116544.215 7
> 2025 06 15 09 42 25.0000000  0 24
C13  38334676.583 6  38334680.114 6 199618731.247 6 154357870.262 6
C19  24040681.512 7                 125186199.806 7
C20  22868743.599 7                 119083608.870 7
C26  25598065.951 6                 133295748.614 6
C29  22180587.561 7                 115500380.385 7
E02  24513313.715 8  24513314.948 8 128818300.881 8  97450237.320 8
E10  26077564.762 7  26077566.819 7 137038568.729 7 103668759.472 7
E11  24153572.729 7  24153570.661 8 126927892.018 7  96020107.076 8
E25  26243216.865 7  26243222.124 8 137909075.383 7 104327301.975 8
E30  27054582.712 6  27054593.226 5 142172781.806 6 107552800.88815
E36  23735167.424 8  23735169.480 9 124729144.161 8  94356794.870 9
G02  22647325.853 7  22647327.617 4                 119012505.963 7  92737005.951 4
G08  20672294.461 8                  20672301.831 7 108633878.976 8                  84649625.478 7
G10  20761093.717 8                  20761099.955 7 109100367.887 8                  85013234.795 7
G16  23548049.136 7  23548054.003 4                 123745783.297 7  96425334.310 4
G23  22039103.645 7                  22039109.714 7 115816270.323 7                  90246466.507 7
G27  20192149.364 8                  20192156.148 8 106110588.734 8                  82683485.272 8
R01  20318493.617 7                 108614159.813 7
R08  21372901.297 7  21372905.678 7 114451003.742 7  89017394.146 7
R14  23408245.008 6  23408255.382 5 124779070.970 6  97050466.912 5
R15  21511666.788 5  21511669.724 6 114951827.424 5  89406989.024 6
R16  22559730.705 6  22559735.822 6 120510061.119 6  93730049.842 6
R17  20741500.938 7  20741506.973 7 110992113.002 7  86327110.607 7
R24  19502810.480 8  19502813.411 7 104290421.858 8  81114682.166 7
> 2025 06 15 09 42 30.0000000  0 24
C13  38334447.273 6  38334450.999 6 199617537.700 6 154356947.334 6
C19  24036646.096 7                 125165185.931 7
C20  22867187.768 7                 119075507.212 7
C26  25599135.021 6                 133301311.922 6
C29  22181024.164 7                 115502653.645 7
E02  24513024.819 8  24513025.698 8 128816780.829 8  97449087.405 8
E10  26078579.152 7  26078581.360 7 137043899.836 7 103672792.398 7
E11  24153757.889 7  24153756.115 8 126928866.929 7  96020844.578 8
E25  26244948.430 7  26244953.802 8 137918175.555 7 104334186.178 8
E30  27051694.080 6  27051704.796 5 142157602.842 6 107541318.12815
E36  23733090.130 8  23733091.976 9 124718226.760 8  94348535.929 9
G02  22643859.614 6  22643862.378 4                 118994294.326 6  92722815.063 4
G08  20669678.556 8                  20669685.736 7 108620130.328 8                  84638912.272 7
G10  20759843.266 8                  20759849.680 8 109093796.435 8                  85008114.197 8
G16  23550381.657 7  23550386.893 4                 123758041.024 7  96434885.761 4
G23  22040402.058 7                  22040408.370 7 115823094.763 7                  90251784.255 7
G27  20191969.318 8                  20191976.265 8 106109646.239 8                  82682750.858 8
R01  20315223.197 7                 108596679.094 7
R08  21373662.013 7  21373667.395 7 114455083.239 7  89020567.095 7
R14  23411022.496 6  23411032.158 5 124793876.836 6  97061982.612 5
R15  21512268.869 6  21512269.801 6 114955033.782 6  89409482.872 6
R16  22556788.417 6  22556794.619 6 120494344.401 6  93717825.758 6
R17  20737929.236 8  20737934.943 7 110972998.515 8  86312243.815 7
R24  19502364.303 8  19502367.878 7 104288038.033 8  81112828.096 7
> 2025 06 15 09 42 35.0000000  0 24
C13  38334217.821 6  38334221.691 6 199616344.511 6 154356024.666 6
C19  24032611.255 7                 125144178.955 7
C20  22865634.177 7                 119067419.818 7
C26  25600205.671 6                 133306882.036 6
C29  22181461.548 7                 115504933.944 7
E02  24512736.542 8  24512738.555 8 128815272.001 8  97447945.992 8
E10  26079594.627 7  26079596.302 7 137049232.334 7 103676826.393 7
E11  24153944.375 7  24153942.348 8 126929845.931 7  96021585.176 8
E25  26246680.708 7  26246686.107 8 137927278.942 7 104341072.815 8
E30  27048808.210 6  27048817.954 5 142142432.647 6 107529841.932 5
E36  23731013.443 8  23731015.431 9 124707314.599 8  94340280.954 9
G02  22640394.217 6  22640397.798 4                 118976087.358 6  92708627.837 4
G08  20667064.568 8                  20667071.715 7 108606393.691 8                  84628208.389 7
G10  20758595.090 7                  20758602.070 8 109087239.117 7                  85003004.581 8
G16  23552714.482 7  23552719.936 4                 123770302.153 7  96444439.887 4
G23  22041702.930 7                  22041708.269 7 115829928.388 7                  90257109.141 7
G27  20191793.088 8                  20191799.794 8 106108717.601 8                  82682027.246 8
R01  20311957.350 7                 108579217.844 7
R08  21374428.871 7  21374432.580 7 114459182.078 7  89023755.072 7
R14  23413800.900 6  23413810.278 6 124808685.502 6  97073500.453 6
R15  21512870.042 6  21512873.086 7 114958259.003 6  89411991.387 7
R16  22553850.468 6  22553855.416 6 120478646.901 6  93705616.540 6
R17  20734357.812 8  20734364.139 7 110953890.069 8  86297381.673 7
R24  19501919.841 8  19501923.851 7 104285664.973 8  81110982.371 7
> 2025 06 15 09 42 40.0000000  0 24
C13  38333989.057 6  38333992.676 6 199615151.849 6 154355102.423 6
C19  24028578.838 7                 125123179.025 7
C20  22864083.584 7                 119059346.773 7
C26  25601276.937 6                 133312458.933 6
C29  22181900.649 7                 115507221.353 7
E02  24512451.625 7  24512453.591 8 128813774.424 7  97446813.084 8
E10  26080609.633 7  26080611.414 7 137054566.311 7 103680861.495 7
E11  24154131.282 7  24154129.467 8 126930829.082 7  96022328.925 8
E25  26248413.278 7  26248418.945 8 137936385.630 7 104347961.942 8
E30  27045923.019 6  27045932.417 5 142127271.401 6 107518372.537 5
E36  23728938.193 8  23728939.945 9 124696407.770 8  94332030.006 9
G02  22636930.489 6  22636933.712 4                 118957885.060 6  92694444.264 4
G08  20664452.914 8                  20664459.992 7 108592669.110 8                  84617513.915 7
G10  20757350.340 7                  20757356.492 8 109080696.022 7                  84997906.066 8
G16  23555048.372 7  23555053.383 4                 123782566.750 7  96453996.690 4
G23  22043004.829 7                  22043010.438 7 115836771.347 7                  90262441.271 7
G27  20191618.979 8                  20191625.556 8 106107802.897 8                  82681314.476 8
R01  20308695.199 7                 108561776.226 7
R08  21375198.289 7  21375201.714 7 114463300.266 7  89026958.100 7
R14  23416581.155 6  23416589.105 6 124823496.829 6  97085020.318 6
R15  21513479.204 6  21513480.121 7 114961503.406 6  89414514.808 7
R16  22550916.531 6  22550919.937 6 120462968.699 6  93693422.340 6
R17  20730788.127 7  20730793.749 7 110934787.548 7  86282524.179 7
R24  19501478.969 8  19501482.283 7 104283303.006 8  81109145.279 7
> 2025 06 15 09 42 45.0000000  0 24
C13  38333761.107 6  38333763.744 6 199613960.909 6 154354181.521 6
C19  24024547.442 7                 125102187.345 7
C20  22862536.108 7                 119051289.312 7
C26  25602348.878 6                 133318043.941 6
C29  22182341.712 7                 115509517.109 7
E02  24512169.096 7  24512170.997 8 128812289.396 7  97445689.659 8
E10  26081625.094 7  26081626.975 7 137059903.005 7 103684898.666 7
E11  24154319.527 7  24154317.609 8 126931817.575 7  96023076.708 8
E25  26250147.631 7  26250152.768 8 137945496.843 7 104354854.490 8
E30  27043040.831 6  27043049.083 6 142112120.393 6 107506910.876 6
E36  23726863.756 8  23726865.710 9 124685507.515 8  94323784.031 9
G02  22633469.841 7  22633471.353 4                 118939688.722 7  92680265.298 4
G08  20661843.799 8                  20661850.833 7 108578957.872 8                  84606829.813 7
G10  20756107.829 8                  20756114.495 8 109074168.388 8                  84992819.592 8
G16  23557383.405 7  23557388.580 4                 123794836.034 7  96463557.142 4
G23  22044309.142 7                  22044314.222 7 115843624.738 7                  90267781.585 7
G27  20191447.777 8                  20191454.487 8 106106903.347 8                  82680613.528 8
R01  20305436.243 7                 108544355.365 7
R08  21375969.958 7  21375974.887 7 114467439.128 7  89030177.197 7
R14  23419359.634 7  23419368.773 6 124838311.974 7  97096543.216 6
R15  21514086.174 6  21514091.931 7 114964767.995 6  89417053.980 7
R16  22547987.148 6  22547989.544 6 120447311.238 6  93681244.338 6
R17  20727220.731 8  20727225.586 7 110915692.254 8  86267672.281 7
R24  19501039.200 8  19501042.671 7 104280953.117 8  81107317.563 7
> 2025 06 15 09 42 50.0000000  0 24
C13  38333532.066 6  38333535.420 6 199612771.609 6 154353261.871 6
C19  24020517.887 7                 125081203.902 7
C20  22860992.190 7                 119043247.367 7
C26  25603422.230 6                 133323636.996 6
C29  22182784.275 7                 115511821.119 7
E02  24511889.627 7  24511890.800 8 128810816.794 7  97444575.638 8
E10  26082640.622 7  26082643.097 7 137065242.390 7 103688937.844 7
E11  24154509.223 7  24154506.796 8 126932811.396 7  96023828.522 8
E25  26251882.015 7  26251887.391 8 137954612.490 7 104361750.406 8
E30  27040158.112 6  27040167.429 6 142096979.405 6 107495456.82416
E36  23724790.890 8  23724792.745 9 124674613.750 8  94315542.979 9
G02  22630007.679 7  22630009.905 4                 118921498.262 7  92666090.928 4
G08  20659236.786 8                  20659244.054 7 108565259.896 8                  84596156.065 7
G10  20754868.798 8                  20754875.233 8 109067656.131 8                  84987745.119 8
G16  23559718.933 7  23559724.343 4                 123807109.933 7  96473121.188 4
G23  22045614.686 7                  22045620.578 7 115850488.619 7                  90273130.029 7
G27  20191279.005 8                  20191286.590 8 106106018.908 8                  82679924.354 8
R01  20302179.850 7                 108526955.263 7
R08  21376747.183 7  21376751.206 7 114471598.495 7  89033412.263 7
R14  23422139.344 6  23422148.156 6 124853130.892 6  97108068.981 6
R15  21514702.979 6  21514706.032 6 114968053.035 6  89419608.977 6
R16  22545057.212 6  22545062.972 6 120431674.237 6  93669082.276 6
R17  20723653.133 8  20723658.649 7 110896604.328 8  86252826.135 7
R24  19500602.219 8  19500605.393 7 104278615.507 8  81105499.420 7
> 2025 06 15 09 42 55.0000000  0 24
C13  38333303.980 6  38333307.199 6 199611582.807 6 154352342.607 6
C19  24016490.028 7                 125060227.546 7
C20  22859450.717 7                 119035219.780 7
C26  25604496.639 5                 133329236.809 5
C29  22183228.103 7                 115514132.287 7
E02  24511611.408 7  24511612.767 8 128809355.481 7  97443470.158 8
E10  26083656.688 7  26083659.529 7 137070583.250 7 103692978.165 7
E11  24154699.121 7  24154696.750 8 126933809.359 7  96024583.480 8
E25  26253617.613 7  26253622.672 8 137963731.434 7 104368648.809 8
E30  27037277.494 6  27037287.485 6 142081847.238 6 107484009.513 6
E36  23722718.977 8  23722720.754 9 124663725.367 8  94307305.984 9
G02  22626544.532 6  22626549.691 4                 118903312.563 6  92651920.264 4
G08  20656632.586 8                  20656639.659 7 108551574.073 8                  84585491.789 7
G10  20753632.404 8                  20753638.832 8 109061158.098 8                  84982681.720 8
G16  23562055.044 7  23562061.155 4                 123819387.263 7  96482687.931 4
G23  22046923.163 7                  22046928.438 7 115857361.755 7                  90278485.722 7
G27  20191113.655 8                  20191120.450 8 106105148.429 8                  82679246.056 8
R01  20298928.857 7                 108509574.709 7
R08  21377527.692 7  21377532.165 7 114475777.293 7  89036662.422 7
R14  23424920.401 6  23424929.401 6 124867952.328 6  97119596.732 6
R15  21515319.106 6  21515324.119 6 114971356.953 6  89422178.688 6
R16  22542133.046 6  22542138.926 6 120416056.791 6  93656935.383 6
R17  20720087.699 8  20720092.730 7 110877522.423 8  86237984.646 7
R24  19500167.516 8  19500170.152 7 104276288.779 8  81103689.747 7
> 2025 06 15 09 43  0.0000000  0 24
C13  38333075.041 6  38333079.062 6 199610394.974 6 154351424.090 6
C19  24012463.702 7                 125039258.687 7
C20  22857911.534 7                 119027207.007 7
C26  25605575.124 5                 133334843.896 5
C29  22183673.449 7                 115516450.956 7
E02  24511335.421 8  24511336.973 8 128807905.897 8  97442373.553 8
E10  26084674.120 7  26084676.272 7 137075926.030 7 103697019.939 7
E11  24154889.842 7  24154887.635 8 126934811.931 7  96025341.919 8
E25  26255353.817 7  26255358.696 8 137972854.098 7 104375550.014 8
E30  27034399.876 6  27034409.475 5 142066724.594 6 107472569.296 5
E36  23720647.835 8  23720649.901 9 124652842.715 8  94299073.329 9
G02  22623086.805 6  22623089.793 4                 118885131.985 6  92637753.618 4
G08  20654031.277 8                  20654037.568 7 108537900.781 8                  84574837.272 7
G10  20752398.799 8                  20752405.029 8 109054674.720 8                  84977629.726 8
G16  23564392.148 7  23564398.130 4                 123831668.415 7  96492257.644 4
G23  22048233.294 7                  22048238.128 7 115864244.569 7                  90283848.942 7
G27  20190951.216 8                  20190958.003 8 106104292.301 8                  82678578.942 8
R01  20295681.293 7                 108492214.161 7
R08  21378311.305 7  21378316.284 7 114479975.805 7  89039927.959 7
R14  23427701.790 7  23427710.554 6 124882776.735 7  97131126.756 6
R15  21515943.299 6  21515946.185 6 114974680.556 6  89424763.666 6
R16  22539214.311 6  22539218.119 6 120400459.212 6  93644803.930 6
R17  20716522.512 8  20716527.671 7 110858446.895 8  86223148.140 7
R24  19499734.390 8  19499737.132 7 104273973.455 8  81101888.958 7
> 2025 06 15 09 43  5.0000000  0 24
C13  38332847.340 6  38332851.072 6 199609208.057 6 154350506.287 6
C19  24008437.683 7                 125018297.402 7
C20  22856375.798 7                 119019209.088 7
C26  25606654.772 6                 133340458.254 6
C29  22184120.312 7                 115518777.237 7
E02  24511062.429 8  24511063.315 8 128806468.074 8  97441285.839 8
E10  26085690.646 6  26085693.404 7 137081270.784 6 103701063.198 7
E11  24155081.661 7  24155079.360 8 126935819.129 7  96026103.854 8
E25  26257090.204 7  26257095.442 8 137981980.478 7 104382454.057 8
E30  27031523.970 6  27031533.296 5 142051611.358 6 107461136.200 5
E36  23718578.479 8  23718580.124 9 124641965.915 8  94290845.105 9
G02  22619628.155 7  22619630.584 4                 118866956.615 7  92623591.006 4
G08  20651431.463 8                  20651437.874 7 108524240.103 8                  84564192.599 7
G10  20751167.882 8                  20751174.145 8 109048206.041 8                  84972589.206 8
G16  23566730.872 7  23566736.315 4                 123843953.527 7  96501830.425 4
G23  22049544.990 7                  22049550.405 7 115871137.128 7                  90289219.746 7
G27  20190790.498 8                  20190797.854 8 106103450.598 8                  82677923.064 8
R01  20292438.197 7                 108474873.774 7
R08  21379099.050 7  21379103.601 7 114484194.062 7  89043208.831 7
R14  23430483.867 7  23430492.727 6 124897604.355 7  97142659.297 6
R15  21516567.892 6  21516571.428 6 114978023.494 6  89427363.737 6
R16  22536296.867 6  22536303.372 6 120384881.513 6  93632688.008 6
R17  20712958.728 8  20712964.880 7 110839377.998 8  86208316.775 7
R24  19499302.483 8  19499306.467 7 104271669.618 8  81100097.084 7
> 2025 06 15 09 43 10.0000000  0 24
C13  38332619.677 6  38332623.314 6 199608022.228 6 154349589.326 6
C19  24004413.435 7                 124997343.837 7
C20  22854842.641 7                 119011226.147 7
C26  25607732.997 5                 133346079.974 5
C29  22184568.197 7                 115521111.240 7
E02  24510790.435 8  24510792.022 8 128805042.141 8  97440207.122 8
E10  26086708.375 6  26086710.933 7 137086617.636 6 103705108.066 7
E11  24155274.028 7  24155272.015 8 126936831.092 7  96026869.396 8
E25  26258827.701 7  26258832.930 8 137991110.756 7 104389361.021 8
E30  27028650.706 6  27028659.251 5 142036507.743 6 107449710.534 5
E36  23716509.398 8  23716511.458 9 124631095.079 8  94282621.394 9
G02  22616169.478 6  22616173.068 4                 118848786.645 6  92609432.574 4
G08  20648834.057 8                  20648841.000 7 108510592.158 8                  84553557.842 7
G10  20749939.592 8                  20749945.740 8 109041752.197 8                  84967560.243 8
G16  23569068.261 7  23569074.835 4                 123856242.625 7  96511406.336 4
G23  22050858.320 7                  22050863.391 7 115878039.506 7                  90294598.217 7
G27  20190633.410 8                  20190640.285 8 106102623.451 8                  82677278.518 8
R01  20289198.294 8                 108457553.594 8
R08  21379890.446 8  21379895.296 7 114488432.368 8  89046505.303 7
R14  23433265.631 7  23433274.232 6 124912434.893 7  97154194.119 6
R15  21517200.017 6  21517200.733 6 114981386.140 6  89429979.130 6
R16  22533383.776 7  22533390.116 6 120369324.059 7  93620587.795 6
R17  20709398.003 8  20709402.628 7 110820315.725 8  86193490.553 7
R24  19498874.265 8  19498877.954 7 104269377.239 8  81098314.129 7
> 2025 06 15 09 43 15.0000000  0 24
C13  38332392.006 6  38332395.517 6 199606837.130 6 154348672.932 6
C19  24000390.767 7                 124976397.603 7
C20  22853311.653 7                 119003257.797 7
C26  25608814.009 5                 133351708.722 5
C29  22185018.384 7                 115523452.555 7
E02  24510521.931 7  24510522.835 8 128803627.697 7  97439137.089 8
E10  26087725.669 6  26087728.722 7 137091966.220 6 103709154.185 7
E11  24155467.131 7  24155465.446 8 126937847.372 7  96027638.205 8
E25  26260565.651 7  26260570.944 8 138000244.481 7 104396270.599 8
E30  27025779.869 7  27025787.291 5 142021413.262 7 107438291.670 5
E36  23714441.506 8  23714443.873 9 124620229.793 8  94274401.883 9
G02  22612712.926 6  22612716.034 4                 118830621.564 6  92595278.008 4
G08  20646239.551 8                  20646246.193 7 108496956.626 8                  84542932.763 7
G10  20748713.925 8                  20748720.394 8 109035312.793 8                  84962542.529 8
G16  23571407.639 7  23571414.057 4                 123868535.318 7  96520985.060 4
G23  22052173.686 6                  22052178.694 7 115884951.306 6                  90299984.034 7
G27  20190478.629 8                  20190485.613 8 106101810.440 8                  82676644.999 8
R01  20285961.016 7                 108440253.373 7
R08  21380685.623 8  21380690.467 7 114492690.171 8  89049816.900 7
R14  23436047.250 7  23436057.398 6 124927268.317 7  97165731.193 6
R15  21517832.415 6  21517833.084 6 114984768.069 6  89432609.455 6
R16  22530477.061 6  22530481.740 6 120353786.223 6  93608502.763 6
R17  20705836.421 8  20705841.531 7 110801259.739 8  86178669.231 7
R24  19498448.333 8  19498451.695 7 104267096.333 8  81096540.063 7
> 2025 06 15 09 43 20.0000000  0 24
C13  38332164.676 6  38332168.359 6 199605653.119 6 154347757.380 6
C19  23996370.216 7                 124955459.057 7
C20  22851784.094 7                 118995304.455 7
C26  25609894.241 5                 133357344.879 5
C29  22185469.412 7                 115525801.583 7
E02  24510254.949 7  24510255.977 8 128802225.107 7  97438076.033 8
E10  26088743.350 6  26088746.981 7 137097316.878 6 103713201.892 7
E11  24155661.236 7  24155659.767 8 126938868.429 7  96028410.617 8
E25  26262304.926 7  26262309.826 8 138009382.012 7 104403183.070 8
E30  27022908.185 6  27022916.787 4 142006328.415 6 107426879.988 4
E36  23712375.243 8  23712377.415 9 124609370.442 8  94266186.854 9
G02  22609256.574 6  22609260.219 4                 118812461.881 6  92581127.598 4
G08  20643646.859 8                  20643653.633 7 108483333.826 8                  84532317.593 7
G10  20747491.859 8                  20747497.643 8 109028888.207 8                  84957536.335 8
G16  23573747.648 7  23573753.745 4                 123880832.023 7  96530566.875 4
G23  22053489.748 6                  22053496.113 7 115891872.927 6                  90305377.493 7
G27  20190326.129 7                  20190333.768 8 106101011.965 7                  82676022.805 8
R01  20282729.001 7                 108422973.353 7
R08  21381485.009 8  21381488.575 7 114496967.875 8  89053143.987 7
R14  23438831.858 7  23438840.785 6 124942104.682 7  97177270.517 6
R15  21518468.498 6  21518470.111 6 114988169.484 6  89435255.026 6
R16  22527570.940 6  22527576.653 6 120338268.508 6  93596433.405 6
R17  20702276.925 8  20702281.224 7 110782210.527 8  86163853.186 7
R24  19498023.186 8  19498026.958 7 104264826.847 8  81094774.924 7
> 2025 06 15 09 43 25.0000000  0 24
C13  38331937.536 6  38331941.429 6 199604471.240 6 154346843.467 6
C19  23992350.629 7                 124934529.396 7
C20  22850259.890 7                 118987367.161 7
C26  25610977.997 5                 133362989.503 5
C29  22185922.795 7                 115528159.459 7
E02  24509990.669 8  24509991.563 8 128800835.526 8  97437024.820 8
E10  26089761.745 6  26089765.862 7 137102670.754 6 103717252.072 7
E11  24155856.946 7  24155855.196 8 126939895.330 7  96029187.461 8
E25  26264044.362 7  26264049.735 8 138018524.574 7 104410099.348 8
E30  27020039.059 6  27020038.979 4 141991254.259 6 107415476.04014
E36  23710310.072 8  23710312.307 9 124598518.185 8  94257977.194 9
G02  22605802.785 6  22605805.525 4                 118794308.649 6  92566982.229 4
G08  20641056.921 8                  20641063.960 7 108469724.923 8                  84521713.249 7
G10  20746272.381 8                  20746278.329 8 109022479.559 8                  84952542.583 8
G16  23576089.400 7  23576094.388 4                 123893133.825 7  96540152.666 4
G23  22054809.583 6                  22054815.434 7 115898805.503 6                  90310779.478 7
G27  20190177.596 8                  20190184.862 8 106100229.159 8                  82675412.837 8
R01  20279500.712 7                 108405714.795 7
R08  21382287.720 8  21382291.986 7 114501266.567 8  89056487.398 7
R14  23441615.876 7  23441624.545 6 124956945.438 7  97188813.325 6
R15  21519108.542 6  21519110.923 7 114991591.520 6  89437916.653 7
R16  22524670.012 6  22524675.392 6 120322772.147 6  93584380.692 6
R17  20698718.389 8  20698723.014 7 110763169.212 8  86149043.265 7
R24  19497601.147 8  19497604.931 7 104262570.060 8  81093019.627 7
> 2025 06 15 09 43 30.0000000  0 24
C13  38331711.196 6  38331714.562 6 199603290.634 6 154345930.536 6
C19  23988332.748 7                 124913607.600 7
C20  22848739.009 7                 118979444.931 7
C26  25612064.885 4                 133368641.485 4
C29  22186376.382 7                 115530525.148 7
E02  24509727.833 8  24509729.387 8 128799457.925 8  97435982.689 8
E10  26090782.172 6  26090785.023 8 137108026.811 6 103721303.860 8
E11  24156052.927 7  24156051.498 8 126940927.107 7  96029967.997 8
E25  26265785.653 7  26265790.307 8 138027671.058 7 104417018.569 8
E30  27017171.645 6  27017172.580 5 141976189.796 6 107404079.900 5
E36  23708245.867 8  23708248.353 9 124587671.985 8  94249772.120 9
G02  22602348.712 6  22602351.686 4                 118776160.903 6  92552841.158 4
G08  20638469.818 8                  20638477.004 7 108456128.908 8                  84511118.948 7
G10  20745055.600 8                  20745062.003 8 109016085.825 8                  84947560.461 8
G16  23578430.010 7  23578436.185 4                 123905439.684 7  96549741.646 4
G23  22056131.360 6                  22056136.182 7 115905747.957 6                  90316189.158 7
G27  20190030.878 7                  20190038.424 8 106099460.985 7                  82674814.254 8
R01  20276275.058 7                 108388476.669 7
R08  21383094.008 8  21383098.937 7 114505585.332 8  89059846.433 7
R14  23444399.665 6  23444409.831 6 124971789.264 6  97200358.477 6
R15  21519751.295 6  21519754.835 7 114995033.339 6  89440593.603 7
R16  22521772.729 6  22521778.019 6 120307295.756 6  93572343.583 6
R17  20695161.239 8  20695165.923 7 110744134.603 8  86134238.551 7
R24  19497181.584 8  19497184.729 7 104260325.128 8  81091273.577 7
> 2025 06 15 09 43 35.0000000  0 24
C13  38331484.255 6  38331488.244 6 199602110.520 6 154345017.986 6
C19  23984316.226 7                 124892693.049 7
C20  22847220.735 7                 118971537.169 7
C26  25613149.980 4                 133374300.403 4
C29  22186832.255 7                 115532898.019 7
E02  24509467.978 8  24509469.386 8 128798091.683 8  97434949.115 8
E10  26091800.007 6  26091804.494 8 137113384.400 6 103725356.853 8
E11  24156249.961 7  24156248.648 8 126941963.099 7  96030751.715 8
E25  26267526.440 7  26267531.522 8 138036820.804 7 104423940.284 8
E30  27014307.931 6  27014307.995 5 141961134.431 6 107392690.600 5
E36  23706182.676 8  23706185.422 9 124576831.196 8  94241571.144 9
G02  22598897.507 6  22598899.020 4                 118758018.006 6  92538703.806 4
G08  20635885.117 8                  20635891.692 7 108442545.144 8                  84500534.191 7
G10  20743841.328 8                  20743847.568 8 109009706.383 8                  84942589.471 8
G16  23580772.664 7  23580778.611 4                 123917748.980 7  96559333.266 4
G23  22057453.883 6                  22057459.744 7 115912699.667 6                  90321606.044 7
G27  20189887.546 7                  20189894.802 8 106098706.824 7                  82674226.593 8
R01  20273054.799 7                 108371258.404 7
R08  21383903.356 7  21383908.601 7 114509923.409 7  89063220.511 7
R14  23447185.094 6  23447194.455 6 124986635.626 6  97211905.647 6
R15  21520398.826 6  21520403.262 7 114998494.093 6  89443285.318 7
R16  22518879.370 6  22518884.499 6 120291839.156 6  93560321.730 6
R17  20691605.364 8  20691609.610 7 110725106.186 8  86119438.673 7
R24  19496764.298 8  19496768.099 7 104258091.125 8  81089536.019 7
> 2025 06 15 09 43 40.0000000  0 24
C13  38331257.934 6  38331261.489 6 199600931.679 6 154344106.420 6
C19  23980301.569 7                 124871786.414 7
C20  22845705.462 7                 118963644.549 7
C26  25614239.953 5                 133379966.781 5
C29  22187289.488 7                 115535278.750 7
E02  24509210.764 8  24509211.726 8 128796737.466 8  97433924.657 8
E10  26092821.573 6  26092824.477 8 137118744.265 6 103729411.540 8
E11  24156447.764 7  24156446.732 8 126943004.000 7  96031539.146 8
E25  26269267.655 7  26269273.488 8 138045974.604 7 104430865.020 8
E30  27011443.855 6  27011445.444 5 141946088.862 6 107381308.766 5
E36  23704120.847 8  23704123.672 9 124565996.541 8  94233374.798 9
G02  22595446.355 7  22595447.935 4                 118739880.646 7  92524570.780 4
G08  20633302.923 8                  20633309.439 7 108428974.349 8                  84489959.561 7
G10  20742630.376 8                  20742636.915 8 109003341.924 8                  84937630.163 8
G16  23583116.386 7  23583121.589 4                 123930062.322 7  96568928.072 4
G23  22058779.612 6                  22058784.601 7 115919661.291 6                  90327030.699 7
G27  20189747.043 7                  20189754.229 8 106097967.366 7                  82673650.392 8
R01  20269836.922 7                 108354060.601 7
R08  21384715.932 7  21384722.930 7 114514281.497 7  89066610.146 7
R14  23449971.345 6  23449980.235 6 125001485.040 6  97223455.181 6
R15  21521052.536 6  21521054.384 6 115001974.629 6  89445992.329 6
R16  22515989.071 7  22515995.031 6 120276402.748 7  93548315.644 6
R17  20688050.598 8  20688054.465 7 110706084.667 8  86104644.174 7
R24  19496348.123 8  19496351.935 7 104255868.908 8  81087807.640 7
> 2025 06 15 09 43 45.0000000  0 24
C13  38331030.771 6  38331034.911 6 199599752.854 6 154343194.868 6
C19  23976288.494 7                 124850886.512 7
C20  22844192.273 7                 118955765.872 7
C26  25615330.084 5                 133385639.392 5
C29  22187748.039 7                 115537666.177 7
E02  24508954.883 8  24508956.086 8 128795394.033 8  97432908.354 8
E10  26093842.558 6  26093844.577 8 137124105.143 6 103733467.030 8
E11  24156646.532 7  24156645.512 8 126944048.573 7  96032329.347 8
E25  26271010.081 7  26271015.903 8 138055131.070 7 104437791.815 8
E30  27008583.092 6  27008584.483 5 141931051.839 6 107369933.374 5
E36  23702059.970 8  23702062.780 9 124555166.765 8  94225182.146 9
G02  22591995.471 7  22591997.868 4                 118721747.564 7  92510441.127 4
G08  20630722.480 8                  20630729.173 7 108415415.305 8                  84479394.057 7
G10  20741421.927 8                  20741428.160 8 108996991.195 8                  84932681.539 8
G16  23585459.337 7  23585465.214 4                 123942378.515 7  96578525.079 4
G23  22060104.444 6                  22060111.198 8 115926631.623 6                  90332462.122 8
G27  20189608.970 7                  20189615.693 8 106097241.376 7                  82673084.680 8
R01  20266622.881 7                 108336882.092 7
R08  21385534.472 7  21385540.011 7 114518658.296 7  89070014.301 7
R14  23452758.713 7  23452766.427 6 125016336.532 7  97235006.326 6
R15  21521707.399 6  21521709.275 6 115005473.516 6  89448713.705 6
R16  22513104.124 6  22513108.940 6 120260985.619 6  93536324.499 6
R17  20684495.162 8  20684501.004 7 110687068.721 8  86089854.020 7
R24  19495935.251 8  19495938.271 7 104253657.211 8  81086087.419 7
> 2025 06 15 09 43 50.0000000  0 24
C13  38330804.559 6  38330808.402 6 199598573.932 6 154342283.250 6
C19  23972275.669 7                 124829993.244 7
C20  22842681.963 7                 118947901.003 7
C26  25616419.853 4                 133391318.135 4
C29  22188206.738 7                 115540060.113 7
E02  24508701.028 7  24508702.474 8 128794061.293 7  97431900.146 8
E10  26094863.094 6  26094864.944 8 137129466.865 6 103737523.149 8
E11  24156845.991 7  24156844.969 8 126945096.694 7  96033122.235 8
E25  26272753.965 7  26272758.920 8 138064290.196 7 104444720.603 8
E30  27005723.543 6  27005724.976 5 141916023.251 6 107358564.325 5
E36  23700000.093 8  23700002.847 9 124544341.753 8  94216993.090 9
G02  22588545.352 6  22588548.464 4                 118703618.666 6  92496314.697 4
G08  20628145.036 8                  20628151.625 7 108401867.868 8                  84468837.604 7
G10  20740216.018 8                  20740222.387 8 108990654.103 8                  84927743.555 8
G16  23587803.203 7  23587809.375 4                 123954697.419 7  96588124.217 4
G23  22061433.078 7                  22061439.080 8 115933610.520 7                  90337900.216 8
G27  20189473.381 7                  20189480.122 8 106096528.732 7                  82672529.377 8
R01  20263412.736 7                 108319722.695 7
R08  21386355.113 7  21386360.600 7 114523053.712 7  89073432.934 7
R14  23455543.564 6  23455553.125 5 125031189.727 6  97246558.761 5
R15  21522362.010 6  21522366.698 6 115008990.723 6  89451449.274 6
R16  22510220.575 6  22510227.079 6 120245587.307 6  93524348.038 6
R17  20680943.881 8  20680948.673 7 110668058.326 8  86075068.141 7
R24  19495522.879 8  19495526.692 7 104251455.916 8  81084375.284 7
> 2025 06 15 09 43 55.0000000  0 24
C13  38330577.282 6  38330581.897 6 199597395.850 6 154341372.279 6
C19  23968264.797 7                 124809107.538 7
C20  22841174.049 7                 118940050.896 7
C26  25617512.613 4                 133397003.984 4
C29  22188668.358 7                 115542461.530 7
E02  24508450.034 8  24508451.105 8 128792740.175 8  97430900.729 8
E10  26095883.376 6  26095885.604 8 137134830.454 6 103741580.683 8
E11  24157046.834 7  24157045.269 8 126946149.300 7  96033918.512 8
E25  26274497.282 7  26274502.514 8 138073452.867 7 104451652.085 8
E30  27002865.974 6  27002867.271 5 141901004.119 6 107347202.406 5
E36  23697941.264 8  23697943.965 9 124533522.449 8  94208808.363 9
G02  22585096.557 6  22585099.367 4                 118685494.922 6  92482192.308 4
G08  20625569.381 8                  20625575.842 7 108388333.038 8                  84458290.973 7
G10  20739012.863 8                  20739019.397 8 108984331.560 8                  84922816.902 8
G16  23590148.924 7  23590154.571 4                 123967019.955 7  96597726.157 4
G23  22062762.789 7                  22062768.901 8 115940598.896 7                  90343345.740 8
G27  20189340.637 8                  20189347.360 8 106095830.377 8                  82671985.196 8
R01  20260207.290 7                 108302583.489 7
R08  21387180.491 7  21387184.710 7 114527468.767 7  89076866.854 7
R14  23458330.261 6  23458339.653 5 125046045.637 6  97258113.271 5
R15  21523023.255 6  21523028.983 6 115012527.301 6  89454199.953 6
R16  22507343.561 6  22507348.375 6 120230209.051 6  93512387.160 6
R17  20677392.824 8  20677397.072 7 110649054.525 8  86060287.418 7
R24  19495113.298 8  19495116.758 7 104249265.953 8  81082671.974 7
> 2025 06 15 09 44  0.0000000  0 24
C13  38330352.204 6  38330356.091 6 199596218.926 6 154340462.203 6
C19  23964255.286 7                 124788229.692 7
C20  22839668.994 7                 118932215.835 7
C26  25618606.992 5                 133402697.29415
C29  22189131.281 7                 115544870.711 7
E02  24508200.498 8  24508201.982 8 128791430.948 8  97429910.302 8
E10  26096902.876 6  26096906.681 8 137140196.214 6 103745639.810 8
E11  24157247.506 7  24157246.458 8 126947206.674 7  96034718.408 8
E25  26276241.360 7  26276246.804 8 138082619.332 7 104458586.431 8
E30  27000008.368 6  27000011.377 5 141885994.566 6 107335847.811 5
E36  23695883.646 8  23695886.224 9 124522709.140 8  94200628.174 9
G02  22581648.273 6  22581651.715 4                 118667376.573 6  92468074.141 4
G08  20622995.811 8                  20623002.983 7 108374811.053 8                  84447754.362 7
G10  20737812.337 8                  20737818.962 8 108978023.904 8                  84917901.836 8
G16  23592493.641 7  23592500.345 4                 123979346.414 7  96607331.166 4
G23  22064093.720 7                  22064101.017 8 115947597.054 7                  90348798.871 8
G27  20189210.076 8                  20189216.981 8 106095146.574 8                  82671452.373 8
R01  20257004.425 7                 108285464.677 7
R08  21388008.739 7  21388013.415 7 114531903.619 7  89080316.198 7
R14  23461116.528 6  23461127.772 5 125060904.506 6  97269670.172 5
R15  21523689.590 6  21523694.821 6 115016083.317 6  89456965.823 6
R16  22504468.310 6  22504473.337 6 120214851.060 6  93500442.064 6
R17  20673842.026 8  20673847.507 7 110630057.460 8  86045511.919 7
R24  19494706.223 8  19494709.847 7 104247087.636 8  81080977.727 7
> 2025 06 15 09 44  5.0000000  0 24
C13  38330126.206 6  38330130.091 6 199595042.827 6 154339552.760 6
C19  23960246.612 7                 124767359.506 7
C20  22838167.342 7                 118924395.565 7
C26  25619720.382 4                 133408397.535 4
C29  22189595.208 7                 115547287.394 7
E02  24507953.822 8  24507955.100 8 128790133.427 8  97428928.726 8
E10  26097924.505 6  26097928.073 8 137145563.886 6 103749700.405 8
E11  24157450.048 7  24157448.520 8 126948268.615 7  96035521.750 8
E25  26277986.506 7  26277991.818 8 138091789.435 7 104465523.525 8
E30  26997146.972 5  26997157.095 5 141870994.573 5 107324500.367 5
E36  23693827.190 8  23693829.606 9 124511901.615 8  94192452.358 9
G02  22578202.101 7  22578205.617 4                 118649263.448 7  92453960.037 4
G08  20620424.716 8                  20620432.088 7 108361301.749 8                  84437227.646 7
G10  20736615.054 8                  20736621.487 7 108971730.866 8                  84912998.153 7
G16  23594839.947 6  23594846.967 4                 123991676.539 6  96616939.040 4
G23  22065427.578 7                  22065434.911 8 115954604.758 7                  90354259.440 8
G27  20189083.110 7                  20189089.591 8 106094477.142 7                  82670930.731 8
R01  20253805.534 7                 108268366.106 7
R08  21388840.407 7  21388845.466 7 114536358.000 7  89083780.718 7
R14  23463905.590 6  23463914.356 5 125075765.989 6  97281229.129 5
R15  21524359.060 6  21524363.454 6 115019658.595 6  89459746.588 6
R16  22501596.948 6  22501601.482 5 120199513.093 6  93488512.566 5
R17  20670293.557 8  20670298.799 7 110611066.958 8  86030741.545 7
R24  19494300.818 8  19494304.584 7 104244920.756 8  81079292.383 7
> 2025 06 15 09 44 10.0000000  0 24
C13  38329900.975 6  38329904.183 6 199593867.511 6 154338643.942 6
C19  23956240.739 7                 124746496.782 7
C20  22836668.610 7                 118916589.931 7
C26  25620823.035 4                 133414104.678 4
C29  22190060.585 7                 115549711.468 7
E02  24507709.375 8  24507710.432 8 128788847.408 8  97427955.852 8
E10  26098946.978 6  26098949.892 8 137150933.281 6 103753762.297 8
E11  24157652.934 7  24157651.369 8 126949334.911 7  96036328.404 8
E25  26279731.933 7  26279737.530 8 138100962.947 7 104472463.212 8
E30  26994291.538 4  26994304.525 5 141856003.944 4 107313160.046 5
E36  23691771.447 8  23691774.035 9 124501099.719 8  94184280.796 9
G02  22574755.872 7  22574760.333 5                 118631155.365 7  92439849.840 5
G08  20617856.132 8                  20617863.912 7 108347804.938 8                  84426710.660 7
G10  20735420.128 8                  20735426.732 8 108965452.312 8                  84908105.767 8
G16  23597187.508 6  23597194.556 4                 124004010.222 6  96626549.686 4
G23  22066763.130 7                  22066769.974 8 115961621.859 7                  90359727.288 8
G27  20188958.355 8                  20188964.936 8 106093821.882 8                  82670420.132 8
R01  20250611.125 7                 108251287.653 7
R08  21389673.588 7  21389680.737 7 114540831.863 7  89087260.408 7
R14  23466694.482 6  23466702.820 5 125090630.229 6  97292790.144 5
R15  21525028.686 5  21525036.371 6 115023253.066 5  89462542.231 6
R16  22498728.250 6  22498731.843 5 120184194.905 6  93476598.404 5
R17  20666746.563 8  20666750.995 7 110592082.894 8  86015976.134 7
R24  19493898.208 8  19493901.510 7 104242765.060 8  81077615.720 7
> 2025 06 15 09 44 15.0000000  0 24
C13  38329675.124 6  38329678.868 6 199592692.545 6 154337735.371 6
C19  23952235.866 7                 124725641.259 7
C20  22835172.668 7                 118908798.624 7
C26  25621917.408 4                 133419818.374 4
C29  22190528.308 7                 115552142.547 7
E02  24507466.723 8  24507467.840 8 128787572.551 8  97426991.423 8
E10  26099968.989 6  26099971.923 8 137156304.024 6 103757825.218 8
E11  24157856.563 7  24157855.015 8 126950405.234 7  96037138.103 8
E25  26281478.359 7  26281483.745 8 138110139.537 7 104479405.209 8
E30  26991446.250 5  26991453.527 5 141841022.170 5 107301826.402 5
E36  23689716.880 8  23689719.484 9 124490303.061 8  94176113.193 9
G02  22571311.150 7  22571315.677 5                 118613051.958 7  92425743.301 5
G08  20615290.207 8                  20615297.607 7 108334320.296 8                  84416203.159 7
G10  20734228.244 8                  20734234.583 8 108959187.847 8                  84903224.369 8
G16  23599535.439 6  23599542.072 4                 124016347.044 6  96636162.757 4
G23  22068099.469 7                  22068106.722 7 115968647.979 7                  90365202.169 7
G27  20188835.952 8                  20188843.137 8 106093180.457 8                  82669920.328 8
R01  20247420.586 7                 108234228.802 7
R08  21390513.546 7  21390519.567 7 114545324.822 7  89090754.916 7
R14  23469483.279 6  23469491.215 5 125105496.582 6  97304352.818 5
R15  21525708.140 6  21525712.775 7 115026866.164 6  89465352.502 7
R16  22495865.110 6  22495868.930 5 120168896.479 6  93464699.565 5
R17  20663199.479 8  20663204.939 7 110573104.864 8  86001215.468 7
R24  19493497.755 8  19493500.747 7 104240620.275 8  81075947.563 7
> 2025 06 15 09 44 20.0000000  0 24
C13  38329449.840 6  38329452.918 6 199591517.235 6 154336826.538 6
C19  23948232.055 7                 124704792.117 7
C20  22833679.420 7                 118901020.854 7
C26  25623015.257 4                 133425537.89014
C29  22190996.739 7                 115554579.882 7
E02  24507225.656 8  24507227.233 8 128786308.076 8  97426034.851 8
E10  26100991.250 6  26100994.087 8 137161675.387 6 103761888.606 8
E11  24158060.608 7  24158059.284 8 126951478.853 7  96037950.278 8
E25  26283224.784 7  26283230.398 8 138119318.415 7 104486348.948 8
E30  26988596.928 4  26988603.869 5 141826048.596 4 107290499.054 5
E36  23687663.193 8  23687665.774 9 124479510.906 8  94167948.999 9
G02  22567866.731 7  22567871.818 5                 118594952.438 7  92411639.804 5
G08  20612726.999 8                  20612733.815 7 108320847.016 8                  84405704.509 7
G10  20733038.464 8                  20733045.022 8 108952936.703 8                  84898353.351 8
G16  23601883.308 6  23601890.568 4                 124028686.203 6  96645777.664 4
G23  22069438.538 7                  22069445.455 7 115975682.331 7                  90370683.450 7
G27  20188717.027 8                  20188723.728 8 106092552.093 8                  82669430.694 8
R01  20244233.233 7                 108217189.032 7
R08  21391356.807 7  21391361.708 7 114549836.052 7  89094263.643 7
R14  23472273.047 7  23472280.735 5 125120364.286 7  97315916.530 5
R15  21526386.127 6  21526392.053 6 115030497.306 6  89468176.732 6
R16  22493004.694 6  22493008.378 5 120153616.440 6  93452815.079 5
R17  20659653.460 8  20659659.779 7 110554132.117 8  85986458.915 7
R24  19493096.875 8  19493101.805 7 104238485.528 8  81074287.207 7
> 2025 06 15 09 44 25.0000000  0 23
C13  38329223.826 6  38329227.347 6 199590341.904 6 154335917.690 6
C19  23944229.767 7                 124683949.732 7
C20  22832188.183 7                 118893256.975 7
C29  22191466.162 7                 115557023.800 7
E02  24506987.480 8  24506988.679 8 128785054.319 8  97425086.381 8
E10  26102013.750 6  26102016.495 8 137167047.716 6 103765952.712 8
E11  24158265.985 7  24158264.278 8 126952556.024 7  96038765.149 8
E25  26284972.307 7  26284977.597 8 138128499.905 7 104493294.669 8
E30  26985751.653 4  26985755.966 5 141811083.64414 107279178.14915
E36  23685610.759 8  23685613.005 9 124468723.568 8  94159788.453 9
G02  22564422.423 6  22564428.426 4                 118576857.199 6  92397539.625 4
G08  20610165.196 8                  20610171.799 7 108307385.514 8                  84395215.046 7
G10  20731851.729 8                  20731857.866 8 108946699.262 8                  84893493.009 8
G16  23604232.467 6  23604239.175 4                 124041028.036 6  96655394.657 4
G23  22070779.795 7                  22070785.464 7 115982725.223 7                  90376171.394 7
G27  20188599.876 8                  20188606.283 8 106091937.116 8                  82668951.476 8
R01  20241048.041 7                 108200168.617 7
R08  21392203.943 7  21392208.261 7 114554365.861 7  89097786.806 7
R14  23475063.303 7  23475070.485 6 125135233.757 7  97327481.619 6
R15  21527067.044 6  21527074.768 6 115034146.603 6  89471015.082 6
R16  22490148.331 6  22490152.733 5 120138355.802 6  93440945.720 5
R17  20656109.157 8  20656115.470 7 110535164.958 8  85971706.721 7
R24  19492699.691 8  19492704.532 7 104236361.316 8  81072635.025 7
> 2025 06 15 09 44 30.0000000  0 23
C13  38328998.016 6  38329001.805 6 199589167.154 6 154335009.306 6
C19  23940228.058 7                 124663114.836 7
C20  22830700.300 7                 118885507.672 7
C29  22191936.564 7                 115559475.017 7
E02  24506751.283 8  24506752.294 8 128783811.984 8  97424146.562 8
E10  26103036.091 6  26103039.175 8 137172421.676 6 103770018.060 8
E11  24158471.313 7  24158470.058 8 126953637.535 7  96039583.300 8
E25  26286720.392 7  26286725.420 8 138137684.715 7 104500242.902 8
E30  26982908.076 4  26982909.949 5 141796127.97914 107267864.21815
E36  23683559.221 8  23683561.302 9 124457941.797 8  94151632.113 9
G02  22560980.589 6  22560985.150 4                 118558766.912 6  92383443.311 4
G08  20607605.822 8                  20607612.844 7 108293936.485 8                  84384735.275 7
G10  20730667.555 8                  20730674.006 8 108940476.178 8                  84888643.858 8
G16  23606581.516 6  23606588.427 4                 124053373.274 6  96665014.292 4
G23  22072121.261 7                  22072127.337 7 115989777.344 7                  90381666.556 7
G27  20188486.076 8                  20188492.084 8 106091336.260 8                  82668483.271 8
R01  20237868.526 7                 108183168.112 7
R08  21393053.161 8  21393057.260 7 114558914.931 8  89101324.969 7
R14  23477852.559 7  23477860.885 6 125150105.683 7  97339048.620 6
R15  21527755.238 6  21527761.545 6 115037815.044 6  89473868.269 6
R16  22487294.059 6  22487298.386 5 120123114.887 6  93429091.687 5
R17  20652565.523 8  20652572.094 7 110516204.222 8  85956959.481 7
R24  19492304.568 8  19492309.377 7 104234248.207 8  81070991.493 7
> 2025 06 15 09 44 35.0000000  0 23
C13  38328773.010 6  38328776.479 6 199587992.845 6 154334101.256 6
C19  23936228.612 7                 124642287.164 7
C20  22829214.715 7                 118877772.699 7
C29  22192408.241 7                 115561933.279 7
E02  24506516.585 8  24506518.020 8 128782580.813 8  97423215.195 8
E10  26104059.107 6  26104062.125 8 137177797.041 6 103774084.475 8
E11  24158678.027 7  24158676.619 8 126954723.083 7  96040404.494 8
E25  26288468.953 7  26288473.808 8 138146872.563 7 104507193.444 8
E30  26980062.309 4  26980065.605 5 141781181.37914 107256557.24815
E36  23681508.479 8  23681510.600 9 124447165.282 8  94143479.752 9
G02  22557538.614 6  22557543.133 4                 118540681.350 6  92369350.682 4
G08  20605049.025 8                  20605056.139 8 108280499.646 8                  84374265.005 8
G10  20729485.911 8                  20729492.387 8 108934267.212 8                  84883805.712 8
G16  23608930.623 6  23608938.453 4                 124065721.652 6  96674636.390 4
G23  22073465.695 7                  22073470.811 7 115996838.449 7                  90387168.720 7
G27  20188374.164 8                  20188380.466 8 106090749.225 8                  82668025.831 8
R01  20234691.585 7                 108166187.590 7
R08  21393905.130 8  21393910.271 7 114563483.044 8  89104877.957 7
R14  23480644.537 7  23480651.104 6 125164979.626 7  97350617.207 6
R15  21528445.925 6  21528450.935 6 115041502.153 6  89476736.018 6
R16  22484447.127 6  22484449.556 6 120107893.648 6  93417252.950 6
R17  20649023.692 8  20649029.929 7 110497249.542 8  85942216.958 7
R24  19491911.984 8  19491915.861 7 104232145.960 8  81069356.403 7
> 2025 06 15 09 44 40.0000000  0 23
C13  38328547.223 6  38328551.096 6 199586819.063 6 154333193.608 6
C19  23932230.089 7                 124621466.863 7
C20  22827732.298 7                 118870052.186 7
C29  22192881.406 7                 115564398.679 7
E02  24506284.694 8  24506285.909 8 128781360.945 8  97422292.370 8
E10  26105081.965 6  26105085.318 8 137183173.922 6 103778152.045 8
E11  24158885.852 7  24158883.972 8 126955812.830 7  96041228.866 8
E25  26290217.857 7  26290222.824 8 138156063.605 7 104514146.393 8
E30  26977219.017 4  26977222.904 5 141766243.844 4 107245257.026 5
E36  23679458.356 8  23679460.923 9 124436394.193 8  94135331.494 9
G02  22554098.057 6  22554102.028 4                 118522600.647 6  92355261.851 4
G08  20602494.337 8                  20602501.805 8 108267075.166 8                  84363804.376 8
G10  20728306.565 8                  20728313.862 8 108928072.499 8                  84878978.666 8
G16  23611280.863 6  23611288.601 4                 124078073.272 6  96684261.005 4
G23  22074810.379 7                  22074816.556 7 116003908.670 7                  90392677.979 7
G27  20188264.822 8                  20188271.399 8 106090176.151 8                  82667579.284 8
R01  20231518.067 7                 108149226.863 7
R08  21394760.197 8  21394766.632 7 114568070.299 8  89108445.810 7
R14  23483433.902 7  23483441.902 6 125179855.885 7  97362187.579 6
R15  21529140.796 7  21529145.187 6 115045208.024 7  89479618.355 6
R16  22481601.127 6  22481604.133 5 120092692.204 6  93405429.633 5
R17  20645483.061 8  20645488.950 7 110478301.196 8  85927479.374 7
R24  19491521.587 8  19491524.381 7 104230054.865 8  81067730.007 7
> 2025 06 15 09 44 45.0000000  0 24
C13  38328321.569 6  38328325.144 6 199585645.244 6 154332285.932 6
C19  23928233.058 7                 124600653.398 7
C20  22826252.638 7                 118862345.617 7
C26  25628523.615 5                 133454228.71915
C29  22193356.126 7                 115566870.747 7
E02  24506054.149 8  24506055.824 8 128780151.851 8  97421377.688 8
E10  26106105.474 6  26106108.680 8 137188551.759 6 103782220.351 8
E11  24159093.934 7  24159092.020 8 126956906.184 7  96042055.972 8
E25  26291966.243 7  26291972.299 8 138165257.311 7 104521101.347 8
E30  26974380.726 5  26974381.905 5 141751314.93815 107233963.41415
E36  23677409.851 8  23677412.176 9 124425627.997 8  94127186.937 9
G02  22550657.692 6  22550662.390 4                 118504524.323 6  92341176.406 4
G08  20599941.708 8                  20599948.888 7 108253662.525 8                  84353352.978 7
G10  20727130.926 8                  20727137.418 8 108921891.518 8                  84874162.313 8
G16  23613631.096 6  23613639.243 4                 124090427.611 6  96693887.740 4
G23  22076157.930 7                  22076163.216 7 116010987.470 7                  90398193.927 7
G27  20188158.477 8                  20188164.838 8 106089616.521 8                  82667143.221 8
R01  20228348.930 7                 108132285.635 7
R08  21395621.667 7  21395627.236 7 114572676.193 7  89112028.146 7
R14  23486225.061 7  23486233.434 6 125194733.834 7  97373759.308 6
R15  21529837.863 6  21529841.795 6 115048932.275 6  89482514.969 6
R16  22478757.779 6  22478762.290 5 120077509.851 6  93393621.125 5
R17  20641942.547 8  20641948.486 7 110459358.535 8  85912746.172 7
R24  19491131.030 8  19491135.879 7 104227974.358 8  81066111.838 7
> 2025 06 15 09 44 50.0000000  0 24
C13  38328096.204 6  38328099.824 6 199584471.873 6 154331378.597 6
C19  23924237.120 7                 124579847.209 7
C20  22824775.233 7                 118854653.398 7
C26  25629626.786 5                 133459987.091 5
C29  22193832.021 7                 115569349.837 7
E02  24505826.725 7  24505827.890 8 128778953.933 7  97420471.469 8
E10  26107128.719 6  26107132.330 8 137193931.042 6 103786289.739 8
E11  24159302.750 7  24159300.845 8 126958003.604 7  96042886.166 8
E25  26293716.632 7  26293722.394 8 138174454.063 7 104528058.615 8
E30  26971542.462 4  26971542.644 5 141736395.07814 107222676.62015
E36  23675361.821 8  23675364.442 9 124414867.084 8  94119046.377 9
G02  22547219.229 6  22547223.347 4                 118486452.775 6  92327094.675 4
G08  20597391.720 8                  20597399.076 7 108240262.127 8                  84342911.123 7
G10  20725957.444 8                  20725963.668 8 108915724.663 8                  84869356.964 8
G16  23615983.413 6  23615990.820 4                 124102784.931 6  96703516.800 4
G23  22077506.403 7                  22077512.093 7 116018075.262 7                  90403716.871 7
G27  20188054.261 8                  20188060.928 8 106089070.752 8                  82666717.951 8
R01  20225183.965 7                 108115364.284 7
R08  21396486.556 7  21396490.455 7 114577301.021 7  89115625.212 7
R14  23489016.241 7  23489026.006 6 125209613.810 7  97385332.563 6
R15  21530539.804 7  21530542.298 6 115052675.094 7  89485426.014 6
R16  22475917.346 5  22475923.423 5 120062347.073 5  93381827.967 5
R17  20638404.599 8  20638409.781 7 110440421.953 8  85898017.723 7
R24  19490745.015 8  19490748.774 7 104225904.688 8  81064502.080 7
> 2025 06 15 09 44 55.0000000  0 23
C13  38327871.152 6  38327874.802 6 199583298.911 6 154330471.582 6
C19  23920243.379 7                 124559048.311 7
C20  22823300.502 8                 118846975.552 8
C26  25630734.515 5                 133465752.033 5
C29  22194309.864 7                 115571835.974 7
E02  24505600.419 8  24505602.059 8 128777767.192 8  97419573.699 8
E10  26108152.912 6  26108156.255 8 137199311.693 6 103790360.155 8
E11  24159512.356 7  24159510.493 8 126959105.052 7  96043719.416 8
E25  26295467.531 7  26295473.027 8 138183653.868 7 104535018.174 8
E30  26968705.217 5  26968705.013 5 141721484.35015 107211396.73815
E36  23673315.073 8  23673317.736 9 124404111.475 8  94110909.837 9
G02  22543782.112 7  22543785.256 4                 118468385.923 7  92313016.619 4
G08  20594844.531 8                  20594851.714 8 108226874.014 8                  84332478.821 8
G10  20724786.721 8                  20724792.783 8 108909571.941 8                  84864562.642 8
G16  23618334.669 6  23618343.068 4                 124115145.342 6  96713148.284 4
G23  22078856.105 6                  22078862.882 7 116025171.978 6                  90409246.783 7
G27  20187953.544 8                  20187959.815 8 106088538.852 8                  82666303.465 8
R01  20222020.973 7                 108098462.798 7
R08  21397353.685 7  21397358.072 7 114581944.838 7  89119237.082 7
R15  21531242.244 7  21531246.461 6 115056436.525 7  89488351.626 6
R16  22473082.451 6  22473088.270 5 120047204.034 6  93370050.044 5
R17  20634866.197 8  20634872.693 7 110421491.638 8  85883294.184 7
R24  19490359.497 8  19490363.341 7 104223845.907 8  81062900.802 7
> 2025 06 15 09 45  0.0000000  0 23
C13  38327646.926 6  38327649.779 6 199582127.320 6 154329565.634 6
C19  23916251.087 7                 124538257.729 7
C20  22821829.081 8                 118839313.070 8
C26  25631829.464 4                 133471524.507 4
C29  22194788.862 7                 115574330.204 7
E02  24505376.863 8  24505378.533 8 128776592.643 8  97418685.155 8
E10  26109176.795 6  26109180.606 8 137204694.782 6 103794432.425 8
E11  24159722.779 7  24159721.110 8 126960211.607 7  96044556.517 8
E25  26297218.745 7  26297224.469 8 138192857.752 7 104541980.825 8
E30  26965869.988 5  26965869.316 5 141706583.643 5 107200124.456 5
E36  23671269.295 8  23671272.233 9 124393362.195 8  94102778.084 9
G02  22540344.891 6  22540348.380 4                 118450324.933 6  92298943.122 4
G08  20592299.301 8                  20592305.996 7 108213499.192 8                  84322056.867 7
G10  20723618.086 8                  20723624.721 8 108903434.375 8                  84859780.136 8
G16  23620687.442 6  23620695.780 3                 124127509.862 6  96722782.951 3
G23  22080209.423 6                  22080215.289 7 116032278.702 6                  90414784.473 7
G27  20187854.942 8                  20187861.188 8 106088021.844 8                  82665900.594 8
R01  20218864.166 7                 108081582.255 7
R08  21398223.736 7  21398228.833 7 114586608.646 7  89122864.486 7
R15  21531947.947 7  21531953.562 6 115060217.772 7  89491292.592 6
R16  22470252.852 6  22470257.463 5 120032081.732 6  93358288.330 5
R17  20631330.344 8  20631336.288 7 110402568.526 8  85868576.188 7
R24  19489976.124 8  19489980.934 7 104221799.145 8  81061308.896 7
> 2025 06 15 09 45  5.0000000  0 23
C13  38327421.901 6  38327425.021 6 199580956.817 6 154328660.534 6
C19  23912259.918 7                 124517475.070 7
C20  22820360.189 7                 118831665.590 7
C26  25632933.770 4                 133477304.165 4
C29  22195269.741 7                 115576832.111 7
E02  24505155.117 7  24505157.256 8 128775429.909 7  97417805.552 8
E10  26110202.590 6  26110205.363 8 137210079.950 6 103798506.275 8
E11  24159933.945 7  24159932.597 8 126961322.815 7  96045397.138 8
E25  26298970.590 7  26298976.574 8 138202065.277 7 104548946.237 8
E30  26963035.380 5  26963035.536 5 141691692.727 5 107188859.573 5
E36  23669224.587 8  23669227.852 9 124382618.865 8  94094650.819 9
G02  22536909.566 7  22536912.754 4                 118432269.304 7  92284873.783 4
G08  20589756.672 8                  20589763.201 7 108200137.299 8                  84311644.994 7
G10  20722453.332 8                  20722459.575 8 108897311.583 8                  84855009.119 8
G16  23623041.683 6  23623048.950 3                 124139878.115 6  96732420.516 3
G23  22081564.099 6                  22081568.567 7 116039394.987 6                  90420329.628 7
G27  20187759.589 8                  20187765.920 8 106087519.328 8                  82665509.018 8
R01  20215709.816 7                 108064722.289 7
R08  21399098.645 8  21399103.829 7 114591292.155 8  89126507.219 7
R15  21532661.460 7  21532664.720 6 115064018.296 7  89494248.446 6
R16  22467424.761 6  22467428.166 4 120016979.920 6  93346542.495 4
R17  20627795.771 8  20627800.923 7 110383652.181 8  85853863.496 7
R24  19489596.288 8  19489600.510 7 104219763.976 8  81059725.981 7
> 2025 06 15 09 45 10.0000000  0 23
C13  38327197.412 6  38327200.539 6 199579787.112 6 154327756.039 6
C19  23908270.236 7                 124496700.154 7
C20  22818893.975 7                 118824032.864 7
C26  25634049.429 5                 133483090.629 5
C29  22195751.649 7                 115579341.451 7
E02  24504936.135 8  24504938.202 8 128774278.739 8  97416934.694 8
E10  26111227.722 7  26111230.471 8 137215466.892 7 103802581.460 8
E11  24160146.159 7  24160144.942 8 126962438.498 7  96046241.139 8
E25  26300723.338 7  26300729.336 8 138211276.234 7 104555914.229 8
E30  26960204.951 5  26960203.637 6 141676811.251 5 107177601.828 6
E36  23667181.503 8  23667184.567 9 124371881.234 8  94086527.883 9
G02  22533474.309 7  22533477.958 4                 118414218.796 7  92270808.453 4
G08  20587216.081 8                  20587223.055 7 108186788.085 8                  84301243.009 7
G10  20721291.528 8                  20721297.416 8 108891203.305 8                  84850249.412 8
G16  23625395.157 6  23625403.137 4                 124152249.811 6  96742060.773 4
G23  22082919.580 6                  22082924.761 7 116046520.595 6                  90425882.056 7
G27  20187666.255 8                  20187672.868 8 106087031.027 8                  82665128.526 8
R01  20212559.772 7                 108047882.658 7
R08  21399976.843 8  21399981.297 7 114595994.990 8  89130164.933 7
R15  21533376.269 7  21533379.499 6 115067837.937 7  89497219.282 6
R16  22464600.956 6  22464603.990 5 120001897.953 6  93334812.064 5
R17  20624262.282 8  20624267.687 7 110364742.473 8  85839155.954 7
R24  19489217.840 8  19489222.248 7 104217740.161 8  81058151.896 7
> 2025 06 15 09 45 15.0000000  0 23
C13  38326972.903 6  38326975.726 6 199578617.548 6 154326851.662 6
C19  23904282.058 7                 124475932.302 7
C20  22817430.586 7                 118816414.242 7
C26  25635169.690 5                 133488883.357 5
C29  22196234.914 7                 115581857.570 7
E02  24504719.587 8  24504721.208 8 128773138.474 8  97416072.089 8
E10  26112252.705 7  26112255.787 8 137220854.979 7 103806657.500 8
E11  24160358.880 7  24160358.006 8 126963557.954 7  96047087.996 8
E25  26302477.132 7  26302482.649 8 138220489.938 7 104562884.321 8
E30  26957374.078 5  26957373.435 6 141661938.610 5 107166350.795 6
E36  23665139.580 8  23665142.231 9 124361148.644 8  94078408.747 9
G02  22530040.997 7  22530043.828 4                 118396172.799 7  92256746.647 4
G08  20584677.932 8                  20584685.166 7 108173450.882 8                  84290850.396 7
G10  20720131.034 8                  20720137.383 8 108885108.892 8                  84845500.516 8
G16  23627751.076 6  23627758.189 3                 124164624.292 6  96751703.166 3
G23  22084277.756 7                  22084282.207 7 116053654.858 7                  90431441.210 7
G27  20187576.094 8                  20187582.635 8 106086556.325 8                  82664758.624 8
R01  20209413.550 7                 108031062.673 7
R08  21400859.186 8  21400863.324 7 114600716.428 8  89133837.145 7
R15  21534092.716 6  21534098.026 6 115071675.765 6  89500204.267 6
R16  22461780.516 6  22461785.773 5 119986835.677 6  93323096.908 5
R17  20620729.260 8  20620734.905 7 110345838.644 8  85824452.940 7
R24  19488840.820 8  19488845.607 7 104215727.031 8  81056586.112 7
> 2025 06 15 09 45 20.0000000  0 23
C13  38326749.511 6  38326751.405 6 199577449.242 6 154325948.254 6
C19  23900294.968 7                 124455172.672 7
C20  22815970.082 7                 118808810.845 7
C26  25636286.892 5                 133494683.430 5
C29  22196719.235 7                 115584381.631 7
E02  24504505.125 8  24504506.518 8 128772010.274 8  97415218.610 8
E10  26113278.376 7  26113281.540 8 137226245.370 7 103810735.277 8
E11  24160572.168 7  24160572.004 8 126964682.364 7  96047938.602 8
E25  26304231.006 7  26304236.721 8 138229707.556 7 104569857.364 8
E30  26954543.785 6  26954545.139 6 141647075.909 6 107155107.311 6
E36  23663098.157 8  23663101.075 9 124350422.245 8  94070294.305 9
G02  22526607.187 7  22526610.376 4                 118378132.441 7  92242689.253 4
G08  20582142.329 8                  20582149.515 7 108160126.896 8                  84280468.064 7
G10  20718974.094 8                  20718980.838 8 108879029.499 8                  84840763.348 8
G16  23630106.552 6  23630113.710 4                 124177002.693 6  96761348.632 4
G23  22085637.372 7                  22085641.717 7 116060798.949 7                  90437008.017 7
G27  20187488.753 8                  20187495.179 8 106086096.359 8                  82664400.218 8
R01  20206270.988 7                 108014263.587 7
R08  21401744.288 7  21401748.624 7 114605457.655 7  89137524.779 7
R15  21534814.212 6  21534819.173 6 115075533.180 6  89503204.458 6
R16  22458966.619 6  22458970.009 5 119971793.869 6  93311397.696 5
R17  20617198.152 8  20617203.329 7 110326941.886 8  85809755.464 7
R24  19488466.595 8  19488471.200 7 104213725.798 8  81055029.588 7
> 2025 06 15 09 45 25.0000000  0 23
C13  38326525.078 6  38326527.368 6 199576281.697 6 154325045.427 6
C19  23896309.771 7                 124434420.708 7
C20  22814513.394 7                 118801222.151 7
C26  25637396.797 4                 133500490.335 4
C29  22197205.206 7                 115586913.063 7
E02  24504292.401 8  24504294.021 8 128770893.552 8  97414373.819 8
E10  26114304.358 7  26114307.605 8 137231637.474 7 103814814.358 8
E11  24160787.307 7  24160786.835 8 126965811.164 7  96048792.515 8
E25  26305985.950 7  26305991.424 8 138238928.492 7 104576832.918 8
E30  26951717.825 6  26951718.611 6 141632222.679 6 107143870.948 6
E36  23661058.119 8  23661060.991 9 124339701.485 8  94062184.124 9
G02  22523174.413 6  22523178.516 4                 118360097.199 6  92228635.814 4
G08  20579609.792 8                  20579616.371 7 108146815.532 8                  84270095.583 7
G10  20717820.751 8                  20717826.549 8 108872964.576 8                  84836037.429 8
G16  23632463.026 6  23632469.816 4                 124189384.405 6  96770996.683 4
G23  22086998.176 7                  22087002.496 7 116067952.241 7                  90442582.005 7
G27  20187403.992 8                  20187410.214 8 106085650.571 8                  82664052.845 8
R01  20203132.065 7                 107997484.871 7
R08  21402633.775 8  21402637.846 7 114610218.180 8  89141227.414 7
R15  21535540.294 6  21535543.639 6 115079409.387 6  89506219.319 6
R16  22456154.186 6  22456158.638 5 119956772.318 6  93299714.328 5
R17  20613668.051 8  20613673.919 7 110308051.646 8  85795063.068 7
R24  19488094.537 8  19488099.229 7 104211735.779 8  81053481.797 7
> 2025 06 15 09 45 30.0000000  0 23
C13  38326300.848 6  38326303.217 6 199575114.808 6 154324143.114 6
C19  23892326.335 7                 124413676.403 7
C20  22813058.815 7                 118793648.104 7
C26  25638506.127 4                 133506303.96614
C29  22197692.477 7                 115589451.836 7
E02  24504082.044 7  24504083.679 8 128769788.284 7  97413537.687 8
E10  26115331.355 6  26115334.008 8 137237031.257 6 103818894.721 8
E11  24161003.367 7  24161002.485 8 126966944.266 7  96049649.688 8
E25  26307741.149 7  26307746.732 8 138248152.701 7 104583810.938 8
E30  26948893.356 6  26948893.923 6 141617378.888 6 107132641.716 6
E36  23659019.233 8  23659021.964 9 124328986.331 8  94054078.173 9
G02  22519743.431 6  22519747.106 5                 118342066.979 6  92214586.332 5
G08  20577078.487 8                  20577086.114 7 108133516.804 8                  84259732.937 7
G10  20716669.239 8                  20716675.376 8 108866914.040 8                  84831322.738 8
G16  23634819.389 6  23634826.446 3                 124201769.598 6  96780647.457 3
G23  22088360.507 6                  22088365.615 7 116075114.706 6                  90448163.139 7
G27  20187321.845 8                  20187327.607 8 106085218.926 8                  82663716.500 8
R01  20199996.599 7                 107980726.347 7
R08  21403526.695 8  21403530.707 7 114614997.972 8  89144945.044 7
R15  21536270.536 5  21536272.760 6 115083304.480 5  89509248.822 6
R16  22453349.511 6  22453350.766 6 119941770.801 6  93288046.476 6
R17  20610138.864 8  20610145.349 8 110289167.965 8  85780375.761 8
R24  19487724.769 8  19487728.991 7 104209757.004 8  81051942.744 7
> 2025 06 15 09 45 35.0000000  0 22
C13  38326077.382 6  38326078.836 6 199573947.947 6 154323240.823 6
C19  23888344.316 7                 124392939.035 7
C20  22811607.305 7                 118786088.004 7
C29  22198182.007 7                 115591997.207 7
E02  24503873.879 7  24503875.386 8 128768693.754 7  97412709.670 8
E10  26116357.583 7  26116360.600 8 137242426.011 7 103822975.805 8
E11  24161220.071 7  24161218.828 8 126968080.958 7  96050509.580 8
E25  26309497.210 7  26309502.546 8 138257379.469 7 104590790.909 8
E30  26946070.879 6  26946070.971 6 141602543.799 6 107121419.070 6
E36  23656981.276 8  23656983.858 9 124318276.054 8  94045975.920 9
G02  22516312.999 6  22516316.750 4                 118324041.166 6  92200540.271 4
G08  20574550.094 8                  20574557.418 7 108120229.967 8                  84249379.565 7
G10  20715519.816 8                  20715526.454 8 108860877.190 8                  84826618.702 8
G16  23637177.414 6  23637184.004 4                 124214157.240 6  96790300.143 4
G23  22089725.393 6                  22089729.982 7 116082285.626 6                  90453750.858 7
G27  20187241.842 8                  20187248.230 8 106084800.683 8                  82663390.601 8
R01  20196866.246 7                 107963987.469 7
R08  21404420.949 7  21404426.673 7 114619796.196 7  89148677.003 7
R15  21537001.745 6  21537005.812 5 115087217.686 6  89512292.392 5
R16  22450542.980 6  22450545.884 6 119926788.496 6  93276393.574 6
R17  20606611.563 8  20606617.131 8 110270290.115 8  85765692.977 8
R24  19487357.133 8  19487361.042 7 104207788.703 8  81050411.843 7
> 2025 06 15 09 45 40.0000000  0 22
C13  38325852.563 6  38325855.292 6 199572781.974 6 154322339.226 6
C19  23884363.674 7                 124372209.565 7
C20  22810158.144 7                 118778542.777 7
C29  22198672.252 7                 115594550.122 7
E02  24503668.483 8  24503669.322 8 128767610.901 8  97411890.482 8
E10  26117384.889 7  26117387.569 8 137247822.652 7 103827058.326 8
E11  24161437.618 7  24161436.016 8 126969222.204 7  96051372.926 8
E25  26311253.896 7  26311259.046 8 138266609.726 7 104597773.513 8
E30  26943250.444 6  26943249.920 5 141587718.329 6 107110203.675 5
E36  23654943.969 8  23654946.872 9 124307571.575 8  94037878.052 9
G02  22512884.920 6  22512887.675 5                 118306020.699 6  92186498.334 5
G08  20572024.184 8                  20572031.156 7 108106955.975 8                  84239036.193 7
G10  20714374.427 8                  20714380.677 8 108854854.966 8                  84821926.073 8
G16  23639535.476 6  23639542.201 4                 124226548.325 6  96799955.510 4
G23  22091091.096 6                  22091096.220 7 116089465.936 6                  90459345.889 7
G27  20187164.893 8                  20187171.410 8 106084396.805 8                  82663075.876 8
R01  20193738.538 7                 107947269.162 7
R08  21405321.192 7  21405325.935 7 114624613.739 7  89152423.989 7
R15  21537735.345 6  21537741.980 6 115091149.972 6  89515350.823 6
R16  22447743.751 6  22447745.115 6 119911826.584 6  93264756.564 6
R17  20603085.266 8  20603090.911 8 110251418.936 8  85751015.386 8
R24  19486990.665 8  19486994.864 7 104205831.960 8  81048889.937 7
> 2025 06 15 09 45 45.0000000  0 22
C13  38325629.571 6  38325631.486 6 199571617.380 6 154321438.679 6
C19  23880383.923 7                 124351488.524 7
C20  22808712.619 7                 118771012.941 7
C29  22199164.207 7                 115597111.088 7
E02  24503464.373 8  24503465.555 8 128766540.183 8  97411080.490 8
E10  26118411.968 7  26118414.944 8 137253221.716 7 103831142.677 8
E11  24161655.840 7  24161654.127 8 126970368.516 7  96052240.101 8
E25  26313010.736 7  26313016.293 8 138275843.993 7 104604759.147 8
E30  26940429.945 6  26940430.900 6 141572903.073 6 107098996.042 6
E36  23652907.996 8  23652911.070 9 124296873.448 8  94029784.985 9
G02  22509456.059 6  22509459.615 4                 118288005.981 6  92172460.904 4
G08  20569501.247 8                  20569507.882 7 108093695.349 8                  84228703.267 7
G10  20713231.038 8                  20713237.964 8 108848847.896 8                  84817245.224 8
G16  23641894.109 6  23641900.892 4                 124238943.315 6  96809613.955 4
G23  22092459.601 6                  22092464.548 7 116096656.120 6                  90464948.643 7
G27  20187090.737 8                  20187097.324 8 106084007.769 8                  82662772.731 8
R01  20190615.088 7                 107930571.778 7
R08  21406223.059 8  21406229.160 7 114629451.228 8  89156186.444 7
R15  21538476.873 6  21538482.094 6 115095101.786 6  89518424.522 6
R16  22444943.975 6  22444947.806 6 119896885.332 6  93253135.646 6
R17  20599560.182 7  20599565.228 8 110232554.952 7  85736343.412 8
R24  19486627.149 8  19486631.249 7 104203887.114 8  81047377.289 7
> 2025 06 15 09 45 50.0000000  0 22
C13  38325406.448 6  38325408.090 6 199570454.216 6 154320539.249 6
C19  23876405.448 7                 124330775.911 7
C20  22807269.669 7                 118763498.514 7
C29  22199657.154 7                 115599680.148 7
E02  24503262.687 8  24503264.174 8 128765481.672 8  97410279.731 8
E10  26119439.982 7  26119442.815 8 137258623.225 7 103835228.873 8
E11  24161874.984 7  24161873.194 8 126971519.920 7  96053111.132 8
E25  26314768.423 7  26314774.308 8 138285082.259 7 104611747.807 8
E30  26937610.381 6  26937613.846 6 141558097.952 6 107087796.068 6
E36  23650873.799 8  23650876.483 9 124286181.661 8  94021696.722 9
G02  22506028.715 6  22506032.746 4                 118269997.138 6  92158428.034 4
G08  20566980.297 8                  20566986.901 7 108080448.119 8                  84218380.749 7
G10  20712090.773 8                  20712097.471 8 108842856.011 8                  84812576.213 8
G16  23644254.343 6  23644260.102 3                 124251342.279 6  96819275.454 3
G23  22093829.758 6                  22093834.576 7 116103856.181 6                  90470559.094 7
G27  20187019.743 8                  20187026.071 8 106083633.626 8                  82662481.187 8
R01  20187495.870 7                 107913895.479 7
R08  21407130.938 7  21407136.359 7 114634308.691 7  89159964.440 7
R15  21539219.499 6  21539224.764 5 115099073.239 6  89521513.389 5
R16  22442149.223 6  22442155.608 6 119881965.073 6  93241530.996 6
R17  20596036.429 7  20596041.848 8 110213698.308 7  85721677.123 8
R24  19486265.961 8  19486269.745 7 104201954.221 8  81045873.910 7
> 2025 06 15 09 45 55.0000000  0 22
C13  38325182.870 6  38325185.105 6 199569291.126 6 154319639.871 6
C19  23872428.911 6                 124310070.380 6
C20  22805828.801 7                 118755998.138 7
C29  22200151.804 7                 115602255.918 7
E02  24503063.246 8  24503064.849 8 128764433.972 8  97409487.150 8
E10  26120468.136 7  26120470.896 8 137264025.758 7 103839315.845 8
E11  24162094.947 7  24162092.939 8 126972675.016 7  96053984.957 8
E25  26316527.266 7  26316532.838 8 138294323.110 7 104618738.419 8
E30  26934793.819 5  26934798.444 6 141543301.659 5 107076602.757 6
E36  23648840.144 8  23648842.829 9 124275494.854 8  94013612.224 9
G02  22502602.856 6  22502606.565 4                 118251992.729 6  92144398.648 4
G08  20564462.007 8                  20564468.294 7 108067212.938 8                  84208067.604 7
G10  20710953.187 8                  20710959.801 8 108836877.872 8                  84807917.900 8
G16  23646613.955 6  23646620.240 4                 124263743.893 6  96828939.025 4
G23  22095201.114 6                  22095206.044 7 116111064.800 6                  90476176.146 7
G27  20186951.379 8                  20186957.639 8 106083272.976 8                  82662200.168 8
R01  20184380.029 7                 107897239.063 7
R08  21408041.409 7  21408046.778 7 114639184.478 7  89163756.728 7
R15  21539966.525 6  21539970.915 5 115103062.911 6  89524616.497 5
R16  22439360.924 6  22439365.871 6 119867064.308 6  93229941.541 6
R17  20592513.057 7  20592518.673 7 110194847.587 7  85707015.454 7
R24  19485906.052 8  19485910.764 7 104200032.089 8  81044378.913 7
> 2025 06 15 09 46  0.0000000  0 22
C13  38324959.358 6  38324961.900 6 199568129.191 6 154318741.403 6
C19  23868454.694 7                 124289373.029 7
C20  22804391.354 7                 118748512.856 7
C29  22200648.144 7                 115604839.478 7
E02  24502866.164 8  24502867.744 8 128763398.178 8  97408703.577 8
E10  26121496.931 7  26121499.391 7 137269430.469 7 103843404.461 7
E11  24162315.324 7  24162313.566 8 126973834.868 7  96054862.377 8
E25  26318286.647 7  26318292.048 8 138303567.693 7 104625731.860 8
E30  26931982.358 5  26931984.839 6 141528515.304 5 107065416.99016
E36  23646807.384 8  23646810.334 9 124264814.105 8  94005532.307 9
G02  22499177.790 6  22499181.891 4                 118233993.884 6  92130373.614 4
G08  20561945.806 8                  20561952.285 7 108053990.905 8                  84197764.711 7
G10  20709818.926 8                  20709825.034 8 108830914.582 8                  84803271.189 8
G16  23648973.976 6  23648980.820 4                 124276149.130 6  96838605.431 4
G23  22096573.670 6                  22096579.812 7 116118283.010 6                  90481800.696 7
G27  20186885.707 8                  20186892.013 8 106082926.922 8                  82661930.513 8
R01  20181266.420 7                 107880603.346 7
R08  21408955.910 7  21408961.229 7 114644079.916 7  89167564.278 7
R15  21540718.525 6  21540720.816 6 115107071.894 6  89527734.571 6
R16  22436576.106 6  22436579.825 6 119852184.051 6  93218367.940 6
R17  20588991.508 8  20588997.922 8 110176003.899 8  85692359.261 8
R24  19485548.811 8  19485552.662 7 104198121.510 8  81042892.902 7
> 2025 06 15 09 46  5.0000000  0 22
C13  38324736.369 6  38324738.806 6 199566967.383 6 154317843.002 6
C19  23864481.465 7                 124268682.813 7
C20  22802956.746 7                 118741041.659 7
C29  22201145.669 7                 115607429.769 7
E02  24502671.099 8  24502672.754 8 128762373.225 8  97407928.196 8
E10  26122525.944 6  26122528.066 7 137274836.246 6 103847493.891 7
E11  24162536.803 7  24162534.912 8 126974998.462 7  96055742.628 8
E25  26320046.800 7  26320051.773 8 138312814.900 7 104632727.285 8
E30  26929171.672 6  26929172.920 5 141513737.822 6 107054237.93115
E36  23644776.185 8  23644778.816 9 124254138.362 8  93997456.179 9
G02  22495754.241 7  22495757.819 5                 118215999.526 7  92116352.039 5
G08  20559431.774 8                  20559438.697 7 108040780.937 8                  84187471.221 7
G10  20708686.433 8                  20708692.792 8 108824965.098 8                  84798635.229 8
G16  23651335.719 6  23651342.236 4                 124288556.968 6  96848273.852 4
G23  22097948.084 5                  22097955.053 7 116125509.666 5                  90487431.852 7
G27  20186822.494 8                  20186828.379 8 106082594.406 8                  82661671.416 8
R01  20178157.925 7                 107863987.493 7
R08  21409872.686 7  21409878.961 7 114648994.020 7  89171386.338 7
R15  21541472.589 7  21541475.051 5 115111099.004 7  89530866.734 5
R16  22433793.765 6  22433797.504 6 119837323.291 6  93206809.617 6
R17  20585471.561 8  20585477.213 8 110157166.112 8  85677707.664 8
R24  19485193.287 8  19485197.499 7 104196221.701 8  81041415.279 7
> 2025 06 15 09 46 10.0000000  0 22
C13  38324513.733 6  38324515.647 6 199565806.350 6 154316945.219 6
C19  23860509.163 7                 124248000.519 7
C20  22801525.051 7                 118733585.312 7
C29  22201644.478 7                 115610027.567 7
E02  24502478.369 8  24502479.958 8 128761359.891 8  97407161.603 8
E10  26123554.632 6  26123557.062 7 137280243.884 6 103851584.714 7
E11  24162759.263 7  24162757.146 8 126976166.552 7  96056626.283 8
E25  26321807.171 7  26321812.172 8 138322065.505 7 104639725.295 8
E30  26926361.552 5  26926362.854 5 141498969.967 5 107043066.172 5
E36  23642745.549 8  23642748.377 9 124243468.405 8  93989384.433 9
G02  22492330.836 7  22492334.257 5                 118198010.479 7  92102334.594 5
G08  20556920.620 8                  20556927.102 7 108027583.827 8                  84177187.744 7
G10  20707557.081 8                  20707563.346 8 108819030.188 8                  84794010.624 8
G16  23653696.881 6  23653704.315 4                 124300968.162 6  96857944.888 4
G23  22099326.026 5                  22099331.956 7 116132745.669 5                  90493070.267 7
G27  20186761.502 8                  20186767.923 8 106082276.188 8                  82661423.442 8
R01  20175053.174 7                 107847392.114 7
R08  21410794.213 7  21410800.266 7 114653927.247 7  89175223.313 7
R15  21542229.593 6  21542231.748 5 115115145.039 6  89534013.605 5
R16  22431015.692 6  22431019.820 6 119822482.944 6  93195267.188 6
R17  20581951.847 7  20581958.261 8 110138335.136 7  85663061.365 8
R24  19484840.353 8  19484844.602 7 104194333.190 8  81039946.429 7
> 2025 06 15 09 46 15.0000000  0 22
C13  38324290.561 6  38324293.196 6 199564646.875 6 154316048.651 6
C19  23856539.050 7                 124227326.813 7
C20  22800095.826 7                 118726144.465 7
C29  22202144.345 7                 115612633.516 7
E02  24502287.703 8  24502289.488 8 128760358.797 8  97406404.281 8
E10  26124583.058 6  26124586.517 7 137285654.050 6 103855677.459 7
E11  24162982.134 7  24162980.390 8 126977339.801 7  96057513.829 8
E25  26323568.110 7  26323573.310 8 138331320.164 7 104646726.369 8
E30  26923553.888 5  26923554.589 5 141484212.396 5 107031902.19215
E36  23640716.429 8  23640719.184 9 124232804.895 8  93981317.549 9
G02  22488908.884 7  22488912.173 5                 118180027.340 7  92088321.767 5
G08  20554412.239 8                  20554418.416 7 108014400.226 8                  84166914.810 7
G10  20706430.714 8                  20706436.651 8 108813110.513 8                  84789397.895 8
G16  23656059.678 6  23656066.719 4                 124313383.387 6  96867619.050 4
G23  22100705.578 6                  22100710.349 7 116139991.529 6                  90498716.408 7
G27  20186703.744 8                  20186710.162 8 106081972.916 8                  82661187.144 8
R01  20171953.274 7                 107830818.074 7
R08  21411719.355 7  21411725.473 7 114658880.422 7  89179075.790 7
R15  21542987.261 6  21542992.029 5 115119210.525 6  89537175.735 5
R16  22428240.027 6  22428245.260 6 119807663.479 6  93183740.983 6
R17  20578434.196 8  20578440.424 8 110119511.558 8  85648420.812 8
R24  19484489.684 8  19484493.314 7 104192456.794 8  81038487.001 7
> 2025 06 15 09 46 20.0000000  0 22
C13  38324068.251 6  38324070.968 6 199563488.479 6 154315152.888 6
C19  23852571.286 7                 124206661.228 7
C20  22798669.943 7                 118718718.662 7
C29  22202646.312 7                 115615247.187 7
E02  24502099.817 7  24502101.265 8 128759369.518 7  97405655.896 8
E10  26125612.604 6  26125616.333 7 137291066.239 6 103859771.730 7
E11  24163206.513 7  24163204.587 8 126978517.729 7  96058404.917 8
E25  26325329.796 7  26325335.089 8 138340578.381 7 104653730.145 8
E30  26920747.886 5  26920748.261 5 141469464.739 5 107020745.700 5
E36  23638688.257 8  23638691.104 9 124222147.354 8  93973255.182 9
G02  22485487.747 7  22485490.842 4                 118162049.679 7  92074313.203 4
G08  20551905.874 8                  20551912.640 7 108001229.722 8                  84156652.090 7
G10  20705306.162 8                  20705313.233 8 108807205.591 8                  84784796.662 8
G16  23658423.240 6  23658430.201 4                 124325802.141 6  96877295.961 4
G23  22102086.646 6                  22102091.727 7 116147246.915 6                  90504369.916 7
G27  20186648.832 8                  20186655.468 8 106081684.149 8                  82660962.124 8
R01  20168856.832 7                 107814264.813 7
R08  21412648.864 7  21412653.721 7 114663853.005 7  89182943.344 7
R15  21543752.566 6  21543755.501 5 115123295.280 6  89540352.713 5
R16  22425469.437 6  22425475.374 6 119792864.692 6  93172230.819 6
R17  20574917.588 8  20574924.740 8 110100694.938 8  85633785.673 8
R24  19484141.140 8  19484144.672 7 104190592.138 8  81037036.728 7
> 2025 06 15 09 46 25.0000000  0 22
C13  38323846.326 6  38323848.255 7 199562329.970 6 154314257.056 7
C19  23848603.686 7                 124186002.687 7
C20  22797246.399 7                 118711306.794 7
C29  22203148.938 7                 115617867.421 7
E02  24501913.322 8  24501915.052 8 128758390.918 8  97404915.593 8
E10  26126642.928 6  26126646.364 7 137296479.354 6 103863866.702 7
E11  24163430.986 7  24163429.481 8 126979699.229 7  96059298.713 8
E25  26327092.124 7  26327097.388 8 138349839.065 7 104660735.769 8
E30  26917944.157 6  26917943.700 5 141454725.792 6 107009595.765 5
E36  23636661.040 8  23636663.943 9 124211494.667 8  93965196.495 9
G02  22482068.782 7  22482070.424 5                 118144076.409 7  92060308.059 5
G08  20549401.857 8                  20549408.367 7 107988071.146 8                  84146398.661 7
G10  20704185.531 8                  20704191.879 8 108801314.296 8                  84780206.054 8
G16  23660786.417 7  23660793.501 4                 124338223.229 7  96886974.720 4
G23  22103468.878 6                  22103473.893 7 116154510.595 6                  90510029.907 7
G27  20186596.430 8                  20186603.296 8 106081408.771 8                  82660747.528 8
R01  20165763.757 7                 107797731.140 7
R08  21413580.395 7  21413585.980 7 114668843.902 7  89186825.127 7
R15  21544521.073 6  21544524.500 5 115127397.984 6  89543543.736 5
R16  22422699.206 5  22422708.624 6 119778085.190 5  93160735.701 6
R17  20571402.109 8  20571409.359 8 110081883.987 8  85619154.953 8
R24  19483794.853 8  19483797.893 7 104188737.839 8  81035594.497 7
> 2025 06 15 09 46 30.0000000  0 22
C13  38323623.854 6  38323625.921 7 199561171.947 6 154313361.591 7
C19  23844638.265 7                 124165351.745 7
C20  22795825.998 7                 118703909.417 7
C29  22203653.631 7                 115620494.798 7
E02  24501728.943 8  24501730.937 8 128757423.557 8  97404183.786 8
E10  26127673.074 6  26127676.629 7 137301893.958 6 103867962.793 7
E11  24163656.571 7  24163655.152 8 126980884.896 7  96060195.657 8
E25  26328854.503 7  26328860.207 8 138359102.769 7 104667743.682 8
E30  26915142.906 5  26915140.977 5 141439996.167 5 106998452.88515
E36  23634635.137 8  23634637.823 9 124200847.409 8  93957141.920 9
G02  22478648.952 7  22478651.104 5                 118126108.037 7  92046306.707 5
G08  20546900.248 8                  20546907.108 7 107974925.104 8                  84136154.986 7
G10  20703067.426 8                  20703073.649 8 108795437.262 8                  84775626.547 8
G16  23663151.273 6  23663157.252 4                 124350647.306 6  96896655.807 4
G23  22104853.990 6                  22104857.659 7 116161783.126 6                  90515696.840 7
G27  20186546.343 8                  20186553.476 8 106081147.289 8                  82660543.782 8
R01  20162674.803 7                 107781217.829 7
R08  21414516.638 7  21414521.685 7 114673853.677 7  89190721.623 7
R15  21545292.777 6  21545296.253 5 115131519.149 6  89546748.998 5
R16  22419938.445 6  22419945.896 6 119763325.766 6  93149256.059 6
R17  20567889.375 8  20567895.220 8 110063079.617 8  85604529.300 8
R24  19483450.282 8  19483453.197 7 104186894.634 8  81034160.895 7
> 2025 06 15 09 46 35.0000000  0 22
C13  38323401.182 6  38323403.885 7 199560015.526 6 154312467.354 7
C19  23840674.086 7                 124144709.507 7
C20  22794407.798 7                 118696527.610 7
C29  22204159.467 7                 115623130.406 7
E02  24501547.339 8  24501549.236 8 128756468.523 8  97403461.300 8
E10  26128704.416 6  26128707.416 7 137307311.149 6 103872060.860 7
E11  24163882.806 7  24163881.838 8 126982075.739 7  96061096.513 8
E25  26330618.849 7  26330623.821 8 138368370.568 7 104674754.692 8
E30  26912341.680 6  26912339.722 5 141425276.979 6 106987317.926 5
E36  23632610.112 8  23632612.955 9 124190206.650 8  93949092.261 9
G02  22475230.748 7  22475232.984 5                 118108145.668 7  92032310.077 5
G08  20544400.836 8                  20544407.862 7 107961792.702 8                  84125921.950 7
G10  20701951.380 8                  20701957.853 7 108789575.479 8                  84771058.924 7
G16  23665515.491 6  23665522.204 4                 124363075.375 6  96906339.985 4
G23  22106238.527 6                  22106243.848 7 116169065.689 6                  90521371.549 7
G27  20186499.449 8                  20186506.763 8 106080900.856 8                  82660351.762 8
R01  20159589.206 7                 107764725.798 7
R08  21415456.522 7  21415461.030 7 114678883.367 7  89194633.572 7
R15  21546074.709 6  21546071.485 5 115135659.860 6  89549969.496 5
R16  22417179.954 6  22417186.871 6 119748587.522 6  93137792.934 6
R17  20564377.304 8  20564382.377 8 110044282.637 8  85589909.437 8
R24  19483107.358 8  19483110.879 7 104185063.582 8  81032736.761 7
> 2025 06 15 09 46 40.0000000  0 22
C13  38323179.878 6  38323182.066 6 199558860.453 6 154311574.183 6
C19  23836711.609 7                 124124075.769 7
C20  22792993.261 7                 118689161.171 7
C29  22204667.347 7                 115625774.012 7
E02  24501367.948 8  24501369.783 8 128755525.612 8  97402747.993 8
E10  26129735.499 6  26129738.688 7 137312730.720 6 103876160.706 7
E11  24164110.907 7  24164109.433 8 126983271.623 7  96062001.172 8
E25  26332383.715 7  26332388.167 8 138377642.251 7 104681768.640 8
E30  26909535.954 5  26909540.174 6 141410567.976 5 106976190.714 6
E36  23630586.198 8  23630589.306 9 124179572.226 8  93941047.385 9
G02  22471813.527 7  22471815.676 5                 118090189.116 7  92018317.986 5
G08  20541904.481 8                  20541911.330 8 107948673.734 8                  84115699.389 8
G10  20700839.563 8                  20700845.595 7 108783728.819 8                  84766503.102 7
G16  23667882.205 6  23667887.787 4                 124375507.286 6  96916027.130 4
G23  22107626.999 6                  22107631.782 7 116176357.970 6                  90527053.816 7
G27  20186455.497 8                  20186462.436 8 106080669.229 8                  82660171.275 8
R01  20156508.544 7                 107748255.053 7
R08  21416399.896 7  21416404.248 7 114683932.789 7  89198560.900 7
R15  21546851.123 6  21546851.815 5 115139819.969 6  89553205.050 5
R16  22414425.761 5  22414431.137 6 119733870.189 5  93126346.146 6
R17  20560866.263 8  20560870.450 7 110025493.093 8  85575295.331 7
R24  19482766.349 8  19482770.529 7 104183244.524 8  81031321.948 7
> 2025 06 15 09 46 45.0000000  0 23
C13  38322956.826 6  38322959.956 6 199557705.269 6 154310680.907 6
C19  23832750.387 7                 124103449.095 7
C20  22791581.136 7                 118681808.639 7
C26  25655412.206 5                 133594308.13315
C29  22205176.165 7                 115628424.209 7
E02  24501190.592 7  24501192.388 8 128754593.355 7  97402042.748 8
E10  26130767.290 6  26130770.052 6 137318151.175 6 103880261.226 6
E11  24164338.903 7  24164337.709 8 126984471.024 7  96062908.506 8
E25  26334147.418 7  26334152.946 8 138386916.324 7 104688784.404 8
E30  26906740.655 5  26906742.498 6 141395867.661 5 106965070.074 6
E36  23628563.809 8  23628566.544 9 124168942.613 8  93933006.156 9
G02  22468397.112 7  22468399.969 4                 118072236.927 7  92004329.286 4
G08  20539410.530 8                  20539417.488 8 107935566.740 8                  84105486.149 8
G10  20699729.506 8                  20699735.964 8 108777895.759 8                  84761957.846 8
G16  23670247.846 6  23670253.565 3                 124387941.524 6  96925716.130 3
G23  22109016.263 6                  22109021.564 7 116183658.477 6                  90532742.534 7
G27  20186413.691 8                  20186420.784 8 106080450.975 8                  82660001.167 8
R01  20153431.203 7                 107731804.065 7
R08  21417345.096 7  21417350.293 7 114689000.358 7  89202502.348 7
R15  21547628.425 6  21547634.180 4 115143997.975 6  89556454.544 4
R16  22411675.120 6  22411679.867 6 119719172.256 6  93114914.435 6
R17  20557355.612 8  20557360.590 7 110006709.397 8  85560685.801 7
R24  19482429.133 8  19482432.451 7 104181435.890 8  81029915.223 7
> 2025 06 15 09 46 50.0000000  0 23
C13  38322736.012 6  38322738.349 6 199556551.119 6 154309788.430 6
C19  23828790.595 7                 124082830.601 7
C20  22790171.918 7                 118674471.165 7
C26  25656551.050 5                 133600230.091 5
C29  22205686.752 7                 115631082.079 7
E02  24501015.596 7  24501017.187 8 128753672.881 7  97401346.409 8
E10  26131798.679 6  26131801.786 6 137323573.626 6 103884363.247 6
E11  24164568.250 7  24164566.867 8 126985675.104 7  96063819.375 8
E25  26335912.939 7  26335918.444 8 138396193.951 7 104695802.844 8
E30  26903949.206 6  26903946.867 6 141381177.271 6 106953956.945 6
E36  23626542.468 8  23626544.891 9 124158318.995 8  93924969.465 9
G02  22464983.595 7  22464984.691 4                 118054290.273 7  91990344.870 4
G08  20536918.592 8                  20536925.879 8 107922472.874 8                  84095283.139 8
G10  20698622.523 8                  20698628.597 8 108772077.457 8                  84757424.100 8
G16  23672614.513 6  23672620.239 4                 124400379.225 6  96935407.812 4
G23  22110408.041 7                  22110413.003 7 116190968.380 7                  90538438.583 7
G27  20186375.055 8                  20186381.852 8 106080247.205 8                  82659842.384 8
R01  20150356.711 7                 107715373.904 7
R08  21418294.724 7  21418300.040 7 114694087.293 7  89206458.859 7
R15  21548415.062 6  21548419.532 5 115148194.885 6  89559718.860 5
R16  22408926.480 6  22408932.516 6 119704494.979 6  93103498.809 6
R17  20553846.532 8  20553851.803 7 109987932.564 8  85546081.613 7
R24  19482092.845 8  19482096.503 7 104179638.984 8  81028517.615 7
> 2025 06 15 09 46 55.0000000  0 23
C13  38322513.835 6  38322516.900 6 199555397.686 6 154308896.525 6
C19  23824832.124 7                 124062219.915 7
C20  22788765.565 7                 118667148.324 7
C26  25657686.836 5                 133606158.628 5
C29  22206198.398 7                 115633747.246 7
E02  24500842.412 7  24500844.204 8 128752763.780 7  97400658.669 8
E10  26132830.252 6  26132833.761 6 137328997.740 6 103888466.536 6
E11  24164798.292 7  24164796.838 8 126986883.445 7  96064733.478 8
E25  26337678.917 7  26337684.576 8 138405474.679 7 104702823.646 8
E30  26901159.117 5  26901153.147 6 141366496.409 5 106942850.976 6
E36  23624521.936 8  23624524.368 9 124147700.950 8  93916936.982 9
G02  22461567.581 7  22461570.414 4                 118036348.644 7  91976364.390 4
G08  20534430.139 8                  20534436.433 7 107909391.695 8                  84085090.008 7
G10  20697517.796 8                  20697524.048 8 108766273.513 8                  84752901.538 8
G16  23674981.640 6  23674987.450 4                 124412819.998 6  96945101.910 4
G23  22111799.828 6                  22111805.962 7 116198287.277 6                  90544141.619 7
G27  20186338.782 8                  20186345.941 8 106080057.494 8                  82659694.567 8
R01  20147287.279 7                 107698964.238 7
R08  21419248.142 7  21419253.054 7 114699193.219 7  89210430.146 7
R15  21549203.490 6  21549208.048 5 115152410.593 6  89562997.816 5
R16  22406184.556 6  22406188.878 6 119689837.889 6  93092098.740 6
R17  20550340.139 8  20550343.392 7 109969162.376 8  85531482.566 7
R24  19481759.502 8  19481762.831 7 104177853.236 8  81027128.692 7
> 2025 06 15 09 47  0.0000000  0 23
C13  38322292.619 6  38322295.595 6 199554245.183 6 154308005.328 6
C19  23820875.792 7                 124041617.443 7
C20  22787362.683 7                 118659840.545 7
C26  25658825.262 4                 133612094.152 4
C29  22206712.073 7                 115636420.093 7
E02  24500671.856 7  24500673.429 8 128751866.437 7  97399979.832 8
E10  26133863.180 6  26133865.937 5 137334423.923 6 103892571.37215
E11  24165029.444 7  24165027.735 8 126988096.474 7  96065651.139 8
E25  26339446.208 7  26339451.353 8 138414758.944 7 104709847.105 8
E30  26898367.368 4  26898361.115 6 141351825.465 4 106931752.523 6
E36  23622502.010 8  23622504.959 9 124137088.877 8  93908909.023 9
G02  22458154.597 7  22458157.497 4                 118018412.553 7  91962388.233 4
G08  20531943.134 8                  20531949.484 7 107896323.667 8                  84074907.137 7
G10  20696416.103 8                  20696422.351 8 108760484.283 8                  84748390.465 8
G16  23677349.650 6  23677355.540 4                 124425264.176 6  96954798.651 4
G23  22113195.336 6                  22113200.300 7 116205615.553 6                  90549851.937 7
G27  20186305.482 8                  20186312.664 8 106079882.253 8                  82659558.018 8
R01  20144221.700 7                 107682575.457 7
R08  21420205.900 8  21420210.519 7 114704318.455 8  89214416.422 7
R15  21549996.293 6  21550001.061 5 115156645.297 6  89566291.440 5
R16  22403441.376 6  22403449.234 6 119675201.381 6  93080714.875 6
R17  20546832.364 7  20546837.154 7 109950399.170 7  85516888.987 7
R24  19481426.934 8  19481430.974 7 104176079.105 8  81025748.813 7
> 2025 06 15 09 47  5.0000000  0 22
C13  38322071.273 6  38322074.482 6 199553092.456 6 154307113.960 6
C19  23816920.194 7                 124021021.887 7
C20  22785961.662 7                 118652546.481 7
C29  22207226.742 7                 115639099.299 7
E02  24500503.126 7  24500504.612 8 128750979.550 7  97399308.904 8
E10  26134896.106 6  26134898.234 5 137339850.756 6 103896676.688 5
E11  24165260.493 7  24165259.243 8 126989312.820 7  96066571.287 8
E25  26341213.815 7  26341218.536 8 138424045.357 7 104716872.207 8
E30  26895567.443 4  26895570.842 6 141337163.198 4 106920660.567 6
E36  23620483.959 8  23620486.447 9 124126481.441 8  93900884.569 9
G02  22454742.272 7  22454745.281 5                 118000480.668 7  91948415.334 5
G08  20529458.350 8                  20529465.177 7 107883267.434 8                  84064733.451 7
G10  20695316.654 8                  20695323.488 8 108754708.487 8                  84743889.845 8
G16  23679718.485 6  23679723.743 4                 124437710.437 6  96964497.009 4
G23  22114589.942 6                  22114596.148 7 116212951.851 6                  90555568.532 7
G27  20186274.606 7                  20186281.788 8 106079720.160 7                  82659431.711 8
R01  20141158.753 7                 107666206.300 7
R08  21421167.120 7  21421171.050 7 114709461.688 7  89218416.678 7
R15  21550792.776 6  21550797.767 5 115160897.534 6  89569598.753 5
R16  22400707.465 6  22400712.303 6 119660584.177 6  93069346.049 6
R17  20543328.516 8  20543331.929 7 109931641.724 8  85502299.850 7
R24  19481096.963 8  19481100.491 7 104174315.226 8  81024376.894 7
> 2025 06 15 09 47 10.0000000  0 22
C13  38321850.379 6  38321853.142 6 199551940.736 6 154306223.375 6
C19  23812966.494 7                 124000434.544 7
C20  22784563.154 7                 118645267.462 7
C29  22207742.499 7                 115641786.200 7
E02  24500336.563 8  24500338.071 8 128750104.416 8  97398646.868 8
E10  26135928.750 5  26135931.007 5 137345279.635 5 103900783.52115
E11  24165492.687 7  24165491.625 8 126990533.831 7  96067494.976 8
E25  26342980.903 7  26342986.334 8 138433335.285 7 104723899.944 8
E30  26892776.748 4  26892782.390 6 141322510.80814 106909576.07116
E36  23618466.804 8  23618469.057 9 124115879.989 8  93892864.638 9
G02  22451332.331 7  22451333.840 4                 117982554.205 7  91934446.692 4
G08  20526975.865 8                  20526983.064 7 107870224.351 8                  84054570.026 7
G10  20694220.758 8                  20694227.243 8 108748947.458 8                  84739400.713 8
G16  23682088.387 6  23682092.789 4                 124450160.128 6  96974198.045 4
G23  22115987.027 6                  22115994.046 7 116220297.483 6                  90561292.374 7
G27  20186246.491 8                  20186253.569 8 106079572.538 8                  82659316.671 8
R01  20138101.504 7                 107649857.999 7
R08  21422130.948 7  21422134.991 7 114714624.199 7  89222431.943 7
R15  21551590.656 6  21551597.529 5 115165168.681 6  89572920.750 5
R16  22397972.866 6  22397979.880 6 119645987.538 6  93057993.062 6
R17  20539823.901 8  20539828.085 7 109912891.250 8  85487716.173 7
R24  19480768.772 8  19480773.360 7 104172563.002 8  81023014.071 7
> 2025 06 15 09 47 15.0000000  0 22
C13  38321629.145 6  38321632.251 6 199550789.568 6 154305333.214 6
C19  23809014.701 7                 123979854.972 7
C20  22783168.548 7                 118638002.983 7
C29  22208260.057 7                 115644480.281 7
E02  24500171.920 7  24500173.565 8 128749240.567 7  97397993.356 8
E10  26136963.239 6  26136964.337 5 137350709.997 6 103904891.517 5
E11  24165725.949 7  24165724.750 8 126991759.015 7  96068421.804 8
E25  26344748.959 7  26344754.751 8 138442628.208 7 104730929.954 8
E30  26889990.449 5  26889995.837 6 141307867.767 5 106898498.720 6
E36  23616450.184 8  23616452.696 9 124105284.014 8  93884848.857 9
G02  22447920.729 7  22447923.757 4                 117964632.762 7  91920481.948 4
G08  20524496.014 8                  20524503.416 7 107857193.918 8                  84044416.443 7
G10  20693127.481 8                  20693133.419 8 108743200.607 8                  84734922.646 8
G16  23684457.975 7  23684462.683 4                 124462612.684 7  96983901.312 4
G23  22117388.011 6                  22117393.277 7 116227651.941 6                  90567023.108 7
G27  20186221.037 7                  20186228.313 8 106079438.863 7                  82659212.515 8
R01  20135046.976 7                 107633530.088 7
R08  21423097.829 7  21423102.607 7 114719805.399 7  89226461.770 7
R15  21552393.449 6  21552401.340 4 115169458.229 6  89576257.141 4
R16  22395242.950 6  22395251.414 6 119631411.328 6  93046655.960 6
R17  20536320.490 7  20536324.609 7 109894147.259 7  85473137.533 7
R24  19480443.709 8  19480447.237 7 104170821.944 8  81021659.928 7
> 2025 06 15 09 47 20.0000000  0 22
C13  38321408.650 6  38321410.997 6 199549638.995 6 154304443.515 6
C19  23805063.778 7                 123959283.269 7
C20  22781776.600 7                 118630753.158 7
C29  22208778.603 7                 115647181.630 7
E02  24500009.387 8  24500011.291 8 128748388.054 8  97397348.438 8
E10  26137996.860 6  26137998.286 5 137356142.043 6 103909000.75815
E11  24165959.856 7  24165958.640 8 126992988.448 7  96069351.858 8
E25  26346517.962 7  26346523.786 8 138451924.216 7 104737962.297 8
E30  26887208.198 5  26887210.947 6 141293234.28915 106887428.66116
E36  23614435.049 8  23614437.418 9 124094693.632 8  93876837.288 9
G02  22444511.052 7  22444514.090 4                 117946716.474 7  91906521.242 4
G08  20522019.038 8                  20522026.047 7 107844176.256 8                  84034272.799 7
G10  20692036.241 8                  20692042.775 8 108737468.114 8                  84730455.776 8
G16  23686827.227 6  23686833.030 4                 124475068.235 6  96993606.907 4
G23  22118789.819 6                  22118794.689 7 116235015.332 6                  90572760.793 7
G27  20186199.386 8                  20186205.261 8 106079319.254 8                  82659119.305 8
R01  20131994.803 7                 107617222.742 7
R08  21424068.100 7  21424073.765 7 114725005.463 7  89230506.250 7
R15  21553197.097 6  21553205.173 4 115173766.248 6  89579608.038 4
R16  22392520.642 6  22392526.398 6 119616855.309 6  93035334.595 6
R17  20532819.606 8  20532823.606 7 109875409.892 8  85458564.020 7
R24  19480120.752 8  19480124.001 7 104169092.024 8  81020314.441 7
> 2025 06 15 09 47 25.0000000  0 22
C13  38321187.722 6  38321190.160 6 199548489.213 6 154303554.420 6
C19  23801115.030 7                 123938719.559 7
C20  22780387.051 7                 118623518.141 7
C29  22209299.082 7                 115649890.436 7
E02  24499849.626 8  24499851.262 8 128747547.063 8  97396712.227 8
E10  26139029.859 5  26139032.720 5 137361575.828 5 103913111.370 5
E11  24166194.914 7  24166193.368 8 126994222.293 7  96070285.243 8
E25  26348287.617 7  26348293.586 8 138461223.449 7 104744997.089 8
E30  26884423.026 5  26884428.256 6 141278610.552 5 106876365.883 6
E36  23612420.940 8  23612423.191 9 124084108.962 8  93868830.057 9
G02  22441102.563 6  22441106.260 4                 117928805.399 6  91892564.574 4
G08  20519544.397 8                  20519551.819 7 107831171.521 8                  84024139.235 7
G10  20690949.025 8                  20690954.559 8 108731750.120 8                  84726000.195 8
G16  23689198.112 6  23689203.959 4                 124487526.912 6  97003314.925 4
G23  22120191.179 6                  22120197.525 7 116242387.779 6                  90578505.558 7
G27  20186178.345 8                  20186185.343 8 106079213.898 8                  82659037.203 8
R01  20128949.287 7                 107600936.242 7
R08  21425042.324 7  21425048.649 7 114730224.525 7  89234565.536 7
R15  21554003.238 5  21554014.291 5 115178093.143 5  89582973.079 5
R16  22389798.163 6  22389805.619 6 119602319.448 6  93024029.042 6
R17  20529318.688 8  20529323.248 7 109856679.244 8  85443995.758 7
R24  19479798.916 8  19479802.895 7 104167373.527 8  81018977.814 7
> 2025 06 15 09 47 30.0000000  0 22
C13  38320966.880 6  38320969.239 6 199547340.086 6 154302665.838 6
C19  23797167.783 7                 123918163.780 7
C20  22779000.491 7                 118616297.797 7
C29  22209820.651 7                 115652606.541 7
E02  24499692.301 7  24499693.401 8 128746717.481 7  97396084.635 8
E10  26140065.373 5  26140067.759 6 137367011.289 5 103917223.207 6
E11  24166430.757 7  24166428.938 8 126995460.423 7  96071221.884 8
E25  26350057.979 7  26350063.752 8 138470525.776 7 104752034.208 8
E30  26881644.240 5  26881647.181 6 141263996.396 5 106865310.339 6
E36  23610407.870 8  23610410.061 9 124073529.880 8  93860827.056 9
G02  22437694.805 6  22437699.119 4                 117910899.479 6  91878611.910 4
G08  20517072.185 8                  20517079.558 8 107818179.548 8                  84014015.642 8
G10  20689863.204 8                  20689869.237 8 108726046.469 8                  84721555.790 8
G16  23691570.147 7  23691575.026 4                 124499988.510 7  97013025.229 4
G23  22121596.886 6                  22121602.138 7 116249769.152 6                  90584257.276 7
G27  20186160.932 7                  20186167.704 8 106079122.596 7                  82658966.061 8
R01  20125906.985 7                 107584670.262 7
R08  21426020.757 7  21426027.259 7 114735462.482 7  89238639.490 7
R15  21554822.221 6  21554831.368 4 115182438.519 6  89586352.624 4
R16  22387083.219 6  22387087.847 6 119587804.104 6  93012739.263 6
R17  20525819.762 8  20525823.385 7 109837955.407 8  85429432.779 7
R24  19479479.676 8  19479483.705 7 104165666.198 8  81017649.873 7
> 2025 06 15 09 47 35.0000000  0 22
C13  38320746.856 6  38320748.526 6 199546191.800 6 154301777.904 6
C19  23793222.021 7                 123897616.067 7
C20  22777617.120 7                 118609092.272 7
C29  22210344.055 7                 115655330.093 7
E02  24499536.852 8  24499537.692 8 128745899.400 8  97395465.756 8
E10  26141099.401 5  26141103.051 6 137372448.510 5 103921336.422 6
E11  24166666.645 7  24166665.339 8 126996702.980 7  96072161.858 8
E25  26351828.404 7  26351834.442 8 138479831.350 7 104759073.784 8
E30  26878866.924 5  26878867.950 6 141249391.813 5 106854262.126 6
E36  23608395.514 8  23608398.027 9 124062956.562 8  93852828.415 9
G02  22434288.304 6  22434292.796 4                 117892998.816 6  91864663.396 4
G08  20514602.385 8                  20514609.454 7 107805200.577 8                  84003902.165 7
G10  20688780.478 8                  20688786.432 8 108720357.323 8                  84717122.687 8
G16  23693941.600 6  23693946.552 4                 124512453.247 6  97022738.025 4
G23  22123003.553 6                  22123009.085 7 116257159.599 6                  90590016.058 7
G27  20186146.302 7                  20186153.330 8 106079045.553 7                  82658906.020 8
R01  20122867.049 7                 107568425.113 7
R08  21427003.695 7  21427008.352 7 114740719.461 7  89242728.214 7
R15  21555639.776 6  21555651.617 4 115186802.525 6  89589746.717 4
R16  22384367.502 6  22384374.319 6 119573309.126 6  93001465.397 6
R17  20522321.583 8  20522326.219 7 109819238.327 8  85414875.038 7
R24  19479162.997 8  19479166.439 7 104163970.351 8  81016330.875 7
> 2025 06 15 09 47 40.0000000  0 22
C13  38320527.096 6  38320528.517 6 199545044.729 6 154300890.917 6
C19  23789277.750 7                 123877076.886 7
C20  22776235.842 7                 118601902.072 7
C29  22210869.130 7                 115658061.570 7
E02  24499383.239 8  24499384.268 8 128745093.312 8  97394855.956 8
E10  26142134.870 5  26142138.446 6 137377887.966 5 103925451.321 6
E11  24166904.983 7  24166902.669 8 126997950.445 7  96073105.559 8
E25  26353600.574 7  26353605.957 8 138489140.599 7 104766116.140 8
E30  26876088.789 5  26876090.885 6 141234797.625 5 106843221.685 6
E36  23606384.809 8  23606387.182 9 124052389.456 8  93844834.472 9
G02  22430884.255 6  22430887.662 4                 117875103.930 6  91850719.364 4
G08  20512135.150 8                  20512142.318 7 107792235.047 8                  83993799.142 7
G10  20687701.248 8                  20687706.628 8 108714683.138 8                  84712701.259 8
G16  23696315.169 7  23696319.785 4                 124524921.591 7  97032453.583 4
G23  22124410.232 6                  22124417.509 7 116264559.545 6                  90595782.295 7
G27  20186134.772 8                  20186141.379 8 106078983.194 8                  82658857.432 8
R01  20119832.183 7                 107552201.139 7
R08  21427987.713 7  21427992.894 7 114745995.863 7  89246832.083 7
R15  21556456.957 6  21556474.309 3 115191185.492 6  89593155.798 3
R16  22381657.221 6  22381664.770 6 119558835.086 6  92990207.836 6
R17  20518825.432 8  20518829.853 7 109800528.587 8  85400323.034 7
R24  19478847.914 8  19478851.381 7 104162286.336 8  81015021.064 7
> 2025 06 15 09 47 45.0000000  0 22
C13  38320306.227 7  38320308.309 6 199543897.940 7 154300004.139 6
C19  23785334.718 7                 123856545.258 7
C20  22774857.802 7                 118594726.137 7
C29  22211395.436 7                 115660799.945 7
E02  24499231.544 7  24499232.961 8 128744298.202 7  97394254.453 8
E10  26143170.801 6  26143173.954 6 137383328.660 6 103929567.196 6
E11  24167143.339 7  24167140.830 8 126999201.784 7  96074052.188 8
E25  26355372.887 7  26355378.020 8 138498452.520 7 104773160.521 8
E30  26873312.815 5  26873315.247 6 141220212.533 5 106832188.157 6
E36  23604374.863 8  23604377.330 9 124041827.569 8  93836844.474 9
G02  22427479.884 7  22427483.869 5                 117857213.839 7  91836779.032 5
G08  20509670.349 8                  20509677.429 7 107779281.938 8                  83983705.804 7
G10  20686622.806 7                  20686629.560 8 108709022.908 7                  84708290.687 8
G16  23698688.314 7  23698693.130 4                 124537392.428 7  97042171.077 4
G23  22125820.959 6                  22125827.309 7 116271968.001 6                  90601555.158 7
G27  20186125.653 7                  20186132.538 8 106078934.537 7                  82658819.504 8
R01  20116802.273 7                 107535997.475 7
R08  21428976.929 7  21428982.296 7 114751290.558 7  89250950.175 7
R15  21557277.950 5                 115195586.658 5
R16  22378952.606 6  22378959.702 6 119544381.137 6  92978965.875 6
R17  20515329.205 8  20515335.001 7 109781825.134 8  85385775.902 7
R24  19478535.070 8  19478538.479 7 104160613.130 8  81013719.698 7
> 2025 06 15 09 47 50.0000000  0 22
C13  38320086.155 7  38320087.941 6 199542751.235 7 154299117.436 6
C19  23781392.698 7                 123836021.056 7
C20  22773481.757 7                 118587564.370 7
C29  22211922.083 7                 115663545.102 7
E02  24499082.070 7  24499083.792 8 128743513.943 7  97393661.164 8
E10  26144204.607 6  26144209.654 6 137388770.500 6 103933683.927 6
E11  24167381.391 7  24167379.615 8 127000456.859 7  96075001.640 8
E25  26357145.219 7  26357150.568 8 138507766.970 7 104780206.827 8
E30  26870539.702 6  26870541.642 6 141205636.605 6 106821161.625 6
E36  23602366.040 8  23602368.406 9 124031270.765 8  93828858.322 9
G02  22424076.093 7  22424080.631 5                 117839328.398 7  91822842.320 5
G08  20507208.053 8                  20507214.769 8 107766341.128 8                  83973622.070 8
G10  20685549.089 8                  20685554.977 7 108703376.506 8                  84703890.896 7
G16  23701060.874 6  23701066.696 3                 124549865.696 6  97051890.497 3
G23  22127232.600 6                  22127239.007 7 116279384.786 6                  90607334.482 7
G27  20186118.114 8                  20186125.323 8 106078899.434 8                  82658792.134 8
R01  20113774.700 7                 107519813.823 7
R08  21429969.358 7  21429974.624 7 114756603.796 7  89255082.699 7
R15  21558107.328 6  21558121.207 5 115200005.908 6  89600044.00115
R16  22376249.438 6  22376258.473 6 119529947.015 6  92967739.308 6
R17  20511835.352 8  20511841.038 7 109763127.731 8  85371233.510 7
R24  19478224.236 8  19478227.983 7 104158950.750 8  81012426.776 7
> 2025 06 15 09 47 55.0000000  0 22
C13  38319866.074 6  38319868.346 7 199541605.907 6 154298231.804 7
C19  23777453.461 7                 123815505.525 7
C20  22772109.634 7                 118580417.981 7
C29  22212450.636 7                 115666298.270 7
E02  24498935.229 7  24498936.909 8 128742741.755 7  97393076.998 8
E10  26145241.654 6  26145245.903 6 137394214.678 6 103937802.408 6
E11  24167620.730 7  24167619.411 8 127001716.896 7  96075954.861 8
E25  26358918.444 7  26358923.817 8 138517085.208 7 104787255.985 8
E30  26867767.860 6  26867770.045 6 141191070.930 6 106810142.768 6
E36  23600358.127 8  23600360.750 9 124020720.259 8  93820876.933 9
G02  22420673.858 7  22420678.170 5                 117821448.832 7  91808910.192 5
G08  20504747.532 8                  20504754.986 7 107753413.879 8                  83963548.901 7
G10  20684477.272 8                  20684483.548 8 108697745.177 8                  84699502.839 8
G16  23703434.488 6  23703441.071 4                 124562342.571 6  97061612.719 4
G23  22128645.522 5                  22128652.350 7 116286811.178 5                  90613121.310 7
G27  20186114.606 8                  20186121.413 8 106078879.111 8                  82658776.283 8
R01  20110750.039 7                 107503651.539 7
R08  21430965.486 7  21430970.755 7 114761936.428 7  89259230.312 7
R15  21558940.937 6  21558954.619 5 115204444.224 6  89603495.981 5
R16  22373553.084 6  22373559.262 6 119515533.807 6  92956529.049 6
R17  20508343.168 8  20508348.281 7 109744437.884 8  85356696.951 7
R24  19477914.827 8  19477919.338 7 104157300.256 8  81011143.049 7
> 2025 06 15 09 48  0.0000000  0 22
C13  38319646.441 6  38319648.384 7 199540460.677 6 154297346.232 7
C19  23773514.057 7                 123794997.383 7
C20  22770740.651 7                 118573285.706 7
C29  22212980.298 7                 115669058.150 7
E02  24498790.574 7  24498792.019 8 128741980.354 7  97392501.002 8
E10  26146277.509 6  26146282.182 6 137399659.938 6 103941921.719 6
E11  24167861.456 7  24167859.933 8 127002980.647 7  96076910.881 8
E25  26360692.571 7  26360697.517 8 138526405.883 7 104794306.998 8
E30  26864997.133 5  26865000.000 6 141176514.233 5 106799130.758 6
E36  23598351.178 8  23598353.998 9 124010174.778 8  93812899.351 9
G02  22417272.262 7  22417276.293 5                 117803573.818 7  91794981.612 5
G08  20502289.705 8                  20502296.883 7 107740498.894 8                  83953485.269 7
G10  20683408.233 8                  20683414.462 8 108692127.587 8                  84695125.496 8
G16  23705809.317 6  23705816.410 3                 124574821.767 6  97071336.743 3
G23  22130061.577 5                  22130067.393 7 116294245.904 5                  90618914.587 7
G27  20186113.596 7                  20186120.376 8 106078872.282 7                  82658770.981 8
R01  20107730.738 7                 107487509.515 7
R08  21431964.910 7  21431970.286 7 114767287.172 7  89263392.020 7
R15  21559772.173 5  21559787.819 3 115208900.332 5  89606961.791 3
R16  22370857.927 6  22370864.564 6 119501140.729 6  92945334.391 6
R17  20504851.163 8  20504856.107 7 109725753.967 8  85342164.996 7
R24  19477608.233 8  19477612.605 7 104155660.465 8  81009867.665 7
> 2025 06 15 09 48  5.0000000  0 22
C13  38319426.075 6  38319428.502 6 199539315.244 6 154296460.512 6
C19  23769576.320 7                 123774496.381 7
C20  22769373.260 7                 118566167.295 7
C29  22213511.747 7                 115671824.526 7
E02  24498647.601 7  24498649.082 8 128741229.479 7  97391932.959 8
E10  26147315.068 6  26147318.429 6 137405105.982 6 103946041.589 6
E11  24168102.328 7  24168101.061 8 127004247.834 7  96077869.490 8
E25  26362466.330 7  26362471.475 8 138535728.774 7 104801359.688 8
E30  26862229.272 6  26862231.568 6 141161966.438 6 106788125.415 6
E36  23596345.496 8  23596348.199 9 123999634.070 8  93804925.374 9
G02  22413871.580 7  22413875.715 4                 117785703.153 7  91781056.396 4
G08  20499834.842 8                  20499842.138 7 107727595.919 8                  83943431.002 7
G10  20682342.223 8                  20682348.362 8 108686523.489 8                  84690758.681 8
G16  23708184.689 6  23708191.451 3                 124587303.071 6  97081062.426 3
G23  22131476.624 6                  22131483.180 7 116301688.597 6                  90624714.109 7
G27  20186115.336 8                  20186121.671 8 106078878.678 8                  82658775.963 8
R01  20104713.951 7                 107471387.278 7
R08  21432966.956 7  21432972.914 7 114772655.844 7  89267567.639 7
R15  21560611.879 6                 115213374.192 6
R16  22368167.981 6  22368174.352 6 119486766.890 6  92934154.766 6
R17  20501362.002 8  20501366.174 7 109707076.114 8  85327637.780 7
R24  19477303.794 8  19477308.443 7 104154031.032 8  81008600.313 7
> 2025 06 15 09 48 10.0000000  0 22
C13  38319206.120 7  38319208.675 6 199538170.938 7 154295575.642 6
C19  23765641.206 6                 123754003.906 6
C20  22768009.120 7                 118559064.067 7
C29  22214044.048 7                 115674598.719 7
E02  24498507.507 7  24498508.503 8 128740490.485 7  97391373.912 8
E10  26148350.578 5  26148355.199 6 137410554.155 5 103950163.103 6
E11  24168344.378 7  24168343.110 8 127005519.814 7  96078831.731 8
E25  26364241.312 7  26364246.428 8 138545055.218 7 104808415.060 8
E30  26859460.776 5  26859465.114 6 141147428.732 5 106777127.747 6
E36  23594340.844 8  23594343.530 9 123989099.510 8  93796956.044 9
G02  22410472.157 7  22410475.858 4                 117767838.166 7  91767135.638 4
G08  20497382.282 8                  20497389.563 7 107714706.354 8                  83933387.188 7
G10  20681278.516 8                  20681284.509 8 108680934.249 8                  84686403.437 8
G16  23710561.679 6  23710567.110 3                 124599787.754 6  97090790.705 3
G23  22132893.926 6                  22132901.232 7 116309140.717 6                  90630520.921 7
G27  20186118.285 8                  20186125.677 8 106078899.677 8                  82658792.335 8
R01  20101701.798 7                 107455286.262 7
R08  21433973.294 7  21433978.764 7 114778043.817 7  89271758.270 7
R15  21561452.266 6  21561464.959 5 115217866.718 6
R16  22365480.120 6  22365486.901 6 119472414.033 6  92922991.484 6
R17  20497873.192 8  20497877.414 7 109688405.489 8  85313116.167 7
R24  19477001.211 8  19477004.825 7 104152413.527 8  81007342.237 7
> 2025 06 15 09 48 15.0000000  0 22
C13  38318986.350 7  38318988.923 6 199537027.108 7 154294691.172 6
C19  23761706.858 7                 123733519.203 7
C20  22766647.622 7                 118551975.323 7
C29  22214578.084 7                 115677379.988 7
E02  24498368.142 7  24498370.061 8 128739762.635 7  97390823.304 8
E10  26149388.091 6  26149392.221 6 137416003.817 6 103954285.743 6
E11  24168587.515 7  24168585.925 8 127006795.826 7  96079797.020 8
E25  26366016.464 8  26366021.714 8 138554384.484 8 104815472.562 8
E30  26856697.380 5  26856700.577 6 141132900.460 5 106766137.232 6
E36  23592337.065 8  23592339.910 9 123978570.321 8  93788990.787 9
G02  22407072.606 7  22407076.417 4                 117749978.122 7  91753218.696 4
G08  20494931.574 8                  20494939.041 7 107701829.441 8                  83923353.225 7
G10  20680217.243 8                  20680223.634 7 108675359.149 8                  84682059.204 7
G16  23712937.653 6  23712943.518 3                 124612275.101 6  97100521.059 3
G23  22134314.118 6                  22134320.137 6 116316601.451 6                  90636334.460 6
G27  20186125.252 8                  20186132.076 8 106078934.563 8                  82658819.496 8
R01  20098695.010 7                 107439205.823 7
R08  21434983.821 7  21434988.468 7 114783450.330 7  89275963.326 7
R15  21562295.939 6  21562311.868 4 115222377.472 6  89617422.13414
R16  22362798.188 6  22362804.211 6 119458081.498 6  92911843.922 6
R17  20494385.401 8  20494389.645 7 109669741.368 8  85298599.650 7
R24  19476701.418 8  19476704.578 7 104150806.931 8  81006092.657 7
> 2025 06 15 09 48 20.0000000  0 22
C13  38318766.338 6  38318769.574 7 199535884.135 6 154293807.344 7
C19  23757774.693 7                 123713042.777 7
C20  22765289.462 7                 118544901.523 7
C29  22215114.209 7                 115680168.805 7
E02  24498232.338 7  24498233.755 8 128739046.396 7  97390281.464 8
E10  26150426.553 5  26150429.672 6 137421455.306 5 103958409.745 6
E11  24168830.875 7  24168829.634 8 127008076.371 7  96080765.734 8
E25  26367792.476 8  26367797.638 8 138563717.002 8 104822532.539 8
E30  26853935.608 5  26853938.041 6 141118382.119 5 106755154.175 6
E36  23590334.622 8  23590337.365 9 123968047.002 8  93781029.966 9
G02  22403676.092 6  22403678.540 4                 117732123.494 6  91739305.982 4
G08  20492483.687 8                  20492491.100 8 107688965.664 8                  83913329.506 8
G10  20679159.249 8                  20679165.659 8 108669798.653 8                  84677726.334 8
G16  23715313.825 6  23715320.225 3                 124624765.539 6  97110253.853 3
G23  22135735.158 6                  22135741.397 6 116324071.244 6                  90642155.079 6
G27  20186134.326 8                  20186141.835 8 106078983.726 8                  82658857.796 8
R01  20095690.798 7                 107423146.298 7
R08  21435997.436 7  21436000.989 7 114788875.765 7  89280183.110 7
R15  21563143.054 6  21563161.220 4 115226906.783 6  89620945.142 4
R16  22360118.922 6  22360125.036 6 119443769.506 6  92900712.363 6
R17  20490898.244 8  20490903.227 7 109651084.273 8  85284088.596 7
R24  19476402.728 8  19476406.373 7 104149211.831 8  81004852.029 7
> 2025 06 15 09 48 25.0000000  0 22
C13  38318546.876 6  38318550.293 6 199534742.316 6 154292924.425 6
C19  23753844.556 6                 123692574.842 6
C20  22763934.338 7                 118537842.883 7
C29  22215651.032 7                 115682965.400 7
E02  24498098.395 7  24498099.718 8 128738341.985 7  97389748.581 8
E10  26151463.535 5  26151467.460 6 137426908.950 5 103962535.369 6
E11  24169075.947 7  24169074.212 8 127009361.691 7  96081738.061 8
E25  26369568.944 8  26369574.209 8 138573053.019 8 104829595.152 8
E30  26851176.228 6  26851177.370 6 141103873.969 6 106744178.844 6
E36  23588333.441 8  23588335.974 9 123957529.779 8  93773073.759 9
G02  22400279.899 6  22400281.829 4                 117714274.532 6  91725397.657 4
G08  20490038.461 8                  20490045.417 7 107676115.261 8                  83903316.217 7
G10  20678104.251 8                  20678110.156 8 108664252.961 8                  84673404.990 8
G16  23717692.270 6  23717697.695 3                 124637259.305 6  97119989.225 3
G23  22137158.889 6                  22137164.547 6 116331550.372 6                  90647982.963 6
G27  20186147.104 8                  20186153.881 8 106079047.469 8                  82658907.473 8
R01  20092689.696 7                 107407108.075 7
R08  21437013.134 7  21437017.777 7 114794320.433 7  89284417.864 7
R15  21563993.349 6                 115231455.054 6
R16  22357444.368 6  22357450.239 7 119429478.554 6  92889597.173 7
R17  20487412.377 8  20487418.000 7 109632434.331 8  85269583.083 7
R24  19476107.155 8  19476110.181 7 104147628.472 8  81003620.552 7
> 2025 06 15 09 48 30.0000000  0 22
C13  38318328.623 6  38318330.952 6 199533600.767 6 154292041.699 6
C19  23749916.032 7                 123672114.569 7
C20  22762581.194 7                 118530798.537 7
C29  22216189.959 7                 115685768.888 7
E02  24497966.792 7  24497967.784 8 128737648.516 7  97389223.968 8
E10  26152502.681 5  26152505.412 6 137432363.790 5 103966661.925 6
E11  24169321.075 7  24169319.595 8 127010650.831 7  96082713.276 8
E25  26371346.002 7  26371351.213 8 138582391.643 7 104836659.733 8
E30  26848416.838 6  26848418.478 6 141089374.999 6 106733210.494 6
E36  23586332.836 8  23586335.626 9 123947017.760 8  93765121.482 9
G02  22396883.947 7  22396886.473 4                 117696430.324 7  91711493.089 4
G08  20487595.077 8                  20487602.539 7 107663277.367 8                  83893312.659 7
G10  20677051.194 8                  20677057.167 7 108658721.201 8                  84669094.523 7
G16  23720070.239 6  23720075.666 4                 124649755.450 6  97129726.459 4
G23  22138583.354 7                  22138589.219 6 116339037.877 7                  90653817.363 6
G27  20186161.768 7                  20186168.193 8 106079124.854 7                  82658967.773 8
R01  20089693.188 7                 107391090.021 7
R08  21438032.504 7  21438037.767 7 114799783.376 7  89288666.805 7
R15  21564849.864 7                 115236021.280 7
R16  22354771.626 6  22354778.559 7 119415207.465 6  92878497.468 7
R17  20483929.041 8  20483933.452 7 109613790.744 8  85255082.510 7
R24  19475812.437 8  19475816.157 7 104146056.035 8  81002397.568 7
> 2025 06 15 09 48 35.0000000  0 22
C13  38318109.389 6  38318112.030 6 199532459.447 6 154291159.153 6
C19  23745988.896 7                 123651662.008 7
C20  22761231.666 7                 118523768.544 7
C29  22216729.650 7                 115688579.364 7
E02  24497836.860 7  24497837.889 8 128736966.088 7  97388707.706 8
E10  26153542.328 5  26153543.591 6 137437819.906 5 103970789.440 6
E11  24169567.531 7  24169565.667 8 127011943.912 7  96083691.480 8
E25  26373123.550 7  26373128.764 8 138591732.928 7 104843726.334 8
E30  26845659.802 6  26845661.391 6 141074885.446 6 106722249.223 6
E36  23584333.940 8  23584336.270 9 123936511.026 8  93757173.211 9
G02  22393488.623 6  22393491.044 4                 117678590.979 6  91697592.320 4
G08  20485153.986 8                  20485162.102 7 107650452.057 8                  83883318.898 7
G10  20676001.613 8                  20676007.478 7 108653203.441 8                  84664794.973 7
G16  23722448.586 6  23722454.720 3                 124662254.159 6  97139465.698 3
G23  22140009.315 6                  22140015.299 6 116346533.856 6                  90659658.364 6
G27  20186179.077 7                  20186185.881 8 106079215.978 7                  82659038.796 8
R01  20086700.857 7                 107375092.544 7
R08  21439056.977 7  21439061.959 7 114805264.699 7  89292930.086 7
R15  21565708.340 7  21565735.370 4 115240605.418 7
R16  22352105.917 7  22352110.705 6 119400956.544 7  92867413.397 6
R17  20480445.628 8  20480451.176 7 109595153.640 8  85240587.004 7
R24  19475520.389 8  19475524.787 7 104144494.447 8  81001182.997 7
> 2025 06 15 09 48 40.0000000  0 22
C13  38617682.589 6  38617685.809 6 201092417.623 6 155497417.774 6
C19  24041855.887 7                 125192320.211 7
C20  23059677.738 7                 120077853.280 7
C29  22517063.106 7                 117252495.176 7
E02  24797501.799 7  24797502.745 8 130311715.725 7  98579995.590 8
E10  26454375.057 4  26454374.544 6 139018697.204 4 105166712.813 6
E11  24469606.550 7  24469605.091 8 128588661.612 7  97276468.176 8
E25  26674693.511 7  26674699.204 8 140176495.942 7 106042589.246 8
E30  27142696.733 6  27142699.105 6 142635828.996 6 107903092.889 6
E36  23882128.402 8  23882130.913 9 125501432.600 8  94941026.222 9
G02  22689887.894 6  22689889.950 3                 119236180.977 6  92911298.853 3
G08  20782508.919 8                  20782517.082 7 109213062.815 8                  85100937.677 7
G10  20974746.767 8                  20974753.047 8 110223121.712 8                  85888107.915 8
G16  24024619.879 6  24024625.957 4                 126250173.746 6  98376805.600 4
G23  22441231.038 6                  22441235.597 7 117929457.757 6                  91893105.546 7
G27  20485991.776 7                  20485998.605 8 107654741.771 7                  83886721.208 8
R01  20383505.493 7                 108961682.167 7
R08  21739876.391 7  21739880.999 7 116416139.210 7  90545832.486 7
R15  21866362.587 7  21866389.487 4 116847207.678 7  90881269.40214
R16  22649234.895 6  22649239.565 6 120988167.003 6  94101910.421 6
R17  20776757.707 8  20776762.880 7 111180777.629 8  86473850.110 7
R24  19775022.525 8  19775027.348 7 105746070.097 8  82246852.928 7
> 2025 06 15 09 48 45.0000000  0 21
C13  38617463.754 6  38617466.555 6 201091278.293 6 155496536.755 6
C19  24037931.575 7                 125171884.516 7
C20  23058333.082 7                 120070853.422 7
C29  22517605.611 7                 117255320.956 7
E02  24797376.341 8  24797377.363 8 130311056.689 8  98579497.025 8
E11  24469854.601 7  24469852.923 8 128589963.938 7  97277453.379 8
E25  26676472.973 7  26676478.061 8 140185843.917 7 106049660.912 8
E30  27139943.880 6  27139945.745 6 142621359.409 6 107892146.808 6
E36  23880131.356 8  23880133.805 9 125490937.805 8  94933086.979 9
G02  22686496.198 7  22686496.926 4                 119218352.731 7  92897406.712 4
G08  20780074.209 8                  20780081.183 7 109200264.057 8                  85090964.611 7
G10  20973701.991 8                  20973708.812 8 110217633.305 8                  85883831.243 8
G16  24026998.762 6  24027005.843 4                 126262678.721 6  98386549.715 4
G23  22442661.490 6                  22442665.371 6 117936972.041 6                  91898960.805 6
G27  20486014.224 7                  20486020.951 8 107654861.749 7                  83886814.692 8
R01  20380521.413 7                 108945727.043 7
R08  21740907.599 7  21740911.605 7 116421658.563 7  90550125.284 7
R15  21867227.178 7  21867250.476 5 116851829.167 7  90884863.827 5
R16  22646572.241 6  22646579.163 6 120973957.941 6  94090858.936 6
R17  20773278.321 8  20773283.223 7 111162154.760 8  86459365.667 7
R24  19774734.714 8  19774739.701 7 105744531.836 8  82245656.503 7
> 2025 06 15 09 48 50.0000000  0 21
C13  38617244.802 6  38617247.860 6 201090139.291 6 155495656.004 6
C19  24034007.909 7                 125151456.498 7
C20  23056991.513 7                 120063867.844 7
C29  22518149.837 7                 117258153.623 7
E02  24797253.305 8  24797253.927 8 130310408.611 8  98579006.751 8
E11  24470103.166 7  24470101.489 8 128591270.117 7  97278441.495 8
E25  26678252.479 7  26678257.435 8 140195194.463 7 106056734.515 8
E30  27137192.513 6  27137194.164 6 142606899.194 6 107881207.736 6
E36  23878135.254 8  23878137.710 9 125480448.219 8  94925151.670 9
G02  22683104.073 7  22683104.963 4                 119200529.207 7  92883518.280 4
G08  20777640.781 8                  20777648.196 7 109187477.830 8                  85081001.330 7
G10  20972660.642 8                  20972666.953 8 110212158.845 8                  85879565.419 8
G16  24029379.872 6  24029385.901 4                 126275186.079 6  98396295.685 4
G23  22444093.156 6                  22444096.511 6 117944494.673 6                  91904822.558 6
G27  20486039.801 7                  20486046.207 8 107654995.375 7                  83886918.815 8
R01  20377538.472 7                 108929792.244 7
R08  21741941.054 7  21741946.129 7 116427196.143 7  90554432.284 7
R15  21868091.624 6  21868114.825 5 116856468.586 6  90888472.215 5
R16  22643916.779 6  22643922.679 6 120959768.848 6  94079822.949 6
R17  20769798.446 8  20769804.339 7 111143538.307 8  86444886.193 7
R24  19774448.747 8  19774453.404 7 105743004.354 8  82244468.454 7
> 2025 06 15 09 48 55.0000000  0 21
C13  38617026.331 6  38617028.880 6 201089001.086 6 155494775.863 6
C19  24030086.644 7                 125131036.830 7
C20  23055652.495 7                 120056897.219 7
C29  22518695.302 7                 117260993.838 7
E02  24797131.359 7  24797132.738 8 130309772.091 7  98578525.226 8
E11  24470352.718 7  24470350.868 8 128592580.783 7  97279433.001 8
E25  26680031.761 7  26680037.337 8 140204548.226 7 106063810.554 8
E30  27134442.911 5  27134444.437 6 142592448.875 5 107870276.162 6
E36  23876139.979 8  23876142.740 9 125469964.495 8  94917220.806 9
G02  22679713.716 7  22679714.381 4                 119182711.204 7  92869634.155 4
G08  20775210.408 8                  20775218.187 8 109174704.776 8                  85071048.322 8
G10  20971621.606 8                  20971627.749 8 110206698.921 8                  85875310.948 8
G16  24031759.578 6  24031766.606 4                 126287696.443 6  98406043.986 4
G23  22445526.194 6                  22445530.189 7 117952026.283 6                  91910691.341 7
G27  20486067.790 7                  20486074.273 7 107655143.321 7                  83887034.092 7
R01  20374562.817 7                 108913878.650 7
R08  21742978.536 7  21742983.844 7 116432752.690 7  90558754.004 7
R15  21868965.322 6  21868982.930 3 116861126.549 6  90892095.049 3
R16  22641265.632 7  22641270.381 6 120945600.556 7  94068803.151 6
R17  20766320.714 8  20766325.944 7 111124928.843 8  86430412.174 7
R24  19774166.402 8  19774170.517 7 105741488.428 8  82243289.389 7
> 2025 06 15 09 49  0.0000000  0 21
C13  38616807.908 6  38616810.622 6 201087864.147 6 155493896.715 6
C19  24026167.123 7                 125110625.879 7
C20  23054316.128 7                 120049941.906 7
C29  22519241.789 7                 117263841.980 7
E02  24797012.941 8  24797013.905 8 130309147.539 8  98578052.753 8
E11  24470602.783 7  24470601.168 8 128593896.318 7  97280428.198 8
E25  26681812.326 7  26681817.929 8 140213905.567 7 106070889.306 8
E30  27131694.345 5  27131696.536 6 142578008.882 5 107859352.435 6
E36  23874146.414 8  23874148.965 9 125459487.008 8  94909294.658 9
G02  22676323.781 7  22676325.258 4                 119164899.028 7  92855754.536 4
G08  20772782.300 8                  20772789.663 8 109161945.312 8                  85061105.872 8
G10  20970585.601 8                  20970591.725 8 110201253.979 8                  85871068.124 8
G16  24034140.333 6  24034148.033 4                 126300210.190 6  98415794.955 4
G23  22446960.886 6                  22446965.016 6 117959567.325 6                  91916567.454 6
G27  20486098.828 7                  20486104.987 7 107655305.932 7                  83887160.791 7
R01  20371588.869 7                 108897986.373 7
R08  21744019.223 7  21744024.637 7 116438328.323 7  90563090.627 7
R15  21869839.098 6  21869853.496 4 116865803.343 6  90895732.491 4
R16  22638616.954 7  22638621.105 6 120931453.379 7  94057799.777 6
R17  20762844.851 8  20762850.286 7 111106326.836 8  86415943.950 7
R24  19773884.975 8  19773888.998 7 105739984.433 8  82242119.617 7
> 2025 06 15 09 49  5.0000000  0 21
C13  38616590.029 6  38616592.820 6 201086729.273 6 155493019.152 6
C19  24022248.722 7                 125090224.426 7
C20  23052984.091 7                 120043002.666 7
C29  22519789.643 7                 117266698.827 7
E02  24796896.107 8  24796897.547 8 130308535.708 8  98577589.903 8
E11  24470854.413 7  24470852.647 8 128595217.536 7  97281427.681 8
E25  26683594.174 7  26683599.316 8 140223267.274 7 106077971.344 8
E30  27128948.225 6  27128950.706 6 142563580.014 6 107848437.097 6
E36  23872154.059 8  23872156.461 9 125449016.540 8  94901373.812 9
G02  22672936.177 7  22672936.769 4                 119147093.475 7  92841880.072 4
G08  20770356.730 8                  20770364.258 7 109149200.212 8                  85051174.598 7
G10  20969552.887 8                  20969558.841 8 110195824.729 8                  85866837.547 8
G16  24036522.959 6  24036529.969 4                 126312728.102 6  98425549.131 4
G23  22448396.299 6                  22448402.378 7 117967118.475 6                  91922451.484 7
G27  20486132.878 8                  20486138.925 7 107655484.008 8                  83887299.537 7
R01  20368620.461 7                 108882116.522 7
R08  21745064.432 7  21745069.509 7 116443924.116 7  90567442.903 7
R15  21870716.718 5  21870730.107 4 116870499.839 5  90899385.253 4
R16  22635972.944 7  22635976.605 6 120917328.214 7  94046813.549 6
R17  20759369.677 8  20759375.077 7 111087733.025 8  86401482.120 7
R24  19773605.409 8  19773610.351 7 105738493.020 8  82240959.620 7
> 2025 06 15 09 49 10.0000000  0 22
C13  38616372.371 6  38616375.112 6 201085595.546 6 155492142.499 6
C19  24018331.962 7                 125069831.676 7
C20  23051654.339 7                 120036078.706 7
C29  22520340.278 7                 117269563.482 7
E02  24796782.307 8  24796783.446 8 130307935.799 8  98577136.061 8
E10  26460611.963 5                 139051477.29715
E11  24471106.910 7  24471104.987 8 128596543.555 7  97282430.803 8
E25  26685376.081 7  26685381.525 8 140232632.489 7 106085056.055 8
E30  27126203.979 6  27126206.816 6 142549161.410 6 107837529.564 6
E36  23870162.709 8  23870165.181 9 125438552.249 8  94893457.647 9
G02  22669548.724 7  22669549.404 4                 119129293.727 7  92828010.146 4
G08  20767934.437 8                  20767941.356 7 109136468.636 8                  85041253.888 7
G10  20968522.605 8                  20968528.401 8 110190410.358 8                  85862618.550 8
G16  24038905.844 6  24038913.038 4                 126325249.303 6  98435305.863 4
G23  22449836.446 6                  22449840.858 6 117974678.902 6                  91928342.713 6
G27  20486169.776 7                  20486175.815 7 107655676.718 7                  83887449.697 7
R01  20365655.630 7                 108866268.054 7
R08  21746112.243 7  21746117.975 7 116449539.029 7  90571810.088 7
R15  21871601.260 5  21871612.178 4 116875215.127 5  90903052.493 4
R16  22633330.757 6  22633337.021 6 120903224.145 6  94035843.720 6
R17  20755897.113 8  20755902.098 7 111069146.665 8  86387026.056 7
R24  19773329.294 8  19773333.534 7 105737013.498 8  82239808.854 7
> 2025 06 15 09 49 15.0000000  0 22
C13  38616155.127 6  38616157.711 6 201084462.832 6 155491266.613 6
C19  24014417.765 6                 125049447.432 6
C20  23050328.085 7                 120029169.830 7
C29  22520892.036 7                 117272435.861 7
E02  24796670.348 8  24796671.633 8 130307347.615 8  98576691.092 8
E10  26461649.825 5  26461654.938 6 139056950.017 5 105195666.68916
E11  24471359.587 7  24471358.202 8 128597874.252 7  97283437.466 8
E25  26687159.559 7  26687164.372 8 140242001.036 7 106092143.277 8
E30  27123464.201 6  27123464.926 7 142534752.941 6 107826629.701 7
E36  23868172.610 8  23868175.029 9 125428094.007 8  94885546.058 9
G02  22666162.503 7  22666163.551 4                 119111499.550 7  92814144.589 4
G08  20765514.095 8                  20765521.092 7 109123750.470 8                  85031343.632 7
G10  20967494.610 8                  20967500.150 7 110185010.711 8                  85858411.041 7
G16  24041289.165 6  24041295.925 4                 126337773.615 6  98445065.084 4
G23  22451277.214 6                  22451282.172 7 117982248.506 6                  91934241.102 7
G27  20486208.399 7                  20486214.953 7 107655883.866 7                  83887611.116 7
R01  20362695.176 7                 108850440.895 7
R08  21747164.439 7  21747170.198 7 116455172.944 7  90576192.003 7
R15  21872483.489 5  21872497.748 3 116879949.06915  90906734.50613
R16  22630694.534 6  22630701.037 5 120889141.035 6  94024890.244 5
R17  20752424.752 8  20752429.907 7 111050567.494 8  86372575.610 7
R24  19773055.856 8  19773059.066 7 105735545.620 8  82238667.177 7
> 2025 06 15 09 49 20.0000000  0 22
C13  38615937.723 6  38615940.203 6 201083330.834 6 155490391.271 6
C19  24010504.817 7                 125029071.359 7
C20  23049004.764 7                 120022275.697 7
C29  22521445.733 7                 117275315.524 7
E02  24796560.328 8  24796561.885 8 130306770.768 8  98576254.707 8
E10  26462693.479 5  26462696.710 6 139062424.396 5 105199808.026 6
E11  24471613.375 7  24471612.249 8 128599209.193 7  97284447.342 8
E25  26688943.802 7  26688947.695 8 140251372.532 7 106099232.729 8
E30  27120724.467 6  27120725.201 6 142520354.351 6 107815737.205 6
E36  23866183.563 8  23866185.950 9 125417641.367 8  94877638.704 9
G02  22662777.425 7  22662778.807 4                 119093710.637 7  92800283.094 4
G08  20763096.188 8                  20763103.588 8 109111045.269 8                  85021443.493 8
G10  20966469.979 8                  20966475.912 8 110179625.375 8                  85854214.686 8
G16  24043673.404 6  24043679.918 4                 126350300.657 6  98454826.369 4
G23  22452718.508 6                  22452723.840 6 117989826.786 6                  91940146.219 6
G27  20486250.613 8                  20486256.927 8 107656105.045 8                  83887783.472 8
R01  20359738.953 7                 108834634.679 7
R08  21748221.056 7  21748226.028 7 116460825.434 7  90580588.362 7
R15  21873372.129 5  21873385.427 4 116884701.160 5  90910430.83014
R16  22628061.409 6  22628069.123 5 120875078.320 6  94013952.573 5
R17  20748953.768 8  20748959.838 7 111031995.142 8  86358130.454 7
R24  19772782.646 8  19772786.862 7 105734089.159 8  82237534.396 7
> 2025 06 15 09 49 25.0000000  0 22
C13  38615720.506 6  38615723.056 6 201082198.507 6 155489515.684 6
C19  24006593.886 7                 125008702.531 7
C20  23047682.175 7                 120015395.339 7
C29  22521999.407 7                 117278201.577 7
E02  24796452.302 8  24796454.217 8 130306204.317 8  98575826.186 8
E10  26463736.398 5  26463738.585 6 139067899.390 5 105203949.806 6
E11  24471868.252 7  24471866.952 8 128600547.468 7  97285459.732 8
E25  26690726.373 7  26690731.383 8 140260746.041 7 106106323.698 8
E30  27117983.154 5  27117986.777 7 142505964.419 5 107804851.371 7
E36  23864195.404 8  23864197.774 9 125407193.440 8  94869734.907 9
G02  22659394.107 7  22659393.835 4                 119075926.008 7  92786424.947 4
G08  20760680.949 8                  20760687.994 8 109098352.159 8                  85011552.743 8
G10  20965447.303 8                  20965453.513 8 110174253.435 8                  85850028.739 8
G16  24046056.733 6  24046064.077 4                 126362829.444 6  98464589.039 4
G23  22454161.314 6                  22454167.460 6 117997412.851 6                  91946057.409 6
G27  20486296.040 8                  20486301.309 8 107656339.373 8                  83887966.072 8
R01  20356784.752 7                 108818848.460 7
R08  21749281.245 7  21749285.002 7 116466495.543 7  90584998.428 7
R15  21874268.373 5  21874280.182 4 116889470.709 5
R16  22625435.935 5  22625439.706 5 120861035.351 5  94003030.246 5
R17  20745484.143 8  20745489.872 7 111013428.771 8  86343689.954 7
R24  19772512.073 8  19772516.599 7 105732642.948 8  82236409.558 7
> 2025 06 15 09 49 30.0000000  0 22
C13  38615503.105 6  38615505.765 6 201081066.889 6 155488640.647 6
C19  24002683.317 7                 124988341.941 7
C20  23046364.666 7                 120008529.723 7
C29  22522555.735 7                 117281094.947 7
E02  24796347.073 7  24796348.663 8 130305649.244 7  98575406.255 8
E10  26464777.489 5  26464780.660 6 139073376.150 5 105208092.90516
E11  24472123.851 7  24472122.392 8 128601890.038 7  97286475.363 8
E25  26692509.930 7  26692515.646 8 140270122.514 7 106113416.918 8
E30  27115248.452 5  27115250.511 7 142491584.350 5 107793972.935 7
E36  23862208.323 8  23862210.671 9 125396751.180 8  94861835.410 9
G02  22656010.531 7  22656010.143 4                 119058146.634 7  92772570.928 4
G08  20758267.354 8                  20758274.700 7 109085672.081 8                  85001672.147 7
G10  20964428.029 8                  20964433.955 8 110168895.845 8                  85845854.013 8
G16  24048441.158 6  24048448.083 3                 126375360.957 6  98474353.830 3
G23  22455606.112 5                  22455612.731 6 118005007.613 5                  91951975.424 6
G27  20486342.790 8                  20486349.004 8 107656587.799 8                  83888159.646 8
R01  20353834.518 7                 108803083.155 7
R08  21750342.505 7  21750346.773 7 116472184.190 7  90589422.913 7
R15  21875164.044 5  21875173.507 4 116894258.279 5  90917864.05814
R16  22622809.084 6  22622813.871 6 120847012.869 6  93992123.901 6
R17  20742016.603 8  20742021.036 7 110994869.211 8  86329254.745 7
R24  19772243.007 8  19772247.245 7 105731208.019 8  82235293.503 7
> 2025 06 15 09 49 35.0000000  0 22
C13  38615285.900 6  38615288.074 6 201079936.700 6 155487766.706 6
C19  23998775.315 7                 124967990.322 7
C20  23045048.894 7                 120001679.615 7
C29  22523112.451 7                 117283996.433 7
E02  24796244.162 7  24796245.266 8 130305106.308 7  98574995.524 8
E10  26465821.210 5  26465823.307 6 139078855.314 5 105212237.782 6
E11  24472380.466 7  24472378.828 8 128603237.656 7  97287494.828 8
E25  26694295.138 7  26694300.715 8 140279502.697 7 106120512.939 8
E30  27112513.170 4  27112516.251 7 142477214.81714 107783102.56617
E36  23860222.323 8  23860224.819 9 125386315.334 8  94853940.759 9
G02  22652628.379 7  22652628.435 4                 119040373.263 7  92758721.545 4
G08  20755857.011 8                  20755865.107 8 109073005.809 8                  84991802.355 8
G10  20963411.383 8                  20963417.112 7 110163553.372 8                  85841691.043 7
G16  24050826.181 6  24050833.336 3                 126387895.979 6  98484121.361 3
G23  22457053.207 5                  22457059.882 6 118012611.901 5                  91957900.819 6
G27  20486393.630 8                  20486399.437 8 107656851.065 8                  83888364.785 8
R01  20350890.475 7                 108787339.629 7
R08  21751406.897 7  21751412.926 7 116477892.201 7  90593862.458 7
R15  21876062.903 5  21876070.773 4 116899064.810 5  90921602.342 4
R16  22620190.451 6  22620192.995 5 120833011.915 6  93981234.138 5
R17  20738549.544 8  20738554.580 7 110976317.406 8  86314825.570 7
R24  19771977.104 8  19771981.676 7 105729785.240 8  82234186.889 7
> 2025 06 15 09 49 40.0000000  0 22
C13  38615069.968 6  38615071.561 6 201078807.936 6 155486893.860 6
C19  23994868.575 7                 124947647.715 7
C20  23043735.811 7                 119994845.019 7
C29  22523671.764 7                 117286905.995 7
E02  24796143.372 7  24796144.217 8 130304575.459 7  98574593.937 8
E10  26466864.302 5  26466866.465 5 139084336.882 5 105216384.503 5
E11  24472638.236 7  24472636.127 8 128604590.317 7  97288518.100 8
E25  26696081.507 7  26696086.407 8 140288886.600 7 106127611.779 8
E30  27109778.901 5  27109783.853 6 142462855.909 5 107772240.098 6
E36  23858237.751 8  23858240.132 9 125375885.930 8  94846050.989 9
G02  22649248.030 7  22649247.601 4                 119022606.003 7  92744876.921 4
G08  20753449.317 8                  20753456.862 7 109060353.372 8                  84981943.300 7
G10  20962397.854 8                  20962403.135 7 110158226.009 8                  85837539.838 7
G16  24053212.943 6  24053219.283 3                 126400434.518 6  98493891.608 3
G23  22458501.912 6                  22458508.877 7 118020225.638 6                  91963833.571 7
G27  20486446.322 8                  20486451.841 8 107657129.196 8                  83888581.517 8
R01  20347950.121 7                 108771617.784 7
R08  21752477.422 7  21752482.271 7 116483619.500 7  90598317.022 7
R15  21876968.524 6  21876973.680 5 116903890.564 6  90925355.692 5
R16  22617571.785 5  22617576.464 6 120819032.528 5  93970361.290 6
R17  20735083.944 8  20735089.029 7 110957773.201 8  86300402.274 7
R24  19771713.812 8  19771718.110 7 105728374.540 8  82233089.677 7
> 2025 06 15 09 49 45.0000000  0 21
C13  38614853.895 6  38614855.188 6 201077680.713 6 155486022.206 6
C19  23990964.753 7                 124927314.283 7
C20  23042427.021 7                 119988026.145 7
C29  22524232.067 7                 117289823.842 7
E02  24796044.943 7  24796045.583 8 130304056.940 7  98574201.670 8
E10  26467907.337 5  26467910.082 5 139089821.067 5 105220533.237 5
E11  24472896.325 7  24472894.514 8 128605948.226 7  97289545.354 8
E25  26697867.474 7  26697872.954 8 140298274.384 7 106134713.553 8
E36  23856254.183 8  23856256.774 9 125365463.149 8  94838166.225 9
G02  22645868.370 7  22645868.178 4                 119004844.989 7  92731037.180 4
G08  20751044.442 8                  20751052.181 7 109047714.973 8                  84972095.188 7
G10  20961386.997 8                  20961392.538 8 110152913.964 8                  85833400.591 8
G16  24055599.949 6  24055606.685 4                 126412976.798 6  98503664.804 4
G23  22459954.467 6                  22459960.106 7 118027849.136 6                  91969773.905 7
G27  20486501.672 8                  20486508.077 8 107657422.399 8                  83888809.968 8
R01  20345012.308 7                 108755917.962 7
R08  21753551.554 7  21753555.506 7 116489366.327 7  90602786.749 7
R15  21877878.493 5  21877882.604 5 116908735.379 5  90929123.760 5
R16  22614955.990 6  22614962.812 6 120805074.569 6  93959505.142 6
R17  20731620.065 8  20731624.903 7 110939236.991 8  86285985.237 7
R24  19771452.217 8  19771456.537 7 105726976.133 8  82232002.054 7
> 2025 06 15 09 49 50.0000000  0 21
C13  38614636.731 6  38614638.645 6 201076553.825 6 155485150.843 6
C19  23987060.877 7                 124906988.746 7
C20  23041120.120 7                 119981221.618 7
C29  22524793.976 7                 117292748.668 7
E02  24795947.569 7  24795949.164 8 130303549.384 7  98573817.715 8
E10  26468952.650 5  26468954.228 6 139095306.585 5 105224682.925 6
E11  24473155.286 7  24473153.591 7 128607310.059 7  97290575.569 7
E25  26699654.395 7  26699659.796 8 140307664.714 7 106141817.247 8
E36  23854271.754 8  23854274.399 9 125355045.665 8  94830285.458 9
G02  22642487.789 7  22642489.784 4                 118987088.866 7  92717201.206 4
G08  20748641.631 7                  20748649.763 8 109035089.262 7                  84962256.987 8
G10  20960378.561 8                  20960384.775 8 110147615.867 8                  85829272.208 8
G16  24057987.338 6  24057993.750 4                 126425521.338 6  98513439.726 4
G23  22461405.995 6                  22461411.675 7 118035480.869 6                  91975720.716 7
G27  20486560.454 8                  20486566.935 8 107657729.251 8                  83889049.096 8
R01  20342078.721 7                 108740238.846 7
R08  21754627.130 7  21754632.182 7 116495131.344 7  90607270.708 7
R15  21878785.060 6  21878793.425 5 116913597.747 6  90932905.619 5
R16  22612348.905 6  22612355.203 6 120791137.140 6  93948664.818 6
R17  20728157.288 8  20728162.222 7 110920707.263 8  86271573.236 7
R24  19771192.531 8  19771197.176 7 105725588.603 8  82230922.851 7
> 2025 06 15 09 49 55.0000000  0 21
C13  38614419.982 6  38614422.442 6 201075427.109 6 155484279.592 6
C19  23983158.486 7                 124886671.020 7
C20  23039815.606 7                 119974431.357 7
C29  22525356.828 7                 117295680.321 7
E02  24795852.459 8  24795854.605 8 130303052.697 8  98573441.960 8
E10  26469995.387 5  26469998.595 6 139100793.229 5 105228833.488 6
E11  24473415.400 7  24473413.490 8 128608675.696 7  97291608.646 8
E25  26701442.291 7  26701447.286 8 140317057.505 7 106148922.799 8
E36  23852290.599 8  23852293.011 9 125344633.349 8  94822408.618 9
G02  22639109.806 7  22639112.068 4                 118969337.489 7  92703369.031 4
G08  20746242.626 8                  20746249.457 8 109022476.164 8                  84952428.583 8
G10  20959373.671 8                  20959379.323 8 110142331.605 8                  85825154.604 8
G16  24060374.080 6  24060381.032 3                 126438067.938 6  98523216.303 3
G23  22462859.967 6                  22462865.184 7 118043120.844 6                  91981673.935 7
G27  20486620.901 8                  20486627.295 8 107658049.694 8                  83889298.788 8
R01  20339150.261 7                 108724580.077 7
R08  21755706.533 7  21755712.362 7 116500914.255 7  90611768.546 7
R15  21879697.146 5  21879704.519 5 116918477.797 5  90936701.181 5
R16  22609742.421 6  22609750.528 5 120777219.776 6  93937840.385 5
R17  20724695.843 8  20724701.007 7 110902184.039 8  86257166.264 7
R24  19770935.010 8  19770939.215 7 105724211.943 8  82229852.103 7
> 2025 06 15 09 50  0.0000000  0 22
C13  38614204.846 6  38614205.946 6 201074301.310 6 155483409.048 6
C19  23979258.117 7                 124866361.792 7
C20  23038515.082 8                 119967656.095 8
C29  22525920.711 7                 117298619.534 7
E02  24795760.499 7  24795762.332 8 130302567.595 7  98573074.982 8
E10  26471039.997 5  26471043.301 6 139106281.788 5 105232985.495 6
E11  24473675.988 7  24473674.202 8 128610045.830 7  97292645.143 8
E25  26703229.960 7  26703235.356 8 140326453.408 7 106156030.719 8
E30  27098872.205 4                                
E36  23850310.434 8  23850312.699 9 125334226.940 8  94814536.241 9
G02  22635732.814 7  22635733.908 3                 118951591.686 7  92689541.121 3
G08  20743844.262 8                  20743851.713 8 109009876.373 8                  84942610.573 8
G10  20958370.301 8                  20958376.213 8 110137061.940 8                  85821048.350 8
G16  24062762.208 6  24062769.096 4                 126450617.475 6  98532995.088 4
G23  22464314.795 6                  22464320.715 7 118050769.631 6                  91987634.029 7
G27  20486684.610 8                  20486691.162 8 107658384.486 8                  83889559.672 8
R01  20336224.753 7                 108708942.774 7
R08  21756790.352 7  21756795.839 7 116506715.883 7  90616280.897 7
R15  21880612.781 4  21880620.762 5 116923376.310 4  90940511.127 5
R16  22607141.296 5  22607149.086 5 120763323.321 5  93927031.886 5
R17  20721235.678 8  20721240.961 7 110883667.953 8  86242764.873 7
R24  19770679.307 8  19770683.631 7 105722846.839 8  82228790.332 7
> 2025 06 15 09 50  5.0000000  0 22
C13  38613987.551 6  38613989.799 6 201073175.532 6 155482538.526 6
C19  23975359.373 7                 124846060.174 7
C20  23037215.931 7                 119960894.939 7
C29  22526486.090 7                 117301565.445 7
E02  24795670.520 7  24795672.123 8 130302093.192 7  98572716.087 8
E10  26472085.470 5  26472088.118 6 139111771.309 5 105237138.255 6
E11  24473937.847 7  24473935.600 8 128611419.569 7  97293684.366 8
E25  26705018.721 7  26705023.763 8 140335851.564 7 106163140.354 8
E30  27096147.920 5  27096149.828 6 142391202.61515 107718036.75416
E36  23848331.177 8  23848333.386 9 125323825.546 8  94806667.648 9
G02  22632355.931 7  22632357.153 3                 118933850.480 7  92675716.815 3
G08  20741449.121 7                  20741456.369 8 108997289.040 7                  84932802.263 8
G10  20957369.649 8                  20957376.082 8 110131805.938 8                  85816952.756 8
G16  24065150.950 6  24065157.667 3                 126463168.962 6  98542775.472 3
G23  22465771.573 6                  22465777.999 7 118058426.447 6                  91993600.434 7
G27  20486750.815 8                  20486757.340 8 107658732.682 8                  83889830.979 8
R01  20333302.543 7                 108693325.811 7
R08  21757875.995 7  21757882.117 7 116512535.437 7  90620807.190 7
R15  21881536.185 6  21881539.739 5 116928292.164 6  90944334.552 5
R16  22604545.056 6  22604550.977 5 120749446.788 6  93916239.015 5
R17  20717776.278 8  20717781.693 7 110865158.140 8  86228368.377 7
R24  19770426.319 8  19770430.671 7 105721492.368 8  82227736.872 7
> 2025 06 15 09 50 10.0000000  0 21
C13  38613772.086 6  38613774.043 6 201072050.865 6 155481668.854 6
C19  23971462.524 7                 124825767.284 7
C20  23035920.298 7                 119954148.976 7
C29  22527053.433 7                 117304519.095 7
E02  24795582.252 7  24795583.973 8 130301630.532 7  98572366.091 8
E10  26473129.094 5  26473133.342 6 139117262.900 5 105241292.569 6
E11  24474200.077 7  24474197.869 8 128612798.011 7  97294727.147 8
E25  26706807.392 7  26706812.913 8 140345253.063 7 106170252.506 8
E36  23846353.003 8  23846355.235 9 125313430.251 8  94798803.676 9
G02  22628982.692 7  22628982.013 3                 118916114.998 7  92661896.949 3
G08  20739056.143 8                  20739063.777 7 108984715.215 8                  84923004.488 7
G10  20956372.845 8                  20956378.522 8 110126564.704 8                  85812868.681 8
G16  24067540.417 6  24067546.610 4                 126475723.520 6  98552558.177 4
G23  22467231.270 6                  22467236.234 7 118066092.401 6                  91999573.871 7
G27  20486819.811 7                  20486826.438 8 107659095.384 7                  83890113.604 8
R01  20330385.987 7                 108677730.387 7
R08  21758966.318 7  21758972.876 7 116518373.771 7  90625348.113 7
R15  21882460.342 6  21882465.183 5 116933226.609 6  90948172.446 5
R16  22601950.975 5  22601956.759 5 120735591.384 5  93905462.605 5
R17  20714319.370 8  20714324.197 7 110846655.681 8  86213977.603 7
R24  19770176.358 8  19770179.833 7 105720149.699 8  82226692.567 7
> 2025 06 15 09 50 15.0000000  0 22
C13  38613556.863 6  38613558.412 6 201070927.740 6 155480800.375 6
C19  23967567.719 7                 124805483.648 7
C20  23034627.564 7                 119947418.672 7
C29  22527622.183 7                 117307481.010 7
E02  24795497.119 8  24795498.316 8 130301180.157 8  98572025.382 8
E10  26474174.527 5  26474179.097 6 139122757.098 5 105245448.867 6
E11  24474463.222 7  24474461.177 8 128614181.667 7  97295773.870 8
E25  26708597.102 7  26708602.859 8 140354658.385 7 106177367.542 8
E30  27090712.655 5                 142362613.87315
E36  23844375.906 8  23844378.356 9 125303041.563 8  94790944.698 9
G02  22625607.394 7  22625608.646 4                 118898385.776 7  92648081.977 4
G08  20736666.369 7                  20736673.739 7 108972155.471 7                  84913217.681 7
G10  20955378.274 8                  20955384.034 8 110121338.729 8                  85808796.482 8
G16  24069930.364 6  24069936.468 3                 126488281.624 6  98562343.702 3
G23  22468692.085 6                  22468697.157 7 118073767.885 6                  92005554.764 7
G27  20486891.687 8                  20486898.074 8 107659473.092 8                  83890407.902 8
R01  20327472.190 7                 108662156.979 7
R08  21760060.694 7  21760066.682 7 116524231.512 7  90629904.105 7
R15  21883386.521 6  21883391.704 5 116938180.009 6  90952025.078 5
R16  22599361.076 5  22599366.955 5 120721757.693 5  93894703.074 5
R17  20710862.651 8  20710868.448 7 110828161.090 8  86199592.923 7
R24  19769927.729 8  19769931.199 7 105718819.248 8  82225657.753 7
> 2025 06 15 09 50 20.0000000  0 22
C13  38613339.978 6  38613342.676 6 201069806.135 6 155479933.079 6
C19  23963674.685 7                 124785209.162 7
C20  23033338.311 7                 119940703.932 7
C29  22528192.935 7                 117310451.036 7
E02  24795412.851 8  24795414.906 8 130300741.924 8  98571693.855 8
E10  26475223.233 5  26475225.246 6 139128253.79515 105249607.04616
E11  24474727.645 7  24474725.538 8 128615570.397 7  97296824.437 8
E25  26710387.292 7  26710393.448 8 140364067.411 7 106184485.386 8
E30  27087993.851 5  27087992.417 7 142348335.491 5 107685609.98417
E36  23842400.613 8  23842402.704 9 125292659.358 8  94783090.627 9
G02  22622235.355 7  22622236.331 4                 118880662.675 7  92634271.757 4
G08  20734278.792 8                  20734286.149 8 108959609.652 8                  84903441.729 8
G10  20954386.936 8                  20954392.249 7 110116127.900 8                  85804736.122 7
G16  24072320.075 6  24072327.009 3                 126500843.170 6  98572131.897 3
G23  22470152.830 6                  22470159.372 6 118081452.855 6                  92011543.055 6
G27  20486966.451 8                  20486972.829 8 107659865.693 8                  83890713.817 8
R01  20324563.103 7                 108646605.448 7
R08  21761158.622 7  21761164.005 7 116530108.483 7  90634475.100 7
R15  21884318.073 6  21884320.947 5 116943152.554 6  90955892.661 5
R16  22596773.894 6  22596781.195 5 120707945.488 6  93883960.344 5
R17  20707408.343 8  20707413.079 7 110809674.381 8  86185214.346 7
R24  19769680.227 8  19769685.149 7 105717501.010 8  82224632.448 7
> 2025 06 15 09 50 25.0000000  0 22
C13  38613124.807 6  38613127.942 6 201068685.641 6 155479066.641 6
C19  23959782.912 7                 124764943.475 7
C20  23032052.065 7                 119934004.400 7
C29  22528764.146 7                 117313428.896 7
E02  24795332.404 8  24795333.686 8 130300315.518 8  98571371.285 8
E10  26476270.293 4                                
E11  24474991.969 7  24474990.855 8 128616963.862 7  97297878.591 8
E25  26712179.362 7  26712184.722 8 140373479.797 7 106191605.765 8
E30  27085276.982 5  27085277.392 6 142334067.443 5 107674816.330 6
E36  23840425.767 8  23840428.219 9 125282283.281 8  94775241.198 9
G02  22618864.288 7  22618864.953 4                 118862945.342 7  92620466.079 4
G08  20731894.169 7                  20731901.556 8 108947077.432 7                  84893676.357 8
G10  20953397.753 8                  20953403.690 7 110110931.884 8                  85800687.273 7
G16  24074711.492 6  24074718.130 3                 126513407.771 6  98581922.467 3
G23  22471617.333 6                  22471624.069 6 118089146.858 6                  92017538.379 6
G27  20487043.528 8                  20487050.732 8 107660272.830 8                  83891031.058 8
R01  20321657.321 7                 108631075.508 7
R08  21762260.177 7  21762265.008 7 116536004.457 7  90639060.869 7
R15  21885249.032 6  21885254.615 5 116948143.430 6  90959774.545 5
R16  22594195.616 6  22594198.942 5 120694154.634 6  93873234.102 5
R17  20703956.200 8  20703959.920 7 110791195.123 8  86170841.587 7
R24  19769435.505 8  19769440.480 7 105716194.461 8  82223616.238 7
> 2025 06 15 09 50 30.0000000  0 21
C13  38612909.746 6  38612912.851 6 201067565.965 6 155478200.843 6
C19  23955892.473 7                 124744686.322 7
C20  23030768.527 7                 119927319.829 7
C29  22529338.580 7                 117316414.265 7
E02  24795252.999 8  24795254.736 8 130299900.627 8  98571057.428 8
E11  24475258.636 7  24475256.918 7 128618361.839 7  97298936.143 7
E25  26713970.774 7  26713976.381 8 140382895.251 7 106198728.481 8
E30  27082564.489 6  27082564.018 6 142319809.543 6 107664030.362 6
E36  23838452.590 8  23838454.837 9 125271913.095 8  94767396.213 9
G02  22615493.782 7  22615495.703 4                 118845233.582 7  92606664.671 4
G08  20729511.574 8                  20729519.252 7 108934558.532 8                  84883921.379 7
G10  20952411.551 8                  20952417.600 7 110105750.344 8                  85796649.720 7
G16  24077102.740 6  24077109.381 3                 126525975.136 6  98591715.199 3
G23  22473083.917 6                  22473089.829 6 118096849.748 6                  92023540.582 6
G27  20487124.396 8                  20487130.679 8 107660694.221 8                  83891359.421 8
R01  20318757.087 7                 108615566.920 7
R08  21763365.722 7  21763368.939 7 116541918.953 7  90643661.011 7
R15  21886187.579 6  21886192.012 5 116953152.689 6  90963670.495 5
R16  22591616.145 6  22591619.102 5 120680384.658 6  93862524.211 5
R17  20700503.838 8  20700508.126 7 110772723.011 8  86156474.379 7
R24  19769193.346 8  19769198.079 7 105714899.527 8  82222609.068 7
> 2025 06 15 09 50 35.0000000  0 22
C13  38612695.573 6  38612697.940 6 201066446.685 6 155477335.358 6
C19  23952004.111 7                 124724437.135 7
C20  23029488.147 7                 119920649.664 7
C26  26008801.254 5                 135434441.25415
C29  22529912.807 7                 117319406.573 7
E02  24795176.304 8  24795177.805 8 130299496.686 8  98570751.846 8
E11  24475525.369 7  24475523.700 8 128619763.697 7  97299996.646 8
E25  26715762.928 7  26715768.494 8 140392313.165 7 106205853.032 8
E30  27079853.964 6  27079852.517 6 142305561.081 6 107653251.525 6
E36  23836480.182 8  23836482.438 9 125261548.187 8  94759555.233 9
G02  22612124.356 7  22612127.130 4                 118827526.635 7  92592867.056 4
G08  20727131.799 8                  20727139.448 7 108922052.402 8                  84874176.354 7
G10  20951428.162 8                  20951434.275 8 110100582.766 8                  85792623.007 8
G16  24079494.734 6  24079500.888 3                 126538544.661 6  98601509.650 3
G23  22474550.862 6                  22474557.390 7 118104560.851 6                  92029549.230 7
G27  20487207.437 8                  20487214.145 8 107661129.290 8                  83891698.446 8
R01  20315860.085 7                 108600079.031 7
R08  21764472.535 7  21764477.382 7 116547851.450 7  90648275.196 7
R15  21887126.840 5  21887132.243 5 116958179.409 5  90967580.176 5
R16  22589043.890 7  22589044.947 5 120666635.122 7  93851830.118 5
R17  20697053.098 8  20697057.664 7 110754257.483 8  86142112.326 7
R24  19768953.878 7  19768958.031 7 105713615.560 7  82221610.419 7
> 2025 06 15 09 50 40.0000000  0 22
C13  38612480.977 6  38612483.371 6 201065327.762 6 155476470.119 6
C19  23948117.103 7                 124704196.139 7
C20  23028209.775 7                 119913994.109 7
C26  26009997.653 5                 135440660.358 5
C29  22530488.504 7                 117322406.046 7
E02  24795101.499 8  24795103.030 8 130299103.914 8  98570454.707 8
E11  24475792.584 7  24475791.225 8 128621169.646 7  97301060.225 8
E25  26717556.104 7  26717560.937 8 140401733.783 7 106212979.646 8
E30  27077145.081 5  27077143.175 6 142291322.440 5 107642480.094 6
E36  23834508.442 8  23834511.088 9 125251188.799 8  94751718.420 9
G02  22608755.558 7  22608757.943 4                 118809824.879 7  92579073.518 4
G08  20724754.581 8                  20724762.159 7 108909559.297 8                  84864441.463 7
G10  20950448.343 8                  20950453.247 7 110095429.345 8                  85788607.365 7
G16  24081886.637 6  24081892.768 3                 126551116.616 6  98611305.986 3
G23  22476020.489 6                  22476026.647 7 118112280.347 6                  92035564.408 7
G27  20487293.074 8                  20487299.156 7 107661578.248 8                  83892048.282 7
R01  20312966.399 7                 108584612.123 7
R08  21765583.366 7  21765588.138 7 116553802.200 7  90652903.540 7
R15  21888070.009 5  21888074.509 4 116963224.055 5  90971503.833 4
R16  22586473.514 6  22586475.363 5 120652906.093 6  93841151.964 5
R17  20693603.454 8  20693607.995 7 110735798.790 8  86127755.557 7
R24  19768715.671 8  19768720.156 7 105712342.637 8  82220620.384 7
> 2025 06 15 09 50 45.0000000  0 22
C13  38612265.529 6  38612268.320 6 201064209.979 6 155475605.774 6
C19  23944231.088 7                 124683964.054 7
C20  23026934.702 7                 119907353.776 7
C26  26011193.480 5                 135446886.000 5
C29  22531066.356 7                 117325413.327 7
E02  24795029.008 8  24795030.499 8 130298722.931 8  98570166.492 8
E11  24476061.326 7  24476059.575 8 128622580.378 7  97302127.429 8
E25  26719348.944 7  26719354.357 8 140411157.724 7 106220108.771 8
E30  27074441.997 4                 142277093.37314
E36  23832538.511 8  23832540.908 9 125240835.551 8  94743886.258 9
G02  22605388.174 7  22605390.655 4                 118792128.951 7  92565284.492 4
G08  20722380.272 8                  20722387.098 7 108897079.841 8                  84854717.203 7
G10  20949470.173 8                  20949475.778 7 110090290.712 8                  85784603.258 7
G16  24084280.635 6  24084286.012 3                 126563691.660 6  98621104.640 3
G23  22477491.454 6                  22477497.135 6 118120008.921 6                  92041586.676 6
G27  20487380.409 7                  20487387.541 8 107662041.757 7                  83892409.466 8
R01  20310076.338 7                 108569166.889 7
R08  21766698.246 7  21766703.170 7 116559771.830 7  90657546.567 7
R15  21889020.341 6  21889022.011 6 116968287.142 6  90975441.722 6
R16  22583908.081 6  22583910.078 5 120639198.508 6  93830490.475 5
R17  20690154.278 8  20690159.987 7 110717347.613 8  86113404.688 7
R24  19768479.848 8  19768484.447 7 105711081.543 8  82219639.551 7
> 2025 06 15 09 50 50.0000000  0 22
C13  38612051.070 6  38612054.050 6 201063093.478 6 155474742.398 6
C19  23940347.305 7                 124663740.869 7
C20  23025662.029 7                 119900728.747 7
C26  26012389.457 4                 135453118.365 4
C29  22531645.112 7                 117328428.484 7
E02  24794958.596 8  24794960.305 8 130298353.816 8  98569887.258 8
E11  24476330.940 7  24476328.857 8 128623995.893 7  97303198.242 8
E25  26721141.906 7  26721148.251 8 140420585.055 7 106227240.466 8
E30  27071738.604 4  27071730.701 6 142262875.53414 107620961.82016
E36  23830569.495 8  23830571.893 9 125230488.546 8  94736058.823 9
G02  22602023.103 7  22602024.291 4                 118774438.897 7  92551500.050 4
G08  20720007.526 8                  20720015.174 8 108884614.094 8                  84845003.643 8
G10  20948495.696 8                  20948500.822 8 110085166.966 8                  85780610.721 8
G16  24086673.664 6  24086679.238 3                 126576269.738 6  98630905.747 3
G23  22478963.852 6                  22478969.553 7 118127746.632 6                  92047616.042 7
G27  20487472.237 8                  20487478.745 8 107662519.883 8                  83892782.003 8
R01  20307191.000 7                 108553743.313 7
R08  21767817.046 7  21767821.748 7 116565760.316 7  90662204.265 7
R15  21889974.007 6  21889974.918 5 116973368.761 6  90979393.983 5
R16  22581346.205 7  22581348.212 5 120625512.176 7  93819845.588 5
R17  20686707.911 8  20686713.360 7 110698904.028 8  86099059.668 7
R24  19768246.643 8  19768250.676 7 105709832.318 8  82218667.918 7
> 2025 06 15 09 50 55.0000000  0 21
C13  38611837.388 6  38611840.120 7 201061977.930 6 155473879.797 7
C19  23936466.000 7                 124643526.438 7
C20  23024393.016 7                 119894118.832 7
C26  26013588.143 4                 135459357.184 4
C29  22532225.159 7                 117331451.298 7
E02  24794890.351 8  24794892.286 8 130297996.376 8  98569616.853 8
E11  24476601.068 7  24476598.976 8 128625416.042 7  97304272.569 8
E25  26722937.161 7  26722942.744 8 140430015.574 7 106234374.574 8
E36  23828601.747 8  23828604.015 9 125220147.554 8  94728235.938 9
G02  22598655.737 7  22598659.421 4                 118756754.517 7  92537720.032 4
G08  20717638.222 8                  20717645.528 8 108872161.885 8                  84835300.624 8
G10  20947522.951 8                  20947528.613 8 110080057.868 8                  85776629.590 8
G16  24089067.849 6  24089073.394 3                 126588850.693 6  98640709.063 3
G23  22480437.470 6                  22480443.667 7 118135493.216 6                  92053652.356 7
G27  20487566.110 8                  20487572.083 8 107663012.404 8                  83893165.776 8
R01  20304309.649 7                 108538341.344 7
R08  21768939.369 7  21768943.925 7 116571767.462 7  90666876.468 7
R15  21890925.204 6  21890929.700 5 116978468.783 6  90983360.665 5
R16  22578785.216 6  22578788.911 4 120611846.980 6  93809217.075 4
R17  20683262.124 8  20683268.111 7 110680467.813 8  86084720.385 7
R24  19768015.365 8  19768019.242 7 105708594.777 8  82217705.354 7
> 2025 06 15 09 51  0.0000000  0 21
C13  38611623.402 6  38611626.124 7 201060863.321 6 155473017.903 7
C19  23932586.083 7                 124623320.697 7
C20  23023126.561 7                 119887523.950 7
C29  22532806.823 7                 117334481.724 7
E02  24794824.601 8  24794826.551 8 130297650.530 8  98569355.221 8
E11  24476872.055 7  24476870.049 8 128626840.703 7  97305350.316 8
E25  26724732.410 7  26724737.978 8 140439449.216 7 106241511.037 8
E30  27066321.448 5                 142234466.32215
E36  23826635.114 8  23826637.326 9 125209812.541 8  94720417.563 9
G02  22595292.035 7  22595295.489 5                 118739075.765 7  92523944.396 5
G08  20715271.581 8                  20715278.545 8 108859723.168 8                  84825608.097 8
G10  20946553.809 8                  20946559.254 8 110074963.351 8                  85772659.845 8
G16  24091461.849 6  24091468.237 3                 126601434.450 6  98650514.553 3
G23  22481913.160 6                  22481920.438 7 118143248.674 6                  92059695.586 7
G27  20487662.237 8                  20487668.688 8 107663519.282 8                  83893560.748 8
R01  20301433.099 7                 108522960.900 7
R08  21770064.676 7  21770068.892 7 116577793.305 7  90671563.217 7
R15  21891882.711 6  21891887.405 5 116983586.956 6  90987341.480 5
R16  22576230.230 6  22576234.237 5 120598202.915 6  93798605.088 5
R17  20679819.011 8  20679824.272 7 110662038.876 8  86070386.771 7
R24  19767786.247 8  19767790.007 7 105707368.828 8  82216751.841 7
> 2025 06 15 09 51  5.0000000  0 21
C13  38611409.106 6  38611412.494 6 201059749.911 6 155472156.948 6
C19  23928707.013 7                 124603123.925 7
C20  23021863.037 7                 119880944.407 7
C29  22533390.922 7                 117337520.026 7
E02  24794761.122 8  24794763.015 8 130297316.572 8  98569102.577 8
E11  24477144.796 7  24477142.125 8 128628270.188 7  97306431.713 8
E25  26726527.890 7  26726533.816 8 140448886.210 7 106248650.027 8
E30  27063622.560 5  27063625.036 6 142220279.381 5 107588739.33516
E36  23824669.293 8  23824671.833 9 125199483.761 8  94712603.911 9
G02  22591928.816 7  22591932.237 4                 118721402.914 7  92510173.368 4
G08  20712906.928 8                  20712914.012 7 108847298.190 8                  84815926.306 7
G10  20945586.419 8                  20945592.473 8 110069883.705 8                  85768701.677 8
G16  24093856.937 6  24093863.344 3                 126614021.253 6  98660322.406 3
G23  22483391.751 6                  22483399.705 7 118151013.224 6                  92065745.899 7
G27  20487761.264 8                  20487767.762 7 107664040.741 8                  83893967.082 7
R01  20298559.410 7                 108507602.182 7
R08  21771192.931 7  21771197.745 7 116583837.986 7  90676264.619 7
R15  21892844.448 6  21892848.948 5 116988723.597 6  90991336.649 5
R16  22573680.613 6  22573685.866 5 120584580.232 6  93788009.718 5
R17  20676376.691 8  20676382.109 7 110643617.576 8  86056059.097 7
R24  19767558.037 8  19767562.551 7 105706154.875 8  82215807.671 7
> 2025 06 15 09 51 10.0000000  0 21
C13  38611195.115 6  38611198.227 6 201058636.212 6 155471295.755 6
C19  23924830.746 7                 124582934.633 7
C20  23020602.571 7                 119874378.632 7
C29  22533975.537 7                 117340564.675 7
E02  24794699.377 8  24794701.441 8 130296992.924 8  98568857.735 8
E11  24477417.840 7  24477414.724 7 128629702.951 7  97307515.589 7
E25  26728323.854 7  26728330.017 8 140458325.053 7 106255790.425 8
E30  27060922.881 5  27060927.032 6 142206101.507 5 107578013.845 6
E36  23822704.842 8  23822707.217 9 125189159.681 8  94704793.808 9
G02  22588567.285 7  22588569.316 4                 118703734.418 7  92496405.714 4
G08  20710545.076 8                  20710552.193 7 108834885.425 8                  84806254.028 7
G10  20944622.193 8                  20944628.277 8 110064817.402 8                  85764753.902 8
G16  24096252.778 6  24096258.018 3                 126626609.598 6  98670131.487 3
G23  22484870.444 6                  22484877.864 6 118158785.287 6                  92071802.041 6
G27  20487863.705 8                  20487869.492 7 107664575.291 8                  83894383.616 7
R01  20295689.978 7                 108492263.841 7
R08  21772325.359 7  21772329.551 7 116589899.996 7  90680979.530 7
R15  21893808.138 5  21893813.178 6 116993877.313 5  90995345.134 6
R16  22571135.272 6  22571140.625 5 120570977.342 6  93777429.653 5
R17  20672936.263 8  20672940.367 7 110625202.342 8  86041736.130 7
R24  19767333.957 8  19767337.681 7 105704951.188 8  82214871.468 7
> 2025 06 15 09 51 15.0000000  0 22
C13  38610981.745 6  38610984.394 6 201057522.616 6 155470434.644 6
C19  23920954.146 7                 124562753.241 7
C20  23019344.669 7                 119867827.105 7
C29  22534561.870 7                 117343616.116 7
E02  24794639.985 8  24794641.921 8 130296680.036 8  98568621.025 8
E10  26486752.096 5  26486753.822 6 139188824.25815 105295444.61416
E11  24477690.672 7  24477688.035 8 128631139.443 7  97308602.295 8
E25  26730121.171 7  26730126.673 8 140467766.159 7 106262932.543 8
E30  27058228.989 5  27058230.755 6 142191932.976 5 107567295.469 6
E36  23820741.501 8  23820743.565 9 125178840.738 8  94696987.596 9
G02  22585205.951 7  22585207.592 4                 118686070.734 7  92482641.805 4
G08  20708185.098 8                  20708192.457 7 108822485.340 8                  84796591.624 7
G10  20943661.493 8                  20943666.939 8 110059764.825 8                  85760816.843 8
G16  24098648.466 6  24098654.266 3                 126639199.843 6  98679942.061 3
G23  22486349.684 5                  22486357.421 6 118166565.395 5                  92077864.450 6
G27  20487967.608 8                  20487973.682 8 107665123.318 8                  83894810.640 8
R01  20292825.017 7                 108476945.937 7
R08  21773460.159 7  21773464.708 6 116595979.682 7  90685708.166 6
R15  21894774.144 5  21894780.253 5 116999048.125 5  90999366.966 5
R16  22568591.533 6  22568597.913 5 120557394.738 6  93766865.388 5
R17  20669494.608 8  20669500.557 7 110606793.544 8  86027418.216 7
R24  19767110.730 8  19767114.638 7 105703758.290 8  82213943.674 7
> 2025 06 15 09 51 20.0000000  0 22
C13  38610767.229 6  38610770.890 7 201056409.318 6 155469573.756 7
C19  23917079.977 7                 124542579.998 7
C20  23018089.159 7                 119861290.027 7
C29  22535149.147 7                 117346674.546 7
E02  24794582.738 7  24794584.375 8 130296378.133 7  98568392.631 8
E10  26487800.511 5  26487803.583 7 139194341.188 5 105299618.145 7
E11  24477964.221 7  24477962.184 8 128632579.869 7  97309691.962 8
E25  26731917.361 7  26731923.765 8 140477209.718 7 106270076.517 8
E30  27055535.829 5  27055536.311 6 142177774.087 5 107556584.410 6
E36  23818778.914 8  23818781.002 9 125168527.146 8  94689185.438 9
G02  22581845.399 7  22581847.742 5                 118668412.067 7  92468881.800 5
G08  20705828.223 8                  20705835.128 7 108810098.152 8                  84786939.270 7
G10  20942702.235 8                  20942708.125 8 110054726.231 8                  85756890.660 8
G16  24101044.933 6  24101050.851 3                 126651792.168 6  98689754.237 3
G23  22487831.102 5                  22487839.199 6 118174353.664 5                  92083933.202 6
G27  20488074.710 8                  20488080.558 7 107665685.078 8                  83895248.377 7
R01  20289963.684 7                 108461649.051 7
R08  21774598.541 8  21774603.874 7 116602077.298 8  90690450.800 7
R15  21895744.085 5  21895751.121 5 117004236.705 5  91003402.519 5
R16  22566052.720 6  22566058.576 6 120543832.771 6  93756317.090 6
R17  20666055.524 8  20666061.187 7 110588391.444 8  86013105.449 7
R24  19766889.697 8  19766893.860 7 105702576.367 8  82213024.390 7
> 2025 06 15 09 51 25.0000000  0 22
C13  38610553.406 6  38610556.999 6 201055296.535 6 155468713.293 6
C19  23913208.163 7                 124522415.069 7
C20  23016835.704 7                 119854767.554 7
C29  22535737.705 7                 117349740.136 7
E02  24794527.245 8  24794529.108 8 130296087.376 8  98568172.674 8
E10  26488850.341 5  26488853.664 6 139199859.557 5 105303792.729 6
E11  24478238.550 7  24478237.187 8 128634024.394 7  97310784.741 8
E25  26733715.150 7  26733721.360 8 140486655.929 7 106277222.487 8
E30  27052841.036 5  27052843.668 6 142163625.047 5 107545880.727 6
E36  23816817.512 8  23816819.452 9 125158219.089 8  94681387.458 9
G02  22578486.282 7  22578488.890 5                 118650758.599 7  92455125.845 5
G08  20703473.186 8                  20703480.264 7 108797724.032 8                  84777297.101 7
G10  20941745.900 8                  20941752.090 8 110049701.803 8                  85752975.535 8
G16  24103441.693 6  24103447.473 3                 126664386.821 6  98699568.228 3
G23  22489314.762 5                  22489322.573 6 118182150.271 5                  92090008.490 6
G27  20488183.991 8                  20488190.143 7 107666260.747 8                  83895696.948 7
R01  20287106.555 7                 108446373.221 7
R08  21775741.827 8  21775746.141 7 116608193.020 8  90695207.457 7
R15  21896718.405 5  21896724.664 5 117009443.013 5  91007451.786 5
R16  22563515.197 4  22563523.765 6 120530291.382 4  93745784.936 6
R17  20662617.614 8  20662623.626 7 110569996.289 8  85998798.129 7
R24  19766670.764 8  19766675.132 7 105701405.550 8  82212113.762 7
> 2025 06 15 09 51 30.0000000  0 22
C13  38610340.729 6  38610343.378 6 201054184.272 6 155467853.225 6
C19  23909337.711 7                 124502258.451 7
C20  23015586.087 7                 119848259.696 7
C29  22536327.622 7                 117352812.923 7
E02  24794474.190 8  24794475.904 8 130295807.749 8  98567961.135 8
E10  26489902.885 5  26489904.120 6 139205379.423 5 105307968.464 6
E11  24478514.399 7  24478512.956 8 128635473.045 7  97311880.630 8
E25  26735513.608 7  26735519.423 8 140496104.755 7 106284370.446 8
E30  27050154.790 6  27050153.003 6 142149485.737 6 107535184.442 6
E36  23814856.755 8  23814858.953 8 125147916.557 8  94673593.659 8
G02  22575126.900 7  22575131.210 5                 118633110.345 7  92441373.956 5
G08  20701121.167 8                  20701128.111 7 108785362.981 8                  84767665.109 7
G10  20940793.158 8                  20940798.852 8 110044691.499 8                  85749071.385 8
G16  24105839.008 6  24105844.849 3                 126676983.768 6  98709383.993 3
G23  22490801.579 5                                                                
G27  20488295.490 8                  20488302.401 7 107666850.290 8                  83896156.338 7
R01  20284251.465 7                 108431118.438 7
R08  21776886.349 8  21776891.780 7 116614326.731 8  90699978.156 7
R15  21897702.157 6  21897701.755 5 117014666.860 6  91011514.694 5
R16  22560985.244 5  22560992.662 6 120516770.733 5  93735268.840 6
R17  20659182.423 8  20659187.717 7 110551608.077 8  85984496.188 7
R24  19766453.432 8  19766458.303 7 105700246.055 8  82211211.912 7
> 2025 06 15 09 51 35.0000000  0 22
C13  38610127.263 6  38610130.074 7 201053073.106 6 155466993.991 7
C19  23905468.208 7                 124482110.807 7
C20  23014338.999 7                 119841767.086 7
C29  22536919.002 7                 117355893.495 7
E02  24794423.392 7  24794424.903 8 130295539.903 7  98567758.508 8
E10  26490954.376 6  26490954.859 6 139210901.393 6 105312145.789 6
E11  24478790.820 7  24478789.588 8 128636926.387 7  97312980.072 8
E25  26737312.847 7  26737318.222 8 140505556.820 7 106291520.864 8
E30  27047466.999 6  27047464.308 6 142135356.948 6 107524496.115 6
E36  23812897.186 8  23812899.587 9 125137620.186 8  94665804.521 9
G02  22571770.218 7  22571774.307 5                 118615467.903 7  92427626.622 5
G08  20698771.328 8                  20698778.566 7 108773015.684 8                  84758043.824 7
G10  20939842.319 8                  20939848.020 8 110039695.955 8                  85745178.752 8
G16  24108236.727 6  24108242.871 3                 126689583.618 6  98719202.019 3
G23  22492288.900 5                  22492294.494 6 118197769.04315                  92102179.03316
G27  20488410.802 8                  20488417.825 8 107667454.331 8                  83896627.030 8
R01  20281401.373 7                 108415885.485 7
R08  21778036.031 8  21778040.713 7 116620479.297 8  90704763.453 7
R15  21898678.492 5  21898683.615 5 117019909.106 5  91015592.134 5
R16  22558458.936 5  22558465.315 6 120503271.564 5  93724769.480 6
R17  20655746.938 8  20655752.427 7 110533227.405 8  85970200.111 7
R24  19766239.341 8  19766243.306 7 105699098.246 8  82210319.174 7
> 2025 06 15 09 51 40.0000000  0 22
C13  38609914.312 6  38609917.304 7 201051963.153 6 155466135.682 7
C19  23901600.577 7                 124461972.175 7
C20  23013094.671 7                 119835289.739 7
C29  22537512.283 7                 117358981.889 7
E02  24794374.868 7  24794376.179 8 130295283.881 7  98567564.811 8
E10  26492003.183 5  26492006.026 6 139216425.516 5 105316324.724 6
E11  24479068.184 7  24479067.130 8 128638384.520 7  97314083.136 8
E25  26739112.581 7  26739117.552 8 140515012.188 7 106298673.765 8
E30  27044776.943 6  27044777.383 6 142121238.672 6 107513815.724 6
E36  23810939.197 8  23810941.449 9 125127330.019 8  94658020.077 9
G02  22568413.707 7  22568418.432 4                 118597831.372 7  92413883.885 4
G08  20696424.165 8                  20696431.526 7 108760682.125 8                  84748433.283 7
G10  20938893.970 8                  20938900.304 8 110034715.223 8                  85741297.660 8
G16  24110635.021 6  24110640.989 3                 126702186.368 6  98729022.330 3
G23  22493778.225 5                  22493782.905 6 118205591.966 5                  92108274.786 6
G27  20488528.221 8                  20488535.011 8 107668072.931 8                  83897109.062 8
R01  20278555.494 7                 108400674.424 7
R08  21779187.695 7  21779192.577 7 116626650.465 7  90709563.203 7
R15  21899666.907 5  21899666.805 4 117025169.813 5  91019683.638 4
R16  22555934.417 4  22555942.216 6 120489793.754 4  93714286.733 6
R17  20652313.572 8  20652318.894 7 110514854.394 8  85955909.979 7
R24  19766026.823 8  19766031.036 7 105697962.361 8  82209435.697 7
> 2025 06 15 09 51 45.0000000  0 21
C13  38609701.109 6  38609704.116 7 201050854.580 6 155465278.459 7
C19  23897734.824 7                 124441842.838 7
C20  23011853.912 7                 119828827.970 7
C29  22538106.821 7                 117362078.373 7
E02  24794328.322 8  24794329.778 8 130295039.937 8  98567380.258 8
E10  26493055.412 5  26493057.540 6 139221952.101 5 105320505.534 6
E11  24479346.748 7  24479345.591 7 128639847.726 7  97315190.033 7
E25  26740911.955 7  26740917.522 8 140524471.125 7 106305829.368 8
E30  27042090.683 6  27042092.818 6 142107131.191 6 107503143.474 6
E36  23808982.240 8  23808984.545 9 125117046.347 8  94650240.539 9
G02  22565058.538 7  22565063.636 4                 118580201.032 7  92400145.948 4
G08  20694080.131 8                  20694087.133 7 108748362.663 8                  84738833.702 7
G10  20937949.954 8                  20937955.461 7 110029749.579 8                  85737428.334 7
G16  24113033.835 6  24113040.277 3                 126714792.307 6  98738845.123 3
G23  22495267.551 6                  22495273.521 6 118213424.214 6                  92114377.778 6
G27  20488649.040 8                  20488655.580 8 107668706.401 8                  83897602.642 8
R01  20275714.500 7                 108385485.468 7
R08  21780344.282 7  21780348.978 7 116632840.798 7  90714377.914 7
R16  22553416.866 5  22553424.230 6 120476337.603 5  93703820.819 6
R17  20648881.854 8  20648887.293 8 110496489.323 8  85941626.032 8
R24  19765817.228 8  19765820.509 7 105696838.636 8  82208561.683 7
> 2025 06 15 09 51 50.0000000  0 22
C13  38609488.340 6  38609490.854 7 201049745.656 6 155464420.969 7
C19  23893869.970 7                 124421721.025 7
C20  23010616.846 7                 119822379.979 7
C29  22538702.514 7                 117365181.199 7
E02  24794284.115 8  24794285.273 8 130294806.273 8  98567203.484 8
E10  26494105.523 5  26494109.188 6 139227479.300 5 105324686.814 6
E11  24479626.777 7  24479624.600 8 128641314.195 7  97316299.393 8
E25  26742712.102 7  26742717.835 8 140533931.783 7 106312986.270 8
E30  27039408.549 6  27039410.059 6 142093032.704 6 107492478.027 6
E36  23807026.023 8  23807028.485 9 125106767.341 8  94642464.539 9
G02  22561703.973 6  22561708.695 4                 118562575.012 6  92386411.385 4
G08  20691738.219 8                  20691745.224 7 108736055.465 8                  84729243.657 7
G10  20937006.996 8                  20937013.060 8 110024797.219 8                  85733569.326 8
G16  24115433.092 6  24115439.702 3                 126727399.662 6  98748668.992 3
G23  22496759.864 6                  22496766.136 6 118221263.826 6                  92120486.558 6
G27  20488772.057 8                  20488778.415 8 107669352.859 8                  83898106.369 8
R01  20272877.619 7                 108370316.792 7
R08  21781503.595 7  21781508.309 7 116639048.153 7  90719205.836 7
R15  21901643.487 5                                
R16  22550903.328 5  22550908.358 6 120462901.389 5  93693370.434 6
R17  20645450.875 8  20645456.881 7 110478130.296 8  85927346.809 7
R24  19765610.049 8  19765612.415 7 105695725.241 8  82207695.706 7
> 2025 06 15 09 51 55.0000000  0 22
C13  38609274.859 6  38609278.161 7 201048637.991 6 155463564.447 7
C19  23890008.386 7                 124401608.269 7
C20  23009380.756 7                 119815947.278 7
C29  22539300.010 7                 117368291.864 7
E02  24794241.765 8  24794243.024 8 130294584.419 8  98567035.655 8
E10  26495158.240 5  26495161.219 6 139233008.614 5 105328869.712 6
E11  24479906.597 7  24479904.520 8 128642785.399 7  97317412.344 8
E25  26744512.621 7  26744518.826 8 140543395.748 7 106320145.681 8
E30  27036725.611 6  27036729.205 6 142078944.691 6 107481820.530 6
E36  23805071.549 8  23805073.608 9 125096494.544 8  94634693.245 9
G02  22558351.272 6  22558355.166 4                 118544954.852 6  92372681.420 4
G08  20689398.472 8                  20689405.844 8 108723762.064 8                  84719664.386 8
G10  20936067.818 8                  20936073.353 7 110019859.670 8                  85729721.896 7
G16  24117832.779 6  24117839.749 3                 126740009.901 6  98758495.152 3
G23  22498253.946 6                  22498259.477 6 118229112.488 6                  92126602.370 6
G27  20488898.008 8                  20488904.116 8 107670013.920 8                  83898621.475 8
R01  20270043.432 7                 108355170.028 7
R08  21782666.296 7  21782670.632 7 116645274.238 7  90724048.301 7
R15  21902640.037 5  21902640.759 5 117041058.31815  91031940.30215
R16  22548388.875 5  22548397.114 6 120449486.533 5  93682936.716 6
R17  20642022.391 8  20642027.087 7 110459778.897 8  85913073.508 7
R24  19765403.717 8  19765406.693 7 105694623.688 8  82206838.941 7
> 2025 06 15 09 52  0.0000000  0 22
C13  38609061.459 6  38609065.466 6 201047531.078 6 155462708.514 6
C19  23886148.197 7                 124381504.245 7
C20  23008148.439 7                 119809529.547 7
C29  22539899.199 7                 117371410.046 7
E02  24794201.457 8  24794202.958 8 130294374.036 8  98566876.499 8
E10  26496213.254 5  26496213.573 6 139238539.818 5 105333054.045 6
E11  24480187.604 7  24480185.317 8 128644261.033 7  97318528.654 8
E25  26746314.868 7  26746320.465 8 140552862.642 7 106327307.297 8
E30  27034047.340 6  27034050.331 6 142064866.917 6 107471170.746 6
E36  23803117.693 8  23803119.899 9 125086227.655 8  94626926.407 9
G02  22554999.471 6  22555002.976 4                 118527340.319 6  92358955.819 4
G08  20687061.356 7                  20687068.740 7 108711482.120 7                  84710095.612 7
G10  20935130.659 8                  20935136.622 8 110014936.591 8                  85725885.754 8
G16  24120233.175 6  24120239.381 3                 126752622.713 6  98768323.261 3
G23  22499749.525 6                  22499754.667 6 118236969.716 6                  92132724.858 6
G27  20489026.655 8                  20489033.246 8 107670689.182 8                  83899147.650 8
R01  20267213.800 7                 108340044.773 7
R08  21783832.199 7  21783836.929 7 116651518.640 7  90728905.040 7
R15  21903651.510 5  21903638.978 6 117046390.477 5  91036087.649 6
R16  22545884.015 6  22545890.074 6 120436092.999 6  93672519.555 6
R17  20638593.823 8  20638599.339 7 110441434.778 8  85898805.862 7
R24  19765199.112 8  19765202.662 7 105693533.713 8  82205991.195 7
> 2025 06 15 09 52  5.0000000  0 22
C13  38608849.424 6  38608853.212 7 201046424.353 6 155461852.723 7
C19  23882288.689 7                 124361408.356 7
C20  23006918.622 7                 119803126.135 7
C29  22540499.441 7                 117374535.093 7
E02  24794163.610 8  24794164.978 8 130294174.493 8  98566725.544 8
E10  26497263.785 5  26497266.144 6 139244072.178 5 105337239.213 6
E11  24480468.223 7  24480466.858 8 128645740.501 7  97319647.863 8
E25  26748115.839 7  26748122.561 8 140562331.815 7 106334470.636 8
E30  27031371.815 6  27031373.226 6 142050798.806 6 107460528.27716
E36  23801164.982 8  23801167.131 9 125075966.012 8  94619163.530 9
G02  22551648.360 6  22551651.928 4                 118509730.685 6  92345234.030 4
G08  20684728.222 8                  20684734.721 7 108699215.051 8                  84700536.854 7
G10  20934196.168 8                  20934202.481 8 110010027.369 8                  85722060.379 8
G16  24122633.746 7  24122640.228 4                 126765237.470 7  98778152.919 4
G23  22501246.797 6                  22501251.398 6 118244834.896 6                  92138853.564 6
G27  20489157.747 8                  20489164.657 8 107671378.032 8                  83899684.414 8
R01  20264388.031 7                 108324940.546 7
R08  21785002.281 7  21785006.319 7 116657780.739 7  90733775.541 7
R15  21904650.024 5  21904640.558 6 117051739.886 5  91040248.411 6
R16  22543379.592 6  22543385.671 6 120422719.869 6  93662118.250 6
R17  20635167.186 8  20635172.275 7 110423097.357 8  85884543.402 7
R24  19764996.338 8  19765000.909 7 105692454.607 8  82205151.887 7
> 2025 06 15 09 52 10.0000000  0 21
C13  38608638.236 6  38608641.117 7 201045318.982 6 155460997.981 7
C19  23878431.447 7                 124341321.752 7
C20  23005691.112 7                 119796738.238 7
C29  22541101.887 7                 117377668.163 7
E02  24794127.609 8  24794129.265 8 130293986.949 8  98566583.663 8
E10  26498318.104 6  26498319.041 5 139249606.872 6 105341426.143 5
E11  24480751.579 7  24480749.338 8 128647224.949 7  97320770.831 8
E25  26749917.690 7  26749925.231 8 140571804.422 7 106341636.595 8
E30  27028697.062 6  27028697.921 6 142036741.325 6 107449893.862 6
E36  23799213.467 8  23799215.663 9 125065710.769 8  94611405.510 9
G02  22548297.736 6  22548301.794 4                 118492127.146 6  92331517.006 4
G08  20682396.230 8                  20682403.463 8 108686961.996 8                  84690989.046 8
G10  20933265.709 8                  20933271.407 8 110005133.132 8                  85718246.700 8
G16  24125035.331 7  24125041.745 4                 126777855.295 7  98787984.937 4
G23  22502743.528 6                  22502749.297 6 118252709.224 6                  92144989.417 6
G27  20489291.090 8                  20489298.011 8 107672081.628 8                  83900232.682 8
R01  20261566.463 7                 108309858.319 7
R08  21786174.122 7  21786178.612 7 116664061.711 7  90738660.736 7
R16  22540880.697 6  22540885.766 6 120409368.469 6  93651733.848 6
R17  20631741.674 8  20631747.329 7 110404767.797 8  85870287.089 7
R24  19764797.476 8  19764801.538 7 105691387.697 8  82204322.061 7
> 2025 06 15 09 52 15.0000000  0 21
C13  38608425.539 6  38608428.905 7 201044214.588 6 155460143.993 7
C19  23874575.294 7                 124321243.991 7
C20  23004467.211 7                 119790365.352 7
C29  22541704.356 7                 117380808.834 7
E02  24794094.324 7  24794095.752 8 130293810.927 7  98566450.500 8
E10  26499370.145 5  26499372.279 5 139255143.553 5 105345614.551 5
E11  24481034.862 7  24481032.647 8 128648713.855 7  97321897.193 8
E25  26751721.157 7  26751728.345 8 140581280.063 7 106348804.820 8
E30  27026022.078 6  27026024.562 6 142022694.165 6 107439267.308 6
E36  23797263.280 8  23797265.244 8 125055461.482 8  94603651.997 8
G02  22544949.343 6  22544952.813 4                 118474529.290 6  92317804.416 4
G08  20680066.902 8                  20680074.313 8 108674722.523 8                  84681451.789 8
G10  20932337.026 8                  20932342.562 8 110000253.444 8                  85714444.324 8
G16  24127437.460 7  24127442.881 3                 126790475.656 7  98797818.979 3
G23  22504243.907 6                  22504249.288 6 118260592.288 6                  92151132.015 6
G27  20489428.218 8                  20489435.085 8 107672799.492 8                  83900792.058 8
R01  20258749.378 7                 108294797.715 7
R08  21787350.795 7  21787355.619 7 116670361.067 7  90743560.295 7
R16  22538383.421 6  22538390.025 6 120396038.356 6  93641366.002 6
R17  20628318.313 8  20628323.484 8 110386445.731 8  85856036.595 8
R24  19764600.518 8  19764603.873 7 105690332.219 8  82203501.116 7
> 2025 06 15 09 52 20.0000000  0 22
C13  38608213.445 6  38608216.990 7 201043111.341 6 155459290.891 7
C19  23870721.305 7                 124301175.380 7
C20  23003246.425 7                 119784007.828 7
C29  22542309.211 7                 117383957.376 7
E02  24794063.041 7  24794064.475 8 130293646.777 7  98566326.316 8
E10  26500424.711 5  26500425.949 6 139260682.421 5 105349804.647 6
E11  24481318.590 7  24481316.897 8 128650207.605 7  97323027.198 8
E25  26753525.559 7  26753532.000 8 140590758.937 7 106355975.505 8
E30  27023352.429 6  27023353.393 6 142008657.636 6 107428648.747 6
E36  23795313.911 8  23795316.016 9 125045218.466 8  94595903.222 9
G02  22541602.475 6  22541604.790 4                 118456937.438 6  92304096.451 4
G08  20677740.556 8                  20677747.576 7 108662496.961 8                  84671925.372 7
G10  20931410.650 8                  20931417.110 8 109995388.591 8                  85710653.534 8
G16  24129837.837 6  24129844.678 3                 126803098.919 6  98807655.283 3
G23  22505746.022 6                  22505751.051 6 118268484.274 6                  92157281.575 6
G27  20489567.728 8                  20489574.100 8 107673531.967 8                  83901362.804 8
R01  20255936.270 7                 108279759.118 7
R08  21788529.354 7  21788535.528 7 116676679.100 7  90748474.313 7
R15  21907670.441 4                 117067896.85914
R16  22535893.357 6  22535898.727 6 120382729.746 6  93631014.859 6
R17  20624895.882 8  20624900.598 8 110368131.318 8  85841792.046 8
R24  19764404.492 8  19764409.084 7 105689288.615 8  82202689.434 7
> 2025 06 15 09 52 25.0000000  0 22
C13  38608002.047 6  38608005.434 7 201042008.742 6 155458438.288 7
C19  23866868.939 7                 124281115.304 7
C20  23002028.508 7                 119777665.001 7
C29  22542914.488 7                 117387113.153 7
E02  24794034.107 7  24794035.372 8 130293493.824 7  98566210.590 8
E10  26501479.243 5  26501489.158 5 139266222.795 5 105353995.33415
E11  24481603.847 7  24481601.982 8 128651705.532 7  97324160.370 8
E25  26755329.138 7  26755336.330 8 140600240.463 7 106363148.192 8
E30  27020683.158 6  27020683.957 6 141994631.099 6 107418037.72816
E36  23793365.807 8  23793367.934 9 125034981.069 8  94588158.693 9
G02  22538255.741 6  22538258.087 4                 118439350.848 6  92290392.613 4
G08  20675416.650 8                  20675424.152 8 108650284.631 8                  84662409.260 8
G10  20930487.653 8                  20930494.116 8 109990537.924 8                  85706873.808 8
G16  24132242.774 6  24132246.439 3                 126815724.384 6  98817493.320 3
G23  22507249.667 6                  22507254.234 6 118276384.584 6                  92163437.692 6
G27  20489710.013 8                  20489716.101 7 107674278.403 8                  83901944.435 7
R01  20253126.390 7                 108264741.831 7
R08  21789713.907 7  21789718.601 7 116683015.045 7  90753402.259 7
R15  21908669.137 5                                
R16  22533405.893 6  22533410.837 6 120369442.117 6  93620680.057 6
R17  20621475.073 8  20621479.225 8 110349823.916 8  85827552.980 8
R24  19764211.062 8  19764215.741 7 105688256.391 8  82201886.596 7
> 2025 06 15 09 52 30.0000000  0 22
C13  38607790.276 6  38607793.743 7 201040906.240 6 155457585.768 7
C19  23863017.853 7                 124261063.352 7
C20  23000814.041 7                 119771336.479 7
C29  22543521.947 7                 117390275.784 7
E02  24794006.933 7  24794008.337 8 130293351.643 7  98566103.020 8
E10  26502531.354 5  26502543.539 5 139271764.360 5 105358187.50915
E11  24481889.460 7  24481887.716 8 128653207.221 7  97325296.373 8
E25  26757133.433 7  26757141.092 8 140609724.232 7 106370322.564 8
E30  27018015.482 6  27018016.579 6 141980614.091 6 107407433.957 6
E36  23791418.687 8  23791420.822 9 125024748.883 8  94580418.114 9
G02  22534909.273 6  22534912.486 4                 118421769.186 6  92276692.685 4
G08  20673094.920 8                  20673102.169 7 108638085.168 8                  84652903.176 7
G10  20929567.090 8                  20929573.585 8 109985701.070 8                  85703104.833 8
G16  24134644.709 7  24134649.007 3                 126828351.729 7  98827332.747 3
G23  22508753.839 6                  22508759.536 6 118284292.759 6                  92169599.925 6
G27  20489854.213 8                  20489860.551 7 107675038.355 8                  83902536.607 7
R01  20250321.152 7                 108249745.563 7
R08  21790901.295 7  21790905.080 7 116689368.686 7  90758343.966 7
R15  21909691.249 5  21909697.973 6 117078758.18815  91061275.87316
R16  22530923.494 6  22530928.262 6 120356174.997 6  93610361.195 6
R17  20618054.434 8  20618059.530 8 110331523.354 8  85813319.206 8
R24  19764021.378 8  19764024.775 7 105687235.003 8  82201092.181 7
> 2025 06 15 09 52 35.0000000  0 22
C13  38607579.679 6  38607582.128 7 201039804.805 6 155456734.059 7
C19  23859169.708 7                 124241020.415 7
C20  22999602.054 7                 119765023.145 7
C29  22544130.342 7                 117393446.134 7
E02  24793982.074 8  24793983.546 8 130293221.129 8  98566004.280 8
E10  26503587.862 5  26503598.495 5 139277307.932 5 105362381.162 5
E11  24482176.230 7  24482174.384 8 128654713.551 7  97326435.899 8
E25  26758938.607 6  26758946.365 8 140619211.101 6 106377499.276 8
E30  27015350.484 6  27015351.137 5 141966607.581 6 107396838.100 5
E36  23789472.582 8  23789474.851 9 125014522.815 8  94572682.161 9
G02  22531564.525 6  22531567.385 4                 118404193.401 6  92262997.262 4
G08  20670775.564 8                  20670783.089 7 108625899.459 8                  84643407.828 7
G10  20928649.500 8                  20928655.373 8 109980878.857 8                  85699347.243 8
G16  24137047.744 7  24137052.275 3                 126840981.732 7  98837174.303 3
G23  22510259.604 6                  22510265.962 6 118292209.713 6                  92175768.969 6
G27  20490001.456 8                  20490007.967 8 107675812.739 8                  83903140.024 8
R01  20247520.156 7                 108234771.086 7
R08  21792089.849 7  21792095.138 7 116695740.743 7  90763300.028 7
R15  21910717.184 6  21910718.828 6 117084215.428 6  91065520.351 6
R16  22528442.044 6  22528448.353 6 120342929.302 6  93600058.964 6
R17  20614635.601 8  20614640.698 7 110313230.330 8  85799091.331 7
R24  19763833.088 8  19763835.825 7 105686225.458 8  82200306.964 7
> 2025 06 15 09 52 40.0000000  0 22
C13  38607367.689 6  38607370.669 7 201038703.890 6 155455882.760 7
C19  23855321.966 7                 124220986.046 7
C20  22998391.962 7                 119758724.480 7
C29  22544741.295 7                 117396623.706 7
E02  24793959.036 7  24793960.863 8 130293101.788 7  98565913.982 8
E10  26504644.572 5  26504653.818 5 139282853.096 5 105366575.998 5
E11  24482463.129 7  24482461.838 8 128656224.005 7  97327578.552 8
E25  26760744.520 6  26760752.207 8 140628700.540 6 106384677.940 8
E30  27012687.121 6  27012687.837 5 141952611.024 6 107386249.825 5
E36  23787527.516 8  23787529.943 9 125004302.326 8  94564950.435 9
G02  22528222.153 7  22528223.178 4                 118386622.882 7  92249305.948 4
G08  20668459.917 8                  20668467.035 8 108613726.997 8                  84633922.792 8
G10  20927735.010 8                  20927740.782 8 109976070.837 8                  85695600.739 8
G16  24139451.950 7  24139456.279 3                 126853613.910 7  98847017.500 3
G23  22511767.376 6                  22511774.679 6 118300134.955 6                  92181944.513 6
G27  20490151.090 8                  20490157.965 8 107676601.041 8                  83903754.274 8
R01  20244722.648 7                 108219817.971 7
R08  21793282.132 7  21793288.112 7 116702130.678 7  90768269.960 7
R15  21911739.272 6  21911743.200 6 117089690.221 6  91069778.568 6
R16  22525967.459 7  22525972.672 6 120329704.462 7  93589772.967 6
R17  20611218.234 8  20611223.692 7 110294944.394 8  85784868.948 7
R24  19763645.651 8  19763649.167 7 105685227.072 8  82199530.469 7
> 2025 06 15 09 52 45.0000000  0 22
C13  38607156.833 6  38607159.766 7 201037604.197 6 155455032.407 7
C19  23851476.231 7                 124200960.861 7
C20  22997185.945 7                 119752441.180 7
C29  22545352.943 7                 117399809.123 7
E02  24793938.864 7  24793940.487 8 130292994.264 7  98565832.636 8
E10  26505700.459 4  26505709.423 5 139288400.38514 105370772.48115
E11  24482751.884 7  24482750.231 8 128657739.287 7  97328724.840 8
E25  26762550.827 6  26762558.641 8 140638193.197 6 106391859.054 8
E30  27010026.154 6  27010026.573 5 141938625.123 6 107375669.584 5
E36  23785583.952 8  23785586.261 9 124994088.129 8  94557223.460 9
G02  22524878.657 7  22524880.632 4                 118369058.396 7  92235619.324 4
G08  20666146.117 8                  20666153.508 8 108601568.468 8                  84624448.611 8
G10  20926822.602 8                  20926828.945 8 109971277.622 8                  85691865.769 8
G16  24141856.053 7  24141860.194 3                 126866248.912 7  98856862.954 3
G23  22513279.538 6                  22513283.762 6 118308069.100 6                  92188126.963 6
G27  20490303.792 8                  20490310.633 8 107677403.908 8                  83904379.871 8
R01  20241930.723 7                 108204886.850 7
R08  21794478.727 7  21794484.464 7 116708539.271 7  90773254.416 7
R15  21912766.789 6  21912771.003 6 117095183.176 6  91074050.854 6
R16  22523495.507 7  22523500.901 6 120316501.071 7  93579503.702 6
R17  20607802.713 8  20607807.969 7 110276666.249 8  85770652.614 7
R24  19763460.745 8  19763464.689 7 105684240.682 8  82198763.266 7
> 2025 06 15 09 52 50.0000000  0 22
C13  38606945.646 6  38606948.742 7 201036504.980 6 155454182.420 7
C19  23847631.238 7                 124180944.139 7
C20  22995981.912 7                 119746172.441 7
C29  22545965.493 7                 117403001.678 7
E02  24793921.227 8  24793922.181 8 130292897.806 8  98565759.648 8
E10  26506753.684 4  26506765.438 5 139293949.11814 105374970.06515
E11  24483040.656 7  24483039.418 8 128659258.604 7  97329874.194 8
E25  26764358.191 6  26764365.601 8 140647688.329 6 106399042.040 8
E30  27007366.751 6  27007367.176 5 141924649.086 6 107365096.793 5
E36  23783641.017 8  23783643.631 9 124983879.414 8  94549500.635 9
G02  22521538.600 7  22521539.792 4                 118351499.053 7  92221936.743 4
G08  20663834.962 8                  20663842.140 7 108589423.104 8                  84614984.713 7
G10  20925913.930 8                  20925919.303 8 109966498.495 8                  85688141.766 8
G16  24144260.325 6  24144264.657 3                 126878885.950 6  98866709.945 3
G23  22514790.052 6                  22514795.426 5 118316011.384 6                  92194315.724 5
G27  20490460.088 8                  20490465.685 8 107678220.611 8                  83905016.257 8
R01  20239141.470 7                 108189976.985 7
R08  21795679.484 7  21795685.205 7 116714965.630 7  90778252.628 7
R15  21913797.676 6  21913802.207 5 117100693.637 6  91078336.754 5
R16  22521026.831 7  22521033.143 6 120303318.605 7  93569250.691 6
R17  20604388.203 8  20604393.794 7 110258395.102 8  85756441.721 7
R24  19763278.071 8  19763282.553 7 105683265.385 8  82198004.698 7
> 2025 06 15 09 52 55.0000000  0 21
C13  38606735.083 6  38606737.592 7 201035406.979 6 155453333.371 7
C19  23843788.055 7                 124160936.682 7
C20  22994780.469 7                 119739919.058 7
C29  22546580.304 7                 117406202.105 7
E02  24793904.713 7  24793906.106 8 130292813.158 7  98565695.619 8
E11  24483330.800 7  24483329.552 8 128660782.748 7  97331027.192 8
E25  26766166.378 6  26766173.107 8 140657186.723 6 106406227.476 8
E30  27004708.478 6  27004703.757 4 141910683.749 6 107354531.55814
E36  23781699.670 8  23781702.143 9 124973676.995 8  94541782.568 9
G02  22518197.724 7  22518199.728 4                 118333945.710 7  92208258.844 4
G08  20661526.714 8                  20661533.532 8 108577291.702 8                  84605531.670 8
G10  20925006.755 8                  20925012.474 7 109961734.173 8                  85684429.318 7
G16  24146665.493 6  24146670.125 3                 126891525.888 6  98876559.231 3
G23  22516303.604 6                  22516307.933 6 118323962.646 6                  92200511.458 6
G27  20490617.692 7                  20490624.461 8 107679051.903 7                  83905664.019 8
R01  20236356.021 7                 108175089.131 7
R08  21796883.037 7  21796889.487 7 116721410.682 7  90783265.426 7
R15  21914830.239 6  21914836.597 6 117106222.315 6  91082636.836 6
R16  22518563.988 7  22518570.365 6 120290157.825 7  93559014.505 6
R17  20600974.862 8  20600980.673 7 110240131.717 8  85742236.868 7
R24  19763097.241 8  19763102.225 7 105682302.122 8  82197255.474 7
> 2025 06 15 09 53  0.0000000  0 21
C13  38606523.958 6  38606526.949 7 201034309.507 6 155452484.725 7
C19  23839948.404 7                 124140937.812 7
C20  22993582.700 7                 119733680.376 7
C29  22547196.462 7                 117409409.788 7
E02  24793890.854 7  24793892.195 8 130292739.712 7  98565640.038 8
E11  24483621.963 7  24483620.463 8 128662311.050 7  97332183.338 8
E25  26767974.215 7  26767981.126 8 140666687.711 7 106413414.886 8
E30  27002053.103 6  27002044.952 4 141896728.468 6 107343973.42214
E36  23779759.669 8  23779761.797 9 124963480.209 8  94534068.762 9
G02  22514858.306 7  22514860.727 4                 118316397.770 7  92194585.106 4
G08  20659220.328 8                  20659227.607 8 108565173.615 8                  84596089.005 8
G10  20924102.691 8                  20924108.846 8 109956984.021 8                  85680727.897 8
G16  24149071.762 6  24149076.211 3                 126904167.961 6  98886410.215 3
G23  22517816.767 5                  22517822.340 6 118331922.093 5                  92206713.565 6
G27  20490778.381 8                  20490785.146 8 107679897.112 8                  83906322.637 8
R01  20233574.218 7                 108160222.725 7
R08  21798089.827 7  21798096.398 7 116727873.577 7  90788292.136 7
R15  21915868.872 6  21915875.145 6 117111768.532 6  91086950.530 6
R16  22516105.392 7  22516110.296 6 120277017.934 7  93548794.575 6
R17  20597563.210 8  20597568.911 7 110221875.567 8  85728037.642 7
R24  19762919.931 8  19762924.195 7 105681350.042 8  82196514.959 7
> 2025 06 15 09 53  5.0000000  0 21
C13  38606314.348 6  38606316.248 7 201033212.764 6 155451636.667 7
C19  23836109.870 7                 124120947.686 7
C20  22992387.186 7                 119727456.567 7
C29  22547814.778 7                 117412624.839 7
E02  24793878.999 8  24793880.386 8 130292677.581 8  98565593.027 8
E11  24483913.276 7  24483912.191 8 128663843.636 7  97333342.731 8
E25  26769782.299 6  26769789.656 8 140676191.388 6 106420604.331 8
E30  26999399.501 6  26999391.074 4 141882783.329 6 107333424.219 4
E36  23777820.270 8  23777822.541 9 124953289.172 8  94526359.319 9
G02  22511521.273 7  22511522.633 4                 118298855.262 7  92180915.626 4
G08  20656916.667 8                  20656924.305 7 108553068.983 8                  84586656.823 7
G10  20923200.597 8                  20923207.383 8 109952248.205 8                  85677037.646 8
G16  24151478.431 6  24151482.482 3                 126916812.342 6  98896262.951 3
G23  22519333.482 5                  22519338.815 6 118339889.937 5                  92212922.254 6
G27  20490942.077 8                  20490948.305 8 107680756.396 8                  83906992.185 8
R01  20230797.639 7                 108145378.061 7
R08  21799301.364 7  21799306.917 7 116734354.565 7  90793332.862 7
R15  21916910.584 6  21916917.466 6 117117332.285 6  91091277.893 6
R16  22513649.138 7  22513654.548 6 120263899.319 7  93538591.200 6
R17  20594154.325 8  20594157.967 7 110203626.704 8  85713844.063 7
R24  19762744.260 8  19762748.275 7 105680409.479 8  82195783.413 7
> 2025 06 15 09 53 10.0000000  0 21
C13  38606102.031 6  38606105.807 7 201032115.880 6 155450788.489 7
C19  23832272.396 7                 124100965.520 7
C20  22991194.450 7                 119721246.777 7
C29  22548433.540 7                 117415846.448 7
E02  24793869.354 8  24793870.512 8 130292625.910 8  98565553.933 8
E11  24484205.726 7  24484204.554 8 128665379.690 7  97334504.744 8
E25  26771591.483 6  26771598.518 8 140685696.949 6 106427795.190 8
E30  26996748.447 6  26996739.054 4 141868847.510 6 107322881.908 4
E36  23775881.788 8  23775884.223 9 124943103.076 8  94518653.604 9
G02  22508183.000 7  22508186.047 4                 118281317.406 7  92167249.791 4
G08  20654615.502 8                  20654623.408 8 108540976.980 8                  84577234.491 8
G10  20922302.726 8                  20922308.794 8 109947525.882 8                  85673357.914 8
G16  24153885.221 6  24153889.077 3                 126929458.140 6  98906116.757 3
G23  22520850.599 5                  22520856.866 6 118347865.315 5                  92219136.819 6
G27  20491108.027 8                  20491114.441 8 107681628.918 8                  83907672.066 8
R01  20228024.624 7                 108130553.914 7
R08  21800514.999 7  21800519.894 7 116740852.649 7  90798386.917 7
R15  21917953.726 6  21917961.002 6 117122912.825 6  91095618.227 6
R16  22511198.379 7  22511202.765 6 120250800.923 7  93528403.520 6
R17  20590745.727 8  20590749.678 7 110185384.227 8  85699655.482 7
R24  19762571.307 8  19762574.430 7 105679479.401 8  82195060.013 7
> 2025 06 15 09 53 15.0000000  0 21
C13  38605893.101 6  38605895.383 7 201031019.995 6 155449941.072 7
C19  23828436.354 7                 124080992.398 7
C20  22990004.156 7                 119715052.101 7
C29  22549053.718 7                 117419075.678 7
E02  24793861.472 8  24793862.926 8 130292585.805 8  98565523.588 8
E11  24484499.144 7  24484497.751 8 128666920.342 7  97335670.225 8
E25  26773401.267 7  26773408.000 8 140695205.462 7 106434988.293 8
E30  26994097.245 6  26994098.078 5 141854922.166 6 107312346.35415
E36  23773944.667 8  23773947.003 9 124932923.029 8  94510952.473 9
G02  22504847.882 7  22504850.019 5                 118263785.370 7  92153588.452 5
G08  20652317.538 8                  20652324.923 7 108528898.753 8                  84567822.866 7
G10  20921406.720 8                  20921412.861 8 109942818.117 8                  85669689.537 8
G16  24156290.758 6  24156295.993 3                 126942106.463 6  98915972.611 3
G23  22522369.867 5                  22522376.376 6 118355849.325 5                  92225358.127 6
G27  20491276.758 8                  20491283.288 8 107682515.769 8                  83908363.116 8
R01  20225256.096 7                 108115751.749 7
R08  21801731.126 7  21801736.647 7 116747368.966 7  90803455.141 7
R15  21919006.834 6  21919009.054 6 117128511.301 6  91099972.623 6
R16  22508750.201 7  22508754.196 6 120237723.988 7  93518232.637 6
R17  20587336.420 8  20587341.503 7 110167149.236 8  85685472.714 7
R24  19762399.451 8  19762402.770 7 105678561.034 8  82194345.730 7
> 2025 06 15 09 53 20.0000000  0 21
C13  38605681.586 6  38605684.797 7 201029924.966 6 155449094.326 7
C19  23824602.786 7                 124061028.215 7
C20  22988817.673 7                 119708872.431 7
C29  22549675.285 7                 117422312.459 7
E02  24793855.807 7  24793857.469 8 130292557.182 7  98565501.925 8
E11  24484793.226 7  24484791.754 8 128668465.426 7  97336839.066 8
E25  26775211.513 7  26775217.963 8 140704716.806 7 106442183.557 8
E30  26991449.178 6  26991450.382 5 141841007.217 6 107301819.459 5
E36  23772009.043 8  23772010.949 8 124922748.915 8  94503255.821 8
G02  22501512.065 7  22501514.652 5                 118246258.983 7  92139931.511 5
G08  20650022.202 8                  20650028.579 7 108516834.139 8                  84558421.865 7
G10  20920513.453 8                  20920520.015 8 109938124.828 8                  85666032.425 8
G16  24158697.034 6  24158703.417 3                 126954757.154 6  98925830.258 3
G23  22523889.451 5                  22523896.649 6 118363841.773 5                  92231586.014 6
G27  20491448.661 8                  20491454.371 8 107683416.827 8                  83909065.238 8
R01  20222490.106 7                 108100971.376 7
R08  21802950.034 7  21802957.369 7 116753903.401 7  90808537.483 7
R15  21920058.844 6  21920059.740 6 117134127.454 6  91104340.761 6
R16  22506306.459 7  22506308.931 6 120224668.411 7  93508078.332 6
R17  20583931.753 8  20583934.951 7 110148921.860 8  85671295.854 7
R24  19762229.037 8  19762233.179 7 105677654.143 8  82193640.383 7
> 2025 06 15 09 53 25.0000000  0 21
C13  38605471.471 6  38605474.984 7 201028831.085 6 155448248.459 7
C19  23820770.553 7                 124041073.262 7
C20  22987633.449 7                 119702708.023 7
C29  22550298.211 7                 117425557.054 7
E02  24793853.154 8  24793854.215 8 130292540.286 8  98565489.143 8
E11  24485087.787 7  24485086.663 8 128670015.238 7  97338011.480 8
E25  26777021.317 7  26777028.560 8 140714231.293 7 106449381.190 8
E30  26988802.050 6  26988804.630 6 141827102.869 6 107291300.945 6
E36  23770074.013 8  23770076.061 9 124912581.000 8  94495563.864 9
G02  22498178.931 7  22498181.049 5                 118228738.567 7  92126279.239 5
G08  20647728.540 8                  20647735.630 8 108504783.449 8                  84549031.728 8
G10  20919623.295 8                  20919630.031 8 109933446.277 8                  85662386.810 8
G16  24161106.042 6  24161111.702 3                 126967410.503 6  98935690.020 3
G23  22525411.654 5                  22525419.320 6 118371843.059 5                  92237820.779 6
G27  20491622.681 8                  20491628.898 8 107684332.415 8                  83909778.685 8
R01  20219729.886 7                 108086213.034 7
R08  21804175.587 7  21804180.324 7 116760456.354 7  90813634.207 7
R15  21921106.445 6  21921114.182 6 117139761.711 6  91108722.950 6
R16  22503864.863 7  22503870.435 5 120211634.439 7  93497940.828 5
R17  20580525.973 8  20580530.417 7 110130702.151 8  85657124.984 7
R24  19762061.079 8  19762066.174 7 105676759.253 8  82192944.355 7
> 2025 06 15 09 53 30.0000000  0 21
C13  38605261.916 6  38605265.281 7 201027738.619 6 155447403.694 7
C19  23816940.644 7                 124021127.888 7
C20  22986453.342 7                 119696559.235 7
C29  22550923.037 7                 117428809.793 7
E02  24793851.932 8  24793853.318 8 130292535.463 8  98565485.486 8
E11  24485383.897 7  24485382.586 8 128671570.116 7  97339187.734 8
E25  26778832.594 7  26778839.795 8 140723749.246 7 106456581.416 8
E30  26986158.710 6  26986160.657 6 141813209.563 6 107280790.718 6
E36  23768140.358 8  23768142.397 8 124902419.658 8  94487876.871 8
G02  22494845.551 6  22494848.141 4                 118211224.449 6  92112631.887 4
G08  20645438.102 8                  20645445.195 8 108492747.035 8                  84539652.714 8
G10  20918735.712 8                  20918742.242 8 109928782.821 8                  85658752.936 8
G16  24163515.284 6  24163520.433 3                 126980066.844 6  98945552.029 3
G23  22526936.912 5                  22526944.038 6 118379853.455 5                  92244062.643 6
G27  20491800.295 8                  20491805.854 8 107685262.829 8                  83910503.673 8
R01  20216973.349 7                 108071477.097 7
R08  21805401.408 7  21805407.622 7 116767028.056 7  90818745.531 7
R15  21922165.029 6  21922172.294 6 117145414.329 6  91113119.384 6
R16  22501429.843 7  22501434.215 5 120198622.366 7  93487820.339 5
R17  20577123.297 8  20577127.647 7 110112490.653 8  85642960.485 7
R24  19761896.600 8  19761900.486 7 105675876.575 8  82192257.805 7
> 2025 06 15 09 53 35.0000000  0 21
C13  38605051.898 6  38605055.551 7 201026647.807 6 155446560.203 7
C19  23813112.374 7                 124001192.266 7
C20  22985276.228 7                 119690426.232 7
C29  22551548.564 7                 117432070.818 7
E02  24793852.861 7  24793854.664 8 130292542.849 7  98565491.084 8
E11  24485680.467 7  24485679.459 8 128673130.247 7  97340367.956 8
E25  26780644.684 7  26780651.662 8 140733270.774 7 106463784.376 8
E30  26983516.192 6  26983519.308 6 141799327.307 6 107270288.900 6
E36  23766208.092 8  23766210.037 8 124892264.997 8  94480194.935 8
G02  22491512.913 7  22491516.845 4                 118193716.737 7  92098989.510 4
G08  20643150.468 8                  20643157.372 7 108480725.068 8                  84530284.942 7
G10  20917850.960 8                  20917858.030 8 109924134.608 8                  85655130.954 8
G16  24165924.843 6  24165929.716 3                 126992726.368 6  98955416.520 3
G23  22528463.130 5                  22528470.751 6 118387873.048 5                  92250311.654 6
G27  20491979.550 8                  20491985.755 7 107686208.226 8                  83911240.336 7
R01  20214220.255 7                 108056763.779 7
R08  21806633.772 7  21806638.560 7 116773618.566 7  90823871.500 7
R15  21923228.609 7  21923232.362 6 117151085.422 7  91117530.279 6
R16  22498997.470 7  22499001.132 6 120185632.448 7  93477717.073 6
R17  20573720.576 8  20573725.732 7 110094287.440 8  85628802.438 7
R24  19761734.265 8  19761737.768 7 105675006.243 8  82191580.881 7
> 2025 06 15 09 53 40.0000000  0 21
C13  38604842.760 6  38604846.709 7 201025558.120 6 155445717.584 7
C19  23809286.084 7                 123981265.900 7
C20  22984101.555 7                 119684308.509 7
C29  22552177.137 7                 117435339.652 7
E02  24793857.081 8  24793858.274 8 130292561.991 8  98565505.560 8
E11  24485978.317 7  24485977.240 8 128674695.090 7  97341551.754 8
E25  26782456.792 7  26782464.174 8 140742795.439 7 106470989.712 8
E30  26980878.005 6  26980879.418 6 141785455.779 6 107259795.183 6
E36  23764276.575 8  23764278.834 9 124882116.573 8  94472517.723 9
G02  22488182.244 7  22488186.543 4                 118176214.981 7  92085351.806 4
G08  20640865.013 8                  20640872.118 7 108468717.056 8                  84520928.042 7
G10  20916969.502 8                  20916975.869 8 109919501.119 8                  85651520.445 8
G16  24168333.749 6  24168339.328 3                 127005388.498 6  98965283.095 3
G23  22529991.002 5                  22529999.032 6 118395901.413 5                  92256567.505 6
G27  20492162.209 8                  20492168.589 8 107687168.107 8                  83911988.308 8
R01  20211471.346 7                 108042072.500 7
R08  21807867.641 7  21807872.071 7 116780227.508 7  90829011.794 7
R15  21924294.304 7  21924296.552 6 117156774.537 7  91121955.096 6
R16  22496571.929 7  22496574.580 6 120172664.211 7  93467630.683 6
R17  20570321.565 8  20570325.227 7 110076092.080 8  85614650.484 7
R24  19761573.104 8  19761577.227 7 105674147.786 8  82190913.201 7
> 2025 06 15 09 53 45.0000000  0 21
C13  38604632.904 6  38604637.319 7 201024468.314 6 155444874.868 7
C19  23805461.285 7                 123961347.620 7
C20  22982929.442 7                 119678204.886 7
C29  22552806.101 7                 117438615.077 7
E02  24793862.937 7  24793863.955 8 130292591.611 7  98565527.959 8
E11  24486277.214 7  24486275.667 8 128676263.424 7  97342738.183 8
E25  26784270.306 7  26784277.000 8 140752321.945 7 106478196.420 8
E30  26978240.190 6  26978241.757 6 141771593.685 6 107249308.647 6
E36  23762346.624 8  23762348.584 9 124871973.137 8  94464844.270 9
G02  22484854.242 7  22484857.206 5                 118158717.963 7  92071717.768 5
G08  20638583.007 8                  20638589.803 7 108456721.791 8                  84511581.095 7
G10  20916090.483 8                  20916096.761 8 109914881.145 8                  85647920.450 8
G16  24170744.341 6  24170749.119 3                 127018052.018 6  98975150.786 3
G23  22531518.820 5                  22531528.504 6 118403937.254 5                  92262829.222 6
G27  20492347.067 8                  20492353.469 7 107688141.265 8                  83912746.607 7
R01  20208727.676 7                 108027402.171 7
R08  21809104.883 7  21809109.987 7 116786853.595 7  90834165.425 7
R15  21925359.639 6  21925364.984 6 117162480.305 6  91126392.865 6
R16  22494145.815 6  22494151.769 6 120159716.485 6  93457560.225 6
R17  20566921.685 8  20566926.112 7 110057903.149 8  85600503.568 7
R24  19761415.388 8  19761418.700 7 105673299.938 8  82190253.771 7
> 2025 06 15 09 53 50.0000000  0 21
C13  38604424.509 6  38604428.189 7 201023378.955 6 155444032.503 7
C19  23801637.536 7                 123941437.904 7
C20  22981759.303 7                 119672115.814 7
C29  22553435.985 7                 117441897.610 7
E02  24793870.709 8  24793871.677 8 130292632.252 8  98565558.688 8
E11  24486575.798 7  24486574.834 8 128677835.737 7  97343927.617 8
E25  26786082.896 7  26786090.361 8 140761850.827 7 106485404.944 8
E30  26975602.989 6  26975605.573 6 141757741.544 6 107238829.569 6
E36  23760417.290 8  23760419.413 8 124861835.195 8  94457174.980 8
G02  22481525.434 7  22481528.600 5                 118141226.229 7  92058087.843 5
G08  20636302.879 8                  20636309.672 8 108444739.759 8                  84502244.438 8
G10  20915213.770 8                  20915220.231 8 109910275.177 8                  85644331.369 8
G16  24173153.794 6  24173159.527 3                 127030717.391 6  98985019.854 3
G23  22533050.283 5                  22533059.526 7 118411981.163 5                  92269097.155 7
G27  20492535.478 8                  20492541.633 8 107689128.169 8                  83913515.635 8
R01  20205987.429 7                 108012753.189 7
R08  21810346.572 7  21810350.993 7 116793497.346 7  90839332.772 7
R15  21926430.563 6  21926435.815 6 117168203.208 6  91130844.077 6
R16  22491721.165 5  22491731.903 5 120146789.399 5  93447505.770 5
R17  20563524.003 8  20563528.964 7 110039721.342 8  85586362.174 7
R24  19761259.007 8  19761261.971 7 105672463.320 8  82189603.050 7
> 2025 06 15 09 53 55.0000000  0 21
C13  38604216.195 6  38604219.420 7 201022290.997 6 155443191.218 7
C19  23797815.545 7                 123921537.702 7
C20  22980593.078 7                 119666042.285 7
C29  22554067.826 7                 117445188.176 7
E02  24793880.150 7  24793881.697 8 130292684.861 7  98565598.490 8
E11  24486875.534 7  24486874.945 8 128679413.078 7  97345120.863 8
E25  26787896.822 7  26787904.279 8 140771383.032 7 106492615.967 8
E30  26972971.325 7  26972971.960 6 141743900.354 7 107228358.755 6
E36  23758489.414 8  23758491.429 8 124851703.688 8  94449510.565 8
G02  22478197.796 7  22478201.281 5                 118123740.688 7  92044462.771 5
G08  20634025.306 8                  20634032.462 7 108432771.935 8                  84492918.874 7
G10  20914340.262 8                  20914346.502 8 109905684.162 8                  85640753.979 8
G16  24175565.769 6  24175570.395 3                 127043385.674 6  98994891.217 3
G23  22534584.472 5                  22534592.050 7 118420033.979 5                  92275372.104 7
G27  20492725.795 8                  20492732.361 8 107690129.811 8                  83914296.122 8
R01  20203251.375 7                 107998126.574 7
R08  21811591.449 7  21811595.345 7 116800159.589 7  90844514.513 7
R15  21927503.412 6  21927510.521 6 117173944.331 6  91135309.383 6
R16  22489309.374 5  22489315.865 5 120133884.591 5  93437468.710 5
R17  20560127.556 8  20560133.059 7 110021547.647 8  85572227.089 7
R24  19761105.206 8  19761107.988 7 105671638.705 8  82188961.673 7
> 2025 06 15 09 54  0.0000000  0 21
C13  38604006.970 6  38604010.874 7 201021205.654 6 155442351.959 7
C19  23793996.164 7                 123901648.330 7
C20  22979428.845 7                 119659985.551 7
C29  22554701.224 7                 117448488.076 7
E02  24793892.818 7  24793894.184 8 130292750.692 7  98565648.284 8
E11  24487177.917 7  24487176.253 8 128680996.648 7  97346318.809 8
E25  26789711.612 7  26789719.074 8 140780919.813 7 106499830.469 8
E30  26970338.799 6  26970340.110 6 141730071.348 6 107217897.275 6
E36  23756562.679 8  23756564.942 9 124841579.941 8  94441852.011 9
G02  22474871.753 7  22474875.026 5                 118106262.626 7  92030843.498 5
G08  20631750.266 8                  20631758.301 8 108420819.638 8                  84483605.381 8
G10  20913469.473 8                  20913476.203 8 109901109.412 8                  85637189.224 8
G16  24177976.051 6  24177982.088 3                 127056058.031 6  99004765.704 3
G23  22536119.588 5                  22536125.876 6 118428097.001 5                  92281654.979 6
G27  20492919.001 7                  20492926.042 8 107691147.456 7                  83915089.089 8
R01  20200519.305 7                 107983523.722 7
R08  21812838.373 7  21812843.366 7 116806841.789 7  90849711.758 7
R15  21928582.441 5  21928588.195 6 117179705.033 5  91139789.884 6
R16  22486893.582 5  22486903.773 6 120121002.738 5  93427449.541 6
R17  20556732.881 8  20556738.665 7 110003383.313 8  85558099.269 7
R24  19760953.102 8  19760956.592 7 105670827.592 8  82188330.795 7
> 2025 06 15 09 54  5.0000000  0 21
C13  38603799.555 6  38603803.219 7 201020124.007 6 155441515.568 7
C19  23790178.454 7                 123881770.874 7
C20  22978268.831 7                 119653946.686 7
C29  22555336.815 7                 117451798.333 7
E02  24793908.220 8  24793909.422 8 130292830.851 8  98565708.923 8
E11  24487479.834 7  24487478.974 8 128682587.542 7  97347522.307 8
E25  26791527.635 7  26791534.980 8 140790462.301 7 106507049.269 8
E30  26967708.885 6  26967711.337 6 141716255.655 6 107207445.795 6
E36  23754637.983 8  23754640.138 8 124831465.020 8  94434200.142 8
G02  22471546.835 7  22471549.840 5                 118088793.143 7  92017230.938 5
G08  20629479.686 8                  20629486.744 8 108408883.927 8                  84474304.821 8
G10  20912602.894 8                  20912608.594 8 109896551.978 8                  85633637.984 8
G16  24180388.448 6  24180394.144 3                 127068735.590 6  99014644.334 3
G23  22537656.785 6                  22537662.688 7 118436171.374 6                  92287946.717 7
G27  20493116.234 7                  20493122.845 8 107692182.201 7                  83915895.378 8
R01  20197792.009 7                 107968945.685 7
R08  21814088.549 7  21814094.347 7 116813544.793 7  90854925.274 7
R15  21929664.607 5  21929669.799 5 117185486.171 5  91144286.294 5
R16  22484492.525 5  22484496.721 5 120108145.669 5  93417449.493 5
R17  20553341.798 8  20553345.415 7 109985229.414 8  85543979.563 7
R24  19760803.596 8  19760808.006 7 105670030.999 8  82187711.218 7
> 2025 06 15 09 54 10.0000000  0 21
C13  38603592.165 6  38603596.009 7 201019043.380 6 155440679.931 7
C19  23786363.041 7                 123861902.609 7
C20  22977112.569 7                 119647922.959 7
C29  22555974.227 7                 117455116.284 7
E02  24793925.806 7  24793926.884 8 130292922.606 7  98565778.343 8
E11  24487783.769 7  24487782.625 8 128684183.053 7  97348729.287 8
E25  26793344.791 7  26793351.441 8 140800007.701 7 106514270.274 8
E30  26965083.118 6  26965084.462 6 141702450.587 6 107197002.294 6
E36  23752714.360 8  23752716.490 9 124821356.188 8  94426552.873 9
G02  22468223.461 7  22468226.558 5                 118071329.557 7  92003622.939 5
G08  20627210.632 8                  20627217.988 8 108396962.103 8                  84465015.095 8
G10  20911737.547 8                  20911743.880 7 109892009.146 8                  85630098.115 7
G16  24182800.900 5  24182807.100 2                 127081415.574 5  99024524.795 2
G23  22539194.222 6                  22539201.009 6 118444254.356 6                  92294245.117 6
G27  20493315.806 8                  20493322.363 8 107693231.287 8                  83916712.850 8
R01  20195068.536 7                 107954389.625 7
R08  21815343.153 7  21815349.738 7 116820266.023 7  90860152.890 7
R15  21930749.872 6  21930754.955 6 117191285.040 6  91148796.625 6
R16  22482090.241 6  22482093.018 5 120095309.762 6  93407465.986 5
R17  20549950.399 8  20549954.741 7 109967083.235 8  85529865.891 7
R24  19760656.266 8  19760660.900 7 105669246.169 8  82187100.782 7
> 2025 06 15 09 54 15.0000000  0 21
C13  38603383.747 6  38603388.126 7 201017963.461 6 155439844.852 7
C19  23782549.592 7                 123842043.271 7
C20  22975958.700 7                 119641914.090 7
C29  22556612.420 7                 117458441.599 7
E02  24793945.296 7  24793946.527 8 130293025.643 7  98565856.274 8
E11  24488088.368 7  24488087.026 8 128685782.865 7  97349939.527 8
E25  26795161.171 7  26795168.487 8 140809555.717 7 106521493.261 8
E30  26962457.699 6  26962459.658 6 141688655.764 6 107186566.623 6
E36  23750791.713 8  23750793.899 9 124811253.146 8  94418909.990 9
G02  22464902.199 7  22464903.553 5                 118053871.524 7  91990019.275 5
G08  20624944.918 8                  20624952.082 8 108385053.846 8                  84455735.948 8
G10  20910876.420 8                  20910882.513 8 109887480.605 8                  85626569.362 8
G16  24185212.352 5  24185220.058 2                 127094097.695 5  99034406.956 2
G23  22540734.366 6                  22540740.752 6 118452345.527 6                  92300549.916 6
G27  20493518.259 7                  20493524.727 7 107694294.404 7                  83917541.243 7
R01  20192348.786 7                 107939855.346 7
R08  21816601.739 7  21816608.128 7 116827005.068 7  90865394.334 7
R15  21931837.831 6  21931842.346 6 117197101.473 6  91153320.397 6
R16  22479690.054 6  22479694.784 5 120082495.280 6  93397499.232 5
R17  20546559.926 8  20546565.181 7 109948944.560 8  85515758.030 7
R24  19760512.378 8  19760516.192 7 105668472.724 8  82186499.213 7
> 2025 06 15 09 54 20.0000000  0 21
C13  38603178.635 6  38603180.867 6 201016884.406 6 155439010.466 6
C19  23778738.146 7                 123822193.059 7
C20  22974807.476 7                 119635920.304 7
C29  22557253.099 7                 117461774.485 7
E02  24793966.293 7  24793968.252 8 130293140.131 7  98565942.891 8
E11  24488393.038 7  24488392.277 8 128687387.118 7  97351153.144 8
E25  26796978.840 7  26796985.922 8 140819106.563 7 106528718.387 8
E30  26959835.859 6  26959836.907 6 141674871.371 6 107176138.866 6
E36  23748870.204 8  23748872.485 9 124801156.082 8  94411271.633 9
G02  22461581.882 7  22461582.235 5                 118036419.239 7  91976420.091 5
G08  20622681.101 8                  20622688.550 8 108373159.380 8                  84446467.546 8
G10  20910016.799 8                  20910023.428 8 109882966.556 8                  85623051.935 8
G16  24187628.922 5  24187633.567 2                 127106782.115 5  99044290.928 2
G23  22542275.271 6                  22542281.922 6 118460445.170 6                  92306861.326 6
G27  20493723.693 8                  20493729.784 7 107695371.788 8                  83918380.754 7
R01  20189635.670 7                 107925342.994 7
R08  21817865.089 7  21817870.211 7 116833762.096 7  90870649.789 7
R15  21932932.297 6  21932935.250 6 117202935.358 6  91157857.865 6
R16  22477296.118 6  22477300.098 5 120069702.294 6  93387549.134 5
R17  20543172.732 8  20543177.183 7 109930813.527 8  85501656.116 7
R24  19760369.419 8  19760373.302 7 105667710.933 8  82185906.705 7
> 2025 06 15 09 54 25.0000000  0 21
C13  38602969.925 6  38602974.185 7 201015806.507 6 155438176.951 7
C19  23774927.869 7                 123802352.230 7
C20  22973659.758 7                 119629941.841 7
C29  22557894.766 7                 117465115.202 7
E02  24793990.715 7  24793992.288 8 130293266.376 7  98566038.383 8
E11  24488699.682 7  24488698.519 8 128688996.162 7  97352370.364 8
E25  26798796.971 7  26798804.009 8 140828660.456 7 106535945.821 8
E30  26957214.211 6  26957215.962 6 141661097.803 6 107165719.251 6
E36  23746950.324 8  23746952.301 9 124791065.281 8  94403638.007 9
G02  22458261.529 7  22458262.121 5                 118018972.969 7  91962825.608 5
G08  20620420.370 8                  20620428.124 8 108361278.952 8                  84437210.073 8
G10  20909161.190 8                  20909167.168 8 109878467.221 8                  85619545.949 8
G16  24190042.785 5  24190048.177 2                 127119469.065 5  99054176.786 2
G23  22543818.593 6                  22543824.460 6 118468553.494 6                  92313179.456 6
G27  20493931.029 8                  20493937.520 7 107696463.648 8                  83919231.560 7
R01  20186925.023 7                 107910852.909 7
R08  21819129.347 7  21819134.845 7 116840537.410 7  90875919.516 7
R15  21934029.000 6  21934030.818 6 117208787.165 6  91162409.228 6
R16  22474903.816 7  22474908.642 6 120056930.976 7  93377615.927 6
R17  20539785.309 8  20539790.610 7 109912690.378 8  85487560.326 7
R24  19760229.205 8  19760233.572 7 105666961.061 8  82185323.471 7
> 2025 06 15 09 54 30.0000000  0 21
C13  38602762.929 6  38602767.201 6 201014729.396 6 155437344.048 6
C19  23771119.154 7                 123782520.396 7
C20  22972514.374 7                 119623978.255 7
C29  22558537.673 7                 117468463.317 7
E02  24794017.075 7  24794018.475 8 130293403.911 7  98566142.422 8
E11  24489006.682 7  24489005.534 8 128690609.501 7  97353590.838 8
E25  26800615.275 7  26800622.496 8 140838216.980 7 106543175.254 8
E30  26954595.661 6  26954596.966 6 141647334.480 6 107155307.415 6
E36  23745030.732 8  23745033.186 9 124780980.299 8  94396008.788 9
G02  22454943.034 7  22454943.698 5                 118001532.312 7  91949235.462 5
G08  20618161.921 8                  20618169.590 7 108349412.158 8                  84427963.226 7
G10  20908307.672 8                  20908313.917 8 109873982.198 8                  85616051.134 8
G16  24192458.424 5  24192463.142 2                 127132158.157 5  99064064.383 2
G23  22545364.236 6                  22545368.784 6 118476670.034 6                  92319504.006 6
G27  20494141.641 8                  20494148.089 7 107697569.598 8                  83920093.325 7
R01  20184217.887 7                 107896384.553 7
R08  21820397.626 7  21820403.237 6 116847330.493 7  90881203.039 6
R15  21935127.131 6  21935129.297 6 117214656.495 6  91166974.284 6
R16  22472519.132 7  22472522.535 6 120044180.989 7  93367699.267 6
R17  20536399.616 8  20536405.213 7 109894574.605 8  85473470.280 7
R24  19760091.888 8  19760094.738 7 105666222.589 8  82184749.097 7
> 2025 06 15 09 54 35.0000000  0 21
C13  38602556.396 6  38602560.562 7 201013653.031 6 155436511.748 7
C19  23767311.636 7                 123762697.635 7
C20  22971372.202 7                 119618029.649 7
C29  22559182.381 7                 117471818.934 7
E02  24794045.445 7  24794046.895 8 130293552.832 7  98566255.063 8
E11  24489314.573 7  24489313.409 8 128692227.232 7  97354814.643 8
E25  26802435.047 7  26802441.715 8 140847776.209 7 106550406.727 8
E30  26951976.912 6  26951980.011 7 141633581.730 6 107144903.535 7
E36  23743112.721 8  23743115.229 9 124770901.247 8  94388384.047 9
G02  22451624.248 7  22451625.692 5                 117984097.349 7  91935649.776 5
G08  20615906.944 8                  20615914.270 8 108337559.096 8                  84418727.076 8
G10  20907457.218 8                  20907463.336 8 109869511.594 8                  85612567.539 8
G16  24194872.745 5  24194878.027 2                 127144849.440 5  99073953.608 2
G23  22546910.197 6                  22546914.723 6 118484794.934 6                  92325835.068 6
G27  20494354.851 8                  20494361.242 7 107698689.696 8                  83920966.117 7
R01  20181514.256 7                 107881938.152 7
R08  21821669.859 7  21821675.825 7 116854141.482 7  90886500.460 7
R15  21936231.344 6  21936231.671 6 117220543.214 6  91171552.729 6
R16  22470134.763 7  22470140.183 6 120031452.341 7  93357799.243 6
R17  20533015.990 8  20533020.980 7 109876466.469 8  85459386.181 7
R24  19759955.697 8  19759959.326 7 105665495.777 8  82184183.818 7
> 2025 06 15 09 54 40.0000000  0 21
C13  38602350.417 6  38602354.068 7 201012578.045 6 155435680.499 7
C19  23763506.051 7                 123742884.497 7
C20  22970232.709 7                 119612096.541 7
C29  22559828.524 7                 117475182.591 7
E02  24794076.110 8  24794077.497 8 130293713.691 8  98566376.747 8
E11  24489623.138 7  24489622.230 8 128693849.944 7  97356042.205 8
E25  26804254.511 7  26804261.440 8 140857338.708 7 106557640.674 8
E30  26949361.856 6  26949364.947 6 141619839.888 6 107134507.920 6
E36  23741196.227 8  23741198.453 9 124760828.651 8  94380764.189 9
G02  22448308.665 7  22448309.173 5                 117966668.630 7  91922068.992 5
G08  20613653.857 8                  20613661.364 8 108325720.315 8                  84409502.059 8
G10  20906608.998 8                  20906615.067 8 109865055.934 8                  85609095.589 8
G16  24197288.033 6  24197293.322 2                 127157543.387 6  99083845.051 2
G23  22548457.340 6                  22548462.245 6 118492928.675 6                  92332173.002 6
G27  20494570.664 8                  20494576.860 7 107699824.502 8                  83921850.384 7
R01  20178817.544 7                 107867514.328 7
R08  21822945.474 7  21822950.679 6 116860970.922 7  90891812.266 6
R15  21937333.017 6  21937336.585 7 117226447.920 6  91176145.374 7
R16  22467753.916 6  22467762.529 5 120018745.883 6  93347916.436 5
R17  20529633.234 8  20529638.951 7 109858366.372 8  85445308.331 7
R24  19759821.372 8  19759825.555 7 105664781.072 8  82183627.938 7
> 2025 06 15 09 54 45.0000000  0 22
C13  38602144.054 6  38602147.928 6 201011504.354 6 155434850.271 6
C19  23759703.051 7                 123723080.907 7
C20  22969096.497 7                 119606178.887 7
C29  22560476.222 7                 117478554.186 7
E02  24794108.946 8  24794110.372 8 130293886.369 8  98566507.378 8
E10  26531150.539 5  26531153.279 3 139422288.67715 105471951.15613
E11  24489932.757 7  24489931.957 8 128695477.495 7  97357273.431 8
E25  26806074.699 7  26806081.755 8 140866904.352 7 106564876.997 8
E30  26946749.663 6  26946752.127 6 141606108.945 6 107124120.574 6
E36  23739280.860 8  23739282.907 8 124750762.426 8  94373149.159 8
G02  22444992.382 7  22444994.364 5                 117949246.087 7  91908492.973 5
G08  20611403.992 8                  20611411.082 8 108313895.760 8                  84400288.104 8
G10  20905764.579 8                  20905770.406 8 109860615.116 8                  85605635.210 8
G16  24199705.704 6  24199709.127 2                 127170240.081 6  99093738.487 2
G23  22550006.414 6                  22550011.527 6 118501071.203 6                  92338517.820 6
G27  20494789.530 8                  20494795.387 7 107700973.911 8                  83922746.012 7
R01  20176122.932 7                 107853112.840 7
R08  21824225.130 7  21824229.382 6 116867818.775 7  90897138.279 6
R15  21938438.721 6  21938444.693 6 117232370.454 6  91180751.843 6
R16  22465380.122 6  22465386.806 6 120006061.243 6  93338050.575 6
R17  20526252.452 8  20526257.561 7 109840274.456 8  85431236.845 7
R24  19759690.110 8  19759694.188 7 105664078.445 8  82183081.436 7
> 2025 06 15 09 54 50.0000000  0 22
C13  38601938.770 6  38601941.559 7 201010429.934 6 155434019.468 7
C19  23755901.789 7                 123703284.950 7
C20  22967962.716 7                 119600274.747 7
C29  22561124.819 7                 117481931.804 7
E02  24794143.598 7  24794145.141 8 130294068.921 7  98566645.476 8
E10  26532211.595 5  26532218.460 4 139427886.038 5 105476185.521 4
E11  24490243.741 7  24490242.277 8 128697107.952 7  97358506.860 8
E25  26807895.783 7  26807902.335 8 140876471.217 7 106572114.222 8
E30  26944137.995 6  26944140.946 7 141592386.959 6 107113740.022 7
E36  23737366.312 8  23737368.147 9 124740700.626 8  94365537.472 9
G02  22441677.281 7  22441679.767 5                 117931827.739 7  91894920.253 5
G08  20609156.049 8                  20609163.054 7 108302083.437 8                  84391083.703 7
G10  20904921.757 8                  20904927.411 8 109856187.165 8                  85602184.853 8
G16  24202121.115 6  24202125.745 2                 127182937.380 6  99103632.377 2
G23  22551557.139 6                  22551562.270 6 118509220.525 6                  92344867.950 6
G27  20495010.188 8                  20495017.263 8 107702135.979 8                  83923651.520 8
R01  20173432.209 7                 107838731.766 7
R08  21825508.563 6  21825511.366 6 116874683.011 6  90902477.078 6
R15  21939550.689 6  21939556.520 6 117238309.049 6  91185370.749 6
R16  22463008.595 6  22463015.651 6 119993396.647 6  93328200.381 6
R17  20522872.761 8  20522877.689 7 109822188.545 8  85417170.022 7
R24  19759561.674 8  19759564.927 7 105663385.877 8  82182542.749 7
> 2025 06 15 09 54 55.0000000  0 22
C13  38601731.821 6  38601735.626 7 201009355.350 6 155433188.531 7
C19  23752101.659 7                 123683497.085 7
C20  22966831.952 7                 119594384.532 7
C29  22561774.503 7                 117485315.858 7
E02  24794180.133 7  24794181.861 8 130294261.815 7  98566791.388 8
E10  26533277.003 5  26533283.860 3 139433484.179 5 105480420.476 3
E11  24490554.348 7  24490553.192 8 128698741.803 7  97359742.839 8
E25  26809716.329 7  26809723.135 8 140886039.690 7 106579352.691 8
E30  26941528.362 5  26941531.465 7 141578674.434 5 107103366.571 7
E36  23735452.477 8  23735454.383 9 124730643.687 8  94357929.460 9
G02  22438364.429 7  22438366.159 5                 117914413.985 7  91881351.102 5
G08  20606910.978 8                  20606917.812 7 108290283.824 8                  84381889.202 7
G10  20904081.760 8                  20904087.718 8 109851772.581 8                  85598744.918 8
G16  24204537.150 5  24204542.013 2                 127195635.742 5  99113527.262 2
G23  22553109.622 6                  22553114.589 6 118517377.112 6                  92351223.733 6
G27  20495234.186 8                  20495240.744 8 107703311.129 8                  83924567.212 8
R01  20170746.727 7                 107824371.606 7
R08  21826793.775 7  21826796.866 7 116881563.968 7  90907828.927 7
R15  21940666.151 6  21940670.387 6 117244263.979 6  91190002.326 6
R16  22460642.670 5  22460649.443 6 119980752.332 5  93318365.942 6
R17  20519494.759 8  20519498.985 7 109804109.123 8  85403108.252 7
R24  19759433.405 8  19759437.201 7 105662703.640 8  82182012.107 7
> 2025 06 15 09 55  0.0000000  0 22
C13  38601525.988 6  38601529.035 7 201008280.266 6 155432357.208 7
C19  23748303.575 7                 123663717.062 7
C20  22965703.760 7                 119588508.028 7
C29  22562424.994 7                 117488706.144 7
E02  24794218.993 7  24794220.508 8 130294464.791 7  98566944.933 8
E10  26534344.231 5  26534349.302 3 139439082.852 5 105484655.848 3
E11  24490866.163 7  24490864.687 8 128700378.757 7  97360981.187 8
E25  26811537.345 7  26811544.253 8 140895609.564 7 106586592.210 8
E30  26938920.691 5  26938923.796 7 141564971.072 5 107093000.042 7
E36  23733539.457 8  23733541.509 8 124720591.395 8  94350324.961 8
G02  22435050.121 7  22435053.394 5                 117897004.650 7  91867785.401 5
G08  20604667.664 8                  20604674.616 8 108278496.692 8                  84372704.426 8
G10  20903244.390 8                  20903249.828 8 109847371.065 8                  85595315.176 8
G16  24206954.191 6  24206958.619 2                 127208334.998 6  99123422.825 2
G23  22554663.221 6                  22554667.986 6 118525540.633 6                  92357584.888 6
G27  20495460.396 8                  20495466.619 8 107704499.131 8                  83925492.933 8
R01  20168064.504 7                 107810032.167 7
R08  21828081.911 7  21828085.417 7 116888461.375 7  90913193.552 7
R15  21941784.184 7  21941788.304 6 117250235.026 7  91194646.479 6
R16  22458276.432 6  22458286.196 6 119968128.213 6  93308547.211 6
R17  20516117.168 8  20516122.178 7 109786036.034 8  85389051.451 7
R24  19759308.272 8  19759311.729 7 105662031.864 8  82181489.633 7
> 2025 06 15 09 55  5.0000000  0 22
C13  38601320.340 6  38601322.700 6 201007206.068 6 155431526.569 6
C19  23744507.078 7                 123643946.321 7
C20  22964577.141 7                 119582646.637 7
C29  22563077.817 7                 117492104.021 7
E02  24794259.938 8  24794261.327 8 130294679.262 8  98567107.175 8
E10  26535407.408 5  26535415.176 4 139444683.353 5 105488892.627 4
E11  24491178.980 7  24491177.057 8 128702020.203 7  97362222.921 8
E25  26813358.832 7  26813365.824 8 140905182.197 7 106593833.809 8
E30  26936316.087 6  26936318.183 7 141551278.240 6 107082641.530 7
E36  23731627.370 8  23731629.759 9 124710545.117 8  94342725.021 9
G02  22431738.265 7  22431741.845 5                 117879601.182 7  91854224.267 5
G08  20602427.820 8                  20602434.550 7 108266723.478 8                  84363530.481 7
G10  20902409.183 8                  20902415.393 8 109842984.033 8                  85591896.706 8
G16  24209371.650 5  24209375.906 2                 127221036.448 5  99133319.997 2
G23  22556217.128 5                  22556223.075 6 118533712.585 5                  92363952.624 6
G27  20495689.238 8                  20495695.496 8 107705701.372 8                  83926429.763 8
R01  20165386.015 7                 107795714.773 7
R08  21829371.717 7  21829376.593 7 116895376.761 7  90918572.196 7
R15  21942904.553 7  21942908.511 6 117256223.653 7  91199304.242 6
R16  22455918.251 6  22455927.002 6 119955525.723 6  93298745.287 6
R17  20512740.949 8  20512745.821 7 109767970.627 8  85375000.558 7
R24  19759184.002 8  19759187.832 7 105661371.683 8  82180976.152 7
> 2025 06 15 09 55 10.0000000  0 22
C13  38601113.755 6  38601116.700 6 201006133.012 6 155430696.810 6
C19  23740711.267 7                 123624184.973 7
C20  22963453.729 7                 119576800.477 7
C29  22563731.660 7                 117495509.648 7
E02  24794303.181 8  24794304.371 8 130294905.355 8  98567278.198 8
E10  26536473.536 5  26536481.623 4 139450286.013 5 105493131.063 4
E11  24491491.913 7  24491490.253 8 128703666.317 7  97363468.187 8
E25  26815181.334 7  26815188.059 8 140914757.743 7 106601077.643 8
E30  26933711.516 6  26933714.848 7 141537596.182 6 107072291.176 7
E36  23729717.146 8  23729719.171 9 124700505.018 8  94335129.760 9
G02  22428429.072 7  22428431.613 5                 117862203.663 7  91840667.787 5
G08  20600189.157 8                  20600196.623 7 108254964.278 8                  84354367.475 7
G10  20901577.108 8                  20901583.318 8 109838611.656 8                  85588489.658 8
G16  24211788.973 6  24211793.681 2                 127233740.386 6  99143219.136 2
G23  22557775.146 5                  22557779.480 6 118541893.089 5                  92370327.026 6
G27  20495920.944 8                  20495926.844 7 107706918.053 8                  83927377.799 7
R01  20162710.893 7                 107781419.643 7
R08  21830664.907 7  21830671.279 7 116902310.187 7  90923964.908 7
R15  21944027.782 7  21944031.430 6 117262229.940 7  91203975.775 6
R16  22453563.349 6  22453571.249 6 119942944.927 6  93288960.189 6
R17  20509367.400 8  20509371.459 7 109749913.192 8  85360955.887 7
R24  19759063.148 8  19759066.842 7 105660723.333 8  82180471.865 7
> 2025 06 15 09 55 15.0000000  0 22
C13  38600907.662 6  38600910.744 6 201005060.886 6 155429867.766 6
C19  23736918.002 7                 123604432.855 7
C20  22962334.079 7                 119570969.352 7
C29  22564386.521 7                 117498922.853 7
E02  24794348.378 8  24794349.543 8 130295142.866 8  98567457.868 8
E10  26537540.055 5  26537548.602 4 139455890.444 5 105497370.839 4
E11  24491805.849 7  24491804.328 8 128705316.925 7  97364716.854 8
E25  26817003.847 7  26817010.799 8 140924336.059 7 106608323.548 8
E30  26931109.347 5  26931113.413 7 141523924.688 5 107061948.779 7
E36  23727807.588 8  23727809.754 9 124690470.918 8  94327539.031 9
G02  22425118.934 7  22425122.087 5                 117844811.931 7  91827115.803 5
G08  20597954.371 8                  20597961.808 7 108243218.958 8                  84345215.286 7
G10  20900748.136 8                  20900754.182 8 109834253.733 8                  85585093.876 8
G16  24214206.247 6  24214211.133 2                 127246446.533 6  99153120.021 2
G23  22559330.672 5                  22559337.806 6 118550081.805 5                  92376707.823 6
G27  20496155.217 8                  20496161.171 8 107708148.919 8                  83928336.913 8
R01  20160041.495 7                 107767146.633 7
R08  21831964.077 7  21831969.164 7 116909261.492 7  90929371.464 7
R15  21945155.112 7  21945159.084 6 117268253.629 7  91208660.882 6
R16  22451212.343 6  22451220.825 6 119930385.812 6  93279191.977 6
R17  20505994.086 8  20505998.838 7 109731863.417 8  85346917.190 7
R24  19758944.579 8  19758947.585 7 105660086.614 8  82179976.639 7
> 2025 06 15 09 55 20.0000000  0 22
C13  38600702.575 6  38600705.004 7 201003989.893 6 155429039.616 7
C19  23733126.624 7                 123584690.356 7
C20  22961217.679 7                 119565153.688 7
C29  22565043.711 7                 117502343.954 7
E02  24794395.815 8  24794396.987 8 130295392.194 8  98567646.478 8
E10  26538607.278 5  26538615.926 4 139461497.220 5 105501612.354 4
E11  24492121.084 7  24492119.303 8 128706972.345 7  97365969.163 8
E25  26818826.969 7  26818833.945 8 140933917.453 7 106615571.777 8
E30  26928511.230 5  26928513.933 7 141510264.184 5 107051614.683 7
E36  23725899.344 8  23725901.533 9 124680443.194 8  94319953.122 9
G02  22421810.271 7  22421813.324 5                 117827426.351 7  91813568.602 5
G08  20595721.794 8                  20595729.418 7 108231487.877 8                  84336074.185 7
G10  20899921.730 8                  20899927.770 8 109829910.615 8                  85581709.634 8
G16  24216624.558 6  24216629.357 2                 127259155.172 6  99163022.915 2
G23  22560888.624 5                  22560897.743 6 118558279.15815                  92383095.43916
G27  20496392.147 8                  20496398.141 8 107709394.365 8                  83929307.390 8
R01  20157376.606 7                 107752896.012 7
R08  21833265.099 7  21833270.369 7 116916230.997 7  90934792.206 7
R15  21946285.569 7  21946289.823 6 117274295.118 7  91213359.788 6
R16  22448868.074 6  22448874.858 6 119917848.708 6  93269440.820 6
R17  20502622.317 8  20502626.625 7 109713821.695 8  85332884.716 7
R24  19758827.490 8  19758830.958 7 105659461.912 8  82179490.762 7
> 2025 06 15 09 55 25.0000000  0 21
C13  38600497.429 6  38600499.347 7 201002919.287 6 155428211.742 7
C19  23729336.804 7                 123564956.586 7
C20  22960103.668 7                 119559352.494 7
C29  22565702.603 7                 117505772.052 7
E02  24794445.279 8  24794446.465 8 130295652.372 8  98567843.295 8
E10  26539673.602 5  26539683.503 5 139467105.268 5 105505854.788 5
E11  24492437.021 7  24492435.053 8 128708631.662 7  97367224.424 8
E25  26820651.194 7  26820657.700 8 140943500.984 7 106622821.623 8
E30  26925912.642 5  26925916.440 7 141496613.640 5 107041288.110 7
E36  23723992.102 8  23723994.376 9 124670420.897 8  94312371.317 9
G02  22418503.106 7  22418505.308 5                 117810046.011 7  91800025.483 5
G08  20593492.522 8                  20593499.749 7 108219770.103 8                  84326943.454 7
G10  20899097.904 8                  20899103.926 8 109825581.378 8                  85578336.195 8
G16  24219044.030 6  24219047.596 2                 127271865.392 6  99172926.927 2
G27  20496631.509 8                  20496637.964 8 107710653.454 8                  83930288.498 8
R01  20154714.119 7                 107738666.960 7
R08  21834570.379 7  21834574.746 6 116923217.660 7  90940226.290 6
R15  21947419.019 7  21947423.474 6 117280353.434 7  91218071.771 6
R16  22446526.012 6  22446531.206 6 119905332.617 6  93259706.063 6
R17  20499252.178 8  20499256.155 7 109695787.275 8  85318857.933 7
R24  19758712.664 8  19758716.434 7 105658848.303 8  82179013.497 7
