     3.04           OBSERVATION DATA    Mixed(MIXED)        RINEX VERSION / TYPE
cnvtToRINEX 3.14.0  convertToRINEX OPR  20250615 162936 UTC PGM / RUN BY / DATE 
----------------------------------------------------------- COMMENT             
414                                                         MARKER NAME         
414                                                         MARKER NUMBER       
GEODETIC                                                    MARKER TYPE         
GNSS Observer       Trimble                                 OBSERVER / AGENCY   
5849S10870          Geo Explorer 3      5.51                REC # / TYPE / VERS 
49S10870            UNKNOWN EXT     NONE                    ANT # / TYPE        
  3912274.6651  1190403.9442  4879349.6417                  APPROX POSITION XYZ 
        1.1940        0.0000        0.0000                  ANTENNA: DELTA H/E/N
G    6 C1C C2W C2X L1C L2W L2X                              SYS / # / OBS TYPES 
R    4 C1C C2C L1C L2C                                      SYS / # / OBS TYPES 
E    4 C1X C8X L1X L8X                                      SYS / # / OBS TYPES 
C    2 C2I L2I                                              SYS / # / OBS TYPES 
     5.000                                                  INTERVAL            
  2025     6    15     7    31   30.0000000     GPS         TIME OF FIRST OBS   
  2025     6    15     8    13   10.0000000     GPS         TIME OF LAST OBS    
     0                                                      RCV CLOCK OFFS APPL 
  8 R07  5 R08  6 R13 -2 R14 -7 R15  0 R22 -3 R23  3 R24  2 GLONASS SLOT / FRQ #
G L2X -0.25000                                              SYS / PHASE SHIFT   
R L2C -0.25000                                              SYS / PHASE SHIFT   
    18                                                      LEAP SECONDS        
    26                                                      # OF SATELLITES     
   C20   482   482                                          PRN / # OF OBS      
   C26   489   489                                          PRN / # OF OBS      
   C29   489   489                                          PRN / # OF OBS      
   C30   489   489                                          PRN / # OF OBS      
   E02   488   488   488   488                              PRN / # OF OBS      
   E10   489   489   489   489                              PRN / # OF OBS      
   E11   489   489   489   489                              PRN / # OF OBS      
   E12   489   489   489   489                              PRN / # OF OBS      
   E16   489   489   489   489                              PRN / # OF OBS      
   E24   490   490   490   490                              PRN / # OF OBS      
   E25   489   489   489   489                              PRN / # OF OBS      
   E36   303   303   303   303                              PRN / # OF OBS      
   G08   254     0   253   254     0   253                  PRN / # OF OBS      
   G10   489     0   489   489     0   489                  PRN / # OF OBS      
   G16   490   490     0   490   490     0                  PRN / # OF OBS      
   G18   490     0   490   490     0   490                  PRN / # OF OBS      
   G23   489     0   489   489     0   489                  PRN / # OF OBS      
   G27   490     0   490   490     0   490                  PRN / # OF OBS      
   R07   490   490   490   489                              PRN / # OF OBS      
   R08   483   483   483   483                              PRN / # OF OBS      
   R13   489     0   489     0                              PRN / # OF OBS      
   R14   489   489   489   489                              PRN / # OF OBS      
   R15   476   476   476   476                              PRN / # OF OBS      
   R22    66    66    66    66                              PRN / # OF OBS      
   R23   489     0   489     0                              PRN / # OF OBS      
   R24   489   489   489   489                              PRN / # OF OBS      
DBHZ                                                        SIGNAL STRENGTH UNIT
                                                            END OF HEADER       
>                              2  1
              *** Start of Kinematic Data ***               COMMENT             
> 2025 06 15 07 31 30.0000000  0  5
E24  25293548.953 8  25293550.762 8 132918495.37018 100551985.07818
G16  20454724.094 7  20454726.148 6                 107490296.97917  83758683.56516
G18  20726037.859 7                  20726042.445 8 108916061.39217                  84869678.31018
G27  21717628.609 7                  21717635.582 7 114126903.60417                  88930083.82517
R07  21967085.453 6  21967090.523 7 117591528.44216
> 2025 06 15 07 32 30.0000000  0 20
C26  25026363.156 6 130318832.11916
C29  21785298.266 7 113441767.03417
C30  22837268.703 7 118919644.75817
E10  23789283.438 8  23789284.734 9 125013527.24118  94571926.01719
E11  23738461.867 7  23738459.738 8 124746456.50717  94369875.68218
E12  25370238.734 7  25370238.426 8 133321501.71717 100856849.55318
E16  24120737.703 8  24120738.266 9 126755329.65318  95889586.73319
E24  25606544.602 8  25606546.902 8 134563299.49318 101796271.26118
E25  23693683.695 8  23693685.902 9 124511144.22818  94191882.17519
G10  24162396.758 7                  24162405.539 7 126974251.66417                  98941033.11317
G16  20733091.172 7  20733093.156 6                 108953125.388 7  84898549.856 6
G18  21023663.648 7                  21023668.504 8 110480096.052 7                  86088406.560 8
G23  21674421.008 7                  21674426.500 8 113899854.03917                  88753174.45318
G27  21968709.219 7                  21968715.539 7 115446342.859 7                  89958218.359 7
R07  22235944.398 7  22235950.656 6 119030743.471 7  92579490.68416
R13  21169353.586 6                 113043175.30016
R14  20465219.672 8  20465224.723 7 109091132.70018  84848851.09517
R22  22505488.836 7  22505492.469 6 120135843.69317  93438992.81016
R23  19794519.156 8                 105887333.01118
R24  21130485.141 8  21130489.758 7 112994197.70418  87884402.58317
>                              3  5
              *** Start of Occupation ***                   COMMENT             
414                                                         MARKER NAME         
414                                                         MARKER NUMBER       
  3912274.6651  1190403.9442  4879349.6417                  APPROX POSITION XYZ 
        1.1940        0.0000        0.0000                  ANTENNA: DELTA H/E/N
> 2025 06 15 07 32 35.0000000  0 21
C26  25023412.172 6 130303464.873 6
C29  21783007.773 7 113429838.641 7
C30  22837651.578 7 118921638.377 7
E02  26008680.398 6  26008682.328 8 136676534.17916 103394919.05118
E10  23788524.766 8  23788525.883 9 125009539.448 8  94568909.276 9
E11  23736226.063 7  23736223.824 8 124734706.636 7  94360986.985 8
E12  25370591.203 7  25370590.945 8 133323354.197 7 100858250.928 8
E16  24120852.438 8  24120853.121 8 126755933.194 8  95890043.309 8
E24  25607653.273 8  25607655.605 8 134569125.353 8 101800678.483 8
E25  23692500.023 8  23692502.098 9 124504923.222 8  94187176.024 9
G10  24157523.563 7                  24157532.656 7 126948642.917 7                  98921078.256 7
G16  20731327.289 7  20731329.656 6                 108943858.384 7  84891328.791 6
G18  21023498.180 7                  21023502.703 8 110479226.178 7                  86087728.727 8
G23  21671008.461 8                  21671013.730 8 113881920.581 8                  88739200.340 8
G27  21964659.727 7                  21964666.367 7 115425062.108 7                  89941635.956 7
R07  22233392.414 7  22233399.141 7 119017086.241 7  92568868.399 7
R13  21171213.094 6                 113053105.394 6
R14  20462835.289 8  20462840.855 8 109078424.314 8  84838966.783 8
R22  22507229.578 6  22507234.242 5 120145140.659 6  93446223.799 5
R23  19794335.414 7                 105886348.816 7
R24  21126607.094 8  21126611.914 7 112973461.515 8  87868274.451 7
> 2025 06 15 07 32 40.0000000  0 21
C26  25020463.047 6 130288109.585 6
C29  21780718.102 7 113417917.674 7
C30  22838034.992 7 118923637.182 7
E02  26005004.711 6  26005006.836 8 136657218.849 6 103380307.160 8
E10  23787767.406 8  23787768.492 9 125005559.605 8  94565898.546 9
E11  23733991.742 7  23733989.535 8 124722965.356 7  94352104.777 8
E12  25370944.711 7  25370944.492 8 133325211.986 7 100859656.331 8
E16  24120969.063 8  24120969.715 8 126756545.870 8  95890506.790 8
E24  25608763.063 7  25608765.285 8 134574956.612 7 101805089.765 8
E25  23691318.344 8  23691320.309 9 124498712.767 8  94182477.850 9
G10  24152650.609 7                  24152659.859 7 126923037.277 7                  98901125.813 7
G16  20729566.977 7  20729569.309 6                 108934607.897 7  84884120.637 6
G18  21023334.641 7                  21023339.133 8 110478367.078 7                  86087059.297 8
G23  21667598.383 7                  21667603.664 8 113864000.530 7                  88725236.663 8
G27  21960611.289 7                  21960617.605 7 115403788.011 7                  89925058.745 7
R07  22230845.281 7  22230852.078 6 119003449.602 7  92558262.138 6
R13  21173076.289 6                 113063048.955 6
R14  20460455.961 8  20460460.832 7 109065737.678 8  84829099.401 7
R22  22508971.867 6  22508976.621 6 120154439.883 6  93453456.498 6
R23  19794153.438 7                 105885375.502 7
R24  21122730.586 8  21122735.879 7 112952733.967 8  87852153.040 7
> 2025 06 15 07 32 45.0000000  0 21
C26  25017516.289 6 130272765.456 6
C29  21778430.500 7 113406003.383 7
C30  22838420.172 7 118925640.387 7
E02  26001330.266 6  26001332.141 8 136637908.388 6 103365698.923 8
E10  23787011.500 8  23787012.535 9 125001586.959 8  94562893.264 9
E11  23731759.086 7  23731756.730 8 124711231.865 7  94343228.467 8
E12  25371299.281 7  25371298.910 8 133327074.289 7 100861065.149 8
E16  24121087.109 8  24121087.816 8 126757166.921 8  95890976.599 8
E24  25609873.586 7  25609875.871 8 134580792.479 7 101809504.547 8
E25  23690138.164 8  23690140.363 9 124492512.121 8  94177787.104 9
G10  24147778.695 7                  24147787.422 7 126897433.961 7                  98881175.191 7
G16  20727809.156 7  20727812.164 6                 108925373.153 7  84876924.731 6
G18  21023172.938 7                  21023177.762 8 110477518.027 7                  86086397.705 8
G23  21664190.922 8                  21664196.207 8 113846093.144 8                  88711282.850 8
G27  21956564.086 7                  21956570.555 7 115382519.740 7                  89908486.056 7
R07  22228301.055 7  22228307.961 7 118989833.091 7  92547671.515 7
R13  21174941.188 6                 113073005.041 6
R14  20458079.117 8  20458084.965 7 109053072.149 8  84819248.447 7
R22  22510714.102 6  22510718.441 6 120163740.519 6  93460690.282 6
R23  19793973.195 8                 105884412.224 8
R24  21118856.117 8  21118860.906 7 112932014.122 8  87836037.603 7
> 2025 06 15 07 32 50.0000000  0 21
C26  25014572.758 6 130257433.785 6
C29  21776143.984 7 113394097.094 7
C30  22838805.977 7 118927649.284 7
E02  25997656.625 6  25997658.645 8 136618604.098 6 103351095.366 8
E10  23786257.023 8  23786258.180 9 124997622.818 8  94559894.421 9
E11  23729528.109 7  23729525.594 8 124699507.484 7  94334359.055 8
E12  25371654.836 7  25371654.379 8 133328942.460 7 100862478.400 8
E16  24121207.070 8  24121207.871 9 126757797.630 8  95891453.723 9
E24  25610985.344 8  25610987.508 8 134586634.281 8 101813923.816 8
E25  23688960.516 8  23688962.547 9 124486322.613 8  94173104.773 9
G10  24142907.055 7                  24142916.246 7 126871834.322 7                  98861227.445 7
G16  20726055.422 7  20726058.063 6                 108916155.502 7  84869742.148 6
G18  21023013.383 7                  21023018.090 8 110476680.324 7                  86085744.937 8
G23  21660785.969 8                  21660791.285 8 113828199.723 8                  88697339.946 8
G27  21952518.680 7                  21952524.480 7 115361258.681 7                  89891918.992 7
R07  22225761.180 7  22225768.309 7 118976237.615 7  92537097.256 7
R13  21176807.594 6                 113082975.101 6
R14  20455707.906 8  20455713.012 7 109040429.023 8  84809414.905 7
R22  22512457.164 7  22512462.105 6 120173043.800 7  93467926.127 6
R23  19793794.969 8                 105883460.352 8
R24  21114982.188 8  21114988.449 7 112911303.436 8  87819929.312 7
> 2025 06 15 07 32 55.0000000  0 21
C26  25011630.805 6 130242114.940 6
C29  21773859.383 7 113382199.084 7
C30  22839192.531 7 118929664.220 7
E02  25993984.227 6  25993986.480 8 136599306.319 6 103336496.709 8
E10  23785504.484 8  23785505.539 9 124993667.437 8  94556902.196 9
E11  23727298.734 7  23727296.359 8 124687792.493 7  94325496.739 8
E12  25372011.727 7  25372011.047 8 133330816.731 7 100863896.265 8
E16  24121328.773 8  24121329.813 9 126758438.327 8  95891938.397 9
E24  25612098.352 7  25612100.387 8 134592482.270 7 101818347.771 8
E25  23687784.758 8  23687786.930 9 124480144.520 8  94168431.085 9
G10  24138035.664 7                  24138045.992 7 126846238.647 7                  98841282.788 7
G16  20724305.039 7  20724307.355 6                 108906955.232 7  84862573.109 6
G18  21022856.711 7                  21022861.168 8 110475854.224 7                  86085101.227 8
G23  21657383.695 8                  21657388.961 8 113810320.578 8                  88683408.145 8
G27  21948473.852 7                  21948479.953 7 115340005.100 7                  89875357.765 7
R07  22223225.680 7  22223232.648 6 118962663.928 7  92526539.952 6
R13  21178677.813 6                 113092959.298 6
R14  20453340.914 8  20453345.219 7 109027808.361 8  84799598.835 7
R22  22514199.586 6  22514205.008 6 120182350.079 6  93475164.334 6
R23  19793619.781 7                 105882520.102 7
R24  21111111.172 8  21111117.227 7 112890602.183 8  87803828.345 7
> 2025 06 15 07 33  0.0000000  0 22
C26  25008691.547 6 130226808.984 6
C29  21771576.156 7 113370309.497 7
C30  22839580.555 7 118931685.229 7
E02  25990313.086 6  25990315.332 8 136580015.159 6 103321903.081 8
E10  23784753.586 8  23784754.555 9 124989721.012 8  94553916.747 9
E11  23725071.234 7  23725068.867 8 124676087.083 7  94316641.666 8
E12  25372369.469 7  25372368.902 8 133332697.259 7 100865318.876 8
E16  24121452.672 8  24121453.676 9 126759089.128 8  95892430.718 9
E24  25613212.617 8  25613214.461 8 134598336.645 8 101822776.543 8
E25  23686611.320 8  23686613.469 9 124473977.991 8  94163766.139 9
G10  24133165.961 7                  24133176.160 7 126820647.134 7                  98821341.372 7
G16  20722556.773 7  20722560.297 6                 108897772.479 7  84855417.721 6
G18  21022701.695 7                  21022706.133 8 110475039.900 7                  86084466.674 8
G23  21653983.938 7                  21653989.008 8 113792455.864 7                  88669487.599 8
G27  21944430.563 7                  21944437.395 7 115318759.146 7                  89858802.486 7
R07  22220693.570 7  22220700.699 7 118949111.738 7  92515999.367 7
R08  23349232.406 6  23349240.738 5 125034079.55416  97248766.68615
R13  21180549.492 6                 113102957.950 6
R14  20450976.945 8  20450982.012 7 109015210.760 8  84789800.691 7
R22  22515944.219 6  22515949.094 6 120191659.485 6  93482404.960 6
R23  19793446.367 8                 105881591.729 8
R24  21107241.672 8  21107247.922 7 112869910.583 8  87787734.879 7
> 2025 06 15 07 33  5.0000000  0 23
C20  26411768.078 6 137533004.42616
C26  25005754.523 6 130211516.673 6
C29  21769294.531 7 113358429.023 7
C30  22839969.695 7 118933713.067 7
E02  25986643.406 6  25986645.711 8 136560731.296 6 103307314.975 8
E10  23784004.258 8  23784005.391 9 124985784.171 8  94550938.554 9
E11  23722846.031 7  23722843.355 8 124664391.895 7  94307794.334 8
E12  25372728.578 7  25372728.035 8 133334584.732 7 100866746.721 8
E16  24121578.578 8  24121579.605 8 126759750.717 8  95892931.195 8
E24  25614327.773 8  25614329.848 8 134604198.046 8 101827210.645 8
E25  23685440.172 8  23685442.367 9 124467823.699 8  94159110.455 9
G10  24128297.555 7                  24128306.563 7 126795060.447 7                  98801403.699 7
G16  20720813.141 7  20720816.090 6                 108888607.921 7  84848276.518 6
G18  21022549.125 7                  21022553.523 8 110474238.012 7                  86083841.813 8
G23  21650587.055 8                  21650592.746 8 113774606.271 8                  88655578.824 8
G27  21940389.203 7                  21940395.727 7 115297521.525 7                  89842253.684 7
R07  22218167.297 7  22218173.082 7 118935582.196 7  92505476.409 7
R08  23344233.508 6  23344241.059 6 125007310.858 6  97227946.612 6
R13  21182424.406 6                 113112971.548 6
R14  20448618.102 8  20448623.660 8 109002636.619 8  84780020.801 8
R22  22517688.852 6  22517694.102 6 120200972.779 6  93489648.611 6
R23  19793275.461 8                 105880675.815 8
R24  21103375.008 8  21103380.258 7 112849229.251 8  87771649.395 7
> 2025 06 15 07 33 10.0000000  0 23
C20  26407132.836 6 137508866.831 6
C26  25002820.039 6 130196237.059 6
C29  21767014.508 7 113346556.731 7
C30  22840359.727 7 118935746.805 7
E02  25982975.063 6  25982977.406 8 136541453.920 6 103292731.761 8
E10  23783256.742 8  23783257.914 9 124981856.006 8  94547966.913 9
E11  23720622.023 7  23720619.578 8 124652705.987 7  94298954.023 8
E12  25373088.695 7  25373088.391 8 133336478.273 7 100868179.157 8
E16  24121706.422 8  24121707.348 9 126760422.159 8  95893439.139 9
E24  25615444.266 8  25615446.461 8 134610065.541 8 101831649.360 8
E25  23684271.188 8  23684273.406 9 124461680.743 8  94154463.348 9
G10  24123428.891 7                  24123438.363 7 126769477.676 7                  98781469.110 7
G16  20719072.328 7  20719075.375 6                 108879460.640 7  84841148.763 6
G18  21022398.477 7                  21022403.066 8 110473447.620 7                  86083225.924 8
G23  21647192.961 8                  21647198.832 8 113756770.897 8                  88641681.146 8
G27  21936349.727 7                  21936356.156 7 115276291.313 7                  89825710.669 7
R07  22215643.625 7  22215650.016 6 118922074.033 7  92494970.045 6
R08  23339235.648 6  23339243.953 6 124980549.992 6  97207132.638 6
R13  21184302.992 6                 113122999.385 6
R14  20446263.898 8  20446269.051 8 108990085.003 8  84770258.428 8
R22  22519433.500 6  22519438.914 6 120210288.936 6  93496894.500 6
R23  19793106.094 8                 105879771.485 8
R24  21099508.398 8  21099514.848 7 112828557.180 8  87755571.113 7
> 2025 06 15 07 33 15.0000000  0 23
C20  26402497.945 6 137484731.478 6
C26  24999888.422 6 130180971.210 6
C29  21764736.508 7 113334693.627 7
C30  22840751.961 7 118937787.425 7
E02  25979308.656 6  25979310.383 8 136522183.955 6 103278154.160 8
E10  23782511.109 8  23782512.234 9 124977937.535 8  94545002.616 9
E11  23718400.078 7  23718397.770 8 124641030.436 7  94290121.538 8
E12  25373450.609 7  25373450.035 8 133338378.733 7 100869616.836 8
E16  24121836.156 8  24121837.203 9 126761104.490 8  95893955.308 9
E24  25616562.063 8  25616564.301 8 134615940.129 8 101836093.438 8
E25  23683104.875 8  23683106.777 9 124455550.107 8  94149825.561 9
G10  24118561.359 7                  24118570.590 7 126743899.878 7                  98761538.377 7
G16  20717334.969 7  20717338.523 6                 108870331.695 7  84834035.299 6
G18  21022250.469 7                  21022255.094 8 110472669.746 7                  86082619.779 8
G23  21643802.172 8                  21643807.574 8 113738950.766 8                  88627795.333 8
G27  21932310.680 7                  21932317.551 7 115255069.548 7                  89809174.226 7
R07  22213124.063 7  22213130.754 7 118908588.519 7  92484481.317 7
R08  23334239.555 5  23334248.148 6 124953798.145 5  97186325.634 6
R13  21186183.555 6                 113133042.202 6
R14  20443913.422 8  20443918.801 8 108977557.116 8  84760514.524 8
R22  22521179.805 6  22521184.273 6 120219609.039 6  93504143.453 6
R23  19792939.133 8                 105878879.755 8
R24  21095644.461 8  21095650.500 7 112807895.584 8  87739500.991 7
> 2025 06 15 07 33 20.0000000  0 23
C20  26397864.234 6 137460597.689 6
C26  24996958.547 6 130165718.385 6
C29  21762459.633 7 113322839.095 7
C30  22841144.781 7 118939834.313 7
E02  25975642.422 6  25975644.648 8 136502920.757 6 103263581.690 8
E10  23781767.109 8  23781768.270 9 124974028.116 8  94542045.165 9
E11  23716180.352 7  23716177.777 8 124629364.534 7  94281296.371 8
E12  25373813.273 7  25373812.863 8 133340285.673 7 100871059.411 8
E16  24121967.961 8  24121968.961 8 126761797.063 8  95894479.232 8
E24  25617681.219 8  25617683.457 8 134621821.228 8 101840542.429 8
E25  23681940.375 8  23681942.383 9 124449431.202 8  94145196.644 9
G10  24113695.523 7                  24113704.035 7 126718326.402 7                  98741610.995 7
G16  20715601.492 7  20715604.590 6                 108861220.415 7  84826935.596 6
G18  21022104.891 7                  21022109.398 8 110471903.755 7                  86082022.897 8
G23  21640413.938 8                  21640419.285 8 113721145.230 8                  88613920.907 8
G27  21928274.242 7                  21928280.809 7 115233855.606 7                  89792643.887 7
R07  22210609.102 7  22210616.211 7 118895124.761 7  92474009.501 7
R08  23329247.492 6  23329253.414 5 124927054.589 6  97165525.098 5
R13  21188066.188 6                 113143099.380 6
R14  20441567.586 8  20441572.277 7 108965052.236 8  84750788.502 7
R22  22522926.555 6  22522931.660 6 120228932.378 6  93511394.907 6
R23  19792775.305 8                 105877999.840 8
R24  21091781.578 8  21091788.555 7 112787243.697 8  87723438.438 7
> 2025 06 15 07 33 25.0000000  0 23
C20  26393228.898 6 137436464.192 6
C26  24994031.734 6 130150477.423 6
C29  21760184.469 7 113310991.828 7
C30  22841538.477 7 118941886.157 7
E02  25971978.070 6  25971980.160 8 136483663.084 6 103249013.410 8
E10  23781024.727 8  23781025.871 9 124970126.421 8  94539093.557 9
E11  23713961.875 7  23713959.480 8 124617707.038 7  94272477.545 8
E12  25374177.109 7  25374176.793 8 133342197.634 7 100872505.790 8
E16  24122101.688 8  24122102.551 8 126762498.563 8  95895009.903 8
E24  25618801.242 8  25618803.609 8 134627707.461 8 101844995.311 8
E25  23680777.656 8  23680780.004 9 124443322.702 8  94140575.603 9
G10  24108829.906 7                  24108837.918 7 126692755.937 7                  98721685.974 7
G16  20713870.773 7  20713873.973 6                 108852125.527 7  84819848.662 6
G18  21021961.344 7                  21021965.633 8 110471148.321 7                  86081434.246 8
G23  21637028.438 7                  21637033.730 8 113703353.017 7                  88600056.837 8
G27  21924238.320 7                  21924245.535 7 115212648.160 7                  89776118.605 7
R07  22208097.070 7  22208104.742 7 118881681.826 7  92463553.874 7
R08  23324254.148 6  23324259.777 5 124900317.919 6  97144729.934 5
R13  21189953.070 6                 113153169.801 6
R14  20439225.492 8  20439230.445 7 108952569.136 8  84741079.437 7
R22  22524673.711 6  22524678.504 6 120238257.664 6  93518647.896 6
R23  19792612.594 8                 105877130.604 8
R24  21087922.695 8  21087928.910 7 112766600.222 8  87707382.392 7
> 2025 06 15 07 33 30.0000000  0 24
C20  26388593.508 6 137412331.975 6
C26  24991106.688 6 130135249.180 6
C29  21757910.859 7 113299152.775 7
C30  22841933.938 7 118943943.873 7
E02  25968314.227 7  25968316.781 8 136464411.904 7 103234450.023 8
E10  23780283.836 8  23780285.047 9 124966233.423 8  94536148.527 9
E11  23711745.047 7  23711742.848 8 124606058.854 7  94263665.773 8
E12  25374542.180 7  25374541.773 8 133344115.615 7 100873956.727 8
E16  24122237.063 8  24122237.934 9 126763209.941 8  95895548.055 9
E24  25619922.156 8  25619924.934 8 134633599.820 8 101849452.827 8
E25  23679617.563 8  23679619.738 9 124437225.559 8  94135963.146 9
G10  24103964.469 7                  24103972.262 7 126667189.490 7                  98701764.064 7
G16  20712143.367 7  20712146.445 6                 108843047.932 7  84812775.215 6
G18  21021819.758 7                  21021823.809 8 110470404.377 7                  86080854.553 8
G23  21633645.445 8                  21633650.406 8 113685575.075 8                  88586203.908 8
G27  21920204.367 7                  21920211.086 7 115191448.168 7                  89759599.137 7
R07  22205590.016 7  22205597.523 7 118868260.287 7  92453114.896 7
R08  23319262.211 6  23319268.305 5 124873589.265 6  97123941.004 5
R13  21191841.344 6                 113163254.038 6
R14  20436888.570 8  20436892.629 7 108940108.653 8  84731387.948 7
R15  23675421.453 6  23675426.578 6 126514272.09816  98400025.86316
R22  22526420.242 6  22526426.426 6 120247585.811 6  93525903.120 6
R23  19792452.422 8                 105876272.824 8
R24  21084063.914 8  21084069.449 7 112745966.247 8  87691333.749 7
> 2025 06 15 07 33 35.0000000  0 24
C20  26383958.688 6 137388200.316 6
C26  24988184.844 6 130120032.994 6
C29  21755639.180 7 113287321.264 7
C30  22842330.375 7 118946006.845 7
E02  25964652.039 7  25964654.402 8 136445166.494 7 103219891.000 8
E10  23779544.531 8  23779545.754 9 124962348.411 8  94533209.535 9
E11  23709530.039 7  23709527.969 8 124594419.335 7  94254860.552 8
E12  25374908.266 7  25374907.777 8 133346038.931 7 100875411.691 8
E16  24122374.234 8  24122375.117 8 126763930.501 8  95896093.150 8
E24  25621044.766 7  25621047.258 8 134639497.595 7 101853914.441 8
E25  23678459.219 8  23678461.523 9 124431139.081 8  94131358.767 9
G10  24099099.891 7                  24099108.195 7 126641626.338 7                  98681844.745 7
G16  20710419.289 7  20710422.098 6                 108833986.980 7  84805714.731 6
G18  21021679.977 7                  21021684.570 8 110469671.251 7                  86080283.285 8
G23  21630264.859 8                  21630270.359 8 113667810.734 8                  88572361.564 8
G27  21916171.719 7                  21916177.973 7 115170254.970 7                  89743084.974 7
R07  22203087.734 7  22203094.637 7 118854859.770 7  92442692.283 7
R08  23314274.625 6  23314278.250 5 124846867.914 6  97103157.711 5
R13  21193732.563 6                 113173351.763 6
R14  20434554.070 8  20434559.336 8 108927670.122 8  84721713.543 8
R15  23670259.758 6  23670265.926 6 126486697.741 6  98378579.144 6
R22  22528169.656 6  22528174.395 6 120256916.250 6  93533160.101 6
R23  19792294.094 8                 105875425.923 8
R24  21080206.953 8  21080212.207 7 112725340.900 8  87675291.813 7
> 2025 06 15 07 33 40.0000000  0 24
C20  26379325.320 5 137364070.546 5
C26  24985265.711 6 130104830.258 6
C29  21753368.125 7 113275498.595 7
C30  22842727.750 7 118948076.305 7
E02  25960991.617 7  25960993.508 8 136425928.217 7 103205337.368 8
E10  23778806.922 8  23778808.207 9 124958472.703 8  94530277.589 9
E11  23707317.023 7  23707314.871 8 124582789.741 7  94246062.841 8
E12  25375275.344 7  25375274.977 8 133347968.865 7 100876871.678 8
E16  24122513.336 8  24122514.211 8 126764661.578 8  95896646.196 8
E24  25622168.211 7  25622170.898 8 134645402.075 7 101858381.132 8
E25  23677303.531 8  23677305.602 9 124425064.593 8  94126763.445 9
G10  24094236.609 7                  24094244.422 7 126616067.852 7                  98661929.047 7
G16  20708698.570 7  20708701.098 6                 108824943.985 7  84798668.240 6
G18  21021542.992 7                  21021547.469 8 110468950.239 7                  86079721.464 8
G23  21626887.484 8                  21626892.320 8 113650061.294 8                  88558530.844 8
G27  21912139.945 7                  21912146.457 7 115149069.883 7                  89726577.097 7
R07  22200588.156 7  22200594.898 7 118841481.148 7  92432286.703 7
R08  23309286.086 6  23309290.625 5 124820155.230 6  97082381.225 5
R13  21195626.148 6                 113183464.088 6
R14  20432225.461 8  20432230.453 7 108915255.008 8  84712057.341 7
R15  23665102.594 6  23665107.879 6 126459133.097 6  98357140.023 6
R22  22529917.813 6  22529923.176 6 120266250.114 6  93540419.740 6
R23  19792138.133 8                 105874591.332 8
R24  21076352.188 8  21076357.184 7 112704725.632 8  87659257.707 7
> 2025 06 15 07 33 45.0000000  0 24
C20  26374692.758 5 137339943.187 5
C26  24982349.242 6 130089641.373 6
C29  21751099.648 7 113263685.260 7
C30  22843126.672 7 118950152.792 7
E02  25957332.000 7  25957333.965 8 136406697.530 7 103190789.480 8
E10  23778071.414 8  23778072.555 9 124954606.785 8  94527353.044 9
E11  23705105.883 7  23705103.836 8 124571170.604 7  94237273.047 8
E12  25375644.305 7  25375643.609 8 133349905.925 7 100878337.046 8
E16  24122654.438 8  24122655.434 8 126765403.629 8  95897207.545 8
E24  25623293.461 7  25623295.855 8 134651313.793 7 101862853.278 8
E25  23676149.734 8  23676152.008 9 124419002.574 8  94122177.566 9
G10  24089373.828 7                  24089382.113 6 126590514.521 7                  98642017.380 6
G16  20706980.977 7  20706983.426 6                 108815919.453 7  84791636.122 6
G18  21021407.930 7                  21021412.652 8 110468241.849 7                  86079169.463 8
G23  21623512.961 8                  21623517.699 8 113632327.292 8                  88544712.146 8
G27  21908110.320 7                  21908116.992 7 115127893.439 7                  89710075.999 7
R07  22198094.625 7  22198099.598 7 118828125.522 7  92421898.988 7
R08  23304300.328 6  23304304.477 5 124793451.764 6  97061611.902 5
R13  21197523.016 6                 113193591.464 6
R14  20429900.734 8  20429905.742 7 108902863.705 8  84702419.660 7
R15  23659945.313 6  23659951.418 6 126431578.551 6  98335708.704 6
R22  22531666.633 6  22531672.414 6 120275587.938 6  93547682.464 6
R23  19791984.289 8                 105873769.257 8
R24  21072498.969 8  21072503.996 7 112684120.907 8  87643231.812 7
> 2025 06 15 07 33 50.0000000  0 24
C20  26370058.578 6 137315817.087 6
C26  24979434.344 6 130074465.253 6
C29  21748832.555 7 113251880.100 7
C30  22843526.625 7 118952235.103 7
E02  25953673.906 7  25953675.695 8 136387473.335 7 103176246.506 8
E10  23777337.195 8  23777338.563 9 124950749.501 8  94524435.031 9
E11  23702896.578 7  23702894.590 8 124559560.753 7  94228490.262 8
E12  25376013.734 7  25376013.371 8 133351848.958 7 100879806.922 8
E16  24122797.555 8  24122798.492 8 126766155.519 8  95897776.333 8
E24  25624419.469 8  25624421.930 8 134657231.535 8 101867330.000 8
E25  23674998.336 8  23675000.641 9 124412951.896 8  94117600.267 9
G10  24084511.336 7                  24084520.184 6 126564965.209 7                  98622108.817 6
G16  20705267.367 7  20705269.602 6                 108806912.229 7  84784617.511 6
G18  21021274.953 7                  21021279.977 8 110467544.896 7                  86078626.366 8
G23  21620140.906 8                  21620146.047 8 113614607.572 8                  88530904.574 8
G27  21904081.664 7                  21904088.770 7 115106724.419 7                  89693580.648 7
R07  22195603.906 7  22195608.543 7 118814791.554 7  92411528.106 7
R08  23299314.156 6  23299318.855 5 124766756.351 6  97040848.809 5
R13  21199422.094 6                 113203732.793 6
R14  20427581.422 8  20427585.637 7 108890495.029 8  84692799.570 7
R15  23654790.227 6  23654796.141 6 126404033.055 6  98314284.389 6
R22  22533417.555 6  22533421.641 6 120284928.651 6  93554947.461 6
R23  19791832.992 8                 105872958.596 8
R24  21068647.125 8  21068652.461 7 112663525.593 8  87627213.226 7
> 2025 06 15 07 33 55.0000000  0 24
C20  26365424.938 5 137291692.358 5
C26  24976522.508 6 130059302.006 6
C29  21746567.484 7 113240083.220 7
C30  22843927.797 7 118954323.395 7
E02  25950016.828 7  25950018.672 8 136368255.692 7 103161708.481 8
E10  23776604.867 8  23776606.203 9 124946900.957 8  94521523.636 9
E11  23700689.055 7  23700687.074 8 124547960.306 7  94219714.597 8
E12  25376384.609 7  25376384.270 8 133353798.042 7 100881281.392 8
E16  24122942.469 8  24122943.426 8 126766917.344 8  95898352.640 8
E24  25625546.813 7  25625549.262 8 134663155.461 7 101871811.388 8
E25  23673849.031 8  23673851.398 8 124406912.657 8  94113031.614 8
G10  24079649.914 7                  24079659.082 6 126539420.015 7                  98602203.483 6
G16  20703556.391 7  20703558.719 6                 108797922.408 7  84777612.467 6
G18  21021144.828 7                  21021149.426 8 110466859.489 7                  86078092.292 8
G23  21616771.867 8                  21616776.523 8 113596902.233 8                  88517108.224 8
G27  21900055.055 7                  21900062.223 7 115085562.967 7                  89677091.221 7
R07  22193115.266 7  22193122.340 7 118801479.082 7  92401173.958 7
R08  23294329.234 6  23294335.715 5 124740069.040 6  97020092.060 5
R13  21201323.648 6                 113213888.192 6
R14  20425264.625 8  20425269.676 7 108878148.989 8  84683197.094 7
R15  23649635.336 6  23649643.113 6 126376496.729 6  98292867.285 6
R22  22535167.086 6  22535172.316 6 120294272.308 6  93562214.732 6
R23  19791684.273 8                 105872159.648 8
R24  21064797.539 8  21064802.938 7 112642939.688 8  87611201.963 7
> 2025 06 15 07 34  0.0000000  0 24
C20  26360792.773 5 137267569.121 5
C26  24973613.227 6 130044151.704 6
C29  21744303.266 7 113228294.738 7
C30  22844329.734 7 118956417.708 7
E02  25946361.336 7  25946362.938 8 136349044.750 7 103147175.540 8
E10  23775874.188 8  23775875.559 8 124943061.229 8  94518618.902 8
E11  23698483.492 7  23698481.414 8 124536369.347 7  94210946.114 8
E12  25376756.648 7  25376756.348 8 133355753.286 7 100882760.483 8
E16  24123089.328 8  24123090.258 8 126767689.183 8  95898936.527 8
E24  25626675.047 7  25626677.746 8 134669085.614 7 101876297.497 8
E25  23672702.359 8  23672704.375 9 124400884.939 8  94108471.686 9
G10  24074790.469 7                  24074799.086 6 126513879.056 7                  98582301.470 6
G16  20701848.938 7  20701851.590 6                 108788950.098 7  84770621.059 6
G18  21021016.875 7                  21021021.262 8 110466185.700 7                  86077567.247 8
G23  21613405.070 8                  21613410.055 8 113579211.392 8                  88503323.159 8
G27  21896029.602 7                  21896036.637 7 115064409.232 7                  89660607.773 7
R07  22190632.602 7  22190639.254 7 118788188.518 7  92390836.849 7
R08  23289348.000 6  23289354.359 5 124713389.961 6  96999341.698 5
R13  21203228.234 6                 113224057.654 6
R14  20422952.969 8  20422957.730 8 108865826.017 8  84673612.558 8
R15  23644484.211 6  23644491.559 6 126348969.647 6  98271457.315 6
R22  22536918.406 7  22536923.625 6 120303619.024 7  93569484.387 6
R23  19791536.148 8                 105871372.367 8
R24  21060949.914 8  21060955.047 7 112622363.357 8  87595198.151 7
> 2025 06 15 07 34  5.0000000  0 24
C20  26356160.906 6 137243446.865 6
C26  24970706.195 6 130029013.890 6
C29  21742041.141 7 113216514.165 7
C30  22844733.461 7 118958517.614 7
E02  25942706.648 7  25942708.359 8 136329839.993 7 103132647.266 8
E10  23775145.180 8  23775146.441 8 124939229.869 8  94515720.501 8
E11  23696279.242 7  23696277.461 8 124524787.396 7  94202184.445 8
E12  25377129.820 7  25377129.496 8 133357714.129 7 100884243.860 8
E16  24123237.914 8  24123238.977 8 126768470.577 8  95899527.642 8
E24  25627804.570 7  25627807.293 8 134675021.514 7 101880787.968 8
E25  23671557.375 8  23671559.461 9 124394868.285 8  94103920.120 9
G10  24069930.547 7                  24069939.395 6 126488341.843 7                  98562402.391 6
G16  20700144.531 7  20700147.418 6                 108779994.818 7  84763642.904 6
G18  21020890.648 8                  21020895.250 8 110465523.071 8                  86077050.912 8
G23  21610041.578 8                  21610046.555 8 113561534.591 8                  88489549.033 8
G27  21892005.930 7                  21892012.281 7 115043262.660 7                  89644129.925 7
R07  22188153.406 7  22188160.172 7 118774919.326 7  92380516.387 7
R08  23284365.922 6  23284373.191 5 124686718.778 6  96978597.480 5
R13  21205134.977 6                 113234240.693 6
R14  20420645.289 8  20420650.039 8 108853525.410 8  84664045.435 8
R15  23639334.336 5  23639341.738 6 126321451.338 5  98250054.196 6
R22  22538669.586 6  22538674.762 6 120312968.236 6  93576755.989 6
R23  19791392.188 8                 105870596.328 8
R24  21057104.211 7  21057108.234 7 112601796.117 7  87579201.417 7
> 2025 06 15 07 34 10.0000000  0 24
C20  26351528.305 6 137219325.215 6
C26  24967802.188 6 130013888.117 6
C29  21739780.766 7 113204741.004 7
C30  22845137.539 7 118960622.550 7
E02  25939053.078 7  25939054.875 8 136310640.949 7 103118123.315 8
E10  23774417.586 8  23774418.887 9 124935406.325 8  94512828.015 9
E11  23694077.180 7  23694075.094 8 124513213.952 7  94193429.210 8
E12  25377503.586 7  25377503.652 8 133359680.158 7 100885731.143 8
E16  24123388.469 8  24123389.426 8 126769261.009 8  95900125.588 8
E24  25628935.273 8  25628937.875 8 134680962.653 8 101885282.377 8
E25  23670414.422 8  23670416.535 9 124388862.174 8  94099376.531 9
G10  24065071.406 7                  24065080.313 6 126462807.958 7                  98542505.883 6
G16  20698443.625 7  20698446.406 6                 108771056.042 7  84756677.632 6
G18  21020766.242 7                  21020771.227 8 110464871.082 7                  86076542.855 8
G23  21606680.406 8                  21606685.148 8 113543871.318 8                  88475785.449 8
G27  21887982.703 7                  21887990.043 7 115022122.815 7                  89627657.341 7
R07  22185677.984 7  22185685.301 7 118761670.854 7  92370212.014 7
R08  23279387.711 6  23279393.023 5 124660054.889 6  96957858.925 5
R13  21207044.156 7                 113244436.639 7
R14  20418341.984 8  20418346.766 7 108841246.678 8  84654495.307 7
R15  23634186.484 6  23634193.844 6 126293941.283 6  98228657.549 6
R22  22540421.125 7  22540426.785 6 120322319.371 7  93584029.087 6
R23  19791248.430 8                 105869830.861 8
R24  21053259.320 8  21053264.598 7 112581237.489 8  87563211.383 7
> 2025 06 15 07 34 15.0000000  0 24
C20  26346896.258 6 137195204.285 6
C26  24964898.289 6 129998774.536 6
C29  21737520.773 7 113192975.469 7
C30  22845542.578 7 118962732.800 7
E02  25935401.227 7  25935402.531 8 136291447.850 7 103103603.867 8
E10  23773691.656 8  23773692.809 8 124931590.796 8  94509941.591 8
E11  23691876.336 7  23691874.406 8 124501649.223 7  94184680.563 8
E12  25377878.797 7  25377878.836 8 133361651.563 7 100887222.483 8
E16  24123540.945 8  24123541.590 8 126770060.672 8  95900730.522 8
E24  25630066.773 7  25630069.457 8 134686909.297 7 101889780.953 8
E25  23669273.508 8  23669275.652 9 124382866.807 8  94094841.078 9
G10  24060213.797 7                  24060222.125 6 126437277.569 7                  98522612.083 6
G16  20696746.141 7  20696748.457 6                 108762134.015 7  84749725.391 6
G18  21020644.477 7                  21020649.113 8 110464229.903 7                  86076043.226 8
G23  21603321.758 8                  21603326.746 8 113526221.799 8                  88462032.572 8
G27  21883960.938 7                  21883968.129 7 115000989.904 7                  89611190.123 7
R07  22183207.945 7  22183214.477 7 118748443.481 7  92359924.042 7
R08  23274406.797 6  23274414.855 5 124633398.584 6  96937126.260 5
R13  21208956.391 6                 113254645.902 6
R14  20416042.609 8  20416047.348 7 108828990.045 8  84644962.373 7
R15  23629037.227 5  23629047.504 6 126266439.813 5  98207267.524 6
R22  22542173.555 7  22542178.527 6 120331672.743 7  93591303.906 6
R23  19791106.820 8                 105869076.224 8
R24  21049416.664 8  21049421.242 7 112560687.705 8  87547228.209 7
> 2025 06 15 07 34 20.0000000  0 24
C20  26342265.289 6 137171085.838 6
C26  24961999.133 6 129983674.887 6
C29  21735263.406 7 113181219.289 7
C30  22845949.352 7 118964850.001 7
E02  25931749.906 7  25931751.703 8 136272262.405 7 103089090.205 8
E10  23772967.453 8  23772968.637 9 124927785.074 8  94507062.584 9
E11  23689677.539 7  23689675.699 8 124490094.962 7  94175939.839 8
E12  25378255.234 7  25378255.320 8 133363630.018 7 100888719.166 8
E16  24123695.414 7  24123695.863 8 126770871.335 7  95901343.776 8
E24  25631200.008 7  25631202.445 8 134692863.112 7 101894284.951 8
E25  23668134.953 8  23668137.137 9 124376883.952 8  94090315.083 9
G10  24055355.852 7                  24055365.039 6 126411752.429 7                  98502722.381 6
G16  20695051.625 7  20695054.180 6                 108753230.487 7  84742787.573 6
G18  21020524.805 8                  21020529.398 8 110463601.301 8                  86075553.407 8
G23  21599965.906 8                  21599970.988 8 113508587.782 8                  88448291.780 8
G27  21879941.445 7                  21879948.449 7 114979865.659 7                  89594729.661 7
R07  22180741.094 7  22180747.832 7 118735238.922 7  92349653.847 7
R08  23269431.891 6  23269438.438 5 124606751.572 6  96916400.824 5
R13  21210871.773 6                 113264870.218 6
R14  20413747.953 8  20413752.074 7 108816757.351 8  84635448.045 7
R15  23623893.406 5  23623903.813 6 126238948.604 5  98185885.483 6
R22  22543926.242 7  22543931.078 6 120341030.082 7  93598581.828 6
R23  19790968.625 8                 105868334.301 8
R24  21045575.813 8  21045580.266 7 112540148.479 8  87531253.269 7
> 2025 06 15 07 34 25.0000000  0 24
C20  26337633.219 6 137146968.396 6
C26  24959101.156 6 129968587.717 6
C29  21733007.281 7 113169470.937 7
C30  22846357.188 7 118966972.694 7
E02  25928100.672 7  25928101.902 8 136253083.094 7 103074581.178 8
E10  23772244.797 8  23772245.996 9 124923987.577 8  94504189.796 9
E11  23687480.492 7  23687478.684 8 124478549.615 7  94167205.855 8
E12  25378632.711 7  25378632.910 8 133365614.065 7 100890220.071 8
E16  24123851.352 7  24123851.938 8 126771691.442 7  95901964.179 8
E24  25632333.891 7  25632336.500 8 134698822.538 7 101898793.206 8
E25  23666998.383 8  23667000.730 9 124370912.063 8  94085797.392 9
G10  24050499.148 7                  24050508.281 6 126386230.989 7                  98482835.563 6
G16  20693361.086 7  20693363.059 6                 108744343.888 7  84735862.944 6
G18  21020407.320 7                  21020411.957 8 110462983.740 7                  86075072.187 8
G23  21596612.938 8                  21596618.098 8 113490967.752 8                  88434561.882 8
G27  21875922.844 7                  21875929.625 7 114958748.557 7                  89578274.782 7
R07  22178278.453 7  22178284.641 7 118722055.700 7  92339400.222 7
R08  23264455.617 6  23264464.063 5 124580112.408 6  96895681.444 5
R13  21212788.281 7                 113275107.929 7
R14  20411456.805 8  20411461.949 7 108804547.016 8  84625951.121 7
R15  23618748.742 5  23618759.707 6 126211466.151 5  98164510.271 6
R22  22545679.766 6  22545684.527 6 120350389.854 6  93605861.626 6
R23  19790831.625 8                 105867603.360 8
R24  21041735.984 8  21041740.766 7 112519618.290 8  87515285.354 7
> 2025 06 15 07 34 30.0000000  0 24
C20  26333001.313 6 137122852.198 6
C26  24956206.328 6 129953513.229 6
C29  21730752.742 7 113157730.716 7
C30  22846766.008 7 118969101.148 7
E02  25924452.461 7  25924453.469 8 136233910.278 7 103060077.074 8
E10  23771523.688 8  23771524.980 9 124920198.602 8  94501323.463 9
E11  23685285.398 7  23685283.457 8 124467013.492 7  94158478.857 8
E12  25379011.594 7  25379011.641 8 133367603.942 7 100891725.396 8
E16  24124009.133 8  24124009.879 8 126772521.272 8  95902591.931 8
E24  25633469.148 7  25633471.723 8 134704787.960 7 101903305.986 8
E25  23665864.234 8  23665866.469 9 124364951.448 8  94081288.225 9
G10  24045643.664 7                  24045652.121 6 126360713.634 7                  98462951.918 6
G16  20691673.094 7  20691675.352 6                 108735474.589 7  84728951.801 6
G18  21020291.930 7                  21020296.809 8 110462377.513 7                  86074599.803 8
G23  21593262.367 8                  21593267.578 8 113473362.000 8                  88420843.112 8
G27  21871905.563 7                  21871913.078 7 114937638.908 7                  89561825.714 7
R07  22175818.813 7  22175826.254 7 118708893.919 7  92329163.323 7
R08  23259483.859 6  23259490.137 5 124553481.441 6  96874968.507 5
R13  21214708.117 6                 113285359.349 6
R14  20409170.531 8  20409175.227 8 108792359.301 8  84616471.802 8
R15  23613610.000 5  23613618.465 6 126183992.829 5  98143142.159 6
R22  22547434.234 6  22547438.371 6 120359752.346 6  93613143.551 6
R23  19790696.906 8                 105866883.782 8
R24  21037898.141 8  21037904.125 7 112499097.430 8  87499324.695 7
> 2025 06 15 07 34 35.0000000  0 24
C20  26328370.633 6 137098737.267 6
C26  24953313.539 6 129938451.404 6
C29  21728499.867 7 113145998.509 7
C30  22847175.664 7 118971235.240 7
E02  25920805.008 7  25920806.266 8 136214743.807 7 103045577.757 8
E10  23770804.031 8  23770805.559 9 124916418.058 8  94498463.502 9
E11  23683091.703 7  23683089.945 8 124455486.462 7  94149758.732 8
E12  25379391.109 7  25379391.395 8 133369599.566 7 100893235.062 8
E16  24124168.688 8  24124169.641 8 126773360.729 8  95903226.970 8
E24  25634605.539 7  25634608.023 8 134710759.183 7 101907823.167 8
E25  23664731.766 8  23664734.324 9 124359002.006 8  94076787.509 9
G10  24040789.266 7                  24040797.566 7 126335200.203 7                  98443071.321 7
G16  20689988.172 7  20689990.820 6                 108726622.410 7  84722054.001 6
G18  21020179.219 7                  21020183.227 8 110461782.476 7                  86074136.130 8
G23  21589915.234 8                  21589920.211 8 113455770.438 8                  88407135.417 8
G27  21867890.063 7                  21867897.488 7 114916536.622 7                  89545382.383 7
R07  22173363.383 7  22173371.426 7 118695753.604 7  92318943.063 7
R08  23254513.203 6  23254518.121 5 124526858.410 6  96854261.739 5
R13  21216630.633 6                 113295624.240 6
R14  20406888.094 8  20406893.418 8 108780194.078 8  84607009.963 8
R15  23608469.922 6  23608478.953 6 126156528.622 6  98121781.132 6
R22  22549188.195 6  22549192.785 6 120369117.410 6  93620427.462 6
R23  19790564.969 8                 105866175.462 8
R24  21034063.266 8  21034067.902 7 112478585.777 8  87483371.176 7
> 2025 06 15 07 34 40.0000000  0 24
C20  26323739.703 6 137074623.006 6
C26  24950423.195 6 129923401.722 6
C29  21726247.984 7 113134273.836 7
C30  22847586.898 7 118973374.510 7
E02  25917158.711 7  25917160.020 8 136195583.197 7 103031082.886 8
E10  23770086.195 8  23770087.699 9 124912645.443 8  94495609.547 9
E11  23680899.789 7  23680898.082 8 124443968.060 7  94141045.134 8
E12  25379772.000 7  25379772.211 8 133371600.426 7 100894748.683 8
E16  24124330.180 8  24124331.172 8 126774209.354 8  95903868.941 8
E24  25635743.023 8  25635745.383 8 134716735.725 8 101912344.359 8
E25  23663601.883 8  23663604.223 9 124353063.233 8  94072294.855 9
G10  24035934.758 7                  24035942.848 7 126309690.280 7                  98423193.466 7
G16  20688306.820 7  20688309.488 6                 108717786.893 7  84715169.173 6
G18  21020067.992 8                  21020072.090 8 110461198.167 8                  86073680.815 8
G23  21586569.844 8                  21586575.504 8 113438192.595 8                  88393438.404 8
G27  21863876.930 7                  21863883.125 7 114895441.218 7                  89528944.408 7
R07  22170912.023 6  22170920.637 7 118682634.303 6  92308739.199 7
R08  23249541.273 6  23249548.539 5 124500242.942 6  96833560.885 5
R13  21218555.094 6                 113305902.223 6
R14  20404610.328 8  20404615.094 8 108768050.880 8  84597565.253 8
R15  23603333.031 5  23603341.168 6 126129072.813 5  98100426.610 6
R22  22550943.555 6  22550947.738 5 120378484.546 6  93627713.034 5
R23  19790433.844 8                 105865477.826 8
R24  21030228.844 8  21030233.762 7 112458082.918 8  87467424.532 7
> 2025 06 15 07 34 45.0000000  0 24
C20  26319109.406 6 137050509.967 6
C26  24947536.125 6 129908364.652 6
C29  21723997.688 7 113122557.149 7
C30  22847998.430 7 118975519.376 7
E02  25913513.914 7  25913515.109 8 136176428.937 7 103016592.806 8
E10  23769370.289 8  23769371.371 9 124908881.190 8  94492761.917 9
E11  23678709.844 7  23678707.934 8 124432458.725 7  94132338.402 8
E12  25380154.000 7  25380154.078 8 133373606.962 7 100896266.602 8
E16  24124493.406 8  24124494.461 9 126775067.544 8  95904518.155 9
E24  25636881.695 7  25636883.832 8 134722718.092 7 101916869.971 8
E25  23662474.008 8  23662476.195 9 124347135.595 8  94067810.635 9
G10  24031080.609 7                  24031089.297 7 126284184.236 7                  98403318.646 7
G16  20686629.008 7  20686631.320 6                 108708968.488 7  84708297.688 6
G18  21019958.875 8                  21019962.793 8 110460624.982 8                  86073234.174 8
G23  21583227.648 7                  21583233.270 8 113420628.922 7                  88379752.434 8
G27  21859863.773 7                  21859869.941 7 114874353.104 7                  89512512.120 7
R07  22168466.070 6  22168474.230 7 118669536.456 6  92298551.967 7
R08  23244573.445 6  23244578.715 5 124473635.547 6  96812866.291 5
R13  21220482.945 6                 113316193.668 6
R14  20402336.117 8  20402341.527 7 108755930.361 8  84588138.170 7
R15  23598194.234 5  23598204.609 6 126101626.010 5  98079079.099 6
R22  22552698.445 6  22552702.406 5 120387854.225 6  93635000.529 5
R23  19790305.586 8                 105864791.448 8
R24  21026396.109 8  21026401.328 7 112437589.110 8  87451484.908 7
> 2025 06 15 07 34 50.0000000  0 24
C20  26314479.117 6 137026398.220 6
C26  24944649.922 6 129893340.359 6
C29  21721749.281 7 113110848.578 7
C30  22848411.727 7 118977669.983 7
E02  25909870.109 7  25909871.496 8 136157281.141 7 103002107.627 8
E10  23768655.695 8  23768656.680 9 124905125.440 8  94489920.714 9
E11  23676521.359 7  23676519.527 8 124420958.610 7  94123638.639 8
E12  25380536.703 7  25380537.020 8 133375619.315 7 100897788.920 8
E16  24124658.859 8  24124659.641 9 126775935.443 8  95905174.715 9
E24  25638020.992 7  25638023.371 8 134728706.339 7 101921400.023 8
E25  23661348.320 8  23661350.363 9 124341219.199 8  94063334.924 9
G10  24026227.414 7                  24026236.449 7 126258682.297 7                  98383447.009 7
G16  20684954.195 7  20684956.527 6                 108700167.339 7  84701439.652 6
G18  21019851.602 7                  21019855.914 8 110460063.086 7                  86072796.338 8
G23  21579888.211 8                  21579893.918 8 113403079.553 8                  88366077.609 8
G27  21855851.445 7                  21855858.543 7 114853272.504 7                  89496085.677 7
R07  22166022.914 7  22166031.012 7 118656460.140 7  92288381.508 7
R08  23239606.445 6  23239613.344 5 124447036.271 6  96792178.023 5
R13  21222413.813 7                 113326498.845 7
R14  20400067.195 8  20400072.160 8 108743832.508 8  84578728.716 8
R15  23593059.859 5  23593070.066 6 126074188.565 5  98057738.837 6
R22  22554452.578 6  22554458.516 5 120397226.594 6  93642290.126 5
R23  19790179.742 8                 105864116.305 8
R24  21022565.891 8  21022570.914 7 112417104.706 8  87435552.592 7
> 2025 06 15 07 34 55.0000000  0 24
C20  26309849.359 6 137002287.482 6
C26  24941767.164 6 129878328.402 6
C29  21719502.555 7 113099147.781 7
C30  22848825.750 7 118979825.963 7
E02  25906227.789 7  25906228.977 8 136138139.449 7 102987627.064 8
E10  23767942.531 8  23767943.574 9 124901377.826 8  94487085.665 9
E11  23674334.422 7  23674332.852 8 124409467.308 7  94114945.539 8
E12  25380921.070 7  25380920.945 8 133377637.131 7 100899315.375 8
E16  24124825.703 8  24124826.594 8 126776812.700 8  95905838.346 8
E24  25639161.672 7  25639163.953 8 134734700.124 7 101925934.273 8
E25  23660224.367 8  23660226.641 9 124335313.717 8  94058867.462 9
G10  24021375.727 7                  24021384.441 7 126233184.105 7                  98363578.306 7
G16  20683282.625 7  20683285.215 6                 108691383.110 7  84694594.812 6
G18  21019746.977 8                  21019751.035 8 110459512.111 8                  86072366.996 8
G23  21576551.016 8                  21576556.840 8 113385544.161 8                  88352413.670 8
G27  21851841.555 7                  21851848.492 7 114832198.993 7                  89479664.765 7
R07  22163584.047 7  22163592.324 7 118643405.052 7  92278227.530 7
R08  23234641.250 6  23234647.621 5 124420444.926 6  96771495.852 5
R13  21224345.078 7                 113336817.141 7
R14  20397801.102 8  20397807.078 7 108731756.888 8  84569336.563 7
R15  23587926.922 5  23587937.695 6 126046759.778 5  98036405.359 6
R22  22556209.477 6  22556214.359 6 120406601.284 6  93649581.537 6
R23  19790055.102 8                 105863452.056 8
R24  21018736.398 8  21018741.090 7 112396629.219 8  87419627.213 7
> 2025 06 15 07 35  0.0000000  0 24
C20  26305218.820 6 136978177.625 6
C26  24938887.047 6 129863328.828 6
C29  21717256.813 7 113087454.642 7
C30  22849240.344 7 118981987.227 7
E02  25902585.797 7  25902587.520 8 136119003.795 7 102973151.075 8
E10  23767230.750 8  23767231.969 9 124897638.262 8  94484256.702 9
E11  23672149.422 7  23672147.797 8 124397984.794 7  94106259.090 8
E12  25381306.203 7  25381305.949 8 133379660.293 7 100900845.872 8
E16  24124994.305 8  24124995.266 9 126777699.233 8  95906508.998 9
E24  25640303.328 7  25640305.602 8 134740699.377 7 101930472.651 8
E25  23659102.578 8  23659104.887 9 124329419.051 8  94054408.183 9
G10  24016523.813 7                  24016532.742 7 126207689.528 7                  98343712.428 7
G16  20681614.406 7  20681616.953 6                 108682615.705 7  84687763.054 6
G18  21019644.070 8                  21019648.332 8 110458971.963 8                  86071946.111 8
G23  21573217.227 8                  21573222.926 8 113368022.644 8                  88338760.533 8
G27  21847833.359 7                  21847839.855 7 114811132.508 7                  89463249.336 7
R07  22161149.414 7  22161157.188 6 118630371.191 7  92268090.079 6
R08  23229676.641 6  23229682.684 5 124393861.384 6  96750819.776 5
R13  21226280.648 7                 113347148.558 7
R14  20395540.109 8  20395545.234 7 108719703.550 8  84559961.746 7
R15  23582796.500 5  23582806.195 6 126019339.795 5  98015078.755 6
R22  22557966.164 6  22557971.113 5 120415978.166 6  93656874.647 5
R23  19789933.594 8                 105862798.772 8
R24  21014909.992 8  21014913.887 7 112376162.763 8  87403708.837 7
> 2025 06 15 07 35  5.0000000  0 24
C20  26300589.078 6 136954068.879 6
C26  24936008.125 6 129848341.686 6
C29  21715012.719 7 113075769.352 7
C30  22849656.836 7 118984153.957 7
E02  25898945.898 7  25898947.270 8 136099874.401 7 102958679.822 8
E10  23766520.852 8  23766521.922 9 124893906.894 8  94481433.954 9
E11  23669966.188 7  23669964.430 8 124386511.189 7  94097579.381 8
E12  25381691.977 7  25381692.012 8 133381688.930 7 100902380.511 8
E16  24125164.781 8  24125165.770 9 126778595.202 8  95907186.785 9
E24  25641446.000 7  25641448.289 8 134746704.244 7 101935015.282 8
E25  23657983.250 8  23657985.289 9 124323535.387 8  94049957.230 9
G10  24011672.266 6                  24011682.309 7 126182198.843 6                  98323849.566 7
G16  20679948.891 7  20679951.648 6                 108673865.295 7  84680944.551 6
G18  21019542.883 7                  21019547.773 8 110458442.818 7                  86071533.779 8
G23  21569885.469 8                  21569891.066 8 113350515.200 8                  88325118.372 8
G27  21843824.828 7                  21843832.445 7 114790073.254 7                  89446839.532 7
R07  22158719.531 7  22158726.648 7 118617358.745 7  92257969.269 7
R08  23224716.484 6  23224719.582 5 124367285.916 6  96730149.986 5
R13  21228217.273 7                 113357493.363 7
R14  20393283.375 8  20393288.305 7 108707672.708 8  84550604.416 7
R15  23577666.406 5  23577675.824 6 125991928.737 5  97993759.067 6
R22  22559723.000 6  22559728.102 5 120425357.421 6  93664169.591 5
R23  19789812.961 8                 105862156.539 8
R24  21011083.242 8  21011088.445 7 112355705.262 8  87387797.480 7
> 2025 06 15 07 35 10.0000000  0 24
C20  26295959.258 6 136929962.703 6
C26  24933134.016 6 129833368.551 6
C29  21712770.297 7 113064093.372 7
C30  22850074.414 7 118986327.579 7
E02  25895307.211 7  25895308.570 8 136080752.659 7 102944214.336 8
E10  23765812.391 8  23765813.734 9 124890185.217 8  94478618.526 9
E11  23667784.883 7  23667783.035 8 124375047.979 7  94088907.545 8
E12  25382079.555 7  25382079.488 8 133383724.546 7 100903920.437 8
E16  24125337.508 8  24125338.270 8 126779502.046 8  95907872.805 8
E24  25642590.242 8  25642592.391 8 134752716.163 8 101939563.240 8
E25  23656865.758 8  23656868.004 8 124317664.172 8  94045515.690 8
G10  24006824.422 7                  24006832.625 6 126156713.425 7                  98303990.811 6
G16  20678287.500 7  20678290.172 6                 108665133.474 7  84674140.531 6
G18  21019445.078 7                  21019449.480 7 110457926.080 7                  86071131.118 7
G23  21566556.930 7                  21566562.637 8 113333023.275 7                  88311488.311 8
G27  21839819.781 7                  21839826.422 7 114769022.668 7                  89430436.479 7
R07  22156294.102 7  22156300.078 7 118604369.159 7  92247866.250 7
R08  23219754.188 5  23219760.008 5 124340719.802 5  96709487.509 5
R13  21230158.055 7                 113367852.870 7
R14  20391030.648 8  20391036.438 7 108695665.677 8  84541265.608 7
R15  23572540.211 5  23572548.988 6 125964528.084 5  97972447.446 6
R22  22561481.828 6  22561485.797 5 120434740.435 6  93671467.462 5
R23  19789695.109 7                 105861526.733 7
R24  21007259.492 8  21007264.762 7 112335258.400 8  87371894.363 7
> 2025 06 15 07 35 15.0000000  0 24
C20  26291329.922 6 136905857.479 6
C26  24930260.961 6 129818407.765 6
C29  21710529.586 7 113052425.087 7
C30  22850493.000 7 118988506.496 7
E02  25891669.445 7  25891671.023 8 136061637.032 7 102929753.493 8
E10  23765105.680 8  23765107.090 9 124886471.582 8  94475809.175 9
E11  23665605.234 7  23665603.371 8 124363593.521 7  94080242.318 8
E12  25382467.969 7  25382467.871 8 133385765.544 7 100905464.423 8
E16  24125511.945 8  24125512.633 8 126780418.180 8  95908565.847 8
E24  25643735.258 8  25643737.406 8 134758733.592 8 101944115.377 8
E25  23655750.492 8  23655752.777 9 124311803.791 8  94041082.353 9
G10  24001974.320 7                  24001983.352 6 126131231.748 7                  98284134.994 6
G16  20676629.383 7  20676631.656 6                 108656418.432 7  84667349.596 6
G18  21019348.555 7                  21019353.324 8 110457420.188 7                  86070736.921 8
G23  21563231.109 8                  21563236.520 8 113315545.286 8                  88297869.099 8
G27  21835815.500 7                  21835822.129 7 114747979.189 7                  89414038.976 7
R07  22153871.102 7  22153877.805 7 118591400.752 7  92237779.725 7
R08  23214795.164 5  23214800.445 6 124314161.534 5  96688831.130 6
R13  21232099.078 7                 113378225.578 7
R14  20388782.555 8  20388788.039 7 108683680.916 8  84531944.146 7
R15  23567414.484 5  23567422.617 6 125937136.241 5  97951142.675 6
R22  22563240.313 6  22563244.199 5 120444125.681 6  93678767.068 5
R23  19789579.328 8                 105860907.716 8
R24  21003438.586 8  21003443.199 7 112314820.524 8  87355998.257 7
> 2025 06 15 07 35 20.0000000  0 24
C20  26286700.133 6 136881751.921 6
C26  24927389.359 6 129803458.039 6
C29  21708290.320 7 113040763.215 7
C30  22850911.922 7 118990689.442 7
E02  25888032.711 7  25888034.301 8 136042526.164 7 102915296.264 8
E10  23764400.398 8  23764401.715 9 124882764.718 8  94473004.959 9
E11  23663427.164 7  23663425.098 8 124352146.545 7  94071582.756 8
E12  25382857.039 7  25382856.945 8 133387810.572 7 100907011.450 8
E16  24125687.906 8  24125688.438 8 126781342.286 8  95909264.920 8
E24  25644880.781 8  25644883.277 8 134764755.156 8 101948670.635 8
E25  23654637.180 8  23654639.430 9 124305952.962 8  94036656.232 9
G10  23997126.531 7                  23997134.910 7 126105752.504 7                  98264281.055 7
G16  20674974.203 7  20674976.223 6                 108647718.887 7  84660570.729 6
G18  21019254.359 7                  21019258.895 8 110456923.819 7                  86070350.137 8
G23  21559907.047 7                  21559912.773 8 113298079.966 7                  88284259.757 8
G27  21831812.359 7                  21831818.777 7 114726941.476 7                  89397645.964 7
R07  22151451.789 7  22151458.973 7 118578452.286 7  92227708.663 7
R08  23209836.531 5  23209841.309 6 124287610.008 5  96668179.979 6
R13  21234045.211 7                 113388610.074 7
R14  20386537.617 8  20386543.551 7 108671717.047 8  84522638.911 7
R15  23562291.633 6  23562297.539 6 125909752.058 6  97929843.876 6
R22  22564998.789 6  22565002.887 6 120453511.777 6  93686067.376 6
R23  19789465.758 8                 105860298.272 8
R24  20999617.227 8  20999622.395 7 112294390.122 8  87340107.941 7
> 2025 06 15 07 35 25.0000000  0 24
C20  26282071.539 6 136857647.563 6
C26  24924521.844 6 129788520.860 6
C29  21706051.516 7 113029109.232 7
C30  22851332.125 7 118992877.829 7
E02  25884397.211 7  25884398.781 8 136023421.598 7 102900843.780 8
E10  23763696.641 8  23763697.887 9 124879066.069 8  94470206.950 9
E11  23661250.789 7  23661248.523 8 124340708.531 7  94062929.969 8
E12  25383247.297 7  25383247.156 8 133389861.137 7 100908562.688 8
E16  24125865.477 8  24125866.070 8 126782275.843 8  95909971.145 8
E24  25646027.813 7  25646030.266 8 134770782.353 7 101953230.156 8
E25  23653525.922 8  23653528.117 8 124300113.173 8  94032238.464 8
G10  23992278.023 7                  23992287.090 7 126080277.182 7                  98244430.159 7
G16  20673321.844 7  20673324.211 6                 108639036.366 7  84653805.126 6
G18  21019161.563 7                  21019166.586 8 110456438.433 7                  86069971.914 8
G23  21556585.891 7                  21556592.172 8 113280628.767 7                  88270661.435 8
G27  21827809.977 7                  21827816.875 7 114705911.073 7                  89381258.640 7
R07  22149038.070 7  22149043.496 7 118565525.070 7  92217654.165 7
R08  23204880.594 5  23204885.289 5 124261066.527 5  96647535.059 5
R13  21235991.086 7                 113399007.668 7
R14  20384297.789 8  20384303.738 7 108659775.685 8  84513351.185 7
R15  23557170.305 6  23557175.074 6 125882376.882 6  97908552.076 6
R22  22566757.047 6  22566761.691 6 120462900.260 6  93693369.502 6
R23  19789354.117 8                 105859699.877 8
R24  20995798.359 8  20995803.445 7 112273968.861 8  87324224.747 7
> 2025 06 15 07 35 30.0000000  0 24
C20  26277442.883 6 136833545.238 6
C26  24921655.117 6 129773597.135 6
C29  21703815.531 7 113017463.988 7
C30  22851753.570 7 118995072.562 7
E02  25880763.039 7  25880764.801 8 136004324.163 7 102886396.697 8
E10  23762994.453 8  23762995.785 9 124875376.482 8  94467415.801 9
E11  23659075.773 7  23659073.797 8 124329280.322 7  94054284.607 8
E12  25383639.047 7  25383638.609 8 133391918.046 7 100910118.725 8
E16  24126044.977 8  24126045.723 8 126783219.697 8  95910685.160 8
E24  25647175.898 7  25647178.414 8 134776815.986 7 101957794.548 8
E25  23652416.914 8  23652419.121 9 124294285.256 8  94027829.679 9
G10  23987430.977 7                  23987440.563 7 126054806.658 7                  98224583.034 7
G16  20671673.086 7  20671675.359 6                 108630371.682 7  84647053.425 6
G18  21019071.680 7                  21019076.488 8 110455964.870 7                  86069602.907 8
G23  21553268.180 7                  21553274.125 8 113263192.559 7                  88257074.781 8
G27  21823810.031 7                  21823816.219 7 114684888.782 7                  89364877.652 7
R07  22146626.305 7  22146632.887 7 118552620.351 7  92207617.164 7
R08  23199923.289 5  23199930.020 5 124234532.021 5  96626897.131 5
R13  21237942.336 6                 113409419.490 6
R14  20382062.359 8  20382067.824 7 108647857.748 8  84504081.683 7
R15  23552047.719 6  23552054.156 6 125855011.563 6  97887267.944 6
R22  22568516.797 6  22568520.719 5 120472291.942 6  93700674.131 5
R23  19789244.453 8                 105859113.308 8
R24  20991981.094 8  20991986.484 7 112253557.599 8  87308349.316 7
> 2025 06 15 07 35 35.0000000  0 24
C20  26272814.086 6 136809444.157 6
C26  24918791.930 6 129758686.008 6
C29  21701580.633 7 113005826.681 7
C30  22852176.266 7 118997272.836 7
E02  25877130.820 7  25877131.832 8 135985233.122 7 102871954.445 8
E10  23762293.820 8  23762295.227 9 124871695.228 8  94464630.946 9
E11  23656902.820 7  23656900.758 8 124317861.137 7  94045646.070 8
E12  25384031.320 7  25384031.047 8 133393980.588 7 100911679.006 8
E16  24126226.406 8  24126227.176 8 126784173.069 8  95911406.381 8
E24  25648325.570 7  25648327.762 8 134782855.394 7 101962363.306 8
E25  23651310.180 8  23651312.258 9 124288468.459 8  94023429.305 9
G10  23982585.492 7                  23982594.512 7 126029340.188 7                  98204739.037 7
G16  20670027.258 7  20670029.879 6                 108621724.135 7  84640315.082 6
G18  21018983.789 7                  21018988.539 8 110455502.371 7                  86069242.513 8
G23  21549952.844 7                  21549958.602 8 113245770.602 7                  88243499.249 8
G27  21819810.648 7                  21819817.191 7 114663873.859 7                  89348502.391 7
R07  22144218.805 7  22144226.184 7 118539736.999 7  92197596.778 7
R08  23194969.789 6  23194976.555 5 124208005.775 6  96606265.631 5
R13  21239894.813 7                 113419844.509 7
R14  20379831.602 8  20379836.281 7 108635962.230 8  84494829.607 7
R15  23546929.680 6  23546933.883 6 125827655.376 6  97865990.938 6
R22  22570275.477 6  22570280.270 5 120481686.153 6  93707980.717 5
R23  19789137.648 8                 105858537.938 8
R24  20988165.594 8  20988171.023 7 112233155.560 8  87292481.068 7
> 2025 06 15 07 35 40.0000000  0 24
C20  26268186.164 6 136785345.439 6
C26  24915931.859 6 129743788.587 6
C29  21699347.352 7 112994198.433 7
C30  22852599.648 7 118999479.721 7
E02  25873498.922 7  25873500.375 8 135966149.501 7 102857517.810 8
E10  23761595.016 8  23761596.500 9 124868023.322 8  94461853.173 9
E11  23654731.758 7  23654729.680 8 124306452.078 7  94037015.189 8
E12  25384425.109 7  25384424.824 8 133396049.776 7 100913244.331 8
E16  24126409.680 8  24126410.586 8 126785137.073 8  95912135.640 8
E24  25649475.664 7  25649478.281 8 134788901.539 7 101966937.161 8
E25  23650205.414 8  23650207.625 9 124282663.846 8  94019038.154 9
G10  23977739.844 7                  23977749.031 6 126003878.794 7                  98184899.031 6
G16  20668385.289 8  20668387.559 6                 108613094.767 8  84633590.889 6
G18  21018897.570 7                  21018902.793 8 110455052.010 7                  86068891.581 8
G23  21546640.711 7                  21546646.219 8 113228363.950 7                  88229935.633 8
G27  21815813.664 7                  21815820.051 7 114642867.425 7                  89332133.750 7
R07  22141817.555 7  22141823.527 7 118526876.355 7  92187594.054 7
R08  23190017.344 6  23190024.367 6 124181488.869 6  96585641.419 6
R13  21241849.047 7                 113430284.004 7
R14  20377603.695 8  20377608.898 7 108624090.316 8  84485595.897 7
R15  23541811.820 6  23541816.941 5 125800309.491 6  97844721.915 5
R22  22572036.203 6  22572041.219 5 120491083.832 6  93715289.973 5
R23  19789031.859 8                 105857974.710 8
R24  20984352.742 8  20984357.883 7 112212763.811 8  87276620.814 7
> 2025 06 15 07 35 45.0000000  0 24
C20  26263558.063 6 136761248.540 6
C26  24913072.938 6 129728904.422 6
C29  21697115.828 7 112982578.671 7
C30  22853024.953 7 119001692.689 7
E02  25869868.906 7  25869870.215 8 135947072.895 7 102843086.496 8
E10  23760898.109 8  23760899.461 9 124864360.287 8  94459082.117 9
E11  23652562.492 7  23652560.457 8 124295052.602 7  94028391.557 8
E12  25384819.984 7  25384819.730 8 133398125.129 7 100914814.315 8
E16  24126594.945 8  24126595.973 8 126786111.121 8  95912872.499 8
E24  25650627.578 7  25650630.063 8 134794953.936 7 101971515.741 8
E25  23649103.180 8  23649105.270 8 124276870.898 8  94014655.821 8
G10  23972896.195 7                  23972904.891 7 125978422.024 7                  98165062.586 7
G16  20666746.578 7  20666748.773 6                 108604483.049 7  84626880.464 6
G18  21018814.289 7                  21018819.613 8 110454613.248 7                  86068549.680 8
G23  21543331.617 7                  21543336.426 8 113210972.117 7                  88216383.557 8
G27  21811817.617 7                  21811824.133 7 114621868.927 7                  89315771.288 7
R07  22139419.000 7  22139425.227 7 118514037.731 7  92177608.464 7
R08  23185065.602 5  23185074.621 6 124154980.746 5  96565024.052 6
R13  21243807.805 7                 113440737.192 7
R14  20375380.984 8  20375386.090 7 108612241.767 8  84476380.360 7
R15  23536698.195 6  23536700.801 5 125772973.518 6  97823460.586 5
R22  22573798.211 6  22573801.281 5 120500484.466 6  93722601.565 5
R23  19788928.586 8                 105857423.032 8
R24  20980541.484 8  20980546.152 7 112192381.874 8  87260768.213 7
> 2025 06 15 07 35 50.0000000  0 24
C20  26258931.492 6 136737152.519 6
C26  24910217.227 6 129714032.497 6
C29  21694885.461 7 112970966.479 7
C30  22853450.734 7 119003910.799 7
E02  25866239.344 7  25866241.152 8 135928002.215 7 102828659.665 8
E10  23760202.625 8  23760203.922 9 124860705.104 8  94456316.987 9
E11  23650394.742 7  23650392.852 8 124283661.719 7  94019774.432 8
E12  25385215.930 7  25385215.617 8 133400205.638 7 100916388.191 8
E16  24126782.023 8  24126783.086 8 126787094.288 8  95913616.249 8
E24  25651780.367 8  25651782.750 8 134801011.594 8 101976098.311 8
E25  23648002.805 8  23648004.898 8 124271088.652 8  94010281.591 8
G10  23968053.156 7                  23968061.598 7 125952968.950 7                  98145229.024 7
G16  20665111.266 7  20665113.289 6                 108595888.035 7  84620183.040 6
G18  21018732.945 7                  21018737.871 8 110454185.104 7                  86068216.063 8
G23  21540024.352 7                  21540029.547 8 113193594.135 7                  88202842.285 8
G27  21807823.305 7                  21807829.480 7 114600877.407 7                  89299414.266 7
R07  22137024.820 7  22137030.953 7 118501220.350 7  92167639.375 7
R08  23180116.602 5  23180126.594 5 124128480.560 5  96544412.871 5
R13  21245766.391 7                 113451203.302 7
R14  20373162.430 8  20373167.195 7 108600415.264 8  84467181.974 7
R15  23531583.195 6  23531586.910 5 125745646.189 6  97802205.969 5
R22  22575559.750 6  22575563.223 5 120509887.220 6  93729914.863 5
R23  19788828.547 8                 105856882.021 8
R24  20976731.313 8  20976736.734 7 112172008.647 8  87244922.384 7
> 2025 06 15 07 35 55.0000000  0 24
C20  26254303.180 6 136713057.204 6
C26  24907363.828 6 129699172.521 6
C29  21692656.875 7 112959361.589 7
C30  22853877.852 7 119006133.749 7
E02  25862611.734 7  25862613.195 8 135908937.293 7 102814237.163 8
E10  23759508.508 8  23759509.770 9 124857057.518 8  94453557.610 9
E11  23648228.914 7  23648226.816 8 124272279.239 7  94011163.654 8
E12  25385612.734 7  25385612.418 8 133402291.035 7 100917965.777 8
E16  24126970.922 8  24126971.820 8 126788086.265 8  95914366.667 8
E24  25652934.227 7  25652936.434 8 134807074.234 7 101980684.629 8
E25  23646904.500 8  23646906.570 8 124265316.833 8  94005915.244 8
G10  23963210.414 7                  23963218.270 7 125927519.255 7                  98125398.097 7
G16  20663478.656 7  20663481.184 6                 108587309.458 7  84613498.432 6
G18  21018653.555 7                  21018658.633 8 110453767.301 7                  86067890.508 8
G23  21536719.586 7                  21536725.082 8 113176229.720 7                  88189311.577 8
G27  21803829.539 7                  21803836.156 7 114579892.602 7                  89283062.463 7
R07  22134634.492 7  22134640.090 7 118488423.733 7  92157686.488 7
R08  23175167.773 5  23175178.406 5 124101988.054 5  96523807.602 5
R13  21247728.492 7                 113461681.787 7
R14  20370948.148 8  20370952.500 7 108588610.726 8  84458000.672 7
R15  23526470.211 6  23526474.473 5 125718327.500 6  97780958.105 5
R22  22577321.180 6  22577324.813 5 120519291.671 6  93737229.419 5
R23  19788728.727 8                 105856351.308 8
R24  20972922.984 8  20972927.996 7 112151644.056 8  87229083.253 7
> 2025 06 15 07 36  0.0000000  0 24
C20  26249675.250 6 136688963.202 6
C26  24904512.742 6 129684325.269 6
C29  21690430.195 7 112947764.655 7
C30  22854305.289 7 119008362.237 7
E02  25858984.328 7  25858986.527 8 135889878.739 7 102799819.506 8
E10  23758815.945 8  23758817.172 9 124853418.186 8  94450804.473 9
E11  23646064.570 7  23646062.512 8 124260905.696 7  94002559.646 8
E12  25386010.836 7  25386010.289 8 133404381.986 7 100919547.566 8
E16  24127161.617 8  24127162.395 9 126789087.783 8  95915124.299 9
E24  25654088.773 7  25654091.203 8 134813142.582 7 101985275.288 8
E25  23645808.375 8  23645810.352 9 124259556.124 8  94001557.304 9
G10  23958367.781 7                  23958376.449 7 125902073.616 7                  98105570.347 7
G16  20661849.219 7  20661851.898 6                 108578748.002 7  84606827.160 6
G18  21018576.328 7                  21018581.285 8 110453360.524 7                  86067573.527 8
G23  21533417.969 7                  21533423.320 8 113158879.609 7                  88175791.999 8
G27  21799837.703 7                  21799844.266 7 114558915.208 7                  89266716.442 7
R07  22132247.352 7  22132253.941 7 118475648.722 7  92147750.389 7
R08  23170224.352 5  23170232.215 6 124075503.940 5  96503208.850 6
R13  21249693.563 6                 113472173.538 6
R14  20368737.516 8  20368742.172 7 108576828.636 8  84448836.827 7
R15  23521360.594 6  23521364.020 5 125691018.064 6  97759717.443 5
R22  22579082.219 6  22579088.445 5 120528698.469 6  93744545.810 5
R23  19788631.578 8                 105855831.688 8
R24  20969116.289 8  20969121.305 7 112131288.546 8  87213251.191 7
> 2025 06 15 07 36  5.0000000  0 24
C20  26245048.703 6 136664870.042 6
C26  24901664.031 6 129669490.186 6
C29  21688204.594 7 112936175.197 7
C30  22854734.047 7 119010595.776 7
E02  25855359.352 6  25855360.965 8 135870826.177 6 102785406.359 8
E10  23758124.930 8  23758126.129 9 124849786.685 8  94448057.263 9
E11  23643901.969 7  23643899.816 8 124249540.743 7  93993962.135 8
E12  25386409.375 7  25386409.164 8 133406478.027 7 100921133.204 8
E16  24127353.930 8  24127354.703 8 126790098.309 8  95915888.750 8
E24  25655244.320 7  25655246.969 8 134819216.090 7 101989869.848 8
E25  23644714.016 8  23644716.145 8 124253806.042 8  93997207.400 8
G10  23953525.961 7                  23953534.566 7 125876631.620 7                  98085745.412 7
G16  20660223.250 7  20660225.879 6                 108570203.169 7  84600168.845 6
G18  21018500.781 7                  21018505.695 8 110452964.291 7                  86067264.759 8
G23  21530119.266 7                  21530124.238 8 113141543.306 7                  88162283.196 8
G27  21795846.852 7                  21795853.555 7 114537944.729 7                  89250375.803 7
R07  22129864.180 7  22129871.625 7 118462894.773 7  92137830.647 7
R08  23165280.297 5  23165288.352 6 124049027.468 5  96482616.065 6
R13  21251660.594 6                 113482677.937 6
R14  20366530.984 8  20366536.242 7 108565068.681 8  84439690.200 7
R15  23516250.203 6  23516254.414 6 125663717.299 6  97738483.547 6
R22  22580845.203 6  22580850.109 5 120538107.193 6  93751863.679 5
R23  19788535.750 8                 105855322.658 8
R24  20965311.344 8  20965316.715 7 112110941.820 8  87197425.971 7
> 2025 06 15 07 36 10.0000000  0 24
C20  26240422.586 6 136640778.609 6
C26  24898817.414 6 129654668.228 6
C29  21685980.758 7 112924594.142 7
C30  22855164.422 7 119012835.237 7
E02  25851735.078 6  25851736.664 8 135851780.416 6 102770998.362 8
E10  23757435.750 8  23757436.738 9 124846163.848 8  94445316.607 9
E11  23641740.961 7  23641738.938 8 124238185.240 7  93985371.769 8
E12  25386809.539 7  25386809.164 8 133408580.032 7 100922723.348 8
E16  24127548.078 8  24127548.930 8 126791118.769 8  95916660.716 8
E24  25656401.555 7  25656403.887 8 134825295.691 7 101994469.002 8
E25  23643621.969 8  23643624.137 9 124248067.510 8  93992866.237 9
G10  23948685.180 7                  23948694.078 7 125851194.156 7                  98065924.025 7
G16  20658600.555 7  20658603.473 6                 108561675.881 7  84593524.208 6
G18  21018427.789 7                  21018432.629 8 110452579.488 7                  86066964.901 8
G23  21526822.984 7                  21526828.008 7 113124221.703 7                  88148785.853 7
G27  21791857.828 7                  21791864.660 7 114516982.100 7                  89234041.282 7
R07  22127486.031 7  22127492.766 7 118450162.645 7  92127927.895 7
R08  23160336.578 5  23160345.910 5 124022559.989 5  96462030.239 5
R13  21253630.383 6                 113493195.872 6
R14  20364329.617 8  20364334.465 7 108553331.920 8  84430561.609 7
R15  23511143.289 6  23511147.473 6 125636426.366 6  97717257.294 6
R22  22582609.055 6  22582612.785 5 120547518.686 6  93759183.692 5
R23  19788443.039 8                 105854825.038 8
R24  20961508.398 8  20961513.117 7 112090604.647 8  87181608.164 7
> 2025 06 15 07 36 15.0000000  0 24
C20  26235796.852 6 136616687.640 6
C26  24895973.406 6 129639858.012 6
C29  21683758.016 7 112913020.067 7
C30  22855595.797 7 119015079.275 7
E02  25848112.109 6  25848113.473 8 135832740.128 6 102756594.517 8
E10  23756747.672 8  23756748.730 9 124842548.283 8  94442581.452 9
E11  23639581.719 7  23639579.582 8 124226837.759 7  93976787.475 8
E12  25387210.016 7  25387210.055 8 133410686.605 7 100924316.955 8
E16  24127744.094 8  24127744.754 8 126792147.734 8  95917439.123 8
E24  25657558.828 7  25657561.699 8 134831379.952 7 101999071.704 8
E25  23642531.922 8  23642534.051 9 124242339.116 8  93988532.737 9
G10  23943844.914 7                  23943853.949 6 125825759.820 7                  98046105.078 6
G16  20656981.000 7  20656983.633 6                 108553164.739 7  84586892.148 6
G18  21018355.906 7                  21018361.102 8 110452204.690 7                  86066672.852 8
G23  21523529.469 7                  21523534.410 8 113106913.451 7                  88135298.902 8
G27  21787870.133 7                  21787877.164 7 114496025.910 7                  89217711.787 7
R07  22125111.188 7  22125118.742 7 118437451.314 7  92118041.303 7
R08  23155395.594 5  23155403.832 5 123996099.714 5  96441450.087 5
R13  21255602.352 6                 113503726.011 6
R14  20362131.102 8  20362136.652 7 108541616.722 8  84421449.807 7
R15  23506037.070 6  23506042.914 6 125609143.738 6  97696037.415 6
R22  22584372.742 6  22584376.039 5 120556931.598 6  93766504.792 5
R23  19788351.719 8                 105854337.383 8
R24  20957706.344 8  20957712.098 7 112070275.773 8  87165796.831 7
> 2025 06 15 07 36 20.0000000  0 24
C20  26231170.266 6 136592597.788 6
C26  24893131.813 6 129625060.249 6
C29  21681537.016 7 112901453.771 7
C30  22856027.430 7 119017328.596 7
E02  25844489.805 7  25844491.328 8 135813706.061 7 102742195.370 8
E10  23756060.969 8  23756062.238 9 124838940.777 8  94439852.398 9
E11  23637424.109 7  23637421.887 8 124215499.064 7  93968209.835 8
E12  25387612.406 7  25387611.926 8 133412798.511 7 100925914.586 8
E16  24127941.250 8  24127942.375 8 126793185.979 8  95918224.536 8
E24  25658718.281 7  25658720.539 8 134837469.644 7 102003678.492 8
E25  23641443.844 8  23641446.055 9 124236621.617 8  93984207.482 9
G10  23939006.031 7                  23939014.426 6 125800329.425 7                  98026289.174 6
G16  20655364.648 7  20655367.242 6                 108544670.562 7  84580273.321 6
G18  21018286.891 8                  21018292.039 8 110451840.658 8                  86066389.185 8
G23  21520238.914 8                  21520243.414 8 113089619.273 8                  88121822.935 8
G27  21783884.016 7                  21783890.395 7 114475076.959 7                  89201387.935 7
R07  22122739.922 7  22122748.035 7 118424761.318 7  92108171.302 7
R08  23150456.844 5  23150463.637 6 123969647.810 5  96420876.356 6
R13  21257577.445 7                 113514268.958 7
R14  20359938.344 8  20359943.324 7 108529923.964 8  84412355.424 7
R15  23500933.742 6  23500938.820 6 125581870.178 6  97674824.652 6
R22  22586137.172 6  22586140.824 5 120566346.690 6  93773827.646 5
R23  19788263.125 8                 105853860.492 8
R24  20953906.336 8  20953911.824 7 112049955.968 8  87149992.518 7
> 2025 06 15 07 36 25.0000000  0 24
C20  26226543.875 6 136568508.979 6
C26  24890292.313 6 129610274.918 6
C29  21679317.172 7 112889895.120 7
C30  22856460.008 7 119019583.123 7
E02  25840868.492 6  25840870.410 8 135794678.151 6 102727800.873 8
E10  23755376.164 8  23755377.223 9 124835341.210 8  94437129.347 9
E11  23635268.016 7  23635265.875 8 124204169.140 7  93959638.814 8
E12  25388014.844 7  25388014.785 8 133414915.655 7 100927516.188 8
E16  24128140.758 8  24128141.664 8 126794233.419 8  95919016.913 8
E24  25659877.766 7  25659880.387 8 134843564.676 7 102008289.336 8
E25  23640357.938 8  23640360.105 8 124230914.930 8  93979890.401 8
G10  23934167.391 7                  23934175.973 6 125774902.894 7                  98006476.308 6
G16  20653751.172 7  20653753.891 6                 108536193.186 7  84573667.563 6
G18  21018219.422 7                  21018224.680 8 110451487.318 7                  86066113.847 8
G23  21516950.391 7                  21516955.297 8 113072339.118 7                  88108357.874 8
G27  21779898.727 7                  21779905.164 7 114454135.120 7                  89185069.623 7
R07  22120373.172 7  22120381.395 7 118412092.680 7  92098317.915 7
R08  23145519.273 5  23145525.863 6 123943203.962 5  96400308.926 6
R13  21259553.203 6                 113524824.809 6
R14  20357749.289 8  20357754.180 7 108518253.573 8  84403278.460 7
R15  23495832.211 6  23495836.863 6 125554605.703 6  97653618.963 6
R22  22587901.250 6  22587906.027 5 120575763.834 6  93781152.045 5
R23  19788175.141 8                 105853394.345 8
R24  20950107.984 8  20950113.488 7 112029645.079 8  87134195.177 7
> 2025 06 15 07 36 30.0000000  0 24
C20  26221918.438 6 136544420.840 6
C26  24887455.117 6 129595501.493 6
C29  21677099.055 7 112878343.681 7
C30  22856893.859 7 119021842.396 7
E02  25837248.617 6  25837250.613 8 135775655.899 6 102713410.667 8
E10  23754692.414 8  23754693.656 9 124831749.100 8  94434411.941 9
E11  23633113.680 7  23633111.418 8 124192847.411 7  93951074.012 8
E12  25388418.383 7  25388418.535 8 133417037.532 7 100929121.364 8
E16  24128341.859 8  24128342.629 8 126795289.553 8  95919815.872 8
E24  25661038.508 7  25661041.090 8 134849664.553 7 102012903.833 8
E25  23639273.930 8  23639276.129 9 124225218.569 8  93975581.141 9
G10  23929329.508 7                  23929337.887 6 125749479.704 7                  97986666.055 6
G16  20652141.336 7  20652143.734 6                 108527732.171 7  84567074.566 6
G18  21018154.422 7                  21018159.598 8 110451144.156 7                  86065846.450 8
G23  21513664.492 7                  21513669.383 7 113055072.509 7                  88094903.395 7
G27  21775915.039 7                  21775921.781 7 114433199.953 7                  89168756.507 7
R07  22118009.859 7  22118018.391 7 118399444.817 7  92088480.683 7
R08  23140582.727 5  23140589.152 6 123916767.795 5  96379747.447 6
R13  21261531.406 6                 113535392.946 6
R14  20355564.359 8  20355568.691 7 108506604.989 8  84394218.445 7
R15  23490730.656 6  23490735.879 6 125527349.771 6  97632419.932 6
R22  22589666.031 6  22589670.434 5 120585182.548 6  93788477.704 5
R23  19788089.727 8                 105852938.503 8
R24  20946311.945 8  20946316.715 7 112009342.515 8  87118404.296 7
> 2025 06 15 07 36 35.0000000  0 24
C20  26217292.656 6 136520335.349 6
C26  24884620.844 6 129580742.030 6
C29  21674882.336 7 112866801.447 7
C30  22857328.750 7 119024108.407 7
E02  25833630.313 6  25833632.223 8 135756641.341 6 102699026.294 8
E10  23754010.727 8  23754011.969 9 124828166.516 8  94431701.738 9
E11  23630961.297 7  23630958.957 8 124181535.974 7  93942516.985 8
E12  25388823.336 7  25388823.574 8 133419166.190 7 100930731.681 8
E16  24128545.039 8  24128545.672 8 126796356.442 8  95920622.953 8
E24  25662200.719 7  25662203.164 8 134855771.313 7 102017523.548 8
E25  23638192.508 8  23638194.492 9 124219534.602 8  93971281.245 9
G10  23924492.609 7                  23924501.012 6 125724061.949 7                  97966860.022 6
G16  20650534.727 7  20650537.352 6                 108519289.597 7  84560495.935 6
G18  21018091.578 8                  21018096.488 8 110450813.233 8                  86065588.584 8
G23  21510381.609 7                  21510386.770 8 113037821.504 7                  88081461.057 8
G27  21771933.055 7                  21771939.176 7 114412273.512 7                  89152450.190 7
R07  22115652.922 6  22115660.156 7 118386819.812 6  92078661.245 7
R08  23135645.656 5  23135654.352 6 123890341.426 5  96359193.617 6
R13  21263512.805 6                 113545975.320 6
R14  20353383.047 8  20353387.461 7 108494980.309 8  84385177.014 7
R15  23485631.664 6  23485637.477 5 125500104.452 6  97611229.159 5
R22  22591431.609 6  22591435.105 4 120594604.836 6  93795806.153 4
R23  19788007.266 8                 105852494.806 8
R24  20942517.555 8  20942522.043 7 111989050.662 8  87102621.736 7
> 2025 06 15 07 36 40.0000000  0 24
C20  26212668.828 6 136496253.467 6
C26  24881788.672 6 129565997.536 6
C29  21672667.719 7 112855269.372 7
C30  22857765.484 7 119026382.114 7
E02  25830013.680 6  25830015.566 8 135737635.493 6 102684648.486 8
E10  23753331.039 8  23753332.199 9 124824594.362 8  94428999.425 9
E11  23628810.625 7  23628808.559 8 124170235.777 7  93933968.455 8
E12  25389229.969 7  25389230.090 8 133421302.598 7 100932347.852 8
E16  24128750.141 8  24128750.938 8 126797435.033 8  95921438.893 8
E24  25663364.148 7  25663366.793 8 134861885.944 7 102022149.207 8
E25  23637113.266 8  23637115.410 8 124213863.957 8  93966991.438 8
G10  23919657.180 7                  23919665.355 6 125698650.602 7                  97947058.990 6
G16  20648931.555 7  20648934.383 6                 108510866.401 7  84553932.406 6
G18  21018030.953 7                  21018035.926 8 110450495.500 7                  86065340.984 8
G23  21507102.500 7                  21507107.305 8 113020587.072 7                  88068031.641 8
G27  21767952.742 7                  21767958.992 7 114391356.754 7                  89136151.431 7
R07  22113298.500 7  22113306.023 7 118374218.608 7  92068860.294 7
R08  23130713.422 5  23130720.801 6 123863925.823 5  96338648.167 6
R13  21265497.477 6                 113556573.205 6
R14  20351206.906 8  20351211.836 7 108483380.520 8  84376154.961 7
R15  23480536.445 6  23480540.453 6 125472870.889 6  97590047.457 6
R22  22593197.820 6  22593201.676 4 120604031.732 6  93803138.118 4
R23  19787926.945 8                 105852064.406 8
R24  20938724.945 8  20938729.578 7 111968770.150 8  87086848.014 7
> 2025 06 15 07 36 45.0000000  0 24
C20  26208044.469 6 136472171.757 6
C26  24878959.438 6 129551264.438 6
C29  21670454.781 7 112843743.996 7
C30  22858202.859 7 119028660.053 7
E02  25826397.633 6  25826399.934 8 135718634.837 6 102670274.614 8
E10  23752652.734 8  23752653.809 9 124821029.167 8  94426302.379 9
E11  23626662.023 7  23626659.684 8 124158943.302 7  93925425.780 8
E12  25389637.133 7  25389637.488 8 133423443.202 7 100933967.190 8
E16  24128956.867 8  24128957.777 8 126798521.822 8  95922261.033 8
E24  25664528.641 7  25664531.164 8 134868004.938 7 102026778.164 8
E25  23636036.133 8  23636038.207 8 124208203.161 8  93962709.077 8
G10  23914821.422 7                  23914830.457 6 125673242.153 7                  97927260.220 6
G16  20647331.844 7  20647334.398 6                 108502459.031 7  84547381.215 6
G18  21017972.031 7                  21017977.289 8 110450187.437 7                  86065100.925 8
G23  21503824.922 7                  21503830.184 8 113003365.711 7                  88054612.402 8
G27  21763973.500 7                  21763979.527 7 114370446.171 7                  89119857.469 7
R07  22110949.695 7  22110955.730 7 118361637.862 7  92059075.265 7
R08  23125783.492 5  23125790.383 5 123837517.372 5  96318108.284 5
R13  21267485.000 6                 113567182.681 6
R14  20349035.063 8  20349039.074 7 108471802.091 8  84367149.515 7
R15  23475440.078 6  23475445.512 6 125445645.403 6  97568872.074 6
R22  22594963.078 6  22594968.531 5 120613459.695 6  93810470.967 5
R23  19787847.516 8                 105851643.627 8
R24  20934933.289 8  20934938.602 7 111948497.656 8  87071080.521 7
> 2025 06 15 07 36 50.0000000  0 24
C20  26203420.406 6 136448091.228 6
C26  24876132.367 6 129536543.818 6
C29  21668242.852 7 112832226.337 7
C30  22858641.516 7 119030943.238 7
E02  25822783.297 6  25822785.430 8 135699640.396 6 102655905.450 8
E10  23751975.641 8  23751976.883 9 124817471.949 8  94423611.357 9
E11  23624514.742 7  23624512.496 8 124147659.587 7  93916889.722 8
E12  25390045.695 7  25390045.809 8 133425589.064 7 100935590.504 8
E16  24129164.977 8  24129166.324 9 126799617.803 8  95923090.135 9
E24  25665693.953 7  25665696.543 8 134874129.257 7 102031411.162 8
E25  23634960.828 8  23634963.063 9 124202553.221 8  93958434.934 9
G10  23909987.125 7                  23909996.105 6 125647837.712 7                  97907464.570 6
G16  20645735.242 7  20645737.695 6                 108494068.581 7  84540843.189 6
G18  21017915.586 7                  21017920.586 8 110449890.064 7                  86064869.210 8
G23  21500550.352 7                  21500555.785 7 112986158.459 7                  88041204.159 7
G27  21759995.266 7                  21760001.836 7 114349542.808 7                  89103569.140 7
R07  22108603.250 7  22108610.086 7 118349078.450 7  92049306.828 7
R08  23120852.805 5  23120860.320 5 123811117.245 5  96297574.862 5
R13  21269474.203 6                 113577804.871 6
R14  20346867.195 8  20346871.418 7 108460246.045 8  84358161.488 7
R15  23470348.102 6  23470352.156 6 125418429.149 6  97547703.869 6
R22  22596729.633 6  22596734.918 4 120622889.709 6  93817805.415 4
R23  19787771.336 8                 105851233.501 8
R24  20931143.672 8  20931148.840 7 111928234.087 8  87055320.001 7
> 2025 06 15 07 36 55.0000000  0 24
C20  26198795.930 6 136424012.625 6
C26  24873308.414 6 129521836.394 6
C29  21666033.352 7 112820717.089 7
C30  22859081.297 7 119033232.325 7
E02  25819170.109 7  25819172.207 8 135680652.906 7 102641541.544 8
E10  23751300.273 8  23751301.543 9 124813923.389 8  94420926.896 9
E11  23622368.922 7  23622367.043 8 124136385.307 7  93908360.801 8
E12  25390455.250 7  25390455.285 8 133427740.893 7 100937218.337 8
E16  24129375.586 8  24129376.801 9 126800723.710 8  95923926.737 9
E24  25666860.336 7  25666863.188 8 134880259.606 7 102036048.719 8
E25  23633887.883 8  23633890.098 9 124196914.849 8  93954169.537 9
G10  23905154.453 7                  23905162.469 6 125622437.902 7                  97887672.534 6
G16  20644141.406 7  20644144.262 6                 108485695.692 7  84534318.857 6
G18  21017861.539 7                  21017866.148 8 110449604.064 7                  86064646.339 8
G23  21497279.195 8                  21497284.309 8 112968966.011 8                  88027807.464 8
G27  21756018.438 7                  21756025.270 7 114328647.358 7                  89087286.973 7
R07  22106260.484 7  22106267.996 7 118336541.048 7  92039555.550 7
R08  23115923.695 6  23115931.930 5 123784726.098 6  96277048.450 5
R13  21271467.125 7                 113588440.594 7
R14  20344703.398 8  20344707.598 7 108448713.072 8  84349191.388 7
R15  23465255.563 6  23465260.891 6 125391222.688 6  97526543.319 6
R22  22598497.195 6  22598501.160 4 120632322.546 6  93825142.060 4
R23  19787696.359 8                 105850834.916 8
R24  20927356.461 8  20927361.949 7 111907980.256 8  87039567.028 7
> 2025 06 15 07 37  0.0000000  0 24
C20  26194172.523 6 136399934.471 6
C26  24870485.711 6 129507140.737 6
C29  21663823.766 7 112809214.809 7
C30  22859521.641 7 119035525.916 7
E02  25815557.508 6  25815560.117 8 135661670.870 6 102627181.775 8
E10  23750626.641 8  23750627.680 9 124810382.009 8  94418247.857 9
E11  23620225.180 7  23620223.156 8 124125119.029 7  93899837.934 8
E12  25390865.602 7  25390865.586 8 133429897.153 7 100938849.532 8
E16  24129587.711 8  24129588.867 8 126801838.056 8  95924769.733 8
E24  25668028.023 7  25668030.648 8 134886394.559 7 102040689.748 8
E25  23632816.828 8  23632819.098 9 124191286.564 8  93949911.774 9
G10  23900321.805 7                  23900329.844 6 125597041.274 7                  97867882.961 6
G16  20642551.305 7  20642553.742 6                 108477338.926 7  84527807.088 6
G18  21017808.938 7                  21017813.801 8 110449327.985 7                  86064431.208 8
G23  21494010.039 7                  21494015.414 8 112951786.945 7                  88014421.166 8
G27  21752044.367 7                  21752050.543 7 114307758.390 7                  89071009.865 7
R07  22103921.992 7  22103929.574 7 118324024.403 7  92029820.384 7
R08  23110997.930 5  23111004.605 5 123758342.437 5  96256527.864 5
R13  21273460.516 7                 113599088.123 7
R14  20342544.063 8  20342548.281 7 108437201.819 8  84340238.171 7
R15  23460166.516 6  23460171.477 6 125364024.792 6  97505389.382 6
R22  22600265.914 6  22600267.965 4 120641756.644 6  93832479.638 4
R23  19787624.305 7                 105850446.181 7
R24  20923569.969 8  20923575.570 7 111887734.612 8  87023820.419 7
> 2025 06 15 07 37  5.0000000  0 24
C20  26189549.953 6 136375858.216 6
C26  24867666.469 6 129492458.254 6
C29  21661616.453 7 112797720.947 7
C30  22859963.906 7 119037825.441 7
E02  25811946.852 6  25811949.141 8 135642695.778 6 102612827.236 8
E10  23749954.234 8  23749955.398 9 124806849.306 8  94415575.391 9
E11  23618082.992 7  23618081.070 8 124113862.222 7  93891322.237 8
E12  25391277.414 7  25391277.105 8 133432059.348 7 100940485.229 8
E16  24129801.555 8  24129802.801 9 126802962.329 8  95925620.232 9
E24  25669196.523 7  25669199.191 8 134892535.546 7 102045335.358 8
E25  23631748.219 8  23631750.258 8 124185669.865 8  93945662.781 8
G10  23895489.867 7                  23895497.832 6 125571649.358 7                  97848097.058 6
G16  20640964.305 7  20640966.980 6                 108468999.759 7  84521309.035 6
G18  21017758.422 7                  21017763.613 8 110449063.277 7                  86064224.952 8
G23  21490743.609 7                  21490749.211 8 112934622.713 7                  88001046.437 8
G27  21748070.461 7                  21748076.527 7 114286877.361 7                  89054738.945 7
R07  22101587.977 7  22101595.629 7 118311529.833 7  92020102.384 7
R08  23106074.477 5  23106077.574 5 123731967.890 5  96236014.280 5
R13  21275456.555 7                 113609749.228 7
R14  20340388.695 8  20340393.195 7 108425713.677 8  84331302.962 7
R15  23455077.977 6  23455083.465 6 125336836.705 6  97484243.172 6
R22  22602032.391 6  22602036.453 4 120651193.456 6  93839819.386 4
R23  19787553.516 8                 105850068.928 8
R24  20919785.805 8  20919791.477 7 111867498.663 8  87008081.357 7
> 2025 06 15 07 37 10.0000000  0 24
C20  26184927.102 6 136351783.159 6
C26  24864849.211 6 129477788.188 6
C29  21659411.023 7 112786234.738 7
C30  22860406.227 7 119040130.116 7
E02  25808337.188 6  25808339.406 8 135623726.882 6 102598477.430 8
E10  23749283.523 8  23749284.641 9 124803324.509 8  94412908.907 9
E11  23615942.469 7  23615940.629 8 124102614.101 7  93882813.109 8
E12  25391689.813 7  25391689.590 8 133434226.736 7 100942124.819 8
E16  24130017.570 8  24130018.520 8 126804095.759 8  95926477.645 8
E24  25670366.313 8  25670368.836 8 134898681.817 8 102049984.957 8
E25  23630681.367 8  23630683.477 8 124180063.962 8  93941421.950 8
G10  23890658.625 7                  23890666.969 6 125546261.413 7                  97828314.257 6
G16  20639380.766 7  20639383.414 6                 108460677.444 7  84514824.117 6
G18  21017710.352 7                  21017715.023 8 110448809.188 7                  86064026.951 8
G23  21487479.891 7                  21487485.715 8 112917472.592 7                  87987682.725 8
G27  21744098.531 7                  21744104.324 7 114266003.526 7                  89038473.617 7
R07  22099257.227 7  22099265.766 7 118299056.493 7  92010400.896 7
R08  23101149.797 6  23101154.313 5 123705601.700 6  96215507.295 5
R13  21277455.922 7                 113620422.888 7
R14  20338238.148 8  20338242.461 7 108414247.857 8  84322385.090 7
R15  23449991.594 6  23449997.543 6 125309657.883 6  97463104.047 6
R22  22603799.594 6  22603805.441 5 120660632.294 6  93847160.687 5
R23  19787484.898 8                 105849702.230 8
R24  20916002.875 8  20916008.680 7 111847271.639 8  86992349.239 7
> 2025 06 15 07 37 15.0000000  0 24
C20  26180303.578 6 136327710.138 6
C26  24862033.961 6 129463131.410 6
C29  21657206.672 7 112774756.999 7
C30  22860849.969 7 119042440.765 7
E02  25804728.492 7  25804731.148 8 135604765.037 7 102584132.894 8
E10  23748614.625 8  23748615.566 9 124799808.395 8  94410248.979 9
E11  23613804.070 7  23613801.969 8 124091375.480 7  93874311.164 8
E12  25392103.398 7  25392103.172 8 133436400.084 7 100943768.941 8
E16  24130235.227 8  24130236.008 8 126805239.110 8  95927342.590 8
E24  25671537.234 7  25671539.594 8 134904834.170 7 102054639.158 8
E25  23629617.055 8  23629618.949 9 124174469.687 8  93937189.911 9
G10  23885828.453 7                  23885836.996 6 125520878.195 7                  97808535.163 6
G16  20637800.672 7  20637802.930 6                 108452372.743 7  84508352.923 6
G18  21017663.813 8                  21017668.617 8 110448566.473 8                  86063837.816 8
G23  21484219.148 7                  21484225.137 8 112900337.350 7                  87974330.592 8
G27  21740127.875 7                  21740133.422 7 114245137.684 7                  89022214.530 7
R07  22096931.961 7  22096939.543 7 118286605.356 7  92000716.705 7
R08  23096229.570 6  23096233.168 5 123679244.526 6  96195007.289 5
R13  21279456.633 7                 113631109.914 7
R14  20336091.375 8  20336095.793 7 108402805.164 8  84313485.212 7
R15  23444908.734 6  23444913.406 6 125282489.164 6  97441972.872 6
R22  22605567.688 5  22605574.602 4 120670073.858 5  93854504.204 4
R23  19787418.742 8                 105849347.011 8
R24  20912222.469 8  20912228.273 7 111827054.465 8  86976624.766 7
> 2025 06 15 07 37 20.0000000  0 23
C20  26175680.414 6 136303638.519 6
C26  24859222.484 6 129448487.364 6
C29  21655003.727 7 112763287.167 7
C30  22861294.703 7 119044756.802 7
E02  25801121.375 7  25801123.910 7 135585809.694 7 102569793.339 7
E10  23747946.836 8  23747947.914 8 124796300.415 8  94407595.230 8
E11  23611666.914 7  23611665.074 8 124080145.818 7  93865816.002 8
E12  25392518.313 7  25392517.750 8 133438578.875 7 100945417.175 8
E16  24130454.578 8  24130455.430 8 126806391.859 8  95928214.613 8
E24  25672709.195 7  25672711.539 8 134910992.058 7 102059297.541 8
E25  23628554.102 8  23628556.496 8 124168886.486 8  93932966.249 8
G10  23880999.086 7                  23881007.250 7 125495499.222 7                  97788759.343 7
G16  20636223.477 7  20636225.902 6                 108444085.134 7  84501895.043 6
G18  21017619.875 7                  21017624.910 8 110448334.606 7                  86063657.152 8
G23  21480960.844 7                  21480967.035 8 112883216.473 7                  87960989.644 8
G27  21736158.563 7                  21736164.352 7 114224279.332 7                  89005961.302 7
R07  22094611.273 7  22094618.195 7 118274176.188 7  91991049.572 7
R08  23091307.250 6  23091310.262 4 123652896.200 6  96174514.139 4
R13  21281459.445 6                 113641809.896 6
R14  20333948.266 8  20333953.563 7 108391385.164 8  84304603.006 7
R22  22607338.586 6  22607343.840 5 120679517.758 6  93861849.446 5
R23  19787355.195 8                 105849002.569 8
R24  20908443.422 8  20908449.012 7 111806846.484 8  86960907.451 7
> 2025 06 15 07 37 25.0000000  0 24
C20  26171057.250 6 136279567.991 6
C26  24856411.289 6 129433855.587 6
C29  21652802.609 7 112751824.880 7
C30  22861740.891 7 119047077.892 7
E02  25797515.563 6  25797518.199 8 135566860.313 6 102555458.224 8
E10  23747280.797 8  23747281.965 9 124792800.203 8  94404947.336 9
E11  23609531.867 7  23609529.738 8 124068924.694 7  93857327.296 8
E12  25392933.766 7  25392933.262 8 133440762.639 7 100947069.160 8
E16  24130675.773 8  24130676.570 8 126807553.643 8  95929093.495 8
E24  25673881.836 7  25673884.285 8 134917155.061 7 102063959.802 8
E25  23627493.906 8  23627496.066 8 124163313.950 8  93928750.672 8
G10  23876169.977 7                  23876178.625 7 125470124.125 7                  97768986.563 7
G16  20634649.367 7  20634652.016 6                 108435814.250 7  84495450.194 6
G18  21017577.867 7                  21017582.484 8 110448113.231 7                  86063484.633 8
G23  21477706.477 7                  21477711.586 8 112866109.589 7                  87947659.612 8
G27  21732191.031 7                  21732196.750 7 114203428.030 7                  88989713.503 7
R07  22092293.914 7  22092299.711 7 118261767.926 7  91981398.719 7
R08  23086388.648 6  23086390.688 5 123626555.970 6  96154027.248 5
R13  21283466.234 6                 113652522.245 6
R14  20331810.484 8  20331815.809 7 108379987.473 8  84295738.124 7
R15  23434746.125 6  23434749.902 6 125228179.86916  97399732.31716
R22  22609107.305 5  22609112.230 5 120688963.405 5  93869196.037 5
R23  19787293.055 8                 105848668.750 8
R24  20904665.836 8  20904671.328 7 111786647.274 8  86945196.963 7
> 2025 06 15 07 37 30.0000000  0 24
C20  26166434.625 6 136255497.893 6
C26  24853603.883 6 129419235.501 6
C29  21650602.344 7 112740369.464 7
C30  22862187.258 7 119049403.356 7
E02  25793910.813 7  25793913.262 8 135547916.443 7 102541127.313 8
E10  23746615.930 8  23746617.223 9 124789307.048 8  94402304.791 9
E11  23607397.750 7  23607395.973 8 124057711.489 7  93848844.573 8
E12  25393350.195 7  25393349.641 8 133442950.793 7 100948724.488 8
E16  24130898.438 8  24130899.203 8 126808723.752 8  95929978.661 8
E24  25675055.477 7  25675057.785 8 134923322.539 7 102068625.456 8
E25  23626435.555 8  23626437.566 9 124157751.435 8  93924542.655 9
G10  23871342.398 7                  23871350.797 7 125444752.210 7                  97749216.231 7
G16  20633078.641 7  20633081.098 6                 108427559.408 7  84489017.855 6
G18  21017537.492 7                  21017542.098 8 110447901.623 7                  86063319.750 8
G23  21474453.172 7                  21474458.773 8 112849016.032 7                  87934339.972 8
G27  21728224.102 7                  21728229.574 7 114182583.154 7                  88973470.749 7
R07  22089978.398 7  22089985.199 7 118249380.505 7  91971764.024 7
R08  23081470.102 6  23081474.434 5 123600223.341 6  96133546.371 5
R13  21285473.773 6                 113663246.360 6
R14  20329675.953 8  20329681.590 7 108368611.276 8  84286889.975 7
R15  23429665.633 6  23429670.852 6 125201038.121 6  97378622.108 6
R22  22610877.477 6  22610881.895 4 120698410.279 6  93876543.533 4
R23  19787232.258 8                 105848344.486 8
R24  20900889.781 8  20900896.066 7 111766456.274 8  86929492.844 7
> 2025 06 15 07 37 35.0000000  0 24
C20  26161812.547 6 136231430.922 6
C26  24850798.875 6 129404629.842 6
C29  21648404.648 7 112728923.613 7
C30  22862635.383 7 119051735.872 7
E02  25790307.656 6  25790310.027 8 135528980.714 6 102526802.566 8
E10  23745952.922 8  23745954.344 9 124785823.702 8  94399669.656 9
E11  23605266.250 7  23605264.168 8 124046508.869 7  93840369.874 8
E12  25393768.086 7  25393767.336 8 133445145.938 7 100950385.096 8
E16  24131123.523 8  24131123.984 8 126809904.893 8  95930872.184 8
E24  25676230.563 7  25676232.758 8 134929497.156 7 102073296.505 8
E25  23625379.414 8  23625381.469 8 124152201.655 8  93920344.282 8
G10  23866515.906 7                  23866523.977 7 125419386.203 7                  97729450.526 7
G16  20631511.539 7  20631513.805 6                 108419323.372 7  84482600.157 6
G18  21017500.023 7                  21017504.332 8 110447702.502 7                  86063164.574 8
G23  21471203.219 7                  21471208.957 8 112831938.508 7                  87921032.802 8
G27  21724258.969 7                  21724264.746 7 114161747.435 7                  88957235.124 7
R07  22087669.352 7  22087675.305 7 118237016.093 7  91962147.265 7
R08  23076555.492 6  23076559.445 5 123573901.021 6  96113073.482 5
R13  21287485.883 6                 113673984.826 6
R14  20327546.695 8  20327552.082 7 108357259.585 8  84278060.885 7
R15  23424589.102 6  23424593.992 6 125173907.709 6  97357520.690 6
R22  22612649.023 6  22612653.094 4 120707861.070 6  93883894.189 4
R23  19787173.977 8                 105848032.926 8
R24  20897116.141 8  20897122.035 7 111746276.195 8  86913797.240 7
> 2025 06 15 07 37 40.0000000  0 24
C20  26157190.258 6 136207366.386 6
C26  24847995.859 6 129390037.774 6
C29  21646207.828 7 112717486.555 7
C30  22863084.711 7 119054074.636 7
E02  25786705.586 7  25786707.969 8 135510052.367 7 102512483.393 8
E10  23745291.969 8  23745293.164 9 124782349.364 8  94397041.338 9
E11  23603136.219 7  23603134.227 8 124035316.070 7  93831902.589 8
E12  25394186.953 7  25394186.273 8 133447347.347 7 100952050.428 8
E16  24131350.000 8  24131350.715 8 126811096.311 8  95931773.477 8
E24  25677406.508 7  25677408.996 8 134935678.142 7 102077972.372 8
E25  23624325.523 8  23624327.645 9 124146663.794 8  93916154.923 9
G10  23861689.234 7                  23861697.961 7 125394025.353 7                  97709688.844 7
G16  20629947.891 7  20629950.211 6                 108411105.269 7  84476196.436 6
G18  21017464.156 7                  21017468.578 8 110447515.079 7                  86063018.533 8
G23  21467956.750 7                  21467962.211 8 112814876.255 7                  87907737.543 8
G27  21720295.914 7                  21720301.789 7 114140920.096 7                  88941006.033 7
R07  22085364.047 7  22085369.906 7 118224674.515 7  91952548.272 7
R08  23071642.656 6  23071647.250 5 123547588.274 6  96092608.018 5
R13  21289499.461 6                 113684736.962 6
R14  20325421.844 8  20325426.355 7 108345931.318 8  84269249.996 7
R15  23419512.609 6  23419518.480 6 125146787.646 6  97336427.316 6
R22  22614417.000 5  22614423.320 5 120717314.869 5  93891247.208 5
R23  19787117.883 8                 105847733.047 8
R24  20893345.219 8  20893350.148 7 111726106.124 8  86898109.416 7
> 2025 06 15 07 37 45.0000000  0 24
C20  26152568.805 6 136183304.186 6
C26  24845196.453 6 129375459.237 6
C29  21644013.070 7 112706058.265 7
C30  22863534.898 7 119056419.662 7
E02  25783105.172 7  25783107.359 8 135491131.337 7 102498169.777 8
E10  23744632.914 8  23744633.734 9 124778883.985 8  94394419.796 9
E11  23601007.992 7  23601006.176 8 124024133.072 7  93823442.729 8
E12  25394607.156 7  25394606.398 8 133449555.033 7 100953720.527 8
E16  24131578.531 8  24131579.387 8 126812297.933 8  95932682.496 8
E24  25678583.969 7  25678586.441 8 134941865.517 7 102082653.063 8
E25  23623274.086 8  23623276.070 9 124141137.875 8  93911974.603 9
G10  23856864.000 7                  23856872.609 7 125368669.628 7                  97689931.151 7
G16  20628386.883 7  20628390.004 6                 108402905.129 7  84469806.721 6
G18  21017430.344 7                  21017435.152 8 110447339.315 7                  86062881.561 8
G23  21464712.773 7                  21464718.035 8 112797829.263 7                  87894454.179 8
G27  21716333.625 7                  21716340.098 7 114120101.088 7                  88924783.426 7
R07  22083061.250 7  22083068.684 7 118212355.234 7  91942966.617 7
R08  23066728.867 6  23066733.895 4 123521285.205 6  96072150.149 4
R13  21291516.211 6                 113695502.763 6
R14  20323301.680 8  20323306.199 7 108334626.580 8  84260457.414 7
R15  23414438.898 6  23414445.539 6 125119678.151 6  97315342.148 6
R22  22616189.016 5  22616195.234 4 120726771.779 5  93898602.535 4
R23  19787063.789 8                 105847444.806 8
R24  20889574.773 8  20889580.063 7 111705946.290 8  86882429.563 7
> 2025 06 15 07 37 50.0000000  0 24
C20  26147948.227 6 136159243.107 6
C26  24842399.523 6 129360893.125 6
C29  21641819.875 7 112694637.562 7
C30  22863986.125 7 119058769.766 7
E02  25779505.406 7  25779508.004 8 135472216.530 7 102483860.852 8
E10  23743974.484 8  23743975.809 9 124775426.388 8  94391804.144 9
E11  23598881.680 7  23598879.742 8 124012958.687 7  93814989.382 8
E12  25395027.992 7  25395027.578 8 133451767.760 7 100955394.423 8
E16  24131809.047 8  24131809.801 8 126813508.621 8  95933598.365 8
E24  25679762.563 7  25679764.859 8 134948058.035 7 102087337.652 8
E25  23622224.625 8  23622226.609 9 124135622.692 8  93907802.401 9
G10  23852039.500 7                  23852047.625 6 125343317.890 7                  97670176.548 6
G16  20626829.789 7  20626832.598 6                 108394721.798 7  84463430.090 6
G18  21017399.219 7                  21017403.543 8 110447174.006 7                  86062752.738 8
G23  21461471.570 7                  21461476.555 8 112780796.342 7                  87881181.799 8
G27  21712373.453 7                  21712379.445 7 114099289.235 7                  88908566.400 7
R07  22080764.695 7  22080771.219 7 118200057.458 7  91933401.708 7
R08  23061816.320 6  23061824.371 5 123494990.474 6  96051698.712 5
R13  21293535.789 6                 113706280.907 6
R14  20321184.578 8  20321189.969 7 108323344.163 8  84251682.206 7
R15  23409368.328 6  23409374.852 6 125092577.906 6  97294264.219 6
R22  22617961.750 5  22617966.949 5 120736230.440 5  93905959.296 5
R23  19787011.984 8                 105847167.053 8
R24  20885807.258 8  20885811.832 7 111685795.314 8  86866756.597 7
> 2025 06 15 07 37 55.0000000  0 24
C20  26143328.320 6 136135182.625 6
C26  24839603.969 6 129346338.800 6
C29  21639627.500 7 112683223.773 7
C30  22864438.734 7 119061124.251 7
E02  25775907.375 7  25775909.789 8 135453307.160 7 102469556.049 8
E10  23743317.992 8  23743319.203 9 124771975.892 8  94389193.864 9
E11  23596756.695 7  23596754.824 8 124001792.234 7  93806542.035 8
E12  25395450.039 7  25395449.445 8 133453984.834 7 100957071.618 8
E16  24132040.875 8  24132041.785 8 126814727.647 8  95934520.553 8
E24  25680941.703 8  25680944.211 8 134954255.027 8 102092025.629 8
E25  23621176.789 8  23621179.051 9 124130117.581 8  93903637.819 9
G10  23847216.211 7                  23847223.980 6 125317969.433 7                  97650424.529 6
G16  20625276.367 7  20625278.867 6                 108386554.545 7  84457065.991 6
G18  21017369.211 7                  21017373.891 8 110447018.501 7                  86062631.560 8
G23  21458232.297 7                  21458237.715 8 112763776.852 7                  87867919.870 8
G27  21708414.281 7                  21708420.484 7 114078483.915 7                  88892354.462 7
R07  22078470.727 7  22078477.922 7 118187780.177 7  91923852.702 7
R08  23056908.086 6  23056916.266 5 123468703.582 6  96031253.359 5
R13  21295554.922 7                 113717070.768 7
R14  20319072.406 8  20319077.492 7 108312083.399 8  84242923.814 7
R15  23404297.555 6  23404304.594 6 125065486.289 6  97273192.938 6
R22  22619732.898 4  22619739.172 5 120745690.428 4  93913317.084 5
R23  19786961.523 8                 105846899.120 8
R24  20882039.414 8  20882044.836 7 111665652.393 8  86851089.865 7
> 2025 06 15 07 38  0.0000000  0 23
C20  26138707.727 6 136111123.751 6
C26  24836812.516 6 129331797.265 6
C29  21637437.695 7 112671817.947 7
C30  22864891.758 7 119063484.167 7
E02  25772310.469 7  25772312.633 8 135434404.430 7 102455256.250 8
E10  23742662.688 8  23742664.117 8 124768533.542 8  94386589.753 8
E11  23594633.758 7  23594631.586 8 123990634.729 7  93798101.455 8
E12  25395872.914 7  25395872.414 8 133456207.301 7 100958752.904 8
E16  24132274.703 8  24132275.570 8 126815956.103 8  95935449.868 8
E24  25682121.852 7  25682124.535 8 134960457.533 7 102096717.768 8
E25  23620131.367 8  23620133.570 9 124124623.575 8  93899481.638 9
G10  23842392.891 7                  23842400.793 6 125292625.342 7                  97630675.882 6
G16  20623725.313 7  20623728.016 6                 108378404.437 7  84450715.258 6
G18  21017341.789 7                  21017346.414 8 110446873.822 7                  86062518.823 8
G23  21454996.500 7                  21455001.695 8 112746771.838 7                  87854669.215 8
G27  21704457.148 7                  21704463.129 7 114057686.147 7                  88876148.408 7
R07  22076181.422 7  22076188.492 7 118175524.838 7  91914320.777 7
R08  23052003.164 6  23052008.875 5 123442425.452 6  96010814.779 5
R13  21297577.688 7                 113727873.269 7
R14  20316963.813 8  20316969.254 7 108300845.336 8  84234183.104 7
R15  23399230.078 6  23399235.938 6 125038404.266 6  97252129.146 6
R23  19786913.133 8                 105846642.046 8
R24  20878274.219 8  20878279.906 7 111645518.829 8  86835430.427 7
> 2025 06 15 07 38  5.0000000  0 23
C20  26134088.297 6 136087067.025 6
C26  24834022.016 6 129317269.099 6
C29  21635248.328 7 112660420.658 7
C30  22865346.125 7 119065850.066 7
E02  25768715.063 7  25768716.855 8 135415508.832 7 102440961.863 8
E10  23742009.453 8  23742010.684 9 124765099.910 8  94383992.236 9
E11  23592512.211 7  23592510.195 8 123979486.801 7  93789668.127 8
E12  25396296.820 7  25396296.469 8 133458435.748 7 100960438.713 8
E16  24132510.367 8  24132511.227 8 126817194.541 8  95936386.734 8
E24  25683303.391 8  25683306.016 8 134966666.133 8 102101414.514 8
E25  23619088.273 8  23619090.309 9 124119141.277 8  93895334.308 9
G10  23837570.961 7                  23837578.875 6 125267286.225 7                  97610931.120 6
G16  20622177.375 7  20622180.684 6                 108370272.060 7  84444378.346 6
G18  21017316.133 7                  21017320.906 8 110446740.542 7                  86062414.968 8
G23  21451763.336 7                  21451768.441 8 112729781.868 7                  87841430.281 8
G27  21700500.320 7                  21700507.086 7 114036896.524 7                  88859948.704 7
R07  22073895.484 7  22073903.348 7 118163291.621 7  91904806.060 7
R08  23047096.203 6  23047103.801 5 123416156.734 6  95990383.562 5
R13  21299604.133 7                 113738689.249 7
R14  20314860.094 8  20314865.578 7 108289630.639 8  84225460.557 7
R15  23394164.148 6  23394170.145 6 125011332.602 6  97231073.412 6
R23  19786867.641 8                 105846396.258 8
R24  20874511.102 8  20874516.504 7 111625395.182 8  86819778.701 7
> 2025 06 15 07 38 10.0000000  0 23
C20  26129469.430 6 136063013.742 6
C26  24831234.445 6 129302755.590 6
C29  21633061.305 7 112649033.155 7
C30  22865802.016 7 119068223.253 7
E02  25765121.008 7  25765122.797 8 135396621.682 7 102426673.840 8
E10  23741357.656 8  23741359.266 9 124761676.248 8  94381402.248 9
E11  23590392.852 7  23590390.879 8 123968349.702 7  93781242.978 8
E12  25396722.180 7  25396721.957 8 133460671.427 7 100962129.976 8
E16  24132747.891 8  24132749.023 8 126818444.219 8  95937332.094 8
E24  25684486.023 7  25684488.922 8 134972882.103 7 102106116.840 8
E25  23618047.633 8  23618049.473 8 124113671.908 8  93891196.765 8
G10  23832750.117 7                  23832758.379 6 125241953.295 7                  97591191.209 6
G16  20620633.953 7  20620636.820 6                 108362158.675 7  84438056.224 6
G18  21017293.711 7                  21017298.148 8 110446619.935 7                  86062320.983 8
G23  21448533.492 8                  21448538.531 8 112712808.229 8                  87828204.063 8
G27  21696546.766 7                  21696552.602 7 114016116.297 7                  88843756.322 7
R07  22071615.961 7  22071622.672 7 118151082.212 7  91895309.851 7
R08  23042193.742 6  23042200.707 5 123389898.790 6  95969960.729 5
R13  21301631.016 7                 113749519.549 7
R14  20312760.805 8  20312765.992 7 108278440.550 8  84216757.158 7
R15  23389100.156 6  23389106.066 6 124984272.591 6  97210026.742 6
R23  19786823.555 8                 105846163.219 8
R24  20870750.320 8  20870755.008 7 111605282.629 8  86804135.610 7
> 2025 06 15 07 38 15.0000000  0 23
C20  26124850.586 6 136038961.516 6
C26  24828450.383 6 129288254.266 6
C29  21630876.313 7 112637653.026 7
C30  22866258.180 7 119070601.247 7
E02  25761527.766 7  25761529.852 8 135377740.479 7 102412390.346 8
E10  23740707.898 8  23740709.195 9 124758260.139 8  94378817.977 9
E11  23588275.250 7  23588273.188 8 123957220.998 7  93772824.184 8
E12  25397148.680 7  25397148.320 8 133462911.892 7 100963824.872 8
E16  24132987.570 8  24132988.535 8 126819702.703 8  95938284.117 8
E24  25685669.961 7  25685672.688 8 134979102.960 7 102110822.858 8
E25  23617008.578 8  23617010.703 9 124108213.086 8  93887067.195 9
G10  23827930.398 7                  23827938.652 6 125216624.169 7                  97571454.233 6
G16  20619093.133 7  20619095.789 6                 108354061.853 7  84431747.006 6
G18  21017272.703 7                  21017277.328 8 110446509.514 7                  86062234.950 8
G23  21445306.156 7                  21445311.289 8 112695848.495 7                  87814988.688 8
G27  21692593.086 7                  21692599.531 7 113995343.067 7                  88827569.404 7
R07  22069338.742 7  22069345.695 7 118138893.828 7  91885829.988 7
R08  23037290.859 6  23037298.266 6 123363649.113 6  95949544.328 6
R13  21303662.383 7                 113760362.151 7
R14  20310665.852 8  20310671.273 7 108267272.620 8  84208070.985 7
R15  23384038.102 6  23384044.094 6 124957221.616 6  97188987.116 6
R23  19786782.492 8                 105845940.504 8
R24  20866990.523 8  20866995.527 7 111585178.778 8  86788499.284 7
> 2025 06 15 07 38 20.0000000  0 23
C20  26120231.945 6 136014909.943 6
C26  24825668.578 6 129273764.840 6
C29  21628692.453 7 112626279.909 7
C30  22866715.945 7 119072983.688 7
E02  25757935.867 7  25757937.926 8 135358864.906 7 102398111.094 8
E10  23740059.094 8  23740060.539 9 124754851.156 8  94376239.097 9
E11  23586158.992 7  23586156.961 8 123946100.261 7  93764411.421 8
E12  25397575.797 7  25397575.563 8 133465156.765 7 100965523.088 8
E16  24133228.313 8  24133229.586 9 126820969.588 8  95939242.511 9
E24  25686854.836 7  25686857.305 8 134985328.319 7 102115532.298 8
E25  23615971.961 8  23615973.863 9 124102764.371 8  93882945.275 9
G10  23823111.234 7                  23823118.930 6 125191298.500 7                  97551719.937 6
G16  20617554.711 7  20617558.254 6                 108345981.250 7  84425450.431 6
G18  21017253.125 7                  21017257.906 8 110446408.927 7                  86062156.567 8
G23  21442081.117 7                  21442086.430 8 112678902.288 7                  87801783.861 8
G27  21688641.805 7                  21688648.180 7 113974576.445 7                  88811387.597 7
R07  22067064.641 7  22067072.387 7 118126726.214 7  91876366.284 7
R08  23032390.125 6  23032398.094 6 123337407.358 6  95929134.106 6
R13  21305694.547 6                 113771216.367 6
R14  20308575.117 8  20308579.672 8 108256126.370 8  84199401.702 8
R15  23378976.430 6  23378983.668 6 124930179.394 6  97167954.274 6
R23  19786741.672 8                 105845727.535 8
R24  20863233.023 8  20863237.789 7 111565083.228 8  86772869.411 7
> 2025 06 15 07 38 25.0000000  0 23
C20  26115612.523 6 135990859.714 6
C26  24822888.945 6 129259287.885 6
C29  21626509.961 7 112614914.431 7
C30  22867174.531 7 119075371.237 7
E02  25754345.375 7  25754347.238 8 135339995.618 7 102383836.620 8
E10  23739412.141 8  23739413.305 9 124751450.024 8  94373666.159 9
E11  23584044.438 7  23584042.414 8 123934988.210 7  93756005.230 8
E12  25398004.039 7  25398003.645 8 133467406.714 7 100967225.163 8
E16  24133471.516 8  24133472.418 8 126822245.593 8  95940207.782 8
E24  25688040.305 7  25688043.145 8 134991558.915 7 102120245.677 8
E25  23614936.938 8  23614939.090 8 124097326.486 8  93878831.548 8
G10  23818292.680 7                  23818300.547 6 125165976.970 7                  97531988.933 6
G16  20616020.594 8  20616023.602 6                 108337917.508 8  84419167.007 6
G18  21017236.102 7                  21017240.754 8 110446318.831 7                  86062086.359 8
G23  21438859.219 7                  21438864.355 8 112661970.300 7                  87788590.115 8
G27  21684691.203 7                  21684697.570 7 113953817.100 7                  88795211.508 7
R07  22064796.703 7  22064803.391 7 118114580.090 7  91866919.329 7
R08  23027491.797 6  23027499.156 5 123311174.193 6  95908730.563 5
R13  21307730.867 6                 113782082.855 6
R14  20306487.898 8  20306493.410 8 108245002.637 8  84190749.906 8
R15  23373917.547 6  23373925.043 6 124903146.524 6  97146928.748 6
R23  19786704.305 8                 105845525.184 8
R24  20859476.297 8  20859481.313 7 111544996.678 8  86757246.548 7
> 2025 06 15 07 38 30.0000000  0 23
C20  26110994.672 5 135966811.734 5
C26  24820110.789 6 129244824.446 6
C29  21624328.523 7 112603557.553 7
C30  22867634.336 7 119077764.817 7
E02  25750755.984 7  25750757.891 8 135321133.595 7 102369567.617 8
E10  23738766.344 8  23738767.750 9 124748057.609 8  94371099.823 9
E11  23581931.531 7  23581929.621 8 123923885.776 7  93747606.305 8
E12  25398433.391 7  25398432.984 8 133469662.668 7 100968931.767 8
E16  24133716.070 8  24133717.176 8 126823531.600 8  95941180.639 8
E24  25689227.477 7  25689230.023 8 134997795.610 7 102124963.683 8
E25  23613904.273 8  23613906.496 8 124091900.348 8  93874726.701 8
G10  23813474.922 7                  23813483.105 6 125140660.476 7                  97512261.795 6
G16  20614489.703 7  20614492.434 6                 108329871.536 7  84412897.411 6
G18  21017221.266 7                  21017225.930 8 110446240.163 7                  86062025.062 8
G23  21435640.180 7                  21435645.098 8 112645053.463 7                  87775408.175 8
G27  21680741.961 7                  21680748.836 7 113933066.004 7                  88779041.813 7
R07  22062531.008 7  22062538.602 7 118102456.505 7  91857489.874 7
R08  23022595.102 6  23022600.211 5 123284950.592 6  95888334.390 5
R13  21309766.484 6                 113792962.528 6
R14  20304405.266 8  20304410.961 8 108233902.225 8  84182116.245 8
R15  23368860.758 6  23368868.133 6 124876124.268 6  97125911.412 6
R23  19786668.727 8                 105845334.188 8
R24  20855721.977 8  20855727.711 7 111524920.044 8  86741631.390 7
> 2025 06 15 07 38 35.0000000  0 23
C20  26106376.852 5 135942766.273 5
C26  24817335.992 6 129230374.633 6
C29  21622149.602 7 112592209.470 7
C30  22868095.336 7 119080164.642 7
E02  25747168.211 7  25747170.031 8 135302279.024 7 102355304.250 8
E10  23738122.414 8  23738123.930 9 124744674.138 8  94368540.245 9
E11  23579820.625 7  23579818.805 8 123912793.103 7  93739214.770 8
E12  25398863.828 7  25398863.473 8 133471924.802 7 100970643.051 8
E16  24133962.984 8  24133963.820 9 126824827.807 8  95942161.210 9
E24  25690415.430 7  25690418.043 8 135004038.581 7 102129686.430 8
E25  23612874.172 8  23612876.227 9 124086486.142 8  93870630.887 9
G10  23808659.023 7                  23808666.641 6 125115349.265 7                  97492538.781 6
G16  20612961.508 7  20612964.879 6                 108321843.572 7  84406641.867 6
G18  21017208.445 7                  21017213.156 8 110446173.097 7                  86061972.786 8
G23  21432423.914 7                  21432428.961 8 112628151.978 7                  87762238.188 8
G27  21676795.109 7                  21676801.793 7 113912323.342 7                  88762878.691 7
R07  22060271.383 7  22060278.172 7 118090355.402 7  91848077.876 7
R08  23017700.672 6  23017704.715 5 123258736.793 6  95867945.972 5
R13  21311806.398 6                 113803855.787 6
R14  20302327.617 8  20302333.094 8 108222825.459 8  84173500.979 8
R15  23363806.797 6  23363813.168 6 124849112.598 6  97104902.389 6
R23  19786634.984 8                 105845154.732 8
R24  20851969.586 8  20851974.520 7 111504853.580 8  86726024.136 7
> 2025 06 15 07 38 40.0000000  0 23
C20  26101759.531 6 135918722.948 6
C26  24814562.539 6 129215938.111 6
C29  21619971.844 7 112580869.755 7
C30  22868557.016 7 119082570.265 7
E02  25743581.375 7  25743583.418 8 135283431.486 7 102341046.208 8
E10  23737480.156 8  23737481.672 8 124741299.204 8  94365987.125 8
E11  23577711.695 7  23577709.781 8 123901709.835 7  93730830.351 8
E12  25399295.344 7  25399295.008 8 133474192.754 7 100972358.741 8
E16  24134211.344 8  24134212.410 8 126826133.825 8  95943149.189 8
E24  25691604.680 7  25691607.199 8 135010287.470 7 102134413.659 8
E25  23611845.977 8  23611848.156 9 124081083.496 8  93866543.816 9
G10  23803843.305 7                  23803851.164 6 125090042.964 7                  97472819.616 6
G16  20611437.367 7  20611440.516 6                 108313833.177 7  84400399.995 6
G18  21017197.844 7                  21017202.949 8 110446117.222 7                  86061929.236 8
G23  21429210.805 7                  21429215.563 8 112611265.480 7                  87749079.877 8
G27  21672849.227 7                  21672856.359 7 113891588.707 7                  88746721.838 7
R07  22058014.500 7  22058021.801 7 118078276.592 7  91838683.254 7
R08  23012804.281 6  23012810.961 5 123232532.479 6  95847564.789 5
R13  21313849.289 6                 113814761.965 6
R14  20300253.656 8  20300259.289 8 108211771.948 8  84164903.804 8
R15  23358752.984 6  23358760.426 6 124822111.251 6  97083901.374 6
R23  19786602.758 8                 105844986.593 8
R24  20848219.328 8  20848224.336 7 111484796.937 8  86710424.512 7
> 2025 06 15 07 38 45.0000000  0 23
C20  26097142.406 6 135894681.924 6
C26  24811793.609 6 129201515.034 6
C29  21617795.961 7 112569538.664 7
C30  22869020.266 7 119084981.940 7
E02  25739996.719 7  25739998.230 8 135264591.213 7 102326793.657 8
E10  23736839.555 8  23736841.109 9 124737933.016 8  94363440.619 9
E11  23575604.664 7  23575602.516 8 123890636.177 7  93722453.205 8
E12  25399727.883 7  25399727.766 8 133476466.682 7 100974078.954 8
E16  24134462.008 8  24134462.805 8 126827449.862 8  95944144.756 8
E24  25692794.859 7  25692797.484 8 135016542.473 7 102139145.509 8
E25  23610819.922 8  23610822.320 9 124075692.586 8  93862465.629 9
G10  23799027.781 7                  23799036.695 6 125064741.739 7                  97453104.393 6
G16  20609916.617 7  20609919.617 6                 108305840.596 7  84394172.003 6
G18  21017189.570 7                  21017194.199 8 110446072.752 7                  86061894.589 8
G23  21425999.844 7                  21426004.867 8 112594394.159 7                  87735933.403 8
G27  21668905.914 7                  21668912.188 7 113870862.353 7                  88730571.439 7
R07  22055762.086 7  22055768.949 7 118066220.143 7  91829306.023 7
R08  23007912.594 6  23007920.105 5 123206337.919 6  95827191.244 5
R13  21315893.141 6                 113825681.448 6
R14  20298184.414 8  20298190.191 8 108200741.757 8  84156324.785 8
R15  23353702.648 6  23353709.453 6 124795120.424 6  97062908.524 6
R23  19786574.086 8                 105844829.894 8
R24  20844470.000 8  20844475.176 7 111464750.046 8  86694832.502 7
> 2025 06 15 07 38 50.0000000  0 23
C20  26092526.063 6 135870641.660 6
C26  24809026.117 6 129187103.894 6
C29  21615621.414 7 112558214.566 7
C30  22869484.141 7 119087398.039 7
E02  25736412.625 7  25736414.211 8 135245756.597 7 102312545.400 8
E10  23736200.336 8  23736201.898 9 124734573.941 8  94360899.506 9
E11  23573498.828 7  23573496.813 8 123879570.539 7  93714082.120 8
E12  25400161.539 7  25400161.316 8 133478744.980 7 100975802.473 8
E16  24134713.992 8  24134714.875 8 126828774.303 8  95945146.683 8
E24  25693986.000 7  25693988.617 8 135022801.950 7 102143880.746 8
E25  23609796.508 8  23609798.387 8 124070311.851 8  93858395.128 8
G10  23794214.492 7                  23794222.777 7 125039444.025 7                  97433391.911 7
G16  20608398.508 7  20608401.723 6                 108297864.212 7  84387956.640 6
G18  21017183.531 7                  21017187.797 8 110446038.066 7                  86061867.549 8
G23  21422792.117 7                  21422797.023 8 112577536.432 7                  87722797.510 8
G27  21664962.289 7                  21664969.523 7 113850142.633 7                  88714426.208 7
R07  22053514.453 7  22053521.328 7 118054184.704 7  91819945.123 7
R08  23003023.602 6  23003029.867 5 123180151.353 6  95806823.896 5
R13  21317940.727 6                 113836612.324 6
R14  20296119.500 8  20296124.668 8 108189733.396 8  84147762.725 8
R15  23348651.883 6  23348659.855 6 124768138.542 6  97041922.643 6
R23  19786546.719 8                 105844682.907 8
R24  20840722.789 8  20840728.324 7 111444711.530 8  86679246.968 7
> 2025 06 15 07 38 55.0000000  0 23
C20  26087909.961 6 135846602.630 6
C26  24806261.516 6 129172705.140 6
C29  21613447.992 7 112546897.990 7
C30  22869948.883 7 119089819.093 7
E02  25732829.727 7  25732831.160 8 135226928.181 7 102298301.837 8
E10  23735562.758 8  23735564.145 9 124731222.522 8  94358364.175 9
E11  23571394.820 7  23571392.688 8 123868513.396 7  93705717.463 8
E12  25400595.961 7  25400595.824 8 133481028.132 7 100977529.645 8
E16  24134967.773 8  24134968.563 8 126830107.658 8  95946155.350 8
E24  25695178.328 7  25695180.691 8 135029066.435 7 102148619.789 8
E25  23608774.563 8  23608776.527 9 124064941.759 8  93854332.697 9
G10  23789401.156 7                  23789409.238 7 125014150.356 7                  97413682.562 7
G16  20606884.109 8  20606887.102 6                 108289904.555 8  84381754.308 6
G18  21017178.156 7                  21017182.926 8 110446013.676 7                  86061848.533 8
G23  21419586.672 7                  21419591.773 8 112560692.820 7                  87709672.613 8
G27  21661021.273 7                  21661028.105 7 113829430.108 7                  88698286.584 7
R07  22051269.914 7  22051276.910 7 118042170.469 7  91810600.724 7
R08  22998134.938 6  22998140.938 5 123153973.251 6  95786463.146 5
R13  21319990.969 6                 113847555.351 6
R14  20294058.477 8  20294064.262 8 108178747.364 8  84139218.030 8
R15  23343606.141 6  23343611.934 6 124741165.932 6  97020943.948 6
R23  19786520.555 8                 105844546.232 8
R24  20836977.063 8  20836982.164 7 111424681.864 8  86663668.339 7
> 2025 06 15 07 39  0.0000000  0 23
C20  26083293.922 6 135822566.139 6
C26  24803499.219 6 129158320.040 6
C29  21611276.680 7 112535590.141 7
C30  22870415.289 7 119092246.301 7
E02  25729248.070 7  25729249.637 8 135208107.185 7 102284063.877 8
E10  23734927.047 8  23734928.070 9 124727879.958 8  94355835.545 9
E11  23569292.578 7  23569290.461 8 123857465.989 7  93697360.173 8
E12  25401031.547 7  25401031.484 8 133483317.397 7 100979261.458 8
E16  24135223.266 8  24135224.227 8 126831451.169 8  95947171.702 8
E24  25696371.234 7  25696373.957 8 135035337.158 7 102153363.536 8
E25  23607754.711 8  23607756.910 9 124059583.569 8  93850279.257 9
G10  23784589.016 7                  23784597.422 7 124988861.993 7                  97393977.366 7
G16  20605372.742 7  20605375.629 6                 108281962.861 7  84375565.976 6
G18  21017175.828 7                  21017180.277 8 110446000.806 7                  86061838.503 8
G23  21416384.609 7                  21416389.395 7 112543864.551 7                  87696559.677 7
G27  21657081.945 7                  21657088.195 7 113808726.019 7                  88682153.525 7
R07  22049029.094 7  22049035.988 7 118030178.731 7  91801273.825 7
R08  22993247.836 6  22993255.254 5 123127805.060 6  95766110.148 5
R13  21322041.625 6                 113858511.692 6
R14  20292001.430 8  20292007.305 8 108167784.765 8  84130691.568 8
R15  23338559.422 6  23338566.453 6 124714204.159 6  96999973.702 6
R23  19786498.359 8                 105844421.040 8
R24  20833233.461 8  20833238.566 7 111404662.399 8  86648097.668 7
> 2025 06 15 07 39  5.0000000  0 23
C20  26078678.859 6 135798530.438 6
C26  24800739.008 6 129143946.863 6
C29  21609106.563 7 112524289.317 7
C30  22870882.094 7 119094677.954 7
E02  25725667.656 7  25725669.137 8 135189291.888 7 102269830.225 8
E10  23734292.102 8  23734293.340 9 124724544.506 8  94353312.298 9
E11  23567191.734 7  23567189.746 8 123846426.570 7  93689008.926 8
E12  25401467.742 7  25401467.988 8 133485611.067 7 100980996.589 8
E16  24135480.602 8  24135481.477 8 126832803.054 8  95948194.380 8
E24  25697565.430 7  25697568.113 8 135041612.360 7 102158110.669 8
E25  23606736.914 8  23606739.215 8 124054235.534 8  93846233.499 8
G10  23779777.852 7                  23779785.590 7 124963577.176 7                  97374274.913 7
G16  20603864.664 7  20603867.609 6                 108274037.402 7  84369390.302 6
G18  21017175.398 7                  21017179.938 8 110445997.710 7                  86061836.087 8
G23  21413184.711 7                  21413189.543 7 112527049.894 7                  87683457.354 7
G27  21653142.844 7                  21653149.586 7 113788028.585 7                  88666025.653 7
R07  22046792.344 7  22046800.340 7 118018208.058 7  91791963.304 7
R08  22988363.750 6  22988369.109 6 123101645.065 6  95745763.496 6
R13  21324096.586 6                 113869479.495 6
R14  20289949.539 8  20289954.934 8 108156844.107 8  84122182.168 8
R15  23333516.336 6  23333522.887 6 124687251.124 6  96979010.202 6
R23  19786476.172 8                 105844305.554 8
R24  20829491.148 8  20829496.219 7 111384651.197 8  86632533.404 7
> 2025 06 15 07 39 10.0000000  0 23
C20  26074064.008 6 135774496.303 6
C26  24797981.063 6 129129586.413 6
C29  21606937.758 7 112512996.331 7
C30  22871350.070 7 119097114.830 7
E02  25722088.203 7  25722090.008 8 135170483.104 7 102255601.513 8
E10  23733659.234 8  23733660.152 9 124721217.030 8  94350795.079 9
E11  23565092.641 7  23565090.695 8 123835396.000 7  93680664.371 8
E12  25401905.375 7  25401905.414 8 133487909.899 7 100982735.625 8
E16  24135739.773 8  24135740.520 8 126834164.199 8  95949224.076 8
E24  25698760.297 8  25698763.230 8 135047892.849 8 102162861.804 8
E25  23605721.703 8  23605723.598 9 124048898.496 8  93842196.061 9
G10  23774966.820 7                  23774974.836 7 124938296.772 7                  97354575.913 7
G16  20602359.461 7  20602362.516 6                 108266128.968 7  84363227.875 6
G18  21017176.742 7                  21017181.063 8 110446005.224 7                  86061841.949 8
G23  21409987.734 7                  21409992.531 7 112510249.711 7                  87670366.307 7
G27  21649205.859 7                  21649212.184 7 113767338.696 7                  88649903.673 7
R07  22044561.391 7  22044568.273 7 118006258.885 7  91782669.524 7
R08  22983481.555 6  22983485.816 6 123075494.003 6  95725423.784 6
R13  21326152.930 7                 113880459.664 7
R14  20287901.602 8  20287906.582 7 108145925.958 8  84113690.284 7
R15  23328475.070 6  23328480.813 6 124660308.083 6  96958054.530 6
R23  19786457.289 8                 105844200.805 8
R24  20825751.305 8  20825755.672 7 111364649.174 8  86616976.278 7
> 2025 06 15 07 39 15.0000000  0 23
C20  26069448.070 6 135750464.468 6
C26  24795225.805 6 129115239.343 6
C29  21604770.906 7 112501711.815 7
C30  22871819.031 7 119099557.587 7
E02  25718510.219 7  25718512.164 8 135151681.518 7 102241378.239 8
E10  23733027.500 8  23733028.574 9 124717898.093 8  94348284.332 9
E11  23562995.367 7  23562993.453 8 123824374.889 7  93672326.972 8
E12  25402343.750 7  25402344.016 8 133490214.559 7 100984479.081 8
E16  24136000.859 8  24136001.375 8 126835535.162 8  95950261.193 8
E24  25699956.789 7  25699959.395 8 135054179.290 7 102167617.438 8
E25  23604708.461 8  23604710.250 9 124043573.083 8  93838167.411 9
G10  23770157.617 7                  23770165.195 6 124913021.410 7                  97334880.847 6
G16  20600858.625 7  20600861.133 6                 108258238.177 7  84357079.202 6
G18  21017180.328 7                  21017185.031 8 110446023.928 7                  86061856.527 8
G23  21406793.586 7                  21406798.395 7 112493464.610 7                  87657287.016 7
G27  21645269.555 7                  21645276.965 7 113746656.950 7                  88633788.033 7
R07  22042333.414 7  22042339.895 7 117994332.132 7  91773393.177 7
R08  22978598.344 6  22978604.395 6 123049352.537 6  95705091.576 6
R13  21328211.977 7                 113891452.765 7
R14  20285857.492 8  20285862.789 8 108135031.420 8  84105216.751 8
R15  23323433.625 6  23323441.012 6 124633375.421 6  96937106.941 6
R23  19786438.984 8                 105844107.293 8
R24  20822012.172 8  20822016.996 7 111344657.104 8  86601426.879 7
> 2025 06 15 07 39 20.0000000  0 23
C20  26064833.484 6 135726434.183 6
C26  24792472.945 6 129100905.007 6
C29  21602605.391 7 112490435.073 7
C30  22872289.203 7 119102005.527 7
E02  25714933.805 7  25714935.586 8 135132886.439 7 102227159.889 8
E10  23732397.438 8  23732398.539 9 124714587.063 8  94345779.553 9
E11  23560899.648 7  23560897.887 8 123813362.516 7  93663996.185 8
E12  25402783.258 7  25402783.543 8 133492524.311 7 100986226.394 8
E16  24136263.289 8  24136264.031 8 126836915.296 8  95951305.251 8
E24  25701154.133 7  25701156.703 8 135060470.978 7 102172377.042 8
E25  23603697.016 8  23603698.938 8 124038258.587 8  93834147.024 8
G10  23765349.109 7                  23765356.063 6 124887750.413 7                  97315189.160 6
G16  20599359.828 7  20599362.813 6                 108250364.373 7  84350943.776 6
G18  21017185.828 7                  21017190.109 8 110446053.160 7                  86061879.303 8
G23  21403602.227 7                  21403606.820 7 112476693.948 7                  87644218.976 7
G27  21641335.859 7                  21641342.813 7 113725982.702 7                  88617678.243 7
R07  22040109.742 7  22040115.742 7 117982426.985 7  91764133.603 7
R08  22973719.141 6  22973724.949 6 123023220.149 6  95684766.378 6
R13  21330272.438 7                 113902458.183 7
R14  20283816.922 8  20283822.910 8 108124159.285 8  84096760.652 8
R15  23318396.070 6  23318402.695 6 124606452.587 6  96916166.927 6
R23  19786423.875 8                 105844024.202 8
R24  20818274.625 8  20818279.977 7 111324674.110 8  86585884.564 7
> 2025 06 15 07 39 25.0000000  0 23
C20  26060219.055 6 135702405.849 6
C26  24789721.680 6 129086583.609 6
C29  21600441.234 7 112479166.405 7
C30  22872759.945 7 119104458.934 7
E02  25711358.531 7  25711360.391 8 135114098.079 7 102212946.629 8
E10  23731768.844 8  23731770.004 9 124711284.150 8  94343280.923 9
E11  23558805.969 7  23558804.012 8 123802359.224 7  93655672.263 8
E12  25403223.750 7  25403224.125 8 133494839.482 7 100987977.792 8
E16  24136527.914 8  24136528.461 8 126838304.869 8  95952356.452 8
E24  25702352.336 7  25702355.023 8 135066768.155 7 102177140.806 8
E25  23602688.055 8  23602689.746 9 124032955.300 8  93830135.119 9
G10  23760540.352 7                  23760548.152 6 124862484.096 7                  97295501.131 6
G16  20597864.430 7  20597867.758 6                 108242507.848 7  84344821.807 6
G18  21017193.359 7                  21017197.992 8 110446093.203 7                  86061910.504 8
G23  21400413.836 7                  21400418.563 7 112459937.979 7                  87631162.393 7
G27  21637403.313 7                  21637409.492 7 113705316.214 7                  88601574.479 7
R07  22037888.969 7  22037896.125 7 117970543.872 7  91754891.188 7
R08  22968842.227 6  22968847.043 6 122997096.938 6  95664448.346 6
R13  21332335.602 6                 113913476.052 6
R14  20281782.766 8  20281787.809 8 108113310.112 8  84088322.412 8
R15  23313359.328 6  23313366.547 6 124579539.677 6  96895234.683 6
R23  19786411.023 8                 105843952.035 8
R24  20814539.258 8  20814545.301 7 111304700.504 8  86570349.537 7
> 2025 06 15 07 39 30.0000000  0 23
C20  26055605.336 6 135678379.961 6
C26  24786974.078 6 129072275.821 6
C29  21598278.797 7 112467906.410 7
C30  22873232.102 7 119106918.441 7
E02  25707784.773 7  25707786.398 8 135095317.160 7 102198738.986 8
E10  23731141.906 8  23731143.195 9 124707990.043 8  94340788.946 9
E11  23556713.758 7  23556712.000 8 123791365.562 7  93647355.631 8
E12  25403665.633 7  25403665.855 8 133497160.652 7 100989733.736 8
E16  24136794.383 8  24136794.813 8 126839704.509 8  95953415.262 8
E24  25703552.016 7  25703554.477 8 135073071.476 7 102181909.207 8
E25  23601681.102 8  23601682.813 9 124027663.856 8  93826132.169 9
G10  23755732.773 7                  23755741.344 7 124837223.035 7                  97275817.196 7
G16  20596372.711 7  20596376.066 6                 108234669.247 7  84338713.799 6
G18  21017203.477 7                  21017207.871 8 110446144.646 7                  86061950.586 8
G23  21397228.188 7                  21397233.027 7 112443197.351 7                  87618117.763 7
G27  21633471.469 7                  21633478.836 7 113684658.140 7                  88585477.302 7
R07  22035674.422 7  22035680.387 7 117958683.369 7  91745666.324 7
R08  22963963.633 6  22963970.750 6 122970983.639 6  95644138.011 6
R13  21334400.414 6                 113924507.005 6
R14  20279751.742 8  20279756.820 7 108102484.560 8  84079902.546 7
R15  23308325.008 6  23308332.359 6 124552637.708 6  96874310.966 6
R23  19786398.836 8                 105843891.206 8
R24  20810806.492 8  20810811.801 7 111284736.918 8  86554822.303 7
> 2025 06 15 07 39 35.0000000  0 23
C20  26050991.703 6 135654355.905 6
C26  24784228.797 6 129057980.996 6
C29  21596118.203 7 112456654.396 7
C30  22873705.680 7 119109383.295 7
E02  25704211.711 7  25704213.848 8 135076542.950 7 102184536.420 8
E10  23730516.586 8  23730517.852 9 124704703.988 8  94338303.064 9
E11  23554623.477 7  23554621.711 8 123780380.904 7  93639045.810 8
E12  25404108.539 7  25404108.551 8 133499487.121 7 100991493.692 8
E16  24137062.492 8  24137062.922 8 126841113.499 8  95954481.142 8
E24  25704752.141 7  25704754.922 8 135079380.216 7 102186681.697 8
E25  23600676.305 8  23600677.969 9 124022383.537 8  93822137.636 9
G10  23750926.711 7                  23750935.125 7 124811966.590 7                  97256136.863 7
G16  20594884.414 7  20594887.488 6                 108226847.828 7  84332619.188 6
G18  21017215.297 7                  21017219.621 8 110446206.787 7                  86061999.006 8
G23  21394045.242 7                  21394050.133 7 112426471.349 7                  87605084.531 7
G27  21629541.516 7                  21629548.723 7 113664007.761 7                  88569386.108 7
R07  22033462.227 7  22033469.086 7 117946844.675 7  91736458.428 7
R08  22959089.516 6  22959096.512 6 122944879.602 6  95623834.862 6
R13  21336469.328 6                 113935550.354 6
R14  20277724.617 8  20277730.281 7 108091681.686 8  84071500.308 7
R15  23303292.688 6  23303300.328 6 124525745.670 6  96853394.953 6
R23  19786389.469 8                 105843841.070 8
R24  20807075.172 8  20807079.641 7 111264782.639 8  86539302.334 7
> 2025 06 15 07 39 40.0000000  0 23
C20  26046378.047 6 135630333.401 6
C26  24781486.523 6 129043698.744 6
C29  21593958.445 7 112445410.054 7
C30  22874180.039 7 119111853.212 7
E02  25700640.445 7  25700642.398 8 135057775.144 7 102170338.700 8
E10  23729892.414 8  23729893.973 9 124701425.687 8  94335823.051 9
E11  23552534.961 7  23552533.012 8 123769404.877 7  93630742.519 8
E12  25404552.094 7  25404552.152 8 133501818.572 7 100993257.407 8
E16  24137331.984 8  24137332.813 8 126842531.515 8  95955553.855 8
E24  25705953.805 7  25705956.379 8 135085694.071 7 102191458.063 8
E25  23599673.320 8  23599675.258 9 124017114.051 8  93818151.309 9
G10  23746121.258 7                  23746129.863 6 124786714.477 7                  97236459.909 6
G16  20593399.219 7  20593402.172 6                 108219043.300 7  84326537.727 6
G18  21017228.711 7                  21017233.555 8 110446279.329 7                  86062055.538 8
G23  21390865.508 8                  21390869.797 7 112409759.695 8                  87592062.469 7
G27  21625613.297 7                  21625620.652 7 113643364.766 7                  88553300.666 7
R07  22031255.305 7  22031261.906 7 117935027.661 7  91727267.419 7
R08  22954215.758 6  22954221.910 6 122918784.510 6  95603538.683 6
R13  21338539.719 6                 113946605.750 6
R14  20275702.672 8  20275708.023 7 108080901.485 8  84063115.727 7
R15  23298262.188 6  23298269.492 6 124498863.505 6  96832486.654 6
R23  19786382.438 8                 105843801.358 8
R24  20803346.047 8  20803349.742 7 111244837.493 8  86523789.464 7
> 2025 06 15 07 39 45.0000000  0 23
C20  26041764.680 6 135606312.198 6
C26  24778744.500 6 129029428.941 6
C29  21591800.641 7 112434173.187 7
C30  22874655.266 7 119114327.964 7
E02  25697070.328 7  25697072.230 8 135039013.543 7 102156145.684 8
E10  23729270.195 8  23729271.605 9 124698154.942 8  94333348.748 9
E11  23550448.031 7  23550445.992 8 123758437.289 7  93622445.605 8
E12  25404996.719 7  25404996.781 8 133504154.812 7 100995024.757 8
E16  24137603.656 8  24137604.340 9 126843958.345 8  95956633.247 9
E24  25707156.156 8  25707158.766 8 135092012.831 8 102196238.149 8
E25  23598672.461 8  23598674.559 9 124011855.171 8  93814172.995 9
G10  23741316.656 7                  23741325.109 6 124761466.428 7                  97216786.115 6
G16  20591917.445 7  20591919.980 6                 108211255.438 7  84320469.260 6
G18  21017244.719 7                  21017249.273 8 110446362.035 7                  86062119.977 8
G23  21387687.633 8                  21387692.512 7 112393062.190 8                  87579051.425 7
G27  21621686.578 7                  21621693.746 7 113622728.992 7                  88537220.842 7
R07  22029052.125 8  22029057.504 7 117923231.863 8  91718092.896 7
R08  22949345.758 6  22949351.395 6 122892698.180 6  95583249.317 6
R13  21340611.859 6                 113957673.033 6
R14  20273684.719 8  20273689.281 7 108070143.464 8  84054748.372 7
R15  23293234.094 7  23293239.824 6 124471990.917 7  96811585.722 6
R23  19786377.578 8                 105843771.913 8
R24  20799618.094 8  20799622.039 7 111224901.146 8  86508283.412 7
> 2025 06 15 07 39 50.0000000  0 23
C20  26037152.664 6 135582292.919 6
C26  24776006.828 6 129015172.104 6
C29  21589644.008 7 112422944.349 7
C30  22875131.016 7 119116808.175 7
E02  25693501.625 7  25693503.313 8 135020258.722 7 102141957.791 8
E10  23728649.375 8  23728650.770 9 124694892.268 8  94330880.554 9
E11  23548362.688 7  23548360.602 8 123747478.706 7  93614155.511 8
E12  25405442.180 7  25405442.359 8 133506496.355 7 100996796.105 8
E16  24137876.758 8  24137877.617 8 126845394.571 8  95957719.734 8
E24  25708359.914 7  25708362.230 8 135098337.040 7 102201022.343 8
E25  23597673.977 8  23597675.969 9 124006607.470 8  93810203.143 9
G10  23736512.688 7                  23736521.684 7 124736223.080 7                  97197116.009 7
G16  20590439.078 7  20590441.266 6                 108203484.788 7  84314414.211 6
G18  21017262.258 7                  21017267.313 8 110446455.468 7                  86062192.782 8
G23  21384512.930 8                  21384517.633 7 112376379.400 8                  87566051.855 7
G27  21617761.547 7                  21617768.008 7 113602100.958 7                  88521147.067 7
R07  22026852.531 7  22026858.875 7 117911458.224 7  91708935.631 7
R08  22944474.875 6  22944481.359 6 122866621.184 6  95562967.221 6
R13  21342687.305 6                 113968752.636 6
R14  20271670.953 8  20271675.840 7 108059408.487 8  84046398.929 7
R15  23288206.789 7  23288212.848 6 124445128.410 7  96790692.653 6
R23  19786374.313 8                 105843753.047 8
R24  20795891.180 8  20795895.750 7 111204974.195 8  86492784.669 7
> 2025 06 15 07 39 55.0000000  0 23
C20  26032540.469 6 135558276.990 6
C26  24773272.047 6 129000929.651 6
C29  21587489.516 7 112411724.974 7
C30  22875608.789 7 119119295.206 7
E02  25689934.359 7  25689935.957 8 135001512.123 7 102127776.108 8
E10  23728030.375 8  23728031.656 9 124691639.146 8  94328419.581 9
E11  23546279.469 7  23546277.246 8 123736530.592 7  93605873.330 8
E12  25405888.836 7  25405889.121 8 133508844.689 7 100998572.603 8
E16  24138151.953 8  24138153.016 8 126846841.626 8  95958814.421 8
E24  25709564.563 7  25709566.965 8 135104668.103 7 102205811.752 8
E25  23596677.820 8  23596679.781 9 124001372.420 8  93806242.851 9
G10  23731710.461 7                  23731719.215 7 124710985.884 7                  97177450.655 7
G16  20588963.195 7  20588966.090 6                 108195732.847 7  84308373.735 6
G18  21017282.398 7                  21017287.418 8 110446561.054 7                  86062275.049 8
G23  21381341.641 7                  21381346.309 7 112359712.771 7                  87553064.868 7
G27  21613838.141 7                  21613844.563 7 113581482.153 7                  88505080.474 7
R07  22024657.234 7  22024663.434 7 117899707.849 7  91699796.464 7
R08  22939605.930 6  22939614.129 6 122840555.011 6  95542693.542 6
R13  21344764.516 6                 113979846.067 6
R14  20269661.711 8  20269665.941 7 108048697.822 8  84038068.417 7
R15  23283180.664 7  23283188.160 6 124418277.527 7  96769808.674 6
R23  19786372.789 8                 105843746.395 8
R24  20792166.766 8  20792170.969 7 111185058.040 8  86477294.315 7
> 2025 06 15 07 40  0.0000000  0 23
C20  26027929.719 6 135534263.240 6
C26  24770538.680 6 128986700.544 6
C29  21585336.758 7 112400513.959 7
C30  22876088.438 7 119121787.963 7
E02  25686368.117 7  25686370.016 8 134982772.673 7 102113599.839 8
E10  23727412.906 8  23727414.199 9 124688394.437 8  94325964.984 9
E11  23544197.625 7  23544195.637 8 123725591.795 7  93597598.200 8
E12  25406336.781 7  25406337.105 8 133511198.684 7 101000353.371 8
E16  24138429.055 8  24138430.230 8 126848298.381 8  95959916.446 8
E24  25710770.539 7  25710772.867 8 135111004.956 7 102210605.516 8
E25  23595683.859 8  23595685.762 8 123996148.851 8  93802291.247 8
G10  23726909.094 7                  23726917.227 7 124685753.701 7                  97157789.243 7
G16  20587491.523 7  20587494.215 6                 108187998.473 7  84302346.954 6
G18  21017304.555 7                  21017309.805 8 110446677.696 7                  86062365.952 8
G23  21378173.000 7                  21378177.746 7 112343061.222 7                  87540089.646 7
G27  21609916.352 7                  21609922.387 7 113560871.466 7                  88489020.201 7
R07  22022464.570 7  22022472.422 7 117887979.848 7  91690674.689 7
R08  22934741.266 6  22934748.027 6 122814498.556 6  95522427.423 6
R13  21346843.734 7                 113990952.144 7
R14  20267657.375 8  20267660.813 7 108038010.388 8  84029755.958 7
R15  23278158.250 7  23278165.020 6 124391437.142 7  96748932.820 6
R23  19786372.977 8                 105843750.848 8
R24  20788443.438 8  20788448.707 7 111165151.750 8  86461811.650 7
> 2025 06 15 07 40  5.0000000  0 23
C20  26023317.789 6 135510251.181 6
C26  24767809.648 6 128972484.059 6
C29  21583184.992 7 112389310.611 7
C30  22876567.938 7 119124285.763 7
E02  25682803.094 7  25682805.238 8 134964039.618 7 102099428.429 8
E10  23726796.922 8  23726798.223 9 124685157.443 8  94323516.214 9
E11  23542117.906 7  23542115.699 8 123714661.653 7  93589329.624 8
E12  25406785.922 7  25406785.969 8 133513557.615 7 101002137.870 8
E16  24138708.117 8  24138709.191 9 126849764.171 8  95961025.292 9
E24  25711977.422 7  25711979.586 8 135117346.887 7 102215403.133 8
E25  23594691.750 8  23594693.789 9 123990936.126 8  93798347.854 9
G10  23722108.102 7                  23722116.980 7 124660525.903 7                  97138131.229 7
G16  20586023.102 7  20586025.793 6                 108180280.989 7  84296333.330 6
G18  21017328.867 7                  21017333.859 8 110446804.681 7                  86062464.887 8
G23  21375007.094 8                  21375011.809 7 112326424.051 8                  87527125.616 7
G27  21605995.164 7                  21606001.359 7 113540268.240 7                  88472965.736 7
R07  22020278.109 7  22020285.766 7 117876273.335 7  91681569.655 7
R08  22929878.273 6  22929883.762 6 122788451.244 6  95502168.411 6
R13  21348926.125 7                 114002070.214 7
R14  20265655.641 8  20265660.477 7 108027345.447 8  84021460.986 7
R15  23273138.195 7  23273145.441 6 124364606.555 7  96728064.610 6
R23  19786376.438 8                 105843765.584 8
R24  20784722.766 8  20784727.758 7 111145254.481 8  86446336.012 7
> 2025 06 15 07 40 10.0000000  0 23
C20  26018707.164 6 135486240.468 6
C26  24765082.688 6 128958279.998 6
C29  21581034.914 7 112378114.715 7
C30  22877048.523 7 119126788.402 7
E02  25679239.766 7  25679241.539 8 134945312.844 7 102085261.728 8
E10  23726182.320 8  23726183.688 9 124681927.962 8  94321073.128 9
E11  23540039.688 7  23540037.391 8 123703739.929 7  93581067.416 8
E12  25407235.664 7  25407235.797 8 133515921.301 7 101003925.976 8
E16  24138988.813 8  24138989.797 8 126851238.744 8  95962140.784 8
E24  25713184.805 7  25713187.375 8 135123693.626 7 102220204.400 8
E25  23593701.766 8  23593703.914 9 123985733.992 8  93794412.475 9
G10  23717308.719 7                  23717317.090 7 124635302.255 7                  97118476.444 7
G16  20584557.695 7  20584560.535 6                 108172580.144 7  84290332.664 6
G18  21017354.258 7                  21017360.020 8 110446941.774 7                  86062571.704 8
G23  21371842.945 7                  21371848.648 7 112309801.030 7                  87514172.612 7
G27  21602075.211 7                  21602082.242 7 113519672.236 7                  88456916.892 7
R07  22018094.781 7  22018103.305 7 117864588.227 7  91672481.227 7
R08  22925014.563 6  22925020.555 6 122762412.591 6  95481916.127 6
R13  21351010.313 6                 114013199.856 6
R14  20263659.750 8  20263664.230 7 108016702.880 8  84013183.441 7
R15  23268119.750 7  23268125.605 6 124337785.664 7  96707203.922 6
R23  19786379.977 8                 105843790.476 8
R24  20781002.836 8  20781008.184 7 111125365.998 8  86430867.176 7
> 2025 06 15 07 40 15.0000000  0 23
C20  26014096.391 6 135462231.463 6
C26  24762356.539 6 128944088.711 6
C29  21578886.844 7 112366926.662 7
C30  22877530.086 7 119129296.224 7
E02  25675677.211 7  25675679.191 8 134926592.623 7 102071100.023 8
E10  23725569.422 8  23725570.613 9 124678706.339 8  94318635.988 9
E11  23537962.844 7  23537960.734 8 123692827.003 7  93572811.851 8
E12  25407686.148 7  25407686.539 8 133518290.039 7 101005717.910 8
E16  24139271.141 8  24139272.172 8 126852722.467 8  95963263.209 8
E24  25714394.000 7  25714396.172 8 135130045.598 7 102225009.604 8
E25  23592713.938 8  23592716.070 9 123980542.823 8  93790485.387 9
G10  23712510.008 7                  23712518.078 7 124610083.141 7                  97098825.199 7
G16  20583095.273 7  20583098.262 6                 108164896.337 7  84284345.281 6
G18  21017382.953 7                  21017388.035 8 110447089.345 7                  86062686.694 8
G23  21368683.359 7                  21368688.184 8 112293192.554 7                  87501230.965 8
G27  21598157.695 7                  21598164.309 7 113499083.790 7                  88440873.956 7
R07  22015916.555 7  22015924.410 7 117852924.904 7  91663409.698 7
R08  22920153.742 6  22920160.477 6 122736383.333 6  95461671.183 6
R13  21353096.656 7                 114024341.674 7
R14  20261667.141 8  20261671.938 7 108006082.873 8  84004923.427 7
R15  23263102.492 7  23263107.555 6 124310974.871 7  96686351.093 6
R23  19786386.969 8                 105843825.819 8
R24  20777285.141 8  20777290.684 7 111105486.701 8  86415405.515 7
> 2025 06 15 07 40 20.0000000  0 23
C20  26009485.242 6 135438224.134 6
C26  24759634.984 6 128929910.146 6
C29  21576739.273 7 112355746.328 7
C30  22878012.148 7 119131809.122 7
E02  25672116.320 7  25672118.109 8 134907878.919 7 102056943.227 8
E10  23724957.773 8  23724959.047 9 124675492.451 8  94316204.704 9
E11  23535887.945 7  23535885.715 8 123681922.758 7  93564562.859 8
E12  25408137.945 7  25408138.242 8 133520663.752 7 101007513.595 8
E16  24139555.305 8  24139556.250 9 126854215.250 8  95964392.480 9
E24  25715603.789 7  25715605.859 8 135136402.669 7 102229818.674 8
E25  23591728.125 8  23591730.297 9 123975362.532 8  93786566.533 9
G10  23707711.273 7                  23707720.219 7 124584868.482 7                  97079177.418 7
G16  20581636.594 7  20581639.500 6                 108157229.488 7  84278371.108 6
G18  21017413.172 7                  21017418.227 8 110447247.322 7                  86062809.783 8
G23  21365525.328 7                  21365530.340 7 112276598.529 7                  87488300.558 7
G27  21594241.172 7                  21594248.277 7 113478502.878 7                  88424836.890 7
R07  22013742.164 7  22013749.609 7 117841283.420 7  91654355.216 7
R08  22915295.406 6  22915300.379 6 122710363.157 6  95441433.278 6
R13  21355185.781 6                 114035495.366 6
R14  20259678.906 8  20259683.816 7 107995485.599 8  83996681.101 7
R15  23258087.203 7  23258091.715 6 124284173.934 7  96665505.939 6
R23  19786395.273 8                 105843871.514 8
R24  20773570.297 8  20773575.406 7 111085616.546 8  86399950.961 7
> 2025 06 15 07 40 25.0000000  0 23
C20  26004875.531 6 135414218.674 6
C26  24756915.438 6 128915744.441 6
C29  21574593.984 7 112344573.879 7
C30  22878496.320 7 119134327.267 7
E02  25668556.250 7  25668558.398 8 134889171.944 7 102042791.527 8
E10  23724347.766 8  23724349.016 9 124672286.530 8  94313779.433 9
E11  23533814.406 7  23533812.402 8 123671027.389 7  93556320.583 8
E12  25408590.648 7  25408590.855 8 133523042.677 7 101009313.221 8
E16  24139841.141 8  24139842.035 8 126855717.257 8  95965528.723 8
E24  25716814.523 7  25716816.539 8 135142765.037 7 102234631.743 8
E25  23590744.398 8  23590746.602 9 123970193.292 8  93782656.033 9
G10  23702914.422 7                  23702922.355 7 124559658.454 7                  97059533.251 7
G16  20580180.352 7  20580183.641 6                 108149579.776 7  84272410.303 6
G18  21017445.313 7                  21017450.191 8 110447415.814 7                  86062941.076 8
G23  21362370.047 7                  21362375.559 8 112260019.170 7                  87475381.567 8
G27  21590326.453 7                  21590333.582 7 113457929.617 7                  88408805.786 7
R07  22011571.797 7  22011578.813 7 117829663.472 7  91645317.479 7
R08  22910437.578 6  22910443.523 6 122684352.317 6  95421202.664 6
R13  21357277.344 6                 114046661.300 6
R14  20257695.469 8  20257700.199 7 107984911.123 8  83988456.513 7
R15  23253072.789 7  23253078.254 6 124257383.209 7  96644668.739 6
R23  19786405.906 8                 105843927.793 8
R24  20769855.547 8  20769860.855 7 111065755.712 8  86384503.635 7
> 2025 06 15 07 40 30.0000000  0 23
C20  26000266.344 6 135390216.583 6
C26  24754197.484 6 128901593.211 6
C29  21572449.875 7 112333410.875 7
C30  22878981.070 7 119136852.196 7
E02  25664998.281 7  25665000.098 8 134870473.197 7 102028646.045 8
E10  23723739.492 8  23723740.746 9 124669090.063 8  94311361.326 9
E11  23531743.203 7  23531741.047 8 123660142.407 7  93548086.162 8
E12  25409045.055 7  25409044.891 8 133525428.261 7 101011117.891 8
E16  24140129.078 8  24140129.988 8 126857230.037 8  95966673.127 8
E24  25718026.898 7  25718028.590 8 135149134.222 7 102239449.977 8
E25  23589763.219 8  23589765.352 9 123965036.642 8  93778755.054 9
G10  23698117.930 7                  23698126.336 7 124534454.603 7                  97039893.908 7
G16  20578728.953 7  20578731.461 6                 108141948.727 7  84266464.018 6
G18  21017479.711 7                  21017484.594 8 110447596.374 7                  86063081.763 8
G23  21359218.344 7                  21359223.723 8 112243455.969 7                  87462475.196 8
G27  21586413.102 7                  21586419.855 7 113437365.610 7                  88392781.877 7
R07  22009405.664 7  22009412.637 7 117818067.162 7  91636298.144 7
R08  22905581.852 6  22905588.113 6 122658352.372 6  95400980.490 6
R13  21359369.930 6                 114057840.734 6
R14  20255716.617 8  20255721.309 7 107974361.093 8  83980250.934 7
R15  23248061.586 7  23248067.277 6 124230604.205 7  96623840.610 6
R23  19786418.148 8                 105843996.197 8
R24  20766144.773 8  20766148.254 7 111045905.718 8  86369064.749 7
> 2025 06 15 07 40 35.0000000  0 23
C20  25995657.922 6 135366216.486 6
C26  24751482.578 6 128887454.957 6
C29  21570307.578 7 112322255.813 7
C30  22879466.797 7 119139382.448 7
E02  25661441.547 7  25661443.156 8 134851781.224 7 102014505.688 8
E10  23723132.789 8  23723134.016 9 124665901.565 8  94308949.247 9
E11  23529673.055 7  23529671.371 8 123649266.332 7  93539858.489 8
E12  25409500.117 7  25409499.848 8 133527819.014 7 101012926.473 8
E16  24140418.758 8  24140419.652 8 126858752.071 8  95967824.534 8
E24  25719239.867 7  25719241.668 8 135155508.705 7 102244272.213 8
E25  23588783.867 8  23588786.184 9 123959891.101 8  93774862.481 9
G10  23693323.484 7                  23693331.125 7 124509255.489 7                  97020258.249 7
G16  20577279.734 7  20577282.695 6                 108134334.859 7  84260531.136 6
G18  21017515.867 7                  21017520.922 8 110447787.529 7                  86063230.690 8
G23  21356069.305 8                  21356074.742 8 112226907.491 8                  87449580.285 8
G27  21582501.250 7                  21582508.324 7 113416809.355 7                  88376764.034 7
R07  22007243.195 7  22007250.641 7 117806492.764 7  91627295.854 7
R08  22900726.891 6  22900734.602 6 122632361.954 6  95380765.735 6
R13  21361465.438 6                 114069032.372 6
R14  20253741.711 8  20253746.234 7 107963833.847 8  83972063.071 7
R15  23243053.367 7  23243057.820 6 124203835.323 7  96603020.401 6
R23  19786433.516 8                 105844075.187 8
R24  20762435.219 8  20762438.934 7 111026065.000 8  86353633.106 7
> 2025 06 15 07 40 40.0000000  0 23
C20  25991048.016 6 135342217.927 6
C26  24748769.336 6 128873329.291 6
C29  21568167.281 7 112311108.353 7
C30  22879953.852 7 119141917.619 7
E02  25657885.828 7  25657887.301 8 134833095.631 7 102000370.163 8
E10  23722527.320 8  23722528.695 9 124662720.684 8  94306542.925 9
E11  23527605.492 7  23527603.355 8 123638398.806 7  93531637.271 8
E12  25409955.836 7  25409955.684 8 133530214.632 7 101014738.730 8
E16  24140709.914 8  24140710.973 8 126860283.020 8  95968982.681 8
E24  25720453.602 7  25720455.641 8 135161888.142 7 102249098.207 8
E25  23587806.563 8  23587809.059 9 123954756.301 8  93770978.036 9
G10  23688528.336 7                  23688536.617 7 124484060.746 7                  97000625.980 7
G16  20575834.047 7  20575836.863 6                 108126737.800 7  84254611.345 6
G18  21017554.055 7                  21017559.305 8 110447988.879 7                  86063387.583 8
G23  21352922.875 7                  21352928.414 8 112210373.372 7                  87436696.550 8
G27  21578591.516 7                  21578597.961 7 113396260.515 7                  88360751.952 7
R07  22005084.984 7  22005092.539 7 117794940.045 7  91618310.394 7
R08  22895877.625 6  22895883.164 6 122606380.636 6  95360558.059 6
R13  21363564.969 6                 114080235.817 6
R14  20251770.719 8  20251775.504 7 107953329.011 8  83963892.636 7
R15  23238044.953 7  23238049.910 6 124177076.461 7  96582207.959 6
R23  19786449.305 8                 105844164.317 8
R24  20758725.492 8  20758730.063 7 111006233.313 8  86338208.444 7
> 2025 06 15 07 40 45.0000000  0 23
C20  25986438.531 6 135318221.201 6
C26  24746057.953 6 128859216.374 6
C29  21566027.891 7 112299968.708 7
C30  22880441.977 7 119144457.935 7
E02  25654331.055 7  25654332.820 8 134814416.694 7 101986239.668 8
E10  23721923.500 8  23721924.891 9 124659547.616 8  94304142.517 9
E11  23525539.172 7  23525537.004 8 123627540.046 7  93523422.693 8
E12  25410412.453 7  25410412.492 8 133532615.267 7 101016554.792 8
E16  24141003.148 8  24141004.051 8 126861823.091 8  95970147.730 8
E24  25721668.703 7  25721670.621 8 135168272.705 7 102253928.072 8
E25  23586831.688 8  23586834.020 9 123949632.463 8  93767101.878 9
G10  23683734.617 7                  23683743.023 7 124458870.581 7                  96980997.292 7
G16  20574391.852 7  20574394.832 6                 108119157.772 7  84248704.831 6
G18  21017594.141 7                  21017599.496 8 110448200.672 7                  86063552.604 8
G23  21349779.758 7                  21349784.617 8 112193853.823 7                  87423824.185 8
G27  21574682.727 7                  21574689.102 7 113375719.280 7                  88344745.813 7
R07  22002930.453 7  22002937.945 7 117783408.956 7  91609341.779 7
R08  22891025.086 6  22891032.934 6 122580408.688 6  95340357.664 6
R13  21365665.391 6                 114091450.979 6
R14  20249804.406 8  20249809.387 7 107942846.989 8  83955739.955 7
R15  23233040.656 7  23233044.453 6 124150327.584 7  96561403.303 6
R23  19786468.750 8                 105844264.012 8
R24  20755019.195 8  20755022.773 7 110986410.849 8  86322790.973 7
> 2025 06 15 07 40 50.0000000  0 23
C20  25981831.813 6 135294226.554 6
C26  24743350.867 6 128845116.630 6
C29  21563890.250 7 112288837.213 7
C30  22880930.938 7 119147003.760 7
E02  25650777.898 7  25650779.797 8 134795744.712 7 101972114.438 8
E10  23721321.227 8  23721322.652 9 124656382.694 8  94301748.271 9
E11  23523474.391 7  23523472.434 8 123616690.368 7  93515214.982 8
E12  25410870.672 7  25410870.305 8 133535021.255 7 101018374.901 8
E16  24141297.703 8  24141298.887 9 126863372.603 8  95971319.921 9
E24  25722884.641 7  25722886.660 8 135174662.791 7 102258762.117 8
E25  23585858.805 8  23585861.137 9 123944519.903 8  93763234.265 9
G10  23678942.625 7                  23678950.672 7 124433685.322 7                  96961372.444 7
G16  20572953.172 7  20572955.930 6                 108111595.120 7  84242811.848 6
G18  21017636.953 7                  21017641.633 8 110448423.194 7                  86063725.999 8
G23  21346638.711 7                  21346644.090 8 112177349.208 7                  87410963.441 8
G27  21570774.836 7                  21570781.953 7 113355186.017 7                  88328745.873 7
R07  22000780.281 7  22000788.031 7 117771899.987 7  91600390.344 7
R08  22886178.656 6  22886184.086 6 122554446.461 6  95320164.848 6
R13  21367767.258 6                 114102678.522 6
R14  20247842.289 8  20247847.348 7 107932388.170 8  83947605.327 7
R15  23228035.000 7  23228041.480 6 124123589.246 7  96540606.839 6
R23  19786488.688 8                 105844374.340 8
R24  20751313.445 8  20751318.207 7 110966597.899 8  86307380.914 7
> 2025 06 15 07 40 55.0000000  0 23
C20  25977223.414 6 135270234.445 6
C26  24740644.719 6 128831030.363 6
C29  21561754.203 7 112277714.146 7
C30  22881421.406 7 119149555.315 7
E02  25647226.219 7  25647227.910 8 134777080.023 7 101957994.733 8
E10  23720720.578 8  23720722.012 9 124653226.203 8  94299360.404 9
E11  23521411.664 7  23521409.520 8 123605850.089 7  93507014.393 8
E12  25411329.383 7  25411329.277 8 133537432.925 7 101020199.302 8
E16  24141594.508 8  24141595.617 8 126864931.859 8  95972499.484 8
E24  25724101.828 7  25724103.824 8 135181058.668 7 102263600.548 8
E25  23584888.047 8  23584890.441 9 123939418.949 8  93759375.422 9
G10  23674150.922 7                  23674158.668 7 124408505.339 7                  96941751.690 7
G16  20571516.992 7  20571520.180 6                 108104050.111 7  84236932.625 6
G18  21017681.375 7                  21017686.270 8 110448656.745 7                  86063907.993 8
G23  21343501.383 7                  21343506.336 8 112160859.813 7                  87398114.567 8
G27  21566869.273 7                  21566875.918 7 113334661.011 7                  88312752.373 7
R07  21998634.742 7  21998642.281 7 117760413.573 7  91591456.452 7
R08  22881330.227 6  22881338.230 6 122528494.316 6  95299979.846 6
R13  21369871.906 6                 114113918.686 6
R14  20245884.539 8  20245889.426 8 107921952.476 8  83939488.669 8
R15  23223033.305 7  23223039.918 6 124096861.813 7  96519818.809 6
R23  19786511.586 8                 105844495.708 8
R24  20747610.266 8  20747615.000 7 110946794.844 8  86291978.560 7
> 2025 06 15 07 41  0.0000000  0 23
C20  25972615.633 6 135246244.359 6
C26  24737941.953 6 128816957.173 6
C29  21559619.547 7 112266599.131 7
C30  22881911.820 7 119152112.271 7
E02  25643675.664 7  25643677.418 8 134758422.196 7 101943880.203 8
E10  23720121.359 8  23720122.895 9 124650077.777 8  94296978.642 9
E11  23519350.422 7  23519348.410 8 123595018.826 7  93498820.612 8
E12  25411789.484 7  25411789.188 8 133539849.856 7 101022027.687 8
E16  24141892.898 8  24141894.090 8 126866500.463 8  95973686.122 8
E24  25725319.805 7  25725321.973 8 135187459.913 7 102268443.040 8
E25  23583919.617 8  23583921.914 9 123934329.168 8  93755525.027 9
G10  23669359.172 7                  23669368.160 7 124383330.221 7                  96922134.725 7
G16  20570084.555 8  20570087.703 6                 108096522.357 8  84231066.837 6
G18  21017727.594 7                  21017732.676 8 110448900.948 7                  86064098.264 8
G23  21340366.258 7                  21340370.965 8 112144385.260 7                  87385277.264 8
G27  21562965.227 7                  21562971.938 7 113314143.899 7                  88296765.016 7
R07  21996493.289 7  21996500.613 7 117748949.211 7  91582539.730 7
R08  22876486.609 6  22876493.219 6 122502551.664 6  95279802.270 6
R13  21371978.859 6                 114125170.844 6
R14  20243930.836 8  20243936.199 7 107911540.021 8  83931390.095 7
R15  23218034.172 7  23218039.500 6 124070144.694 7  96499038.851 6
R23  19786535.906 7                 105844627.732 7
R24  20743908.445 8  20743912.914 7 110927001.349 8  86276583.634 7
> 2025 06 15 07 41  5.0000000  0 23
C20  25968009.680 6 135222256.955 6
C26  24735242.164 6 128802897.539 6
C29  21557486.930 7 112255492.729 7
C30  22882403.906 7 119154675.157 7
E02  25640126.734 7  25640128.398 8 134739771.853 7 101929771.341 8
E10  23719523.930 8  23719525.438 9 124646937.922 8  94294603.354 9
E11  23517291.195 7  23517289.121 8 123584197.101 7  93490634.044 8
E12  25412250.445 7  25412250.191 8 133542272.576 7 101023860.458 8
E16  24142193.219 8  24142194.477 8 126868078.942 8  95974880.218 8
E24  25726539.289 7  25726541.164 8 135193867.072 7 102273289.998 8
E25  23582953.336 8  23582955.586 9 123929251.166 8  93751683.544 9
G10  23664570.398 7                  23664578.813 7 124358160.537 7                  96902521.999 7
G16  20568655.414 7  20568658.313 6                 108089012.447 7  84225214.965 6
G18  21017776.188 7                  21017781.309 8 110449156.319 7                  86064297.244 8
G23  21337234.219 8                  21337239.203 8 112127926.114 8                  87372451.955 8
G27  21559062.750 7                  21559069.004 7 113293635.216 7                  88280784.224 7
R07  21994355.781 7  21994363.461 7 117737507.460 7  91573640.594 7
R08  22871642.969 6  22871650.031 6 122476619.316 6  95259632.707 6
R13  21374089.109 6                 114136435.603 6
R14  20241982.406 8  20241986.699 7 107901150.923 8  83923309.670 7
R15  23213035.602 7  23213042.152 6 124043438.531 7  96478267.425 6
R23  19786563.602 8                 105844770.871 8
R24  20740209.250 8  20740213.957 7 110907217.702 8  86261196.336 7
> 2025 06 15 07 41 10.0000000  0 23
C20  25963404.008 6 135198271.834 6
C26  24732543.883 6 128788851.300 6
C29  21555355.477 7 112244394.598 7
C30  22882897.203 7 119157243.633 7
E02  25636579.117 7  25636580.672 8 134721128.639 7 101915667.874 8
E10  23718927.914 8  23718929.496 9 124643806.363 8  94292234.346 9
E11  23515233.711 7  23515231.566 8 123573384.609 7  93482454.464 8
E12  25412712.477 7  25412712.293 8 133544700.833 7 101025697.414 8
E16  24142495.383 8  24142496.672 8 126869667.041 8  95976081.593 8
E24  25727759.344 7  25727761.465 8 135200279.885 7 102278141.230 8
E25  23581989.180 8  23581991.434 9 123924184.591 8  93747850.713 9
G10  23659781.242 7                  23659789.863 6 124332995.977 7                  96882913.274 6
G16  20567229.547 7  20567232.824 6                 108081520.069 7  84219376.736 6
G18  21017827.164 7                  21017831.883 8 110449422.577 7                  86064504.719 8
G23  21334104.930 8                  21334109.914 8 112111482.070 8                  87359638.412 8
G27  21555162.039 7                  21555167.574 7 113273134.708 7                  88264809.796 7
R07  21992221.859 7  21992230.188 7 117726087.913 7  91564758.740 7
R08  22866802.859 6  22866809.012 6 122450696.900 6  95239470.829 6
R13  21376200.859 6                 114147712.811 6
R14  20240037.797 8  20240042.520 7 107890784.967 8  83915247.261 7
R15  23208040.766 7  23208046.848 6 124016743.262 7  96457504.452 6
R23  19786592.813 8                 105844925.002 8
R24  20736510.508 8  20736515.758 7 110887443.875 8  86245816.698 7
> 2025 06 15 07 41 15.0000000  0 23
C20  25958799.406 6 135174289.843 6
C26  24729849.469 6 128774819.085 6
C29  21553226.117 7 112233305.491 7
C30  22883391.984 7 119159818.472 7
E02  25633033.070 7  25633034.480 8 134702493.317 7 101901570.376 8
E10  23718333.711 8  23718335.344 9 124640683.803 8  94289872.146 9
E11  23513178.133 7  23513175.914 8 123562582.100 7  93474282.435 8
E12  25413175.813 7  25413175.582 8 133547135.286 7 101027539.054 8
E16  24142799.734 8  24142800.855 8 126871265.438 8  95977290.757 8
E24  25728980.914 7  25728982.992 8 135206699.010 7 102282997.243 8
E25  23581027.523 8  23581029.648 9 123919130.198 8  93744027.099 9
G10  23654993.586 7                  23655001.855 6 124307837.331 7                  96863309.139 6
G16  20565807.266 7  20565810.461 6                 108074045.937 7  84213552.752 6
G18  21017880.023 7                  21017884.766 8 110449700.429 7                  86064721.217 8
G23  21330978.688 7                  21330983.730 7 112095053.877 7                  87346837.229 7
G27  21551262.430 7                  21551268.281 7 113252643.059 7                  88248842.268 7
R07  21990093.016 7  21990100.332 7 117714691.391 7  91555894.784 7
R08  22861964.141 7  22861970.590 6 122424785.250 7  95219317.351 6
R13  21378314.727 6                 114159003.043 6
R14  20238098.008 8  20238102.457 7 107880443.225 8  83907203.671 7
R15  23203047.086 7  23203053.020 6 123990059.260 7  96436750.225 6
R23  19786623.594 8                 105845090.729 8
R24  20732815.594 8  20732819.852 7 110867680.413 8  86230445.130 7
> 2025 06 15 07 41 20.0000000  0 23
C20  25954193.219 6 135150308.362 6
C26  24727156.430 6 128760798.284 6
C29  21551097.727 7 112222222.806 7
C30  22883886.898 7 119162397.030 7
E02  25629487.820 7  25629489.238 8 134683863.263 7 101887476.857 8
E10  23717740.563 8  23717742.328 9 124637567.617 8  94287514.772 9
E11  23511123.695 7  23511121.641 8 123551786.940 7  93466115.963 8
E12  25413639.609 7  25413639.473 8 133549573.330 7 101029383.413 8
E16  24143105.453 8  24143106.469 8 126872871.500 8  95978505.726 8
E24  25730203.211 7  25730205.293 8 135213121.855 7 102287856.069 8
E25  23580067.445 8  23580069.645 9 123914085.362 8  93740210.704 9
G10  23650206.438 7                  23650214.637 7 124282681.931 7                  96843707.545 7
G16  20564387.945 7  20564390.895 6                 108066587.429 7  84207740.921 6
G18  21017934.195 7                  21017939.520 8 110449987.212 7                  86064944.680 8
G23  21327855.086 7                  21327859.781 8 112078638.906 7                  87334046.345 8
G27  21547364.555 7                  21547370.090 7 113232157.673 7                  88232879.641 7
R07  21987968.094 7  21987975.508 7 117703315.582 7  91547046.911 7
R08  22857125.883 6  22857133.543 6 122398881.574 6  95199170.091 6
R13  21380430.961 6                 114170303.595 6
R14  20236161.938 8  20236166.039 7 107870122.598 8  83899176.503 7
R15  23198055.508 7  23198060.480 6 123963384.172 7  96416002.952 6
R23  19786656.430 8                 105845265.331 8
R24  20729120.648 8  20729125.750 7 110847924.818 8  86215079.671 7
> 2025 06 15 07 41 25.0000000  0 23
C20  25949587.305 6 135126327.838 6
C26  24724466.297 6 128746789.410 6
C29  21548970.438 7 112211147.012 7
C30  22884382.867 7 119164979.762 7
E02  25625943.711 7  25625945.148 8 134665238.964 7 101873387.703 8
E10  23717148.695 8  23717150.660 9 124634458.271 8  94285162.569 9
E11  23509071.055 7  23509068.906 8 123540999.580 7  93457955.393 8
E12  25414104.359 7  25414104.195 8 133552015.402 7 101031230.823 8
E16  24143412.664 8  24143413.641 8 126874485.701 8  95979726.852 8
E24  25731426.211 7  25731428.320 8 135219548.857 7 102292718.037 8
E25  23579109.453 8  23579111.523 9 123909050.524 8  93736401.880 9
G10  23645420.734 7                  23645428.816 7 124257530.260 7                  96824108.871 7
G16  20562971.727 7  20562974.629 6                 108059145.006 7  84201941.620 6
G18  21017990.414 7                  21017995.867 8 110450283.414 7                  86065175.489 8
G23  21324734.031 8                  21324738.934 8 112062237.615 8                  87321266.135 8
G27  21543466.930 7                  21543472.820 7 113211679.002 7                  88216922.238 7
R07  21985847.219 7  21985854.203 7 117691960.367 7  91538215.080 7
R08  22852289.555 6  22852297.492 6 122372986.439 6  95179029.439 6
R13  21382548.609 6                 114181614.911 6
R14  20234229.719 8  20234234.281 7 107859823.965 8  83891166.463 7
R15  23193066.344 7  23193070.590 6 123936718.402 7  96395262.923 6
R23  19786690.102 8                 105845449.234 8
R24  20725427.672 8  20725432.996 7 110828177.449 8  86199720.604 7
> 2025 06 15 07 41 30.0000000  0 23
C20  25944983.102 6 135102349.650 6
C26  24721779.750 6 128732793.852 6
C29  21546845.219 7 112200079.495 7
C30  22884879.938 7 119167568.103 7
E02  25622401.023 7  25622402.473 8 134646621.823 7 101859303.956 8
E10  23716558.688 8  23716560.539 9 124631357.163 8  94282816.595 9
E11  23507020.141 7  23507017.906 8 123530221.478 7  93449801.827 8
E12  25414570.250 7  25414569.938 8 133554462.977 7 101033082.385 8
E16  24143721.320 8  24143722.617 8 126876109.480 8  95980955.220 8
E24  25732650.023 7  25732652.434 8 135225981.438 7 102297584.229 8
E25  23578153.391 8  23578155.633 9 123904027.138 8  93732601.717 9
G10  23640635.180 7                  23640643.297 7 124232383.796 7                  96804514.228 7
G16  20561558.883 7  20561561.676 6                 108051720.086 7  84196155.971 6
G18  21018048.758 7                  21018054.305 8 110450590.471 7                  86065414.741 8
G23  21321615.781 7                  21321620.383 8 112045851.463 7                  87308497.712 8
G27  21539571.445 7                  21539577.645 7 113191208.517 7                  88200971.204 7
R07  21983730.992 7  21983737.453 7 117680627.620 7  91529400.722 7
R08  22847456.391 6  22847463.574 6 122347101.405 6  95158896.659 6
R13  21384669.047 6                 114192938.543 6
R14  20232301.719 8  20232306.621 7 107849548.378 8  83883174.335 7
R15  23188077.258 7  23188082.613 6 123910063.429 7  96374531.276 6
R23  19786726.805 8                 105845644.148 8
R24  20721737.445 8  20721742.117 7 110808439.899 8  86184369.175 7
> 2025 06 15 07 41 35.0000000  0 23
C20  25940379.281 6 135078373.440 6
C26  24719095.453 6 128718811.255 6
C29  21544721.234 7 112189019.787 7
C30  22885377.625 7 119170161.561 7
E02  25618859.500 7  25618861.008 8 134628011.409 7 101845225.297 8
E10  23715970.156 8  23715971.918 9 124628263.852 8  94280476.525 9
E11  23504970.734 7  23504968.563 8 123519452.112 7  93441654.872 8
E12  25415036.898 7  25415036.652 8 133556915.481 7 101034937.687 8
E16  24144032.117 8  24144033.363 8 126877742.346 8  95982190.461 8
E24  25733875.039 7  25733877.523 8 135232419.161 7 102302454.312 8
E25  23577199.750 8  23577201.809 9 123899014.714 8  93728809.843 9
G10  23635851.648 7                  23635859.309 6 124207242.045 7                  96784923.258 6
G16  20560149.289 7  20560151.855 6                 108044312.204 7  84190383.589 6
G18  21018109.414 7                  21018114.594 8 110450907.869 7                  86065662.062 8
G23  21318500.063 7                  21318505.492 8 112029479.975 7                  87295740.712 8
G27  21535677.094 7                  21535683.754 7 113170745.730 7                  88185026.170 7
R07  21981617.469 7  21981624.383 7 117669316.660 7  91520603.308 7
R08  22842623.523 6  22842631.629 6 122321225.838 6  95138771.239 6
R13  21386792.180 6                 114204273.903 6
R14  20230378.266 8  20230383.254 7 107839295.722 8  83875200.043 7
R15  23183090.070 7  23183097.121 6 123883418.718 7  96353807.630 6
R23  19786765.023 8                 105845849.334 8
R24  20718047.094 8  20718052.328 7 110788711.552 8  86169024.920 7
> 2025 06 15 07 41 40.0000000  0 23
C20  25935775.148 6 135054399.567 6
C26  24716412.992 6 128704841.884 6
C29  21542598.828 7 112177968.340 7
C30  22885876.773 7 119172760.525 7
E02  25615319.688 7  25615320.902 8 134609408.096 7 101831152.010 8
E10  23715383.031 8  23715384.816 9 124625178.713 8  94278142.635 9
E11  23502923.172 7  23502920.953 8 123508691.899 7  93433514.837 8
E12  25415504.813 7  25415504.402 8 133559373.417 7 101036797.078 8
E16  24144344.797 8  24144345.902 8 126879384.706 8  95983432.893 8
E24  25735101.578 7  25735103.637 8 135238862.383 7 102307328.545 8
E25  23576248.219 8  23576250.129 9 123894013.669 8  93725026.582 9
G10  23631067.523 7                  23631075.727 7 124182105.409 7                  96765336.273 7
G16  20558742.734 7  20558745.598 6                 108036921.758 7  84184624.806 6
G18  21018172.148 7                  21018177.203 8 110451236.019 7                  86065917.756 8
G23  21315387.781 7                  21315392.699 8 112013123.580 7                  87282995.482 8
G27  21531784.992 7                  21531791.184 7 113150291.043 7                  88169087.465 7
R07  21979507.766 7  21979515.355 6 117658027.970 7  91511823.246 6
R08  22837794.453 7  22837802.066 6 122295360.362 7  95118653.655 6
R13  21388915.617 6                 114215621.473 6
R14  20228459.742 8  20228464.328 7 107829066.224 8  83867243.761 7
R15  23178106.992 7  23178113.109 6 123856784.855 7  96333092.426 6
R23  19786805.648 8                 105846065.292 8
R24  20714360.555 8  20714364.918 7 110768992.740 8  86153688.063 7
> 2025 06 15 07 41 45.0000000  0 23
C20  25931172.063 6 135030428.770 6
C26  24713732.523 6 128690886.526 6
C29  21540478.258 7 112166925.828 7
C30  22886377.594 7 119175365.777 7
E02  25611781.133 7  25611782.305 8 134590812.675 7 101817084.694 8
E10  23714797.656 8  23714799.426 9 124622102.481 8  94275815.478 9
E11  23500877.250 7  23500875.234 8 123497941.603 7  93425382.306 8
E12  25415973.648 7  25415973.285 8 133561837.426 7 101038661.080 8
E16  24144659.055 8  24144660.379 8 126881037.281 8  95984683.050 8
E24  25736328.367 7  25736330.949 8 135245311.827 7 102312207.500 8
E25  23575298.828 8  23575300.781 9 123889024.746 8  93721252.489 9
G10  23626285.336 7                  23626293.813 7 124156974.692 7                  96745753.928 7
G16  20557340.031 7  20557342.742 6                 108029549.513 7  84178880.193 6
G18  21018236.945 7                  21018241.602 8 110451575.648 7                  86066182.391 8
G23  21312278.422 7                  21312282.961 8 111996783.011 7                  87270262.576 8
G27  21527894.320 7                  21527900.613 7 113129845.246 7                  88153155.667 7
R07  21977402.680 7  21977410.613 7 117646762.481 7  91503061.204 7
R08  22832966.938 7  22832973.789 6 122269505.688 7  95098544.495 6
R13  21391044.023 6                 114226981.963 6
R14  20226544.711 8  20226549.883 7 107818860.627 8  83859306.081 7
R15  23173123.992 7  23173130.285 6 123830162.469 7  96312386.156 6
R23  19786848.016 8                 105846292.622 8
R24  20710675.141 8  20710679.414 7 110749284.397 8  86138359.357 7
> 2025 06 15 07 41 50.0000000  0 23
C20  25926568.406 6 135006460.987 6
C26  24711055.570 6 128676945.107 6
C29  21538359.609 7 112155892.160 7
C30  22886879.047 7 119177977.160 7
E02  25608243.836 7  25608245.188 8 134572225.012 7 101803023.250 8
E10  23714213.992 8  23714215.715 8 124619035.061 8  94273494.988 8
E11  23498833.523 7  23498831.395 8 123487201.094 7  93417257.185 8
E12  25416443.938 7  25416443.344 8 133564307.487 7 101040529.658 8
E16  24144975.633 8  24144976.797 9 126882699.982 8  95985940.859 9
E24  25737556.906 7  25737559.438 8 135251767.447 7 102317091.114 8
E25  23574351.781 8  23574353.695 9 123884047.822 8  93717487.477 9
G10  23621504.281 7                  23621512.801 7 124131849.758 7                  96726176.067 7
G16  20555940.398 7  20555943.324 6                 108022195.335 7  84173149.670 6
G18  21018302.875 7                  21018308.449 8 110451926.649 7                  86066455.900 8
G23  21309171.781 7                  21309176.543 7 111980458.170 7                  87257541.927 7
G27  21524005.070 7                  21524011.383 7 113109408.196 7                  88137230.690 7
R07  21975303.461 7  21975310.500 7 117635519.821 7  91494316.913 7
R08  22828141.016 7  22828147.926 6 122243661.655 7  95078443.617 6
R13  21393173.672 6                 114238355.188 6
R14  20224634.883 8  20224639.695 7 107808678.791 8  83851386.873 7
R15  23168144.789 7  23168150.730 6 123803551.468 7  96291688.744 6
R23  19786892.789 8                 105846531.420 8
R24  20706991.352 8  20706996.164 7 110729586.337 8  86123038.654 7
> 2025 06 15 07 41 55.0000000  0 23
C20  25921966.492 6 134982494.570 6
C26  24708379.109 6 128663015.998 6
C29  21536241.969 7 112144865.728 7
C30  22887381.406 7 119180593.049 7
E02  25604707.742 7  25604709.160 8 134553643.470 7 101788966.438 8
E10  23713631.789 8  23713633.375 9 124615974.791 8  94271179.917 9
E11  23496791.156 7  23496789.055 8 123476468.721 7  93409138.213 8
E12  25416914.461 7  25416914.234 8 133566781.897 7 101042401.528 8
E16  24145293.633 8  24145294.801 9 126884371.150 8  95987205.087 9
E24  25738786.117 7  25738788.684 8 135258227.534 7 102321978.106 8
E25  23573406.602 8  23573408.617 9 123879081.271 8  93713730.307 9
G10  23616723.969 7                  23616732.121 7 124106728.977 7                  96706601.439 7
G16  20554543.977 7  20554547.313 6                 108014857.615 7  84167431.961 6
G18  21018372.305 7                  21018377.414 8 110452287.381 7                  86066736.986 8
G23  21306067.961 7                  21306072.680 8 111964147.403 7                  87244832.238 8
G27  21520116.906 7                  21520123.906 7 113088978.259 7                  88121311.270 7
R07  21973207.375 7  21973214.133 7 117624298.366 7  91485589.126 7
R08  22823315.313 6  22823322.914 6 122217826.654 6  95058349.724 6
R13  21395306.328 6                 114249739.416 6
R14  20222728.688 8  20222733.801 7 107798519.274 8  83843485.015 7
R15  23163167.047 7  23163172.199 6 123776950.240 7  96270998.900 6
R23  19786939.289 8                 105846779.961 8
R24  20703309.133 8  20703313.742 7 110709897.000 8  86107724.730 7
> 2025 06 15 07 42  0.0000000  0 23
C20  25917363.711 6 134958529.722 6
C26  24705706.563 6 128649099.350 6
C29  21534126.313 7 112133846.662 7
C30  22887884.430 7 119183213.595 7
E02  25601172.922 7  25601174.379 8 134535068.238 7 101774914.396 8
E10  23713050.883 8  23713052.348 9 124612921.823 8  94268870.368 9
E11  23494750.359 7  23494748.324 8 123465744.591 7  93401025.486 8
E12  25417386.273 7  25417385.918 8 133569260.796 7 101044276.788 8
E16  24145613.195 8  24145614.465 8 126886050.932 8  95988475.812 8
E24  25740016.484 7  25740018.879 8 135264692.230 7 102326868.584 8
E25  23572463.547 8  23572465.496 9 123874125.207 8  93709981.079 9
G10  23611944.844 7                  23611952.430 7 124081612.562 7                  96687030.206 7
G16  20553150.867 7  20553154.109 6                 108007536.474 7  84161727.172 6
G18  21018442.891 7                  21018448.027 8 110452657.947 7                  86067025.732 8
G23  21302966.914 7                  21302971.391 7 111947850.898 7                  87232133.673 7
G27  21516230.703 7                  21516237.824 7 113068555.602 7                  88105397.512 7
R07  21971116.047 7  21971122.152 7 117613098.536 7  91476878.139 7
R08  22818492.586 6  22818500.715 6 122192000.746 6  95038262.918 6
R13  21397439.836 6                 114261134.748 6
R14  20220827.047 8  20220831.953 7 107788382.132 8  83835600.577 7
R15  23158190.656 7  23158195.961 6 123750359.003 7  96250316.841 6
R23  19786987.383 8                 105847038.381 8
R24  20699628.906 8  20699633.355 7 110690216.418 8  86092417.609 7
> 2025 06 15 07 42  5.0000000  0 23
C20  25912762.094 6 134934566.323 6
C26  24703035.609 6 128635195.089 6
C29  21532011.727 7 112122834.913 7
C30  22888388.969 7 119185838.710 7
E02  25597639.250 7  25597640.895 8 134516499.208 7 101760867.041 8
E10  23712471.266 8  23712472.777 9 124609876.067 8  94266566.273 9
E11  23492711.086 7  23492709.184 8 123455028.775 7  93392919.038 8
E12  25417859.172 7  25417858.453 8 133571744.132 7 101046155.410 8
E16  24145934.477 8  24145935.750 8 126887739.236 8  95989753.004 8
E24  25741247.305 7  25741250.023 8 135271161.457 7 102331762.502 8
E25  23571522.125 8  23571524.387 9 123869179.609 8  93706239.754 9
G10  23607166.266 7                  23607174.082 7 124056500.363 7                  96667462.263 7
G16  20551761.125 7  20551764.242 6                 108000231.901 7  84156035.295 6
G18  21018515.539 7                  21018520.258 8 110453038.288 7                  86067322.100 8
G23  21299868.375 8                  21299873.156 7 111931568.579 8                  87219446.149 7
G27  21512346.047 7                  21512352.523 7 113048140.164 7                  88089489.389 7
R07  21969026.891 7  21969034.191 7 117601919.989 7  91468183.737 7
R08  22813671.094 7  22813679.645 6 122166184.069 7  95018183.295 6
R13  21399574.891 6                 114272541.314 6
R14  20218929.461 8  20218934.563 7 107778267.089 8  83827733.313 7
R15  23153215.063 7  23153221.727 6 123723777.660 7  96229642.465 6
R23  19787036.953 8                 105847306.512 8
R24  20695950.328 8  20695954.496 7 110670544.479 8  86077117.231 7
> 2025 06 15 07 42 10.0000000  0 23
C20  25908161.633 6 134910605.426 6
C26  24700367.578 6 128621304.257 6
C29  21529898.781 7 112111831.487 7
C30  22888893.711 7 119188469.457 7
E02  25594107.430 7  25594108.648 8 134497937.461 7 101746825.210 8
E10  23711893.406 8  23711894.738 8 124606838.573 8  94264268.426 8
E11  23490673.797 7  23490671.781 8 123444322.203 7  93384819.584 8
E12  25418332.664 7  25418332.105 8 133574232.935 7 101048038.175 8
E16  24146257.641 8  24146258.855 8 126889437.148 8  95991037.445 8
E24  25742479.281 7  25742482.227 8 135277636.304 7 102336660.650 8
E25  23570583.430 8  23570585.434 8 123864245.486 8  93702507.123 8
G10  23602389.008 7                  23602396.121 7 124031393.533 7                  96647898.521 7
G16  20550373.914 7  20550377.500 6                 107992944.869 7  84150357.097 6
G18  21018589.820 7                  21018594.871 8 110453429.477 7                  86067626.916 8
G23  21296773.109 7                  21296777.332 7 111915301.510 7                  87206770.523 7
G27  21508462.797 7                  21508469.379 7 113027732.979 7                  88073587.714 7
R07  21966943.125 7  21966949.934 7 117590764.013 7  91459506.872 7
R08  22808853.203 7  22808858.945 6 122140377.604 7  94998111.613 6
R13  21401714.133 6                 114283959.991 6
R14  20217036.234 8  20217041.438 7 107768175.428 8  83819884.245 7
R15  23148242.695 7  23148249.141 6 123697207.302 7  96208976.670 6
R23  19787089.375 7                 105847585.484 7
R24  20692273.336 8  20692277.488 7 110650882.366 8  86061824.482 7
> 2025 06 15 07 42 15.0000000  0 23
C20  25903560.195 6 134886646.698 6
C26  24697702.133 5 128607426.423 5
C29  21527787.117 7 112100836.025 7
C30  22889400.414 7 119191105.413 7
E02  25590576.000 7  25590577.781 8 134479382.597 7 101732788.577 8
E10  23711316.742 8  23711318.270 9 124603808.945 8  94261976.527 9
E11  23488638.227 7  23488636.078 8 123433624.477 7  93376726.823 8
E12  25418807.320 7  25418806.680 8 133576726.823 7 101049924.764 8
E16  24146582.641 8  24146583.723 8 126891144.221 8  95992328.831 8
E24  25743712.375 7  25743715.324 8 135284116.318 7 102341562.727 8
E25  23569646.727 8  23569648.629 9 123859322.453 8  93698782.879 9
G10  23597611.734 7                  23597619.543 6 124006291.644 7                  96628338.604 6
G16  20548990.742 7  20548994.371 6                 107985675.032 7  84144692.280 6
G18  21018666.164 7                  21018671.234 8 110453831.060 7                  86067939.839 8
G23  21293680.016 7                  21293684.961 7 111899049.289 7                  87194106.461 7
G27  21504581.109 7                  21504587.598 7 113007333.708 7                  88057692.187 7
R07  21964863.531 7  21964870.016 7 117579629.846 7  91450846.965 7
R08  22804035.563 7  22804041.906 6 122114581.008 7  94978047.609 6
R13  21403855.133 6                 114295390.487 6
R14  20215147.273 8  20215152.086 7 107758106.602 8  83812052.930 7
R15  23143272.891 7  23143278.594 6 123670647.533 7  96188319.098 6
R23  19787143.422 7                 105847874.752 7
R24  20688598.453 8  20688602.422 7 110631229.680 8  86046539.058 7
> 2025 06 15 07 42 20.0000000  0 23
C20  25898958.367 6 134862691.853 6
C26  24695040.227 5 128593563.369 5
C29  21525677.711 7 112089850.210 7
C30  22889907.500 7 119193748.300 7
E02  25587046.641 7  25587048.547 8 134460836.368 7 101718758.479 8
E10  23710742.188 8  23710743.578 9 124600788.914 8  94259691.891 9
E11  23486604.281 7  23486602.391 8 123422937.330 7  93368642.064 8
E12  25419283.000 7  25419282.535 8 133579227.477 7 101051816.486 8
E16  24146909.391 8  24146910.645 8 126892862.205 8  95993628.468 8
E24  25744946.750 7  25744949.801 8 135290603.264 7 102346470.050 8
E25  23568712.211 8  23568714.262 9 123854412.252 8  93695068.334 9
G10  23592835.883 7                  23592844.273 7 123981196.392 7                  96608783.878 7
G16  20547610.945 7  20547614.324 6                 107978424.135 7  84139042.237 6
G18  21018744.969 7                  21018749.992 8 110454244.785 7                  86068262.223 8
G23  21290590.094 7                  21290595.367 8 111882813.654 7                  87181455.325 8
G27  21500700.859 7                  21500707.133 7 112986944.025 7                  88041804.118 7
R07  21962787.773 7  21962795.055 7 117568519.766 7  91442205.788 7
R08  22799219.586 7  22799227.281 6 122088796.064 7  94957992.675 6
R13  21405998.711 6                 114306834.230 6
R14  20213262.781 8  20213267.863 7 107748062.504 8  83804240.839 7
R15  23138303.906 7  23138310.711 6 123644100.056 7  96167671.078 6
R23  19787199.500 7                 105848176.298 7
R24  20684924.594 8  20684928.855 7 110611588.131 8  86031262.298 7
> 2025 06 15 07 42 25.0000000  0 23
C20  25894359.313 6 134838739.291 6
C26  24692380.867 5 128579713.433 5
C29  21523569.102 7 112078872.475 7
C30  22890415.992 7 119196396.523 7
E02  25583518.539 7  25583520.703 8 134442297.149 7 101704733.692 8
E10  23710169.016 8  23710170.371 9 124597776.840 8  94257413.276 9
E11  23484572.508 7  23484570.379 8 123412259.195 7  93360564.129 8
E12  25419760.094 7  25419759.363 8 133581733.321 7 101053712.133 8
E16  24147238.086 8  24147239.328 9 126894589.465 8  95994935.123 9
E24  25746182.547 7  25746185.238 8 135297095.479 7 102351381.352 8
E25  23567780.125 8  23567782.016 9 123849513.264 8  93691362.275 9
G10  23588061.680 7                  23588069.582 7 123956106.232 7                  96589233.142 7
G16  20546234.984 7  20546237.813 6                 107971190.522 7  84133405.644 6
G18  21018825.500 7                  21018830.816 8 110454669.018 7                  86068592.796 8
G23  21287504.102 7                  21287508.590 7 111866593.017 7                  87168815.873 7
G27  21496822.359 7                  21496828.930 7 112966562.376 7                  88025922.316 7
R07  21960716.352 7  21960723.238 7 117557431.563 7  91433581.630 7
R08  22794406.508 7  22794413.336 6 122063021.163 7  94937945.553 6
R13  21408144.156 6                 114318289.878 6
R14  20211382.703 8  20211387.965 7 107738041.346 8  83796446.606 7
R15  23133338.375 7  23133344.258 6 123617563.384 7  96147031.470 6
R23  19787258.289 8                 105848488.253 8
R24  20681253.664 8  20681257.891 7 110591956.067 8  86015992.929 7
> 2025 06 15 07 42 30.0000000  0 23
C20  25889760.266 6 134814788.518 6
C26  24689724.273 5 128565876.160 5
C29  21521462.719 7 112067902.285 7
C30  22890925.406 7 119199049.519 7
E02  25579991.531 7  25579994.043 8 134423764.429 7 101690713.811 8
E10  23709597.188 8  23709598.621 9 124594772.193 8  94255140.280 9
E11  23482542.078 7  23482539.992 8 123401589.485 7  93352492.563 8
E12  25420237.570 7  25420237.063 8 133584243.760 7 101055611.257 8
E16  24147568.211 8  24147569.684 8 126896325.476 8  95996248.401 8
E24  25747418.844 7  25747421.555 8 135303592.454 7 102356296.251 8
E25  23566849.797 8  23566851.789 9 123844624.941 8  93687664.290 9
G10  23583287.422 7                  23583295.730 6 123931020.630 7                  96569685.922 6
G16  20544861.258 7  20544864.477 6                 107963973.645 7  84127782.103 6
G18  21018908.422 7                  21018913.309 8 110455103.227 7                  86068931.140 8
G23  21284420.352 8                  21284424.625 7 111850386.813 8                  87156187.679 7
G27  21492944.820 7                  21492951.773 7 112946188.220 7                  88010046.346 7
R07  21958649.813 7  21958655.996 7 117546365.153 7  91424974.408 7
R08  22789594.469 7  22789602.332 6 122037255.806 7  94917905.855 6
R13  21410291.836 6                 114329756.742 6
R14  20209507.539 8  20209512.594 7 107728042.822 8  83788669.970 7
R15  23128373.891 7  23128380.086 6 123591036.925 7  96126399.774 6
R23  19787318.102 7                 105848810.213 7
R24  20677583.945 8  20677588.758 7 110572333.026 8  86000730.578 7
> 2025 06 15 07 42 35.0000000  0 23
C20  25885160.820 6 134790840.504 6
C26  24687070.102 5 128552052.537 5
C29  21519357.484 7 112056940.610 7
C30  22891436.156 7 119201708.327 7
E02  25576466.313 7  25576468.832 8 134405239.216 7 101676699.609 8
E10  23709027.023 8  23709028.477 9 124591775.981 8  94252873.662 9
E11  23480513.281 7  23480511.398 8 123390929.251 7  93344428.166 8
E12  25420716.422 7  25420715.867 8 133586759.854 7 101057514.660 8
E16  24147900.750 8  24147901.883 8 126898071.251 8  95997569.063 8
E24  25748656.016 7  25748658.973 8 135310095.171 7 102361215.508 8
E25  23565921.734 8  23565923.789 9 123839748.311 8  93683975.148 9
G10  23578514.922 7                  23578523.297 6 123905940.610 7                  96550143.075 6
G16  20543491.758 7  20543494.508 6                 107956774.544 7  84122172.413 6
G18  21018993.094 7                  21018998.270 8 110455548.417 7                  86069278.037 8
G23  21281339.367 8                  21281343.781 7 111834196.104 8                  87143571.553 7
G27  21489069.281 7                  21489076.359 7 112925822.521 7                  87994176.985 7
R07  21956586.570 7  21956592.813 7 117535321.331 7  91416384.768 7
R08  22784786.438 7  22784792.719 6 122011500.898 7  94897874.291 6
R13  21412441.180 6                 114341236.011 6
R14  20207635.672 8  20207641.004 7 107718067.837 8  83780911.650 7
R15  23123412.898 7  23123417.789 6 123564521.777 7  96105776.892 6
R23  19787380.516 7                 105849143.174 7
R24  20673916.727 8  20673920.637 7 110552720.118 8  85985476.096 7
> 2025 06 15 07 42 40.0000000  0 23
C20  25880561.391 6 134766895.419 6
C26  24684418.141 5 128538242.712 5
C29  21517254.156 7 112045987.656 7
C30  22891947.805 7 119204373.077 7
E02  25572942.523 7  25572945.074 8 134386721.671 7 101662691.220 8
E10  23708458.578 8  23708459.969 9 124588788.363 8  94250613.542 9
E11  23478486.578 7  23478484.664 8 123380278.611 7  93336371.024 8
E12  25421196.289 7  25421195.758 8 133589281.744 7 101059422.446 8
E16  24148234.641 8  24148235.984 8 126899826.946 8  95998897.232 8
E24  25749894.664 7  25749897.531 8 135316603.814 7 102366139.232 8
E25  23564996.008 8  23564998.047 9 123834883.521 8  93680294.958 9
G10  23573743.609 7                  23573751.566 6 123880866.348 7                  96530604.710 6
G16  20542125.422 7  20542127.895 6                 107949593.384 7  84116576.701 6
G18  21019079.781 7                  21019085.012 8 110456004.746 7                  86069633.614 8
G23  21278261.273 8                  21278265.656 7 111818021.051 8                  87130967.610 7
G27  21485195.914 7                  21485202.594 7 112905465.520 7                  87978314.377 7
R07  21954527.672 7  21954533.719 7 117524300.354 7  91407812.896 7
R08  22779979.555 7  22779985.047 6 121985756.775 7  94877851.086 6
R13  21414592.188 6                 114352727.480 6
R14  20205769.625 8  20205774.262 7 107708116.625 8  83773171.814 7
R15  23118453.781 7  23118458.980 6 123538018.089 7  96085162.908 6
R23  19787445.453 7                 105849487.270 7
R24  20670250.344 8  20670254.887 7 110533117.238 8  85970229.422 7
> 2025 06 15 07 42 45.0000000  0 23
C20  25875964.195 6 134742952.000 6
C26  24681768.875 5 128524445.380 5
C29  21515152.047 7 112035042.052 7
C30  22892461.031 7 119207042.426 7
E02  25569420.234 7  25569422.504 8 134368210.453 7 101648687.610 8
E10  23707891.359 8  23707892.809 9 124585807.980 8  94248358.903 9
E11  23476461.258 7  23476459.473 8 123369636.233 7  93328320.136 8
E12  25421676.992 7  25421676.492 8 133591808.061 7 101061333.577 8
E16  24148570.789 8  24148571.730 8 126901591.176 8  96000231.854 8
E24  25751134.531 7  25751136.926 8 135323116.989 7 102371066.402 8
E25  23564072.250 8  23564074.313 9 123830029.226 8  93676622.714 9
G10  23568972.359 7                  23568980.633 6 123855796.487 7                  96511069.772 6
G16  20540761.641 7  20540764.430 6                 107942428.794 7  84110993.907 6
G18  21019168.477 7                  21019173.953 8 110456470.844 7                  86069996.806 8
G23  21275185.914 8                  21275189.891 7 111801860.286 8                  87118374.805 7
G27  21481323.414 7                  21481330.172 7 112885115.831 7                  87962457.496 7
R07  21952472.750 7  21952478.996 7 117513300.737 7  91399257.654 7
R08  22775173.969 7  22775179.055 6 121960021.933 7  94857835.136 6
R13  21416746.578 6                 114364229.912 6
R14  20203906.844 8  20203912.430 7 107698187.690 8  83765449.308 7
R15  23113495.516 7  23113500.926 6 123511524.427 7  96064556.762 6
R23  19787510.344 7                 105849841.097 7
R24  20666586.180 8  20666590.996 7 110513523.254 8  85954989.654 7
> 2025 06 15 07 42 50.0000000  0 23
C20  25871367.117 6 134719010.840 6
C26  24679122.266 5 128510661.188 5
C29  21513051.563 7 112024104.451 7
C30  22892974.102 7 119209717.052 7
E02  25565899.180 7  25565901.320 8 134349706.254 7 101634689.313 8
E10  23707325.742 8  23707327.152 9 124582835.488 8  94246110.223 9
E11  23474437.891 7  23474435.988 8 123359002.785 7  93320275.998 8
E12  25422158.688 7  25422158.199 8 133594339.410 7 101063248.521 8
E16  24148908.211 8  24148909.195 8 126903364.618 8  96001573.448 8
E24  25752374.820 7  25752377.328 8 135329635.404 7 102375997.526 8
E25  23563150.695 8  23563152.680 8 123825186.088 8  93672958.912 8
G10  23564202.922 7                  23564211.055 6 123830731.716 7                  96491538.813 6
G16  20539402.156 8  20539404.344 6                 107935281.438 8  84105424.533 6
G18  21019259.578 8                  21019264.605 8 110456947.386 8                  86070368.133 8
G23  21272113.570 8                  21272117.535 7 111785714.504 8                  87105793.675 7
G27  21477452.461 7                  21477459.063 7 112864774.138 7                  87946606.814 7
R07  21950421.867 7  21950428.402 7 117502323.456 7  91390719.751 7
R08  22770368.820 7  22770375.008 6 121934297.141 7  94837827.003 6
R13  21418902.375 6                 114375744.184 6
R14  20202048.781 8  20202053.277 7 107688281.809 8  83757744.743 7
R15  23108538.914 7  23108544.781 6 123485041.611 7  96043959.018 6
R23  19787578.648 8                 105850205.468 8
R24  20662923.734 8  20662928.082 7 110493938.576 8  85939757.136 7
> 2025 06 15 07 42 55.0000000  0 23
C20  25866769.328 6 134695071.836 6
C26  24676477.484 5 128496890.010 5
C29  21510952.766 7 112013174.750 7
C30  22893488.633 7 119212396.777 7
E02  25562378.836 7  25562381.445 8 134331208.898 7 101620696.201 8
E10  23706761.516 8  23706762.953 9 124579870.758 8  94243867.427 9
E11  23472415.953 7  23472414.188 8 123348378.101 7  93312238.494 8
E12  25422641.172 7  25422640.797 8 133596875.726 7 101065167.215 8
E16  24149247.406 8  24149248.391 8 126905147.158 8  96002921.920 8
E24  25753616.313 7  25753618.715 8 135336158.859 7 102380932.466 8
E25  23562231.375 8  23562233.141 9 123820353.961 8  93669303.435 9
G10  23559434.445 7                  23559442.324 6 123805671.903 7                  96472011.706 6
G16  20538044.961 8  20538047.410 6                 107928151.188 8  84099868.502 6
G18  21019351.656 8                  21019357.172 8 110457434.203 8                  86070747.471 8
G23  21269043.289 7                  21269048.301 7 111769583.529 7                  87093224.095 7
G27  21473582.672 7                  21473589.719 7 112844440.329 7                  87930762.303 7
R07  21948375.523 7  21948382.125 7 117491368.178 7  91382198.978 7
R08  22765565.563 7  22765573.438 6 121908582.358 7  94817826.664 6
R13  21421062.570 6                 114387269.891 6
R14  20200194.594 8  20200199.699 7 107678398.784 8  83750057.947 7
R15  23103584.375 7  23103591.176 6 123458569.449 7  96023369.587 6
R23  19787649.742 7                 105850579.959 7
R24  20659262.805 8  20659267.668 7 110474363.286 8  85924531.911 7
> 2025 06 15 07 43  0.0000000  0 23
C20  25862172.141 6 134671135.442 6
C26  24673834.922 5 128483132.247 5
C29  21508855.039 7 112002253.310 7
C30  22894004.906 7 119215082.031 7
E02  25558860.453 7  25558862.934 8 134312718.820 7 101606708.576 8
E10  23706198.977 8  23706200.324 9 124576914.138 8  94241630.760 9
E11  23470396.047 7  23470394.078 8 123337762.580 7  93304207.926 8
E12  25423124.906 7  25423124.410 8 133599417.397 7 101067089.977 8
E16  24149588.367 8  24149589.379 9 126906939.155 8  96004277.548 9
E24  25754858.633 7  25754861.125 8 135342687.777 7 102385871.547 8
E25  23561314.031 8  23561315.785 9 123815533.258 8  93665656.605 9
G10  23554666.898 7                  23554674.578 6 123780617.463 7                  96452488.764 6
G16  20536691.156 8  20536693.887 6                 107921038.476 8  84094326.128 6
G18  21019446.133 7                  21019451.578 8 110457931.689 7                  86071135.115 8
G23  21265976.781 7                  21265981.602 8 111753467.819 7                  87080666.412 8
G27  21469715.500 7                  21469722.352 7 112824114.781 7                  87914924.205 7
R07  21946332.211 7  21946340.219 7 117480435.253 7  91373695.587 7
R08  22760765.648 7  22760772.891 6 121882877.983 7  94797834.404 6
R13  21423221.617 6                 114398807.430 6
R14  20198344.594 8  20198349.977 7 107668539.052 8  83742389.271 7
R15  23098633.414 7  23098639.008 6 123432108.309 7  96002788.720 6
R23  19787721.055 8                 105850965.162 8
R24  20655603.547 8  20655608.691 7 110454797.704 8  85909314.235 7
> 2025 06 15 07 43  5.0000000  0 23
C20  25857575.961 6 134647202.021 6
C26  24671196.648 6 128469388.248 6
C29  21506759.086 7 111991340.565 7
C30  22894521.398 7 119217773.188 7
E02  25555343.234 7  25555345.871 8 134294236.468 7 101592726.797 8
E10  23705638.109 8  23705639.324 9 124573966.115 8  94239400.597 9
E11  23468377.680 7  23468375.895 8 123327156.691 7  93296184.635 8
E12  25423609.477 7  25423609.180 8 133601964.771 7 101069017.035 8
E16  24149931.156 8  24149932.305 8 126908741.040 8  96005640.656 8
E24  25756102.594 7  25756104.672 8 135349222.574 7 102390815.047 8
E25  23560398.688 8  23560400.695 9 123810724.409 8  93662018.737 9
G10  23549900.383 7                  23549908.324 7 123755568.844 7                  96432970.381 7
G16  20535340.984 8  20535343.633 6                 107913943.705 8  84088797.739 6
G18  21019543.063 8                  21019548.500 8 110458440.263 8                  86071531.395 8
G23  21262913.266 7                  21262917.898 8 111737367.801 7                  87068120.948 8
G27  21465849.625 7                  21465855.848 7 112803797.944 7                  87899092.910 7
R07  21944294.977 7  21944302.535 7 117469525.081 7  91365209.896 7
R08  22755966.906 7  22755974.949 6 121857184.442 7  94777850.573 6
R13  21425385.930 6                 114410357.330 6
R14  20196500.094 8  20196504.219 7 107658703.145 8  83734739.103 7
R15  23093683.617 7  23093689.441 6 123405658.720 7  95982216.802 6
R23  19787795.250 8                 105851361.559 8
R24  20651947.211 8  20651951.766 7 110435242.434 8  85894104.590 7
> 2025 06 15 07 43 10.0000000  0 23
C20  25852979.922 6 134623269.245 6
C26  24668559.766 6 128455655.751 6
C29  21504665.367 7 111980434.152 7
C30  22895038.953 7 119220467.894 7
E02  25551827.203 7  25551829.824 8 134275759.415 7 101578749.036 8
E10  23705078.047 8  23705079.512 9 124571024.218 8  94237175.067 9
E11  23466360.828 7  23466359.031 8 123316558.009 7  93288166.802 8
E12  25424094.836 7  25424094.547 8 133604515.492 7 101070946.639 8
E16  24150275.484 8  24150276.605 8 126910550.398 8  96007009.420 8
E24  25757346.563 7  25757348.852 8 135355760.826 7 102395761.182 8
E25  23559485.484 8  23559487.359 9 123805924.970 8  93658387.993 9
G10  23545134.164 7                  23545142.543 6 123730523.657 7                  96413454.647 6
G16  20533993.898 8  20533996.496 6                 107906864.425 8  84083281.412 6
G18  21019641.703 7                  21019646.789 8 110458957.515 7                  86071934.439 8
G23  21259852.063 7                  21259856.363 8 111721281.051 7                  87055585.812 8
G27  21461984.063 7                  21461991.383 7 112783487.373 7                  87883266.480 7
R07  21942261.125 7  21942267.883 7 117458635.421 7  91356740.173 7
R08  22751170.859 7  22751178.152 6 121831499.263 7  94757873.214 6
R13  21427549.992 6                 114421917.011 6
R14  20194658.508 8  20194663.230 7 107648888.368 8  83727105.393 7
R15  23088735.016 7  23088741.281 6 123379218.361 7  95961652.060 6
R23  19787870.906 7                 105851766.499 7
R24  20648291.891 8  20648296.406 7 110415694.830 8  85878900.898 7
> 2025 06 15 07 43 15.0000000  0 23
C20  25848384.164 6 134599339.566 6
C26  24665924.914 6 128441937.151 6
C29  21502572.055 7 111969536.473 7
C30  22895557.500 7 119223168.575 7
E02  25548312.492 7  25548315.277 8 134257290.172 7 101564777.184 8
E10  23704519.734 8  23704521.352 9 124568090.937 8  94234956.059 9
E11  23464345.945 7  23464344.016 8 123305968.950 7  93280156.241 8
E12  25424581.328 7  25424581.051 8 133607072.048 7 101072880.651 8
E16  24150621.570 8  24150622.824 8 126912369.691 8  96008385.697 8
E24  25758591.891 7  25758594.207 8 135362305.010 7 102400711.784 8
E25  23558574.375 8  23558576.344 9 123801137.449 8  93654766.265 9
G10  23540369.688 7                  23540377.848 6 123705484.318 7                  96393943.478 6
G16  20532650.258 7  20532652.977 6                 107899803.167 7  84077779.130 6
G18  21019742.484 7                  21019747.215 8 110459485.922 7                  86072346.179 8
G23  21256794.094 7                  21256798.387 7 111705210.060 7                  87043062.961 7
G27  21458121.078 7                  21458128.027 7 112763185.616 7                  87867446.929 7
R07  21940231.375 7  21940237.855 7 117447768.643 7  91348288.236 7
R08  22746376.766 7  22746384.191 6 121805825.014 7  94737904.379 6
R13  21429717.727 6                 114433489.068 6
R14  20192821.875 8  20192826.316 7 107639097.463 8  83719490.242 7
R15  23083789.094 6  23083795.262 6 123352789.459 6  95941096.257 6
R23  19787949.188 8                 105852182.626 8
R24  20644637.836 8  20644642.695 7 110396157.500 8  85863705.208 7
> 2025 06 15 07 43 20.0000000  0 23
C20  25843789.313 6 134575412.860 6
C26  24663293.008 6 128428232.358 6
C29  21500480.898 7 111958647.415 7
C30  22896077.219 7 119225875.127 7
E02  25544799.539 7  25544802.141 8 134238828.553 7 101550811.075 8
E10  23703963.414 8  23703964.758 9 124565166.135 8  94232743.457 9
E11  23462332.453 7  23462330.793 8 123295389.444 7  93272152.923 8
E12  25425068.672 7  25425068.641 8 133609634.267 7 101074818.943 8
E16  24150969.586 8  24150970.887 8 126914198.805 8  96009769.402 8
E24  25759838.484 7  25759840.613 8 135368854.959 7 102405666.758 8
E25  23557665.500 8  23557667.559 9 123796361.706 8  93651153.435 9
G10  23535605.922 7                  23535614.156 7 123680450.783 7                  96374436.837 7
G16  20531310.453 7  20531312.496 6                 107892759.783 7  84072290.773 6
G18  21019844.695 7                  21019849.918 8 110460025.303 7                  86072766.479 8
G23  21253738.602 8                  21253743.172 8 111689154.700 8                  87030552.292 8
G27  21454259.594 7                  21454266.301 7 112742892.493 7                  87851634.125 7
R07  21938205.875 7  21938212.164 7 117436924.684 7  91339854.052 7
R08  22741584.484 7  22741592.137 7 121780161.618 7  94717944.000 7
R13  21431887.805 6                 114445073.152 6
R14  20190989.195 8  20190994.531 7 107629330.237 8  83711893.531 7
R15  23078846.945 7  23078851.672 6 123326372.190 7  95920549.529 6
R23  19788028.586 8                 105852609.670 8
R24  20640986.367 8  20640990.566 7 110376630.244 8  85848517.334 7
> 2025 06 15 07 43 25.0000000  0 23
C20  25839195.461 6 134551487.324 6
C26  24660663.305 6 128414539.545 6
C29  21498390.883 7 111947765.223 7
C30  22896598.000 7 119228585.703 7
E02  25541287.953 7  25541290.156 8 134220372.811 7 101536849.431 8
E10  23703408.039 8  23703409.430 9 124562247.992 8  94230535.901 9
E11  23460321.070 7  23460319.039 8 123284817.648 7  93264155.420 8
E12  25425557.367 7  25425556.961 8 133612200.334 7 101076760.146 8
E16  24151319.133 8  24151320.469 8 126916035.901 8  96011159.150 8
E24  25761085.633 7  25761087.789 8 135375408.909 7 102410624.770 8
E25  23556758.664 8  23556760.648 9 123791595.894 8  93647548.127 9
G10  23530842.492 7                  23530851.434 7 123655421.228 7                  96354933.288 7
G16  20529973.117 7  20529975.336 6                 107885732.418 7  84066814.903 6
G18  21019949.094 7                  21019954.250 8 110460573.878 7                  86073193.933 8
G23  21250685.969 7                  21250690.473 8 111673113.168 7                  87018052.410 8
G27  21450399.266 7                  21450405.816 7 112722606.195 7                  87835826.627 7
R07  21936182.555 7  21936189.988 7 117426101.655 7  91331436.128 7
R08  22736793.492 7  22736801.063 6 121754507.150 7  94697990.553 6
R13  21434058.578 6                 114456667.657 6
R14  20189160.906 8  20189166.168 7 107619584.796 8  83704313.734 7
R15  23073903.922 7  23073909.543 6 123299964.592 7  95900010.310 6
R23  19788110.570 8                 105853045.908 8
R24  20637335.383 8  20637340.609 7 110357111.243 8  85833335.897 7
> 2025 06 15 07 43 30.0000000  0 23
C20  25834601.500 6 134527564.694 6
C26  24658036.453 6 128400860.416 6
C29  21496302.875 7 111936891.540 7
C30  22897119.477 7 119231302.064 7
E02  25537776.977 7  25537779.609 8 134201924.635 7 101522893.513 8
E10  23702854.180 8  23702855.695 9 124559338.239 8  94228334.690 9
E11  23458310.992 7  23458309.059 8 123274255.264 7  93256165.040 8
E12  25426046.539 7  25426046.344 8 133614771.946 7 101078705.549 8
E16  24151670.766 8  24151671.906 8 126917882.721 8  96012556.248 8
E24  25762333.516 7  25762336.070 8 135381968.513 7 102415587.054 8
E25  23555853.844 8  23555855.949 9 123786841.791 8  93643951.679 9
G10  23526080.813 7                  23526089.719 7 123630397.368 7                  96335434.199 7
G16  20528639.133 7  20528641.465 6                 107878722.838 7  84061352.885 6
G18  21020055.609 7                  21020060.738 8 110461133.338 7                  86073629.871 8
G23  21247635.813 7                  21247640.922 8 111657087.199 7                  87005564.645 8
G27  21446540.781 7                  21446547.355 7 112702328.481 7                  87820025.820 7
R07  21934166.281 7  21934171.813 7 117415301.316 7  91323035.872 7
R08  22732005.555 7  22732012.152 6 121728863.506 7  94678045.502 6
R13  21436232.633 7                 114468274.141 7
R14  20187337.695 8  20187342.133 7 107609862.928 8  83696752.287 7
R15  23068964.547 7  23068970.266 6 123273568.467 7  95879479.984 6
R23  19788194.266 8                 105853493.114 8
R24  20633687.828 8  20633693.043 7 110337602.278 8  85818162.269 7
> 2025 06 15 07 43 35.0000000  0 23
C20  25830007.641 6 134503644.597 6
C26  24655412.156 6 128387194.542 6
C29  21494216.672 7 111926025.986 7
C30  22897642.164 7 119234023.717 7
E02  25534267.813 7  25534270.434 8 134183483.643 7 101508943.028 8
E10  23702302.203 8  23702303.512 9 124556436.435 8  94226139.488 9
E11  23456302.719 7  23456300.824 8 123263701.906 7  93248181.496 8
E12  25426536.852 7  25426536.707 8 133617348.713 7 101080654.840 8
E16  24152024.063 8  24152025.094 8 126919738.813 8  96013960.360 8
E24  25763582.750 7  25763585.332 8 135388533.406 7 102420553.330 8
E25  23554951.398 8  23554953.434 9 123782098.944 8  93640363.741 9
G10  23521320.352 7                  23521328.375 7 123605378.816 7                  96315939.237 7
G16  20527308.188 8  20527310.656 6                 107871730.580 8  84055904.373 6
G18  21020164.359 7                  21020169.313 8 110461703.259 7                  86074073.961 8
G23  21244589.320 7                  21244593.992 8 111641076.364 7                  86993088.680 8
G27  21442683.445 7                  21442690.129 7 112682058.933 7                  87804231.376 7
R07  21932150.656 7  21932158.816 7 117404523.371 7  91314653.025 7
R08  22727217.328 6  22727225.934 7 121703230.068 6  94658108.436 7
R13  21438408.859 7                 114479892.252 7
R14  20185517.219 8  20185522.859 7 107600164.313 8  83689208.923 7
R15  23064027.422 7  23064032.039 6 123247183.399 7  95858958.277 6
R23  19788279.375 8                 105853950.734 8
R24  20630041.203 8  20630046.223 7 110318103.021 8  85802996.180 7
> 2025 06 15 07 43 40.0000000  0 23
C20  25825415.359 6 134479726.450 6
C26  24652790.305 6 128373541.503 6
C29  21492131.289 7 111915168.050 7
C30  22898165.555 7 119236750.219 7
E02  25530760.039 7  25530762.520 8 134165049.324 7 101494997.586 8
E10  23701751.336 8  23701752.746 9 124553542.054 8  94223949.901 9
E11  23454296.219 7  23454294.230 8 123253157.058 7  93240204.388 8
E12  25427028.133 7  25427027.965 8 133619930.089 7 101082607.623 8
E16  24152378.859 8  24152379.969 8 126921603.681 8  96015371.111 8
E24  25764833.117 7  25764835.543 8 135395103.005 7 102425523.167 8
E25  23554050.953 8  23554052.961 9 123777366.839 8  93636783.932 9
G10  23516559.445 7                  23516568.180 7 123580365.029 7                  96296447.979 7
G16  20525980.711 7  20525983.457 6                 107864755.160 7  84050468.981 6
G18  21020274.547 7                  21020279.512 8 110462283.148 7                  86074525.815 8
G23  21241545.539 7                  21241550.051 8 111625080.178 7                  86980624.123 8
G27  21438827.297 7                  21438834.594 7 112661797.037 7                  87788442.886 7
R07  21930141.266 7  21930149.426 7 117393767.158 7  91306287.088 7
R08  22722433.039 7  22722440.555 7 121677606.612 7  94638179.084 7
R13  21440587.320 7                 114491521.323 7
R14  20183702.203 8  20183707.234 7 107590488.305 8  83681683.128 7
R15  23059092.500 7  23059096.660 6 123220808.954 7  95838444.830 6
R23  19788366.758 8                 105854418.196 8
R24  20626397.336 8  20626401.266 7 110298612.802 8  85787837.117 7
> 2025 06 15 07 43 45.0000000  0 23
C20  25820822.422 6 134455811.131 6
C26  24650171.672 6 128359901.959 6
C29  21490047.875 7 111904318.479 7
C30  22898689.914 7 119239482.280 7
E02  25527253.391 7  25527256.016 8 134146622.379 7 101481057.730 8
E10  23701202.203 8  23701203.508 9 124550655.880 8  94221766.528 9
E11  23452291.391 7  23452289.371 8 123242621.399 7  93232234.225 8
E12  25427520.484 7  25427520.254 8 133622516.861 7 101084564.493 8
E16  24152735.508 8  24152736.625 8 126923478.049 8  96016789.053 8
E24  25766084.148 7  25766086.781 8 135401678.148 7 102430497.222 8
E25  23553152.539 8  23553154.656 9 123772646.255 8  93633212.833 9
G10  23511801.719 7                  23511809.836 7 123555356.856 7                  96276961.102 7
G16  20524656.344 7  20524659.621 6                 107857797.347 7  84045047.301 6
G18  21020387.039 7                  21020391.793 8 110462873.700 7                  86074985.977 8
G23  21238504.469 7                  21238509.336 8 111609099.391 7                  86968171.562 8
G27  21434973.328 7                  21434980.043 7 112641543.575 7                  87772660.975 7
R07  21928136.242 7  21928144.348 7 117383033.581 7  91297938.766 7
R08  22717649.516 7  22717657.684 7 121651993.858 7  94618258.081 7
R13  21442766.031 6                 114503162.222 6
R14  20181891.281 8  20181896.637 7 107580835.630 8  83674175.488 7
R15  23054158.242 7  23054164.297 6 123194445.734 7  95817940.105 6
R23  19788456.367 8                 105854896.507 8
R24  20622753.984 8  20622758.516 7 110279132.365 8  85772685.669 7
> 2025 06 15 07 43 50.0000000  0 23
C20  25816229.984 6 134431898.318 6
C26  24647554.125 6 128346275.734 6
C29  21487965.836 7 111893477.021 7
C30  22899215.656 7 119242219.657 7
E02  25523748.148 7  25523750.871 8 134128202.681 7 101467123.359 8
E10  23700654.414 8  23700655.789 9 124547777.632 8  94219589.148 9
E11  23450288.094 7  23450286.238 8 123232094.837 7  93224270.955 8
E12  25428013.734 7  25428013.531 8 133625108.730 7 101086525.221 8
E16  24153094.086 8  24153095.070 8 126925361.700 8  96018214.020 8
E24  25767336.320 7  25767339.031 8 135408258.525 7 102435475.220 8
E25  23552256.375 8  23552258.512 9 123767936.923 8  93629650.259 9
G10  23507042.930 7                  23507051.992 7 123530354.015 7                  96257478.389 7
G16  20523335.813 7  20523338.691 6                 107850856.893 7  84039639.156 6
G18  21020501.086 7                  21020506.324 8 110463474.734 7                  86075454.303 8
G23  21235466.320 7                  21235471.164 8 111593133.772 7                  86955730.845 8
G27  21431120.469 7                  21431127.785 7 112621298.299 7                  87756885.438 7
R07  21926134.883 7  21926143.277 7 117372322.181 7  91289607.675 7
R08  22712869.445 7  22712876.137 7 121626391.346 7  94598345.028 7
R13  21444948.297 6                 114514814.655 6
R14  20180084.523 8  20180090.402 7 107571206.173 8  83666685.889 7
R15  23049227.289 7  23049231.434 6 123168093.688 7  95797444.070 6
R23  19788547.477 8                 105855385.152 8
R24  20619113.047 8  20619117.254 7 110259661.622 8  85757541.753 7
> 2025 06 15 07 43 55.0000000  0 23
C20  25811638.789 6 134407988.608 6
C26  24644939.688 6 128332663.365 6
C29  21485885.695 7 111882644.278 7
C30  22899743.039 7 119244962.934 7
E02  25520244.789 7  25520247.234 8 134109790.726 7 101453194.842 8
E10  23700108.133 8  23700109.688 9 124544907.902 8  94217418.211 9
E11  23448286.953 7  23448284.891 8 123221577.791 7  93216314.883 8
E12  25428508.109 7  25428507.855 8 133627706.299 7 101088490.255 8
E16  24153454.281 8  24153455.383 8 126927255.190 8  96019646.422 8
E24  25768589.609 7  25768592.406 8 135414844.685 7 102440457.595 8
E25  23551362.555 8  23551364.590 9 123763239.430 8  93626096.629 9
G10  23502286.258 7                  23502295.258 7 123505357.056 7                  96238000.262 7
G16  20522018.656 7  20522021.457 6                 107843934.380 7  84034244.989 6
G18  21020617.555 7                  21020622.520 8 110464086.729 7                  86075931.176 8
G23  21232430.883 7                  21232436.168 8 111577183.897 7                  86943302.371 8
G27  21427269.992 7                  21427276.773 7 112601061.771 7                  87741116.721 7
R07  21924138.641 7  21924146.359 7 117361634.000 7  91281294.632 7
R08  22708090.227 7  22708096.824 7 121600799.923 7  94578440.606 7
R13  21447131.648 6                 114526479.288 6
R14  20178282.703 8  20178288.508 7 107561600.445 8  83659214.772 7
R15  23044297.914 7  23044302.313 6 123141753.340 7  95776957.134 6
R23  19788641.203 8                 105855884.803 8
R24  20615473.109 8  20615477.715 7 110240201.063 8  85742405.772 7
> 2025 06 15 07 44  0.0000000  0 23
C20  25807048.164 6 134384081.304 6
C26  24642327.633 6 128319064.161 6
C29  21483806.859 7 111871819.448 7
C30  22900270.742 7 119247711.333 7
E02  25516742.250 7  25516744.891 8 134091385.806 7 101439271.640 8
E10  23699563.602 8  23699565.074 9 124542045.881 8  94215253.109 9
E11  23446287.242 7  23446285.254 8 123211069.589 7  93208365.488 8
E12  25429003.234 7  25429003.125 8 133630308.755 7 101090458.992 8
E16  24153816.555 8  24153817.445 8 126929157.751 8  96021085.686 8
E24  25769844.320 7  25769846.684 8 135421435.876 7 102445443.766 8
E25  23550470.648 8  23550472.797 8 123758552.988 8  93622551.368 8
G10  23497530.523 7                  23497539.578 7 123480365.282 7                  96218526.177 7
G16  20520704.430 7  20520707.332 6                 107837029.070 7  84028864.227 6
G18  21020735.891 8                  21020740.938 8 110464708.990 8                  86076416.050 8
G23  21229398.359 7                  21229403.832 8 111561249.021 7                  86930885.586 8
G27  21423420.961 7                  21423427.410 7 112580833.268 7                  87725354.262 7
R07  21922146.711 7  21922153.957 7 117350967.671 7  91272998.597 7
R08  22703313.477 7  22703320.090 7 121575218.907 7  94558544.280 7
R13  21449318.047 6                 114538155.228 6
R14  20176485.148 8  20176490.934 7 107552017.784 8  83651761.583 7
R15  23039370.297 7  23039375.145 6 123115423.966 7  95756478.712 6
R23  19788736.664 8                 105856394.838 8
R24  20611835.938 8  20611840.332 7 110220749.960 8  85727277.146 7
> 2025 06 15 07 44  5.0000000  0 23
C20  25802457.289 6 134360177.854 6
C26  24639718.656 6 128305479.521 6
C29  21481729.766 7 111861004.030 7
C30  22900799.766 7 119250466.313 7
E02  25513241.555 7  25513244.168 8 134072989.359 7 101425354.858 8
E10  23699020.602 8  23699022.246 9 124539193.080 8  94213094.988 9
E11  23444289.414 7  23444287.574 8 123200571.644 7  93200423.868 8
E12  25429500.000 7  25429499.605 8 133632917.618 7 101092432.574 8
E16  24154180.469 8  24154181.508 8 126931070.851 8  96022532.930 8
E24  25771099.523 7  25771102.270 8 135428033.590 7 102450434.878 8
E25  23549581.273 8  23549583.406 9 123753879.106 8  93619015.604 9
G10  23492775.766 7                  23492784.711 7 123455380.191 7                  96199057.289 7
G16  20519394.484 7  20519397.148 6                 107830142.351 7  84023497.955 6
G18  21020856.695 7                  21020861.492 8 110465342.949 7                  86076910.052 8
G23  21226369.414 7                  21226374.734 8 111545330.617 7                  86918481.640 8
G27  21419573.500 7                  21419579.863 7 112560614.264 7                  87709599.186 7
R07  21920158.188 7  21920165.840 7 117340325.229 7  91264721.157 7
R08  22698539.375 7  22698544.605 7 121549649.605 7  94538657.091 7
R13  21451506.281 6                 114549843.850 6
R14  20174692.008 8  20174697.707 7 107542459.547 8  83644327.416 7
R15  23034446.547 7  23034450.262 6 123089107.067 7  95736010.015 6
R23  19788833.969 8                 105856916.380 8
R24  20608200.570 8  20608204.785 7 110201309.749 8  85712156.989 7
> 2025 06 15 07 44 10.0000000  0 23
C20  25797867.188 6 134336277.402 6
C26  24637113.016 6 128291908.610 6
C29  21479654.273 7 111850197.166 7
C30  22901329.742 7 119253227.042 7
E02  25509742.250 7  25509744.895 8 134054600.558 7 101411443.855 8
E10  23698479.406 8  23698480.941 9 124536348.640 8  94210943.179 9
E11  23442293.711 7  23442291.668 8 123190083.116 7  93192489.363 8
E12  25429997.453 7  25429997.148 8 133635532.008 7 101094410.339 8
E16  24154546.648 8  24154547.426 8 126932993.651 8  96023987.505 8
E24  25772355.898 7  25772358.871 8 135434636.965 7 102455430.276 8
E25  23548693.898 8  23548696.191 9 123749216.912 8  93615488.680 9
G10  23488023.016 7                  23488031.434 7 123430400.894 7                  96179592.928 7
G16  20518086.531 7  20518089.930 6                 107823273.422 7  84018145.541 6
G18  21020979.344 7                  21020984.129 8 110465987.763 7                  86077412.494 8
G23  21223342.609 7                  21223348.598 8 111529427.846 7                  86906089.867 8
G27  21415727.500 7                  21415733.992 7 112540403.896 7                  87693850.847 7
R07  21918174.617 7  21918181.637 7 117329705.411 7  91256461.295 7
R08  22693765.055 7  22693771.910 7 121524091.221 7  94518778.381 7
R13  21453698.938 6                 114561544.457 6
R14  20172903.641 8  20172909.121 7 107532925.085 8  83636911.709 7
R15  23029523.344 7  23029528.004 6 123062801.790 7  95715550.384 6
R23  19788933.586 8                 105857448.840 8
R24  20604567.242 8  20604571.227 7 110181879.656 8  85697044.709 7
> 2025 06 15 07 44 15.0000000  0 23
C20  25793278.055 6 134312378.228 6
C26  24634508.227 6 128278349.786 6
C29  21477579.516 7 111839397.163 7
C30  22901860.563 7 119255991.803 7
E02  25506244.141 7  25506246.723 8 134036217.723 7 101397537.364 8
E10  23697939.398 8  23697940.977 9 124533510.822 8  94208796.380 9
E11  23440298.984 7  23440297.227 8 123179602.342 7  93184560.731 8
E12  25430495.508 7  25430495.359 8 133638150.191 7 101096390.967 8
E16  24154914.219 8  24154914.844 8 126934924.420 8  96025448.112 8
E24  25773613.383 7  25773616.281 8 135441244.301 7 102460428.671 8
E25  23547808.695 8  23547810.914 9 123744564.714 8  93611969.329 9
G10  23483270.797 7                  23483278.617 7 123405425.730 7                  96160131.772 7
G16  20516782.906 7  20516785.863 6                 107816420.564 7  84012805.651 6
G18  21021103.453 7                  21021108.875 8 110466641.696 7                  86077922.046 8
G23  21220319.664 7                  21220325.305 8 111513539.006 7                  86893708.965 8
G27  21411882.703 7                  21411889.008 7 112520200.462 7                  87678107.907 7
R07  21916195.797 7  21916202.004 7 117319106.660 7  91248217.824 7
R08  22688995.500 7  22689001.270 6 121498542.039 7  94498906.838 6
R13  21455893.039 6                 114573255.118 6
R14  20171120.023 8  20171124.133 7 107523412.273 8  83629512.879 7
R15  23024603.188 7  23024607.492 6 123036506.388 7  95695098.399 6
R23  19789034.633 8                 105857990.436 8
R24  20600934.906 8  20600939.438 7 110162457.900 8  85681938.896 7
> 2025 06 15 07 44 20.0000000  0 23
C20  25788688.922 6 134288482.376 6
C26  24631906.523 6 128264804.972 6
C29  21475507.617 7 111828605.967 7
C30  22902392.633 7 119258762.542 7
E02  25502747.656 7  25502750.047 8 134017842.805 7 101383636.876 8
E10  23697401.125 8  23697402.563 9 124530681.611 8  94206656.103 9
E11  23438306.867 7  23438304.664 8 123169131.231 7  93176639.398 8
E12  25430995.125 7  25430994.723 8 133640774.172 7 101098375.979 8
E16  24155283.406 8  24155284.180 9 126936865.128 8  96026916.236 9
E24  25774871.648 7  25774874.648 8 135447857.462 7 102465431.472 8
E25  23546925.867 8  23546927.887 9 123739924.438 8  93608458.987 9
G10  23478518.891 7                  23478527.027 7 123380456.644 7                  96140675.350 7
G16  20515482.375 7  20515485.215 6                 107809585.724 7  84007479.792 6
G18  21021230.281 7                  21021235.352 8 110467306.709 7                  86078440.231 8
G23  21217299.227 7                  21217304.578 8 111497666.035 7                  86881340.430 8
G27  21408039.789 7                  21408046.422 7 112500005.956 7                  87662371.935 7
R07  21914220.273 7  21914226.691 7 117308530.810 7  91239992.176 7
R08  22684226.320 7  22684231.492 6 121473004.221 7  94479044.114 6
R13  21458087.242 6                 114584977.930 6
R14  20169339.609 8  20169343.574 7 107513923.267 8  83622132.541 7
R15  23019682.531 7  23019689.059 7 123010222.987 7  95674655.784 7
R23  19789138.273 8                 105858543.164 8
R24  20597304.969 8  20597309.246 7 110143046.441 8  85666841.092 7
> 2025 06 15 07 44 25.0000000  0 23
C20  25784099.406 6 134264589.556 6
C26  24629307.961 6 128251273.900 6
C29  21473436.883 7 111817823.271 7
C30  22902926.117 7 119261538.982 7
E02  25499252.328 7  25499254.863 8 133999475.512 7 101369742.142 8
E10  23696864.398 8  23696865.773 9 124527860.688 8  94204522.082 9
E11  23436315.938 7  23436313.844 8 123158669.529 7  93168725.187 8
E12  25431495.313 7  25431495.094 8 133643403.624 7 101100365.140 8
E16  24155654.617 8  24155655.313 8 126938815.466 8  96028391.647 8
E24  25776131.031 7  25776134.180 8 135454476.264 7 102470438.532 8
E25  23546045.172 8  23546047.078 9 123735295.844 8  93604957.477 9
G10  23473768.406 7                  23473776.832 7 123355493.368 7                  96121223.468 7
G16  20514184.898 7  20514188.066 6                 107802768.666 7  84002167.791 6
G18  21021359.094 7                  21021363.980 8 110467982.524 7                  86078966.836 8
G23  21214281.891 7                  21214286.844 8 111481808.697 7                  86868984.056 8
G27  21404198.406 7                  21404205.387 7 112479820.063 7                  87646642.661 7
R07  21912248.289 7  21912254.914 7 117297977.998 7  91231784.452 7
R08  22679458.711 7  22679464.852 6 121447477.205 7  94459189.797 6
R13  21460284.945 7                 114596712.424 7
R14  20167563.781 8  20167568.402 7 107504458.027 8  83614770.688 7
R15  23014767.023 7  23014772.523 6 122983951.269 7  95654222.257 6
R23  19789244.172 8                 105859106.637 8
R24  20593676.883 8  20593681.238 7 110123645.085 8  85651751.156 7
> 2025 06 15 07 44 30.0000000  0 23
C20  25779511.820 6 134240699.081 6
C26  24626713.172 6 128237755.831 6
C29  21471368.109 7 111807048.444 7
C30  22903459.625 7 119264320.426 7
E02  25495758.867 7  25495760.996 8 133981115.173 7 101355852.676 8
E10  23696329.102 8  23696330.445 9 124525047.396 8  94202393.843 9
E11  23434326.719 7  23434324.711 8 123148216.521 7  93160817.553 8
E12  25431996.727 7  25431996.383 8 133646037.837 7 101102357.888 8
E16  24156027.117 8  24156028.129 8 126940774.752 8  96029873.838 8
E24  25777391.719 7  25777394.535 8 135461099.974 7 102475449.311 8
E25  23545166.617 8  23545168.371 9 123730678.223 8  93601464.270 9
G10  23469018.906 7                  23469027.059 7 123330535.264 7                  96101775.601 7
G16  20512891.547 7  20512894.191 6                 107795968.686 7  83996869.103 6
G18  21021489.297 7                  21021494.352 8 110468668.444 7                  86079501.302 8
G23  21211267.148 7                  21211271.844 8 111465966.313 7                  86856639.349 8
G27  21400358.383 7                  21400365.055 7 112459642.127 7                  87630919.601 7
R07  21910281.125 7  21910287.355 7 117287447.038 7  91223593.725 7
R08  22674693.352 7  22674699.977 7 121421960.520 7  94439343.526 7
R13  21462483.742 7                 114608458.133 7
R14  20165792.898 8  20165796.980 7 107495015.713 8  83607426.658 7
R15  23009852.211 7  23009858.082 7 122957690.406 7  95633797.161 7
R23  19789351.563 8                 105859680.188 8
R24  20590049.977 8  20590055.117 7 110104252.982 8  85636668.395 7
> 2025 06 15 07 44 35.0000000  0 23
C20  25774923.445 6 134216810.933 6
C26  24624118.727 6 128224250.888 6
C29  21469300.320 7 111796281.447 7
C30  22903994.383 7 119267106.881 7
E02  25492265.867 7  25492268.453 8 133962761.827 7 101341968.494 8
E10  23695795.047 8  23695796.543 9 124522241.685 8  94200271.341 9
E11  23432339.297 7  23432337.238 8 123137772.218 7  93152916.501 8
E12  25432499.211 7  25432498.582 8 133648676.848 7 101104354.281 8
E16  24156401.484 8  24156402.672 8 126942742.997 8  96031362.794 8
E24  25778653.383 7  25778655.953 8 135467728.590 7 102480463.801 8
E25  23544290.234 8  23544291.758 9 123726071.571 8  93597979.363 9
G10  23464270.641 7                  23464278.469 6 123305582.296 7                  96082331.736 6
G16  20511600.703 7  20511603.406 6                 107789185.744 7  83991583.692 6
G18  21021621.578 7                  21021626.691 8 110469364.430 7                  86080043.628 8
G23  21208254.672 7                  21208259.957 8 111450138.888 7                  86844306.293 8
G27  21396520.352 7                  21396527.109 7 112439472.156 7                  87615202.747 7
R07  21908317.477 7  21908324.832 7 117276938.303 7  91215420.266 7
R08  22669931.531 7  22669937.523 7 121396454.196 7  94419505.290 7
R13  21464686.336 6                 114620214.949 6
R14  20164025.984 8  20164029.734 7 107485596.258 8  83600100.418 7
R15  23004940.227 7  23004945.969 7 122931440.498 7  95613380.569 7
R23  19789459.914 8                 105860263.842 8
R24  20586426.055 8  20586430.047 7 110084870.238 8  85621592.920 7
> 2025 06 15 07 44 40.0000000  0 23
C20  25770336.641 6 134192925.084 6
C26  24621527.375 6 128210758.923 6
C29  21467234.266 7 111785522.229 7
C30  22904530.461 7 119269898.274 7
E02  25488774.695 7  25488777.176 8 133944415.361 7 101328089.521 8
E10  23695262.688 8  23695264.078 9 124519443.523 8  94198154.543 9
E11  23430353.414 7  23430351.375 8 123127336.547 7  93145021.988 8
E12  25433002.008 7  25433001.664 8 133651320.570 7 101106354.229 8
E16  24156777.922 8  24156778.895 9 126944720.116 8  96032858.471 9
E24  25779915.547 7  25779918.266 8 135474362.016 7 102485481.932 8
E25  23543415.453 8  23543417.211 9 123721475.829 8  93594502.708 9
G10  23459523.516 7                  23459531.309 7 123280634.447 7                  96062891.864 7
G16  20510313.227 7  20510315.938 6                 107782419.813 7  83986311.529 6
G18  21021756.352 7                  21021761.117 8 110470070.449 7                  86080593.763 8
G23  21205245.875 7                  21205250.664 8 111434326.328 7                  86831984.817 8
G27  21392683.445 7                  21392690.336 7 112419310.060 7                  87599492.024 7
R07  21906359.883 7  21906365.547 7 117266451.438 7  91207263.813 7
R08  22665169.125 7  22665175.605 7 121370958.062 7  94399675.004 7
R13  21466889.359 6                 114631982.727 6
R14  20162262.289 8  20162267.086 7 107476199.557 8  83592791.875 7
R15  23000029.867 7  23000035.496 7 122905201.701 7  95592972.647 7
R23  19789571.578 8                 105860857.477 8
R24  20582802.992 8  20582806.887 7 110065496.815 8  85606524.710 7
> 2025 06 15 07 44 45.0000000  0 23
C20  25765750.234 6 134169042.067 6
C26  24618939.273 6 128197280.431 6
C29  21465169.266 7 111774771.296 7
C30  22905067.539 7 119272695.110 7
E02  25485285.305 7  25485287.340 8 133926076.373 7 101314216.197 8
E10  23694731.836 8  23694733.156 9 124516653.409 8  94196043.838 9
E11  23428369.461 7  23428367.297 8 123116910.044 7  93137134.406 8
E12  25433505.945 7  25433505.773 8 133653969.498 7 101108358.122 8
E16  24157155.867 8  24157156.926 8 126946706.630 8  96034361.251 8
E24  25781178.828 7  25781181.523 8 135481000.808 7 102490504.118 8
E25  23542542.789 8  23542544.855 9 123716891.498 8  93591034.695 9
G10  23454776.898 7                  23454784.805 7 123255692.224 7                  96043456.381 7
G16  20509029.188 7  20509031.586 6                 107775671.406 7  83981053.030 6
G18  21021892.391 7                  21021897.371 8 110470786.961 7                  86081152.085 8
G23  21202240.000 7                  21202244.680 8 111418529.177 7                  86819675.359 8
G27  21388848.922 7                  21388855.477 7 112399156.414 7                  87583787.904 7
R07  21904404.250 7  21904410.848 7 117255987.179 7  91199124.934 7
R08  22660408.078 7  22660416.508 7 121345472.797 7  94379853.182 7
R13  21469094.836 6                 114643761.969 6
R14  20160503.727 8  20160508.809 7 107466826.287 8  83585501.555 7
R15  22995122.367 7  22995127.141 6 122878974.303 7  95572573.550 6
R23  19789684.930 8                 105861461.640 8
R24  20579181.688 8  20579186.020 7 110046133.226 8  85591464.137 7
> 2025 06 15 07 44 50.0000000  0 23
C20  25761164.914 6 134145161.231 6
C26  24616353.359 6 128183814.807 6
C29  21463106.086 7 111764027.985 7
C30  22905605.461 7 119275496.720 7
E02  25481796.484 7  25481798.758 8 133907744.086 7 101300347.947 8
E10  23694202.297 8  23694203.617 9 124513870.651 8  94193938.703 9
E11  23426386.930 7  23426384.805 8 123106491.964 7  93129253.195 8
E12  25434010.984 7  25434010.723 8 133656622.934 7 101110365.424 8
E16  24157535.563 8  24157536.582 8 126948701.843 8  96035870.604 8
E24  25782442.766 7  25782445.766 8 135487644.217 7 102495529.804 8
E25  23541672.508 8  23541674.527 9 123712317.902 8  93587574.789 9
G10  23450031.570 7                  23450039.672 7 123230754.943 7                  96024024.753 7
G16  20507748.266 7  20507750.566 6                 107768939.836 7  83975807.645 6
G18  21022030.977 7                  21022035.758 8 110471513.322 7                  86081718.074 8
G23  21199236.695 7                  21199241.215 7 111402746.783 7                  86807377.397 7
G27  21385014.391 7                  21385021.859 7 112379010.502 7                  87568089.790 7
R07  21902454.836 7  21902459.746 7 117245544.827 7  91191003.107 7
R08  22655651.133 7  22655659.105 7 121319997.713 7  94360039.273 7
R13  21471303.195 6                 114655551.843 6
R14  20158749.836 8  20158754.910 7 107457475.779 8  83578228.938 7
R15  22990216.125 7  22990220.867 6 122852757.726 7  95552182.906 6
R23  19789799.148 8                 105862075.521 8
R24  20575562.461 8  20575566.691 7 110026778.727 8  85576410.642 7
> 2025 06 15 07 44 55.0000000  0 23
C20  25756578.602 6 134121282.408 6
C26  24613769.688 6 128170361.848 6
C29  21461044.211 7 111753292.110 7
C30  22906144.234 7 119278302.914 7
E02  25478309.547 7  25478311.477 8 133889418.399 7 101286484.694 8
E10  23693674.352 8  23693675.469 9 124511095.070 8  94191838.993 9
E11  23424405.922 7  23424403.879 8 123096082.177 7  93121378.260 8
E12  25434516.797 7  25434516.516 8 133659280.758 7 101112376.045 8
E16  24157916.945 8  24157917.887 8 126950705.578 8  96037386.415 8
E24  25783708.313 7  25783710.887 8 135494292.121 7 102500558.875 8
E25  23540804.031 8  23540806.227 8 123707754.899 8  93584122.911 8
G10  23445287.180 7                  23445294.883 6 123205822.483 7                  96004596.873 6
G16  20506470.367 7  20506472.945 6                 107762224.934 7  83970575.260 6
G18  21022170.664 7                  21022175.758 8 110472249.346 7                  86082291.603 8
G23  21196236.430 7                  21196240.793 8 111386978.948 7                  86795090.782 8
G27  21381182.875 7                  21381189.484 7 112358872.173 7                  87552397.598 7
R07  21900506.883 7  21900513.414 7 117235124.026 7  91182898.049 7
R08  22650897.227 7  22650903.367 7 121294532.644 7  94340233.125 7
R13  21473513.023 6                 114667352.491 6
R14  20157000.039 8  20157004.980 7 107448147.779 8  83570973.822 7
R15  22985312.070 7  22985317.141 6 122826551.809 7  95531800.517 6
R23  19789915.633 8                 105862699.007 8
R24  20571944.461 8  20571949.004 7 110007433.131 8  85561364.075 7
> 2025 06 15 07 45  0.0000000  0 23
C20  25751993.633 6 134097405.950 6
C26  24611189.289 6 128156921.965 6
C29  21458984.695 7 111742564.079 7
C30  22906684.172 7 119281114.094 7
E02  25474823.328 7  25474825.457 8 133871099.716 7 101272626.731 8
E10  23693147.594 8  23693148.734 9 124508327.066 8  94189745.009 9
E11  23422426.789 7  23422424.578 8 123085681.092 7  93113509.901 8
E12  25435023.523 7  25435023.203 8 133661943.335 7 101114390.255 8
E16  24158299.852 8  24158300.883 8 126952718.244 8  96038908.973 8
E24  25784973.984 7  25784976.871 8 135500944.860 7 102505591.618 8
E25  23539938.133 8  23539939.992 9 123703202.856 8  93580679.315 9
G10  23440543.242 7                  23440551.566 7 123180895.229 7                  95985173.013 7
G16  20505196.305 7  20505198.379 6                 107755527.131 7  83965356.189 6
G18  21022313.563 7                  21022317.488 8 110472995.398 7                  86082872.933 8
G23  21193238.617 7                  21193243.172 7 111371226.075 7                  86782815.813 7
G27  21377351.836 7                  21377359.285 7 112338741.838 7                  87536711.633 7
R07  21898563.211 7  21898571.230 7 117224725.401 7  91174810.240 7
R08  22646143.477 7  22646149.523 7 121269077.909 7  94320435.048 7
R13  21475724.563 6                 114679164.031 6
R14  20155254.539 8  20155259.000 7 107438842.661 8  83563736.491 7
R15  22980411.453 7  22980414.816 6 122800356.985 7  95511426.781 6
R23  19790033.266 8                 105863332.663 8
R24  20568328.680 8  20568333.148 7 109988096.976 8  85546324.841 7
> 2025 06 15 07 45  5.0000000  0 23
C20  25747409.031 6 134073531.697 6
C26  24608611.211 6 128143494.970 6
C29  21456925.906 7 111731843.672 7
C30  22907225.156 7 119283930.033 7
E02  25471338.891 7  25471340.809 8 133852787.804 7 101258773.888 8
E10  23692622.063 8  23692623.410 9 124505566.407 8  94187656.586 9
E11  23420449.109 7  23420446.957 8 123075288.466 7  93105647.942 8
E12  25435531.320 7  25435530.762 8 133664610.380 7 101116407.855 8
E16  24158684.477 8  24158685.543 8 126954739.582 8  96040438.088 8
E24  25786240.734 7  25786243.781 8 135507602.239 7 102510627.860 8
E25  23539074.055 8  23539075.848 9 123698661.533 8  93577243.830 9
G10  23435800.750 7                  23435809.359 7 123155972.958 7                  95965753.090 7
G16  20503924.086 7  20503926.996 6                 107748846.150 7  83960150.225 6
G18  21022457.063 7                  21022461.313 8 110473751.271 7                  86083461.914 8
G23  21190243.633 7                  21190248.324 8 111355487.999 7                  86770552.369 8
G27  21373522.891 7                  21373529.758 7 112318619.268 7                  87521031.705 7
R07  21896623.945 7  21896632.867 7 117214348.664 7  91166739.462 7
R08  22641391.734 7  22641397.875 7 121243633.444 7  94300644.933 7
R13  21477938.648 6                 114690986.312 6
R14  20153512.977 8  20153517.961 7 107429560.146 8  83556516.743 7
R15  22975510.742 7  22975515.652 7 122774172.944 7  95491061.405 7
R23  19790153.109 7                 105863976.004 7
R24  20564713.836 8  20564718.922 7 109968769.879 8  85531292.669 7
> 2025 06 15 07 45 10.0000000  0 23
C20  25742824.930 6 134049661.625 6
C26  24606035.094 6 128130082.748 6
C29  21454868.875 7 111721132.838 7
C30  22907767.711 7 119286752.690 7
E02  25467856.000 7  25467857.789 8 133834484.673 7 101244927.691 8
E10  23692098.352 8  23692099.863 9 124502815.058 8  94185575.206 9
E11  23418473.664 7  23418471.313 8 123064906.288 7  93097793.894 8
E12  25436039.758 7  25436039.570 8 133667283.938 7 101118430.373 8
E16  24159071.156 8  24159072.254 8 126956771.608 8  96041975.298 8
E24  25787509.070 7  25787511.902 8 135514266.227 7 102515669.104 8
E25  23538212.273 8  23538214.086 9 123694132.945 8  93573817.981 9
G10  23431059.602 7                  23431067.680 7 123131057.679 7                  95946338.621 7
G16  20502656.430 7  20502659.402 6                 107742184.014 7  83954958.959 6
G18  21022603.148 7                  21022607.500 8 110474518.900 7                  86084060.074 8
G23  21187252.375 7                  21187256.633 8 111339766.656 7                  86758301.979 8
G27  21369695.109 7                  21369702.434 7 112298506.471 7                  87505359.405 7
R07  21894690.523 7  21894698.508 7 117203995.727 7  91158687.178 7
R08  22636642.359 7  22636648.852 7 121218201.169 7  94280864.302 7
R13  21480155.141 6                 114702821.210 6
R14  20151776.672 8  20151781.234 7 107420302.354 8  83549316.240 7
R15  22970612.180 7  22970617.902 7 122748001.933 7  95470706.193 7
R23  19790276.078 7                 105864631.243 7
R24  20561101.695 8  20561106.777 7 109949453.952 8  85516269.177 7
> 2025 06 15 07 45 15.0000000  0 23
C20  25738242.133 6 134025794.270 6
C26  24603463.602 6 128116683.889 6
C29  21452813.320 7 111710430.094 7
C30  22908310.406 7 119289580.585 7
E02  25464374.328 7  25464376.160 8 133816188.778 7 101231086.964 8
E10  23691576.320 8  23691577.805 9 124500071.537 8  94183499.752 9
E11  23416499.633 7  23416497.328 8 123054533.041 7  93089946.604 8
E12  25436549.516 7  25436549.258 8 133669962.473 7 101120456.671 8
E16  24159459.648 8  24159460.680 8 126958812.783 8  96043519.429 8
E24  25788778.125 7  25788781.008 8 135520935.335 7 102520714.230 8
E25  23537352.297 8  23537354.457 9 123689615.580 8  93570400.624 9
G10  23426319.195 7                  23426327.539 7 123106147.892 7                  95926928.396 7
G16  20501391.602 7  20501395.051 6                 107735539.162 7  83949781.157 6
G18  21022750.961 7                  21022755.547 8 110475296.818 7                  86084666.236 8
G23  21184263.094 7                  21184267.840 8 111324060.549 7                  86746063.456 8
G27  21365869.164 7                  21365876.578 7 112278401.938 7                  87489693.535 7
R07  21892760.313 7  21892769.105 7 117193665.158 7  91150652.271 7
R08  22631896.906 7  22631901.004 7 121192779.611 7  94261092.013 7
R13  21482373.977 6                 114714667.288 6
R14  20150044.031 8  20150048.797 7 107411067.659 8  83542133.693 7
R15  22965716.773 7  22965722.188 6 122721842.194 7  95450359.743 6
R23  19790400.617 7                 105865296.760 7
R24  20557491.523 8  20557496.691 7 109930147.650 8  85501253.166 7
> 2025 06 15 07 45 20.0000000  0 23
C20  25733659.359 6 134001930.112 6
C26  24600893.102 6 128103298.939 6
C29  21450760.070 7 111699735.954 7
C30  22908854.484 7 119292414.202 7
E02  25460894.109 7  25460896.004 8 133797900.732 7 101217252.180 8
E10  23691055.781 8  23691057.340 9 124497336.350 8  94181430.593 9
E11  23414527.297 7  23414525.180 8 123044169.251 7  93082106.464 8
E12  25437060.422 7  25437060.039 8 133672646.480 7 101122487.091 8
E16  24159849.844 8  24159850.930 9 126960863.634 8  96045070.873 9
E24  25790048.570 7  25790051.137 8 135527610.050 7 102525763.590 8
E25  23536495.031 8  23536497.070 9 123685109.940 8  93566992.125 9
G10  23421580.453 7                  23421588.684 7 123081244.140 7                  95907522.897 7
G16  20500130.203 7  20500133.898 6                 107728912.125 7  83944617.229 6
G18  21022901.102 7                  21022905.559 8 110476085.532 7                  86085280.811 8
G23  21181276.961 7                  21181282.395 8 111308370.260 7                  86733837.265 8
G27  21362045.547 7                  21362052.406 7 112258306.204 7                  87474034.521 7
R07  21890835.281 7  21890843.332 7 117183357.612 7  91142635.300 7
R08  22627150.781 7  22627155.555 7 121167369.435 7  94241328.571 7
R13  21484593.281 6                 114726524.978 6
R14  20148316.063 8  20148320.301 7 107401856.843 8  83534969.729 7
R15  22960824.008 7  22960829.445 7 122695694.280 7  95430022.490 7
R23  19790526.375 7                 105865972.974 7
R24  20553882.984 8  20553887.973 7 109910851.527 8  85486245.067 7
> 2025 06 15 07 45 25.0000000  0 23
C20  25729076.688 6 133978069.381 6
C26  24598325.438 6 128089928.011 6
C29  21448707.922 7 111689050.572 7
C30  22909399.711 7 119295253.715 7
E02  25457415.313 7  25457417.316 8 133779620.626 7 101203423.398 8
E10  23690536.719 8  23690538.500 9 124494609.638 8  94179367.854 9
E11  23412556.984 7  23412554.848 8 123033815.105 7  93074273.619 8
E12  25437572.055 7  25437571.906 8 133675336.136 7 101124521.796 8
E16  24160241.992 8  24160243.066 8 126962924.325 8  96046629.760 8
E24  25791320.164 7  25791322.418 8 135534290.521 7 102530817.304 8
E25  23535640.133 8  23535641.953 8 123680616.219 8  93563592.651 8
G10  23416842.289 7                  23416850.605 7 123056346.612 7                  95888122.268 7
G16  20498873.141 7  20498876.563 6                 107722303.073 7  83939467.322 6
G18  21023053.375 7                  21023057.879 8 110476885.179 7                  86085903.916 8
G23  21178295.102 7                  21178299.523 8 111292695.865 7                  86721623.474 8
G27  21358222.906 7                  21358230.180 7 112238219.398 7                  87458382.466 7
R07  21888913.945 7  21888922.105 7 117173072.897 7  91134636.054 7
R08  22622407.828 7  22622412.984 7 121141970.740 7  94221574.087 7
R13  21486817.352 6                 114738394.584 6
R14  20146592.500 8  20146597.547 7 107392669.845 8  83527824.277 7
R15  22955932.688 7  22955938.168 7 122669558.628 7  95409694.799 7
R23  19790655.344 7                 105866660.152 7
R24  20550277.195 8  20550281.410 7 109891565.655 8  85471244.940 7
> 2025 06 15 07 45 30.0000000  0 23
C20  25724495.039 6 133954211.133 6
C26  24595760.914 6 128076570.165 6
C29  21446657.492 7 111678373.087 7
C30  22909946.117 7 119298098.252 7
E02  25453938.523 7  25453940.063 8 133761347.578 7 101189599.969 8
E10  23690019.227 8  23690021.105 9 124491890.515 8  94177310.853 9
E11  23410588.266 7  23410586.191 8 123023469.639 7  93066447.346 8
E12  25438084.781 7  25438084.641 8 133678030.566 7 101126560.106 8
E16  24160635.875 8  24160636.938 8 126964993.939 8  96048195.405 8
E24  25792592.219 7  25792594.633 8 135540975.876 7 102535874.712 8
E25  23534786.836 8  23534788.926 8 123676133.488 8  93560201.493 8
G10  23412105.273 7                  23412114.020 7 123031454.348 7                  95868725.725 7
G16  20497618.836 7  20497622.297 6                 107715711.105 7  83934330.723 6
G18  21023207.289 8                  21023211.789 8 110477694.873 8                  86086534.844 8
G23  21175314.773 7                  21175319.848 8 111277036.569 7                  86709421.422 8
G27  21354402.023 7                  21354408.988 7 112218140.688 7                  87442736.712 7
R07  21886997.844 7  21887005.277 7 117162810.488 7  91126654.171 7
R08  22617664.797 7  22617672.219 7 121116582.532 7  94201827.752 7
R13  21489040.875 6                 114750274.899 6
R14  20144873.227 8  20144877.848 7 107383505.773 8  83520696.664 7
R15  22951043.094 7  22951049.195 6 122643434.063 7  95389375.730 6
R23  19790785.219 7                 105867357.408 7
R24  20546672.180 8  20546675.977 7 109872289.283 8  85456252.213 7
> 2025 06 15 07 45 35.0000000  0 23
C20  25719914.484 6 133930356.191 6
C26  24593198.133 6 128063226.271 6
C29  21444608.273 7 111667704.244 7
C30  22910493.352 7 119300948.535 7
E02  25450462.633 7  25450464.309 8 133743082.405 7 101175782.484 8
E10  23689503.563 8  23689505.289 9 124489179.741 8  94175260.169 9
E11  23408621.469 7  23408619.336 8 123013133.688 7  93058628.265 8
E12  25438598.703 7  25438598.430 8 133680730.503 7 101128602.584 8
E16  24161031.617 8  24161032.617 9 126967073.258 8  96049768.389 9
E24  25793865.453 7  25793867.906 8 135547666.855 7 102540936.398 8
E25  23533936.195 8  23533938.160 8 123671662.533 8  93556819.240 8
G10  23407370.133 7                  23407378.609 7 123006568.228 7                  95849333.977 7
G16  20496367.727 7  20496371.055 6                 107709137.034 7  83929208.070 6
G18  21023363.969 7                  21023368.199 8 110478515.365 7                  86087174.185 8
G23  21172337.914 7                  21172342.590 8 111261393.109 7                  86697231.719 8
G27  21350582.836 7                  21350589.949 7 112198070.830 7                  87427097.881 7
R07  21885084.805 7  21885092.102 7 117152571.001 7  91118690.127 7
R08  22612926.133 7  22612933.004 7 121091205.781 7  94182090.310 7
R13  21491269.039 6                 114762166.931 6
R14  20143158.820 8  20143163.277 7 107374365.529 8  83513587.580 7
R15  22946157.359 7  22946163.191 7 122617321.828 7  95369066.222 7
R23  19790917.953 7                 105868065.472 7
R24  20543069.461 8  20543073.887 7 109853023.044 8  85441267.367 7
> 2025 06 15 07 45 40.0000000  0 23
C20  25715332.719 6 133906503.013 6
C26  24590637.563 6 128049894.771 6
C29  21442560.695 7 111657042.495 7
C30  22911041.414 7 119303803.024 7
E02  25446987.945 7  25446989.727 8 133724823.546 7 101161969.774 8
E10  23688989.211 8  23688990.738 9 124486475.747 8  94173214.612 9
E11  23406656.148 7  23406653.973 8 123002805.626 7  93050815.152 8
E12  25439112.945 7  25439112.949 8 133683434.382 7 101130648.042 8
E16  24161428.805 8  24161429.836 8 126969160.708 8  96051347.530 8
E24  25795139.352 7  25795142.039 8 135554361.899 7 102546001.134 8
E25  23533087.148 8  23533089.316 8 123667201.796 8  93553444.719 8
G10  23402634.719 7                  23402643.254 7 122981686.678 7                  95829945.768 7
G16  20495119.633 7  20495123.070 6                 107702579.310 7  83924098.150 6
G18  21023521.453 7                  21023526.242 8 110479345.095 7                  86087820.722 8
G23  21169363.938 7                  21169368.633 7 111245763.924 7                  86685053.137 7
G27  21346765.055 7                  21346771.734 7 112178008.261 7                  87411464.713 7
R07  21883175.781 7  21883183.504 7 117142352.899 7  91110742.721 7
R08  22608189.430 7  22608196.055 7 121065838.819 7  94162360.492 7
R13  21493498.023 6                 114774069.078 6
R14  20141447.883 8  20141452.781 7 107365247.300 8  83506495.624 7
R15  22941272.898 7  22941278.277 7 122591219.842 7  95348764.674 7
R23  19791052.625 8                 105868782.760 8
R24  20539467.227 8  20539472.391 7 109833765.462 8  85426289.257 7
> 2025 06 15 07 45 45.0000000  0 23
C20  25710752.953 6 133882652.747 6
C26  24588079.789 6 128036576.753 6
C29  21440514.641 7 111646388.979 7
C30  22911590.500 7 119306662.879 7
E02  25443514.898 7  25443516.570 8 133706572.122 7 101148162.693 8
E10  23688475.844 8  23688477.688 9 124483779.693 8  94171175.060 9
E11  23404692.438 7  23404690.316 8 122992486.679 7  93043008.937 8
E12  25439628.398 7  25439628.465 8 133686143.355 7 101132697.359 8
E16  24161827.641 8  24161828.844 9 126971257.450 8  96052933.698 9
E24  25796414.242 7  25796417.070 8 135561062.138 7 102551069.811 8
E25  23532240.688 8  23532242.641 9 123662752.417 8  93550078.788 9
G10  23397901.555 7                  23397909.297 7 122956810.813 7                  95810561.988 7
G16  20493875.586 7  20493878.066 6                 107696039.049 7  83919001.844 6
G18  21023681.242 7                  21023686.129 8 110480185.196 7                  86088475.351 8
G23  21166392.547 7                  21166397.273 8 111230150.196 7                  86672886.602 8
G27  21342948.977 7                  21342955.723 7 112157954.138 7                  87395838.115 7
R07  21881272.406 7  21881278.645 7 117132157.259 7  91102812.785 7
R08  22603452.953 7  22603461.059 7 121040482.922 7  94142639.277 7
R13  21495727.719 6                 114785982.408 6
R14  20139741.828 8  20139746.672 7 107356152.475 8  83499421.878 7
R15  22936390.273 7  22936395.898 7 122565129.479 7  95328472.174 7
R23  19791188.063 8                 105869510.426 8
R24  20535868.328 8  20535872.957 7 109814517.663 8  85411318.754 7
> 2025 06 15 07 45 50.0000000  0 23
C20  25706173.961 6 133858804.879 6
C26  24585524.813 6 128023271.748 6
C29  21438470.563 7 111635743.173 7
C30  22912141.352 7 119309527.518 7
E02  25440043.047 7  25440044.746 8 133688327.623 7 101134360.847 8
E10  23687964.539 8  23687966.051 9 124481091.007 8  94169141.081 9
E11  23402730.453 7  23402728.309 8 122982176.210 7  93035209.138 8
E12  25440144.766 7  25440144.816 8 133688856.865 7 101134750.106 8
E16  24162228.367 8  24162229.492 8 126973362.916 8  96054526.459 8
E24  25797690.328 8  25797693.023 8 135567767.059 8 102556142.028 8
E25  23531396.063 8  23531398.023 9 123658313.860 8  93546721.053 9
G10  23393169.430 7                  23393176.941 7 122931940.130 7                  95791182.254 7
G16  20492633.844 7  20492636.914 6                 107689515.701 7  83913918.716 6
G18  21023843.055 7                  21023847.930 8 110481035.110 7                  86089137.623 8
G23  21163424.430 7                  21163428.945 8 111214551.356 7                  86660731.662 8
G27  21339134.211 7                  21339140.770 7 112137907.944 7                  87380217.717 7
R07  21879371.789 7  21879378.059 7 117121983.654 7  91094899.974 7
R08  22598719.602 7  22598727.492 7 121015137.406 7  94122926.127 7
R13  21497961.656 6                 114797906.401 6
R14  20138040.328 8  20138044.570 7 107347080.454 8  83492365.863 7
R15  22931509.047 7  22931515.629 6 122539050.183 7  95308188.315 6
R23  19791326.461 8                 105870247.801 8
R24  20532269.906 8  20532275.141 7 109795279.021 8  85396355.366 7
> 2025 06 15 07 45 55.0000000  0 23
C20  25701594.383 7 133834959.469 7
C26  24582971.422 6 128009979.779 6
C29  21436427.609 7 111625105.159 7
C30  22912692.719 7 119312397.066 7
E02  25436572.773 7  25436574.238 8 133670090.131 7 101120564.306 8
E10  23687454.492 8  23687455.836 9 124478409.799 8  94167112.751 9
E11  23400769.891 7  23400767.930 8 122971874.364 7  93027415.857 8
E12  25440662.141 7  25440662.031 8 133691575.007 7 101136806.346 8
E16  24162630.906 8  24162631.828 9 126975477.208 8  96056125.900 9
E24  25798967.430 8  25798969.863 8 135574476.711 8 102561217.812 8
E25  23530553.469 8  23530555.461 9 123653886.212 8  93543371.563 9
G10  23388437.555 7                  23388444.715 7 122907074.771 7                  95771806.647 7
G16  20491396.055 7  20491398.508 6                 107683009.370 7  83908848.844 6
G18  21024006.852 7                  21024011.633 8 110481894.934 7                  86089807.607 8
G23  21160459.039 7                  21160463.602 8 111198967.521 7                  86648588.419 8
G27  21335321.578 7                  21335327.758 7 112117869.750 7                  87364603.532 7
R07  21877475.617 7  21877481.672 7 117111832.168 7  91087004.385 7
R08  22593989.531 7  22593996.211 7 120989802.479 7  94103221.215 7
R13  21500196.852 6                 114809841.214 6
R14  20136342.383 8  20136347.324 7 107338031.331 8  83485327.643 7
R15  22926631.648 7  22926636.953 6 122512982.154 7  95287913.207 6
R23  19791465.992 8                 105870995.041 8
R24  20528673.828 8  20528679.168 7 109776049.848 8  85381399.340 7
> 2025 06 15 07 46  0.0000000  0 23
C20  25697015.266 6 133811117.467 6
C26  24580421.633 6 127996701.848 6
C29  21434386.320 7 111614475.813 7
C30  22913245.297 7 119315272.387 7
E02  25433103.688 7  25433105.227 8 133651860.583 7 101106773.764 8
E10  23686945.859 8  23686947.191 9 124475736.955 8  94165090.760 9
E11  23398811.383 7  23398809.355 8 122961582.009 7  93019629.756 8
E12  25441180.430 7  25441180.293 8 133694298.632 7 101138866.752 8
E16  24163035.078 8  24163036.012 8 126977601.226 8  96057732.694 8
E24  25800244.898 7  25800247.781 8 135581192.004 7 102566297.873 8
E25  23529713.086 8  23529715.156 9 123649470.380 8  93540031.009 9
G10  23383706.273 7                  23383714.109 7 122882215.595 7                  95752435.872 7
G16  20490160.836 7  20490163.852 6                 107676520.966 7  83903792.940 6
G18  21024172.117 7                  21024177.238 8 110482765.546 7                  86090486.004 8
G23  21157496.102 7                  21157501.051 8 111183399.596 7                  86636457.581 8
G27  21331509.961 7                  21331516.570 7 112097840.478 7                  87348996.314 7
R07  21875584.367 7  21875589.609 7 117101703.630 7  91079126.633 7
R08  22589261.023 7  22589267.352 7 120964479.154 7  94083525.314 7
R13  21502434.484 6                 114821787.430 6
R14  20134649.414 8  20134653.871 7 107329006.011 8  83478307.943 7
R15  22921755.430 7  22921761.051 6 122486926.347 7  95267647.577 6
R23  19791607.313 8                 105871753.127 8
R24  20525079.977 8  20525085.527 7 109756830.904 8  85366451.285 7
> 2025 06 15 07 46  5.0000000  0 23
C20  25692437.359 6 133787278.236 6
C26  24577874.469 6 127983437.181 6
C29  21432346.750 7 111603854.513 7
C30  22913798.555 7 119318152.857 7
E02  25429636.211 7  25429637.648 8 133633638.315 7 101092988.734 8
E10  23686438.758 8  23686440.016 9 124473071.811 8  94163074.593 9
E11  23396854.281 7  23396852.449 8 122951298.554 7  93011850.389 8
E12  25441699.641 7  25441699.461 8 133697027.146 7 101140930.852 8
E16  24163440.742 8  24163441.930 8 126979734.297 8  96059346.347 8
E24  25801523.523 7  25801526.648 8 135587912.292 7 102571381.719 8
E25  23528874.664 8  23528876.984 9 123645065.706 8  93536698.905 9
G10  23378977.305 7                  23378984.457 7 122857361.989 7                  95733069.434 7
G16  20488929.633 7  20488932.266 6                 107670049.795 7  83898750.472 6
G18  21024339.742 7                  21024344.957 8 110483646.341 7                  86091172.327 8
G23  21154536.820 7                  21154541.441 8 111167846.948 7                  86624338.648 8
G27  21327700.188 7                  21327706.680 7 112077819.502 7                  87333395.547 7
R07  21873694.883 7  21873701.906 7 117091597.480 7  91071266.294 7
R08  22584532.586 7  22584540.699 6 120939166.701 7  94063837.889 6
R13  21504672.570 6                 114833744.539 6
R14  20132960.461 8  20132965.488 7 107320003.885 8  83471306.281 7
R15  22916881.711 6  22916886.918 6 122460882.028 6  95247390.902 6
R23  19791751.344 8                 105872521.396 8
R24  20521488.063 8  20521493.031 7 109737621.617 8  85351510.741 7
> 2025 06 15 07 46 10.0000000  0 23
C20  25687858.984 6 133763441.314 6
C26  24575328.984 6 127970185.478 6
C29  21430308.281 7 111593240.812 7
C30  22914352.680 7 119321038.020 7
E02  25426170.250 7  25426171.410 8 133615422.888 7 101079208.891 8
E10  23685933.109 8  23685934.250 9 124470413.930 8  94161063.921 9
E11  23394899.398 7  23394897.188 8 122941023.521 7  93004077.396 8
E12  25442219.664 7  25442219.500 8 133699760.102 7 101142998.309 8
E16  24163848.391 8  24163849.527 8 126981875.999 8  96060966.519 8
E24  25802803.508 7  25802806.406 8 135594637.115 7 102576468.985 8
E25  23528038.750 8  23528040.844 9 123640671.759 8  93533374.901 9
G10  23374248.773 7                  23374256.176 7 122832513.513 7                  95713707.000 7
G16  20487701.969 7  20487704.063 6                 107663595.499 7  83893721.138 6
G18  21024509.320 7                  21024514.320 8 110484536.823 7                  86091866.205 8
G23  21151580.344 7                  21151584.820 8 111152309.137 7                  86612231.259 8
G27  21323891.391 7                  21323898.242 7 112057806.373 7                  87317800.907 7
R07  21871811.234 7  21871817.738 7 117081513.257 7  91063423.016 7
R08  22579807.477 6  22579815.734 7 120913864.749 6  94044158.626 7
R13  21506913.938 6                 114845712.187 6
R14  20131276.406 8  20131280.961 7 107311024.365 8  83464322.196 7
R15  22912008.648 6  22912015.930 7 122434848.704 6  95227142.785 7
R23  19791896.695 8                 105873299.271 8
R24  20517897.438 8  20517902.668 7 109718421.278 8  85336577.148 7
> 2025 06 15 07 46 15.0000000  0 23
C20  25683282.875 6 133739606.228 6
C26  24572785.828 6 127956946.135 6
C29  21428271.352 7 111582634.205 7
C30  22914907.906 7 119323927.362 7
E02  25422705.180 7  25422706.336 8 133597213.815 7 101065433.843 8
E10  23685428.516 8  23685429.750 9 124467762.799 8  94159058.355 9
E11  23392945.602 7  23392943.414 8 122930756.368 7  92996310.361 8
E12  25442740.672 7  25442740.246 8 133702496.937 7 101145068.693 8
E16  24164257.563 8  24164258.633 8 126984025.781 8  96062592.808 8
E24  25804083.781 7  25804086.930 8 135601365.936 7 102581559.282 8
E25  23527204.570 8  23527206.660 9 123636288.016 8  93530058.629 9
G10  23369520.758 7                  23369528.871 7 122807669.651 7                  95694348.161 7
G16  20486476.508 7  20486479.023 6                 107657157.453 7  83888704.478 6
G18  21024680.203 7                  21024685.785 8 110485436.455 7                  86092567.214 8
G23  21148626.148 7                  21148630.949 8 111136785.652 7                  86600135.036 8
G27  21320084.984 7                  21320091.047 7 112037800.583 7                  87302211.979 7
R07  21869931.313 7  21869937.520 7 117071450.213 7  91055596.206 7
R08  22575083.539 6  22575092.676 6 120888572.669 6  94024487.027 6
R13  21509156.523 6                 114857689.639 6
R14  20129596.500 8  20129600.660 7 107302067.226 8  83457355.538 7
R15  22907140.805 6  22907145.691 7 122408826.152 6  95206903.032 7
R23  19792043.602 8                 105874086.399 8
R24  20514308.688 8  20514313.406 7 109699229.679 8  85321650.358 7
> 2025 06 15 07 46 20.0000000  0 23
C20  25678705.250 6 133715775.173 6
C26  24570245.758 6 127943721.312 6
C29  21426236.695 7 111572036.864 7
C30  22915463.797 7 119326823.050 7
E02  25419241.578 7  25419242.871 8 133579013.260 7 101051665.239 8
E10  23684925.563 8  23684926.980 9 124465120.570 8  94157059.526 9
E11  23390993.625 7  23390991.555 8 122920499.315 7  92988550.962 8
E12  25443262.594 7  25443262.207 8 133705239.836 7 101147143.676 8
E16  24164668.688 8  24164669.688 9 126986185.830 8  96064226.864 9
E24  25805365.547 8  25805368.555 8 135608100.963 8 102586654.269 8
E25  23526372.641 8  23526374.793 9 123631916.632 8  93526751.696 9
G10  23364794.422 7                  23364802.352 7 122782832.604 7                  95674994.630 7
G16  20485254.328 7  20485257.441 6                 107650737.870 7  83883702.212 6
G18  21024853.742 7                  21024858.910 8 110486347.441 7                  86093277.065 8
G23  21145675.078 7                  21145679.953 8 111121278.678 7                  86588051.688 8
G27  21316279.406 7                  21316286.406 7 112017804.285 7                  87286630.450 7
R07  21868055.773 7  21868062.625 7 117061411.027 7  91047787.961 7
R08  22570363.727 6  22570371.785 6 120863292.780 6  94004824.934 6
R13  21511402.664 6                 114869679.194 6
R14  20127919.945 8  20127924.523 7 107293134.450 8  83450407.826 7
R15  22902273.461 6  22902278.551 7 122382816.347 6  95186673.199 7
R23  19792192.109 8                 105874884.715 8
R24  20510721.180 8  20510726.555 7 109680048.876 8  85306731.950 7
> 2025 06 15 07 46 25.0000000  0 23
C20  25674128.781 6 133691946.558 6
C26  24567708.617 6 127930509.583 6
C29  21424203.211 7 111561447.199 7
C30  22916020.773 7 119329723.503 7
E02  25415779.477 7  25415780.734 8 133560819.682 7 101037901.921 8
E10  23684424.203 8  23684425.574 9 124462485.698 8  94155066.264 9
E11  23389043.430 7  23389041.313 8 122910250.791 7  92980798.013 8
E12  25443785.250 7  25443784.996 8 133707987.230 7 101149222.056 8
E16  24165081.367 8  24165082.406 8 126988354.593 8  96065867.514 8
E24  25806648.070 8  25806651.090 8 135614840.582 8 102591752.728 8
E25  23525542.852 8  23525544.988 9 123627556.099 8  93523452.975 9
G10  23360069.211 7                  23360076.992 7 122758000.841 7                  95655645.206 7
G16  20484035.906 7  20484039.043 6                 107644335.223 7  83878713.134 6
G18  21025029.125 7                  21025033.973 8 110487268.188 7                  86093994.525 8
G23  21142727.180 7                  21142731.820 8 111105786.648 7                  86575979.978 8
G27  21312475.328 7                  21312482.656 7 111997815.989 7                  87271055.150 7
R07  21866183.672 7  21866190.977 7 117051393.761 7  91039996.763 7
R08  22565645.422 6  22565653.508 6 120838023.620 6  93985171.160 6
R13  21513648.852 6                 114881679.220 6
R14  20126248.438 8  20126253.477 7 107284224.340 8  83443477.742 7
R15  22897407.773 6  22897413.668 6 122356817.859 6  95166452.180 6
R23  19792343.609 8                 105875692.818 8
R24  20507136.242 8  20507141.313 7 109660877.341 8  85291820.754 7
> 2025 06 15 07 46 30.0000000  0 23
C20  25669553.422 6 133668121.532 6
C26  24565173.773 6 127917311.937 6
C29  21422171.102 7 111550866.365 7
C30  22916578.664 7 119332629.856 7
E02  25412318.992 7  25412320.223 8 133542634.199 7 101024144.721 8
E10  23683924.445 8  23683925.824 9 124459859.285 8  94153079.394 9
E11  23387095.164 7  23387092.910 8 122900011.849 7  92973052.323 8
E12  25444309.289 7  25444308.879 8 133710740.248 7 101151304.689 8
E16  24165495.875 8  24165497.020 8 126990533.190 8  96067515.604 8
E24  25807931.922 8  25807934.711 8 135621585.958 8 102596855.539 8
E25  23524715.117 8  23524717.473 9 123623207.468 8  93520163.263 9
G10  23355345.406 7                  23355352.809 7 122733175.489 7                  95636300.787 7
G16  20482821.477 7  20482824.188 6                 107637950.634 7  83873738.114 6
G18  21025206.602 7                  21025211.344 8 110488199.827 7                  86094720.471 8
G23  21139782.141 7                  21139786.891 8 111090310.701 7                  86563920.801 8
G27  21308673.492 7                  21308681.016 7 111977836.763 7                  87255486.923 7
R07  21864316.898 7  21864324.551 7 117041399.761 7  91032223.649 7
R08  22560929.063 6  22560936.242 6 120812766.197 6  93965526.522 6
R13  21515898.734 6                 114893690.938 6
R14  20124581.563 8  20124585.855 7 107275338.113 8  83436566.224 7
R15  22892544.266 6  22892550.426 6 122330831.733 6  95146240.743 6
R23  19792497.406 8                 105876511.880 8
R24  20503553.914 8  20503557.883 7 109641716.296 8  85276917.723 7
> 2025 06 15 07 46 35.0000000  0 23
C20  25664977.930 6 133644299.328 6
C26  24562642.430 6 127904127.634 6
C29  21420140.891 7 111540293.535 7
C30  22917138.016 7 119335541.309 7
E02  25408859.719 7  25408861.012 8 133524456.014 7 101010393.039 8
E10  23683425.773 8  23683427.516 9 124457240.522 8  94151098.313 9
E11  23385148.523 7  23385146.180 8 122889781.767 7  92965313.336 8
E12  25444834.219 7  25444833.711 8 133713498.063 7 101153390.954 8
E16  24165912.188 8  24165913.293 8 126992720.781 8  96069170.499 8
E24  25809216.047 7  25809219.223 8 135628336.249 7 102601962.082 8
E25  23523889.727 8  23523892.074 9 123618869.984 8  93516881.983 9
G10  23350622.078 7                  23350629.563 6 122708355.744 7                  95616960.742 6
G16  20481609.758 7  20481612.461 6                 107631583.265 7  83868776.529 6
G18  21025385.461 7                  21025390.438 8 110489141.546 7                  86095454.270 8
G23  21136839.570 7                  21136845.090 8 111074850.054 7                  86551873.558 8
G27  21304873.789 7                  21304881.098 7 111957865.839 7                  87239925.174 7
R07  21862453.500 7  21862461.371 7 117031427.991 7  91024467.849 7
R08  22556213.695 6  22556221.867 6 120787519.718 6  93945890.386 6
R13  21518150.219 6                 114905713.313 6
R14  20122918.813 8  20122923.754 7 107266474.913 8  83429672.626 7
R15  22887684.102 6  22887689.434 6 122304857.145 6  95126038.307 6
R23  19792653.008 8                 105877341.070 8
R24  20499971.805 8  20499977.008 7 109622564.737 8  85262022.069 7
> 2025 06 15 07 46 40.0000000  0 23
C20  25660403.805 6 133620479.555 6
C26  24560112.914 6 127890956.251 6
C29  21418112.227 7 111529728.331 7
C30  22917698.000 7 119338457.467 7
E02  25405402.227 7  25405403.191 8 133506284.738 7 100996646.582 8
E10  23682928.867 8  23682930.563 9 124454629.021 8  94149122.728 9
E11  23383203.297 7  23383201.051 8 122879560.100 7  92957580.719 8
E12  25445359.898 7  25445359.363 8 133716260.276 7 101155480.545 8
E16  24166330.109 8  24166331.227 8 126994917.003 8  96070831.909 8
E24  25810501.344 7  25810504.680 8 135635091.076 7 102607072.052 8
E25  23523066.516 8  23523068.707 9 123614543.255 8  93513608.831 9
G10  23345899.953 7                  23345907.754 6 122683541.212 7                  95597624.751 6
G16  20480401.211 7  20480403.996 6                 107625232.748 7  83863828.071 6
G18  21025566.320 7                  21025571.566 8 110490092.937 7                  86096195.600 8
G23  21133900.773 7                  21133905.734 8 111059404.285 7                  86539837.901 8
G27  21301074.961 7                  21301082.164 7 111937902.831 7                  87224369.589 7
R07  21860595.203 7  21860602.707 7 117021478.147 7  91016729.095 7
R08  22551503.117 7  22551509.000 6 120762283.899 7  93926262.543 6
R13  21520403.820 6                 114917746.069 6
R14  20121260.016 8  20121265.469 7 107257634.601 8  83422796.828 7
R15  22882826.078 6  22882830.828 6 122278893.739 6  95105844.552 6
R23  19792809.844 8                 105878179.864 8
R24  20496392.422 8  20496397.438 7 109603422.416 8  85247133.597 7
> 2025 06 15 07 46 45.0000000  0 23
C20  25655829.680 6 133596663.128 6
C26  24557586.219 6 127877798.782 6
C29  21416084.773 7 111519171.695 7
C30  22918259.039 7 119341379.234 7
E02  25401945.516 7  25401946.852 8 133488121.339 7 100982906.090 8
E10  23682433.539 8  23682435.180 9 124452025.703 8  94147153.335 9
E11  23381259.813 7  23381257.727 8 122869347.790 7  92949855.170 8
E12  25445886.266 7  25445886.059 8 133719027.835 7 101157574.184 8
E16  24166749.594 8  24166750.973 8 126997122.758 8  96072500.536 8
E24  25811787.633 7  25811791.094 8 135641851.311 7 102612186.114 8
E25  23522245.453 8  23522247.586 9 123610228.176 8  93510344.504 9
G10  23341178.484 7                  23341186.813 6 122658732.865 7                  95578293.591 6
G16  20479195.773 7  20479199.172 6                 107618899.979 7  83858893.449 6
G18  21025749.539 7                  21025754.770 8 110491054.900 7                  86096945.187 8
G23  21130964.531 7                  21130969.801 8 111043974.365 7                  86527814.590 8
G27  21297277.523 7                  21297285.000 7 111917948.675 7                  87208820.896 7
R07  21858740.156 7  21858748.824 7 117011551.377 7  91009008.275 7
R08  22546792.406 7  22546799.125 7 120737059.624 7  93906643.705 7
R13  21522658.820 6                 114929790.239 6
R14  20119606.500 8  20119610.934 7 107248818.075 8  83415939.552 7
R15  22877968.688 6  22877974.344 6 122252942.623 6  95085660.354 6
R23  19792969.023 8                 105879029.234 8
R24  20492815.898 8  20492819.188 7 109584290.221 8  85232253.008 7
> 2025 06 15 07 46 50.0000000  0 23
C20  25651256.320 6 133572850.344 6
C26  24555062.188 6 127864655.466 6
C29  21414059.258 7 111508623.878 7
C30  22918821.156 7 119344306.897 7
E02  25398490.820 7  25398492.031 8 133469966.045 7 100969171.729 8
E10  23681939.680 8  23681941.391 9 124449430.833 8  94145190.325 9
E11  23379318.242 7  23379316.227 8 122859145.135 7  92942136.931 8
E12  25446414.242 7  25446413.781 8 133721801.001 7 101159672.063 8
E16  24167171.492 8  24167172.559 9 126999338.328 8  96074176.592 9
E24  25813075.117 7  25813078.617 8 135648617.320 7 102617304.534 8
E25  23521426.594 8  23521428.723 9 123605925.065 8  93507089.224 9
G10  23336459.430 7                  23336467.219 7 122633930.974 7                  95558967.461 7
G16  20477994.078 7  20477997.680 6                 107612585.278 7  83853972.909 6
G18  21025934.945 7                  21025939.727 8 110492027.762 7                  86097703.250 8
G23  21128031.469 7                  21128036.375 8 111028560.583 7                  86515803.862 8
G27  21293482.078 7                  21293489.344 7 111898003.643 7                  87193279.316 7
R07  21856891.273 7  21856897.723 7 117001647.705 7  91001305.420 7
R08  22542083.672 7  22542090.895 7 120711847.129 7  93887033.998 7
R13  21524917.648 6                 114941845.870 6
R14  20117956.727 8  20117961.449 7 107240025.394 8  83409100.813 7
R15  22873115.141 6  22873120.012 6 122227003.984 6  95065485.859 6
R23  19793128.570 8                 105879889.454 8
R24  20489239.695 8  20489243.316 7 109565168.530 8  85217380.585 7
> 2025 06 15 07 46 55.0000000  0 23
C20  25646684.836 6 133549041.275 6
C26  24552540.961 6 127851526.390 6
C29  21412035.258 7 111498084.958 7
C30  22919384.414 7 119347240.541 7
E02  25395037.484 7  25395038.813 8 133451818.991 7 100955443.605 8
E10  23681447.469 8  23681449.234 9 124446844.495 8  94143233.777 9
E11  23377378.633 7  23377376.570 8 122848952.199 7  92934426.037 8
E12  25446943.008 7  25446942.613 8 133724579.825 7 101161774.223 8
E16  24167594.969 8  24167596.051 9 127001563.790 8  96075860.135 9
E24  25814363.969 7  25814367.234 8 135655389.077 7 102622427.303 8
E25  23520609.789 8  23520612.164 8 123601633.955 8  93503843.026 8
G10  23331740.852 7                  23331748.746 6 122609135.627 7                  95539646.426 6
G16  20476796.117 7  20476799.438 6                 107606288.674 7  83849066.450 6
G18  21026122.039 7                  21026126.988 8 110493011.534 7                  86098469.824 8
G23  21125101.508 7                  21125106.586 8 111013162.991 7                  86503805.742 8
G27  21289688.977 7                  21289695.715 7 111878067.851 7                  87177744.949 7
R07  21855046.359 7  21855052.352 7 116991767.452 7  90993620.781 7
R08  22537379.563 7  22537384.176 7 120686646.758 7  93867433.737 7
R13  21527178.047 6                 114953913.105 6
R14  20116311.500 8  20116316.563 7 107231256.948 8  83402280.899 7
R15  22868263.383 6  22868268.234 6 122201077.890 6  95045321.146 6
R23  19793291.438 8                 105880760.583 8
R24  20485665.625 8  20485669.371 7 109546057.322 8  85202516.313 7
> 2025 06 15 07 47  0.0000000  0 23
C20  25642113.961 6 133525236.880 6
C26  24550022.766 6 127838412.471 6
C29  21410013.234 7 111487555.851 7
C30  22919949.367 7 119350181.019 7
E02  25391585.922 7  25391587.313 8 133433681.075 7 100941722.397 8
E10  23680957.109 8  23680958.871 9 124444267.591 8  94141284.359 9
E11  23375441.289 7  23375438.922 8 122838769.852 7  92926723.155 8
E12  25447472.961 7  25447472.660 8 133727365.213 7 101163881.340 8
E16  24168020.516 8  24168021.582 8 127003800.044 8  96077551.832 8
E24  25815654.008 7  25815657.145 8 135662167.559 7 102627555.159 8
E25  23519795.703 8  23519798.059 9 123597355.798 8  93500606.624 9
G10  23327023.313 7                  23327031.930 6 122584347.759 7                  95520331.207 6
G16  20475601.750 7  20475605.016 6                 107600011.091 7  83844174.818 6
G18  21026311.289 7                  21026316.660 8 110494007.166 7                  86099245.630 8
G23  21122174.422 7                  21122179.809 8 110997782.528 7                  86491820.973 8
G27  21285896.680 7                  21285904.148 7 111858142.177 7                  87162218.465 7
R07  21853203.828 7  21853210.719 7 116981911.325 7  90985954.908 7
R08  22532674.938 7  22532681.254 7 120661459.185 7  93847843.432 7
R13  21529439.398 6                 114965992.683 6
R14  20114671.477 8  20114676.164 7 107222513.210 8  83395480.211 7
R15  22863412.758 6  22863419.426 6 122175165.305 6  95025166.940 6
R23  19793457.234 8                 105881643.537 8
R24  20482093.203 8  20482097.766 7 109526957.560 8  85187660.958 7
> 2025 06 15 07 47  5.0000000  0 23
C20  25637543.242 6 133501435.221 6
C26  24547507.484 6 127825311.746 6
C29  21407992.563 7 111477034.649 7
C30  22920514.859 7 119353126.479 7
E02  25388135.867 7  25388137.176 8 133415550.371 7 100928006.637 8
E10  23680468.203 8  23680469.934 9 124441698.185 8  94139340.619 9
E11  23373505.195 7  23373502.957 8 122828596.245 7  92919026.888 8
E12  25448003.953 7  25448003.625 8 133730155.259 7 101165991.988 8
E16  24168447.633 8  24168448.809 8 127006045.156 8  96079250.235 8
E24  25816944.688 7  25816947.898 8 135668950.792 7 102632686.621 8
E25  23518983.742 8  23518986.063 8 123593088.636 8  93497378.546 8
G10  23322308.141 7                  23322315.871 6 122559565.436 7                  95501020.327 6
G16  20474410.359 7  20474413.855 6                 107593750.630 7  83839296.545 6
G18  21026503.008 7                  21026507.777 8 110495012.714 7                  86100029.168 8
G23  21119250.984 7                  21119256.113 8 110982417.294 7                  86479848.064 8
G27  21282106.766 7                  21282113.789 7 111838224.707 7                  87146698.360 7
R07  21851366.070 7  21851373.969 7 116972077.495 7  90978306.410 7
R08  22527972.164 7  22527978.918 7 120636282.554 7  93828261.633 7
R13  21531703.672 6                 114978082.984 6
R14  20113035.234 8  20113040.594 7 107213792.589 8  83388697.500 7
R15  22858566.656 6  22858573.008 7 122149264.344 6  95005021.771 7
R23  19793623.453 8                 105882536.442 8
R24  20478522.680 8  20478527.699 7 109507867.191 8  85172812.891 7
> 2025 06 15 07 47 10.0000000  0 23
C20  25632972.719 6 133477636.254 6
C26  24544995.328 6 127812224.199 6
C29  21405973.766 7 111466521.233 7
C30  22921081.297 7 119356076.769 7
E02  25384686.984 7  25384688.398 8 133397426.789 7 100914296.265 8
E10  23679980.672 8  23679982.391 9 124439136.178 8  94137402.472 9
E11  23371570.969 7  23371568.602 8 122818431.178 7  92911337.084 8
E12  25448535.633 7  25448535.430 8 133732949.868 7 101168106.090 8
E16  24168876.766 8  24168877.688 8 127008299.030 8  96080955.272 8
E24  25818236.672 7  25818239.563 8 135675738.688 7 102637821.597 8
E25  23518173.836 8  23518176.117 8 123588832.377 8  93494158.711 8
G10  23317593.039 7                  23317600.711 6 122534788.579 7                  95481713.706 6
G16  20473222.297 7  20473225.633 6                 107587507.187 7  83834431.512 6
G18  21026696.078 7                  21026701.270 8 110496028.031 7                  86100820.320 8
G23  21116329.742 7                  21116334.762 8 110967067.147 7                  86467886.914 8
G27  21278318.070 7                  21278325.246 7 111818315.371 7                  87131184.602 7
R07  21849532.617 7  21849540.770 7 116962265.682 7  90970675.006 7
R08  22523273.570 7  22523278.898 7 120611116.908 7  93808688.386 7
R13  21533969.266 6                 114990183.425 6
R14  20111403.625 8  20111408.371 7 107205094.896 8  83381932.634 7
R15  22853721.641 6  22853728.164 7 122123374.824 6  94984885.488 7
R23  19793792.219 8                 105883439.162 8
R24  20474954.539 8  20474959.359 7 109488786.264 8  85157972.170 7
> 2025 06 15 07 47 15.0000000  0 23
C20  25628403.063 6 133453840.083 6
C26  24542485.758 6 127799149.885 6
C29  21403955.977 7 111456015.738 7
C30  22921648.930 7 119359031.992 7
E02  25381239.430 7  25381240.969 8 133379310.449 7 100900591.379 8
E10  23679494.438 8  23679496.273 9 124436581.666 8  94135470.004 9
E11  23369638.227 7  23369635.887 8 122808274.822 7  92903653.865 8
E12  25449068.406 7  25449068.145 8 133735749.113 7 101170223.700 8
E16  24169307.398 8  24169308.289 8 127010561.771 8  96082667.009 8
E24  25819529.156 7  25819532.113 8 135682531.333 7 102642960.175 8
E25  23517366.164 8  23517368.285 9 123584587.149 8  93490947.228 9
G10  23312879.578 7                  23312887.105 7 122510017.327 7                  95462411.425 7
G16  20472037.141 8  20472040.840 6                 107581280.863 8  83829579.837 6
G18  21026890.711 7                  21026896.465 8 110497053.257 7                  86101619.185 8
G23  21113411.477 7                  21113416.523 8 110951732.223 7                  86455937.633 8
G27  21274530.680 7                  21274537.840 7 111798414.277 7                  87115677.259 7
R07  21847704.109 7  21847711.855 7 116952476.213 7  90963060.984 7
R08  22518575.070 7  22518581.527 7 120585962.239 7  93789123.668 7
R13  21536236.906 6                 115002294.634 6
R14  20109776.898 8  20109781.438 7 107196420.386 8  83375185.774 7
R15  22848879.461 6  22848885.102 6 122097497.059 6  94964758.330 6
R23  19793963.219 8                 105884351.699 8
R24  20471388.383 8  20471392.797 7 109469714.716 8  85143138.735 7
> 2025 06 15 07 47 20.0000000  0 23
C20  25623832.758 6 133430046.648 6
C26  24539976.734 6 127786088.845 6
C29  21401940.000 7 111445518.109 7
C30  22922217.172 7 119361992.156 7
E02  25377793.391 7  25377794.953 8 133361201.327 7 100886891.944 8
E10  23679009.953 8  23679011.590 9 124434034.624 8  94133543.169 9
E11  23367707.336 7  23367704.875 8 122798127.152 7  92895977.217 8
E12  25449602.000 7  25449601.723 8 133738552.966 7 101172344.789 8
E16  24169739.797 8  24169740.578 8 127012833.337 8  96084385.420 8
E24  25820822.781 7  25820825.652 8 135689328.693 7 102648102.307 8
E25  23516560.672 8  23516562.559 8 123580352.887 8  93487744.032 8
G10  23308166.766 7                  23308174.051 7 122485251.631 7                  95443113.498 7
G16  20470855.852 8  20470859.250 6                 107575071.625 8  83824741.462 6
G18  21027088.227 7                  21027093.270 8 110498088.332 7                  86102425.730 8
G23  21110496.141 7                  21110501.316 8 110936412.511 7                  86444000.205 8
G27  21270744.914 7                  21270752.391 7 111778521.409 7                  87100176.331 7
R07  21845880.070 7  21845887.426 7 116942708.983 7  90955464.253 7
R08  22513880.289 7  22513886.340 7 120560818.629 7  93769567.557 7
R13  21538507.648 6                 115014416.220 6
R14  20108153.898 8  20108157.457 7 107187768.692 8  83368456.678 7
R15  22844037.711 6  22844044.199 6 122071630.840 6  94944640.188 6
R23  19794136.039 8                 105885274.190 8
R24  20467824.039 8  20467828.484 7 109450652.676 8  85128312.715 7
> 2025 06 15 07 47 25.0000000  0 23
C20  25619264.477 6 133406255.391 6
C26  24537471.016 6 127773040.450 6
C29  21399925.617 7 111435027.783 7
C30  22922786.555 7 119364956.639 7
E02  25374348.547 7  25374350.109 8 133343098.841 7 100873197.526 8
E10  23678526.523 8  23678528.195 9 124431494.442 8  94131621.538 9
E11  23365777.750 7  23365775.309 8 122787987.543 7  92888306.668 8
E12  25450136.336 7  25450136.031 8 133741360.819 7 101174468.907 8
E16  24170173.648 8  24170174.418 8 127015113.154 8  96086110.075 8
E24  25822117.070 7  25822119.910 8 135696130.196 7 102653247.582 8
E25  23515756.867 8  23515758.762 9 123576129.043 8  93484548.718 9
G10  23303455.234 7                  23303462.469 7 122460490.949 7                  95423819.479 7
G16  20469677.094 7  20469680.789 6                 107568878.853 7  83819915.924 6
G18  21027286.688 7                  21027292.102 8 110499132.662 7                  86103239.489 8
G23  21107583.500 7                  21107589.012 8 110921107.411 7                  86432074.161 8
G27  21266961.648 7                  21266968.543 7 111758636.148 7                  87084681.342 7
R07  21844059.539 7  21844066.941 7 116932963.303 7  90947884.282 7
R08  22509186.633 7  22509192.617 7 120535685.532 7  93750019.613 7
R13  21540778.438 6                 115026547.609 6
R14  20106534.383 8  20106539.523 7 107179139.476 8  83361745.061 7
R15  22839199.844 6  22839205.035 6 122045775.670 6  94924530.617 6
R23  19794310.070 8                 105886205.869 8
R24  20464260.578 8  20464265.539 7 109431599.530 8  85113493.601 7
> 2025 06 15 07 47 30.0000000  0 23
C20  25614695.898 6 133382465.776 6
C26  24534967.203 6 127760004.110 6
C29  21397911.875 7 111424544.141 7
C30  22923356.570 7 119367924.867 7
E02  25370904.992 7  25370906.496 8 133325002.382 7 100859507.679 8
E10  23678044.586 8  23678046.004 9 124428960.515 8  94129704.638 9
E11  23363849.609 7  23363847.266 8 122777855.388 7  92880641.758 8
E12  25450671.133 7  25450671.039 8 133744172.092 7 101176595.607 8
E16  24170608.828 8  24170609.715 8 127017400.570 8  96087840.482 8
E24  25823412.039 7  25823414.895 8 135702935.201 7 102658395.516 8
E25  23514954.930 8  23514956.887 9 123571914.967 8  93481360.798 9
G10  23298743.930 7                  23298751.691 7 122435734.666 7                  95404528.869 7
G16  20468501.594 7  20468505.457 6                 107562701.972 7  83815102.761 6
G18  21027487.000 7                  21027492.484 8 110500185.664 7                  86104060.005 8
G23  21104674.008 7                  21104679.230 8 110905816.333 7                  86420159.033 8
G27  21263178.641 7                  21263186.082 7 111738757.941 7                  87069191.827 7
R07  21842242.961 7  21842250.188 7 116923238.781 7  90940320.774 7
R08  22504494.375 7  22504501.172 7 120510562.235 7  93730479.312 7
R13  21543052.953 6                 115038688.184 6
R14  20104920.492 8  20104924.828 7 107170532.074 8  83355050.414 7
R15  22834363.367 6  22834368.156 6 122019930.941 6  94904429.134 6
R23  19794485.648 8                 105887146.122 8
R24  20460699.242 8  20460704.258 7 109412554.640 8  85098680.900 7
