     3.04           OBSERVATION DATA    Mixed(MIXED)        RINEX VERSION / TYPE
cnvtToRINEX 3.14.0  convertToRINEX OPR  20250615 162944 UTC PGM / RUN BY / DATE 
----------------------------------------------------------- COMMENT             
37                                                          MARKER NAME         
37                                                          MARKER NUMBER       
GEODETIC                                                    MARKER TYPE         
GNSS Observer       Trimble                                 OBSERVER / AGENCY   
5849S10870          Geo Explorer 3      5.51                REC # / TYPE / VERS 
49S10870            UNKNOWN EXT     NONE                    ANT # / TYPE        
  3912819.2191  1190414.4865  4878775.6044                  APPROX POSITION XYZ 
        1.3130        0.0000        0.0000                  ANTENNA: DELTA H/E/N
G    6 C1C C2W C2X L1C L2W L2X                              SYS / # / OBS TYPES 
R    4 C1C C2C L1C L2C                                      SYS / # / OBS TYPES 
E    4 C1X C8X L1X L8X                                      SYS / # / OBS TYPES 
C    2 C2I L2I                                              SYS / # / OBS TYPES 
     5.000                                                  INTERVAL            
  2025     6    15    10    45    0.0000000     GPS         TIME OF FIRST OBS   
  2025     6    15    11    25   45.0000000     GPS         TIME OF LAST OBS    
     0                                                      RCV CLOCK OFFS APPL 
  7 R01  1 R02 -4 R03  5 R16 -1 R17  4 R18 -3 R24  2        GLONASS SLOT / FRQ #
G L2X -0.25000                                              SYS / PHASE SHIFT   
R L2C -0.25000                                              SYS / PHASE SHIFT   
    18                                                      LEAP SECONDS        
    27                                                      # OF SATELLITES     
   C19   490   490                                          PRN / # OF OBS      
   C20   490   490                                          PRN / # OF OBS      
   C22   490   490                                          PRN / # OF OBS      
   C29   178   177                                          PRN / # OF OBS      
   E02   490   490   490   490                              PRN / # OF OBS      
   E04   490   490   490   490                              PRN / # OF OBS      
   E05   122   122   122   122                              PRN / # OF OBS      
   E06   490   489   489   489                              PRN / # OF OBS      
   E09   308   308   308   308                              PRN / # OF OBS      
   E11   352   348   349   348                              PRN / # OF OBS      
   E30   216   197   207   197                              PRN / # OF OBS      
   E34   490   490   490   490                              PRN / # OF OBS      
   E36   490   490   490   490                              PRN / # OF OBS      
   G01   410     0   371   388     0   370                  PRN / # OF OBS      
   G02   490   490     0   490   490     0                  PRN / # OF OBS      
   G03   136     0   135   136     0   135                  PRN / # OF OBS      
   G08   490     0   490   490     0   490                  PRN / # OF OBS      
   G10   490     0   490   490     0   490                  PRN / # OF OBS      
   G27   490     0   490   490     0   490                  PRN / # OF OBS      
   G32   488     0   486   488     0   486                  PRN / # OF OBS      
   R01   490     0   490     0                              PRN / # OF OBS      
   R02   490   490   490   490                              PRN / # OF OBS      
   R03   292   292   292   292                              PRN / # OF OBS      
   R16     6     3     4     2                              PRN / # OF OBS      
   R17   490   490   490   490                              PRN / # OF OBS      
   R18   276   271   275   269                              PRN / # OF OBS      
   R24   397   382   394   370                              PRN / # OF OBS      
DBHZ                                                        SIGNAL STRENGTH UNIT
                                                            END OF HEADER       
>                              2  1
              *** Start of Kinematic Data ***               COMMENT             
> 2025 06 15 10 45  0.0000000  0 20
C19  22392171.344 7 116601907.07217
C20  23332557.195 7 121498747.19417
C22  24960586.711 7 129976331.74517
C29  23744039.805 6 123641438.61816
E02  25716835.188 7  25716837.215 8 135142876.24017 102234720.55618
E04  25707695.922 7  25707698.535 8 135094851.41717 102198388.12818
E06  25381499.617 6  25381502.871 7 133380687.67616 100901632.62817
E11  25361557.953 7  25361557.922 7 133275882.71117 100822340.94417
E34  25658936.172 6  25658940.418 7 134838619.91416 102004556.04817
E36  23334625.688 8  23334628.359 8 122624286.37218  92764484.58118
G01  22906225.297 4                  22906258.945 4 120373044.13914                  93797307.31914
G02  21208469.898 8  21208472.004 6                 111451263.79218  86845145.85416
G08  20312460.266 8                  20312467.129 8 106742739.47418                  83176215.65318
G10  21402593.727 8                  21402600.059 7 112471390.50618                  87640045.44717
G27  21627342.914 7                  21627350.133 7 113652458.29717                  88560262.89617
G32  22351961.203 7                  22351967.281 6 117460356.38017                  91527551.98216
R01  19881963.930 7                 106280496.30717
R02  20398557.492 8  20398563.426 7 108850607.66618  84661614.41217
R17  19342772.719 8  19342777.430 7 103507093.53318  80505722.36117
R24  20614249.328 7  20614254.504 7 110233663.61817  85737237.41717
> 2025 06 15 10 45  5.0000000  0 20
C19  22389412.609 7 116587541.476 7
C20  23332732.367 7 121499662.082 7
C22  24955770.023 7 129951249.520 7
C29  23745176.055 7 123647355.830 7
E02  25717674.664 7  25717676.828 8 135147288.609 7 102238058.481 8
E04  25706191.422 7  25706194.004 8 135086944.915 7 102192406.915 8
E06  25378697.773 6  25378701.730 7 133365967.180 6 100890496.699 7
E11  25362010.445 7  25362010.305 7 133278260.092 7 100824139.403 7
E34  25655448.711 6  25655452.762 8 134820291.938 6 101990691.036 8
E36  23333089.508 8  23333091.941 8 122616212.223 8  92758376.534 8
G01  22901968.078 4                  22902002.063 5 120350704.202 4                  93779899.580 5
G02  21205607.078 8  21205608.871 6                 111436220.015 8  86833423.442 6
G08  20311644.586 8                  20311652.105 8 106738454.097 8                  83172876.403 8
G10  21402899.547 8                  21402905.543 7 112472995.912 8                  87641296.417 7
G27  21628691.625 7                  21628698.988 7 113659544.221 7                  88565784.409 7
G32  22348719.531 7                  22348725.965 6 117443324.795 7                  91514280.599 6
R01  19881577.734 7                 106278426.383 7
R02  20394280.930 8  20394286.551 7 108827782.801 8  84643861.760 7
R17  19340208.789 8  19340213.668 7 103493372.825 8  80495050.720 7
R24  20615087.672 7  20615092.219 7 110238141.917 7  85740720.504 7
>                              3  5
              *** Start of Occupation ***                   COMMENT             
37                                                          MARKER NAME         
37                                                          MARKER NUMBER       
  3912819.2191  1190414.4865  4878775.6044                  APPROX POSITION XYZ 
        1.3130        0.0000        0.0000                  ANTENNA: DELTA H/E/N
> 2025 06 15 10 45 10.0000000  0 20
C19  22386656.102 7 116573190.952 7
C20  23332911.750 7 121500590.643 7
C22  24950954.594 7 129926172.414 7
C29  23746313.547 7 123653280.507 7
E02  25718515.867 7  25718518.227 8 135151710.008 7 102241403.239 8
E04  25704689.594 7  25704692.145 8 135079052.616 7 102186436.445 8
E06  25375899.125 6  25375902.906 7 133351259.264 6 100879370.278 7
E11  25362463.414 7  25362463.656 7 133280642.495 7 100825941.667 7
E34  25651961.797 7  25651965.813 8 134801968.396 7 101976829.398 8
E36  23331554.078 8  23331556.906 8 122608145.609 8  92752274.206 8
G01  22897719.172 5                  22897747.523 5 120328369.944 5                  93762496.349 5
G02  21202746.383 8  21202747.320 6                 111421185.298 8  86821708.081 6
G08  20310832.469 8                  20310839.871 8 106734185.930 8                  83169550.564 8
G10  21403206.938 8                  21403213.523 7 112474613.346 8                  87642556.745 7
G27  21630041.391 7                  21630049.027 7 113666641.935 7                  88571315.060 7
G32  22345481.094 7                  22345487.531 6 117426307.871 7                  91501020.642 6
R01  19881194.641 7                 106276380.252 7
R02  20390007.031 8  20390012.262 7 108804976.421 8  84626123.473 7
R17  19337647.625 8  19337652.359 8 103479666.049 8  80484389.879 8
R24  20615927.703 7  20615931.742 7 110242632.345 7  85744213.068 7
> 2025 06 15 10 45 15.0000000  0 20
C19  22383902.664 7 116558854.355 7
C20  23333092.133 7 121501531.703 7
C22  24946139.016 7 129901099.294 7
C29  23747452.773 7 123659211.513 7
E02  25719358.523 7  25719361.195 8 135156139.282 7 102244753.948 8
E04  25703190.375 7  25703192.766 8 135071173.351 7 102180475.826 8
E06  25373102.219 6  25373106.301 7 133336562.653 6 100868252.395 7
E11  25362917.133 7  25362917.758 7 133283028.682 7 100827746.797 7
E34  25648476.063 7  25648479.551 7 134783648.136 7 101962970.254 7
E36  23330020.383 8  23330023.109 8 122600085.354 8  92746176.679 8
G01  22893468.563 4                  22893494.711 4 120306039.99114                  93745096.29814
G02  21199886.813 8  21199887.477 6                 111406158.434 8  86809998.851 6
G08  20310023.570 8                  20310030.508 8 106729933.805 8                  83166237.198 8
G10  21403516.680 8                  21403523.227 8 112476241.580 8                  87643825.485 8
G27  21631394.531 7                  21631401.621 7 113673750.181 7                  88576853.926 7
G32  22342245.938 7                  22342253.148 6 117409304.458 7                  91487771.239 6
R01  19880815.664 7                 106274356.746 7
R02  20385735.828 8  20385741.586 7 108782187.490 8  84608398.745 7
R17  19335088.828 8  19335093.613 7 103465972.163 8  80473739.061 7
R24  20616768.461 7  20616773.770 7 110247133.822 7  85747714.193 7
> 2025 06 15 10 45 20.0000000  0 19
C19  22381152.336 7 116544532.668 7
C20  23333274.781 7 121502486.250 7
C22  24941325.211 7 129876031.195 7
C29  23748592.961 7 123665149.824 7
E02  25720202.469 7  25720205.742 8 135160577.398 7 102248111.335 8
E04  25701693.125 7  25701696.039 8 135063308.083 7 102174525.817 8
E06  25370308.695 6  25370312.012 7 133321878.441 6 100857143.872 7
E11  25363372.484 7  25363372.758 7 133285419.737 7 100829555.597 7
E34  25644991.047 7  25644994.164 8 134765332.183 7 101949114.372 8
E36  23328488.125 8  23328490.680 8 122592032.456 8  92740084.705 8
G02  21197028.555 8  21197029.047 6                 111391140.435 8  86798296.512 6
G08  20309217.422 8                  20309224.695 8 106725698.711 8                  83162937.130 8
G10  21403828.695 8                  21403835.023 7 112477881.618 8                  87645103.421 7
G27  21632750.008 7                  21632756.219 7 113680869.997 7                  88582401.794 7
G32  22339013.797 7                  22339020.051 6 117392315.560 7                  91474533.154 6
R01  19880441.344 7                 106272356.918 7
R02  20381469.352 8  20381474.180 7 108759416.679 8  84590688.121 7
R17  19332532.211 8  19332536.859 8 103452291.954 8  80463098.917 8
R24  20617612.672 7  20617617.879 7 110251647.333 7  85751224.685 7
> 2025 06 15 10 45 25.0000000  0 19
C19  22378404.766 7 116530226.713 7
C20  23333460.633 7 121503455.104 7
C22  24936512.188 7 129850968.926 7
C29  23749735.211 7 123671096.261 7
E02  25721049.063 7  25721052.227 8 135165025.174 7 102251476.046 8
E04  25700199.570 7  25700202.059 8 135055457.684 7 102168587.021 8
E06  25367515.188 5  25367520.285 7 133307207.371 5 100846045.314 7
E11  25363828.672 7  25363828.777 7 133287816.394 7 100831368.637 7
E34  25641506.648 7  25641509.789 8 134747021.324 7 101935262.363 8
E36  23326957.180 8  23326959.770 8 122583987.752 8  92733998.932 8
G02  21194172.570 8  21194172.887 6                 111376132.158 8  86786601.757 6
G08  20308415.320 8                  20308422.141 8 106721481.484 8                  83159650.974 8
G10  21404143.109 8                  21404149.281 7 112479534.283 8                  87646391.210 7
G27  21634105.797 7                  21634113.344 7 113688002.176 7                  88587959.324 7
G32  22335783.664 7                  22335790.633 6 117375341.991 7                  91461307.003 6
R01  19880072.344 8                 106270381.456 8
R02  20377205.344 8  20377210.414 7 108736665.434 8  84572992.713 7
R17  19329978.281 8  19329983.363 8 103438626.406 8  80452470.169 8
R24  20618458.641 7  20618464.109 7 110256173.725 7  85754745.218 7
> 2025 06 15 10 45 30.0000000  0 20
C19  22375660.844 7 116515935.124 7
C20  23333649.336 7 121504436.878 7
C22  24931700.500 7 129825911.119 7
C29  23750877.609 7 123677049.466 7
E02  25721897.461 7  25721900.168 8 135169481.234 7 102254847.007 8
E04  25698708.336 7  25698710.684 8 135047620.733 7 102162658.424 8
E06  25364726.063 5  25364730.742 7 133292548.146 5 100834955.674 7
E11  25364285.586 7  25364285.676 7 133290217.314 7 100833184.895 7
E34  25638023.102 7  25638026.027 8 134728714.195 7 101921413.153 8
E36  23325427.391 8  23325430.254 8 122575949.848 8  92727918.320 8
G01  22880728.078 5                                                                
G02  21191318.148 8  21191319.281 6                 111361132.206 8  86774913.478 6
G08  20307616.047 8                  20307622.758 8 106717280.730 8                  83156377.661 8
G10  21404459.859 8                  21404466.113 7 112481198.154 8                  87647687.748 7
G27  21635466.789 7                  21635472.973 7 113695145.331 7                  88593525.402 7
G32  22332555.953 7                  22332562.996 6 117358382.463 7                  91448091.805 6
R01  19879707.008 8                 106268429.087 8
R02  20372945.266 8  20372950.168 7 108713931.869 8  84555311.065 7
R17  19327427.125 8  19327431.691 8 103424973.995 8  80441851.632 8
R24  20619306.953 7  20619313.160 7 110260711.464 7  85758274.536 7
> 2025 06 15 10 45 35.0000000  0 20
C19  22372919.055 7 116501658.292 7
C20  23333840.383 7 121505431.915 7
C22  24926891.086 7 129800858.134 7
C29  23752022.906 7 123683009.753 7
E02  25722747.063 7  25722749.746 8 135173945.931 7 102258224.514 8
E04  25697219.570 7  25697221.945 8 135039797.576 7 102156740.271 8
E06  25361940.367 5  25361943.512 8 133277901.045 5 100823875.303 8
E11  25364743.445 7  25364743.441 7 133292622.866 7 100835004.665 7
E34  25634540.227 7  25634543.055 8 134710411.174 7 101907567.058 8
E36  23323899.477 8  23323902.102 8 122567919.119 8  92721843.117 8
G01  22876484.125 5                                 120216771.56915                
G02  21188465.125 8  21188466.871 6                 111346140.964 8  86763231.994 6
G08  20306819.617 8                  20306826.676 8 106713096.837 8                  83153117.476 8
G10  21404778.406 8                  21404784.500 7 112482873.650 8                  87648993.318 7
G27  21636828.602 7                  21636834.129 7 113702299.797 7                  88599100.289 7
G32  22329330.617 7                  22329338.848 6 117341437.285 7                  91434887.830 6
R01  19879345.984 7                 106266500.031 7
R02  20368688.805 8  20368693.871 7 108691216.557 8  84537643.610 7
R17  19324878.188 8  19324883.242 8 103411335.239 8  80431243.733 8
R24  20620158.719 7  20620164.137 7 110265261.013 7  85761813.063 7
> 2025 06 15 10 45 40.0000000  0 20
C19  22370179.906 7 116487396.912 7
C20  23334035.313 7 121506440.922 7
C22  24922081.000 7 129775810.680 7
C29  23753168.773 7 123688977.829 7
E02  25723597.930 7  25723601.191 8 135178419.936 7 102261609.058 8
E04  25695733.383 7  25695735.992 8 135031989.018 7 102150833.147 8
E06  25359155.391 5  25359158.730 7 133263266.799 5 100812804.658 7
E11  25365202.539 7  25365202.176 7 133295033.746 7 100836828.458 7
E34  25631057.719 7  25631061.047 8 134692113.017 7 101893724.612 8
E36  23322372.664 8  23322375.398 8 122559896.237 8  92715773.870 8
G01  22872236.844 4                  22872257.789 5 120194469.704 4                  93658068.86815
G02  21185614.313 7  21185616.035 6                 111331159.123 7  86751557.841 6
G08  20306026.789 8                  20306033.805 8 106708930.453 8                  83149870.934 8
G10  21405099.977 8                  21405106.297 7 112484561.399 8                  87650308.438 7
G27  21638192.445 7                  21638197.969 7 113709466.255 7                  88604684.574 7
G32  22326110.719 7                  22326116.652 6 117324507.136 7                  91421695.522 6
R01  19878989.781 7                 106264595.036 7
R02  20364435.070 8  20364440.363 7 108668520.274 8  84519990.946 7
R17  19322331.922 8  19322337.328 8 103397710.824 8  80420646.971 8
R24  20621010.906 7  20621017.211 7 110269823.115 7  85765361.380 7
> 2025 06 15 10 45 45.0000000  0 20
C19  22367443.547 7 116473150.943 7
C20  23334231.516 7 121507463.892 7
C22  24917271.180 7 129750768.796 7
C29  23754316.141 7 123694953.699 7
E02  25724450.336 7  25724454.234 8 135182903.253 7 102265000.635 8
E04  25694251.000 7  25694252.699 8 135024194.957 7 102144936.984 8
E06  25356371.641 5  25356376.438 7 133248645.447 5 100801743.718 7
E11  25365662.148 7  25365661.977 7 133297449.965 7 100838656.303 7
E34  25627576.188 7  25627579.949 8 134673819.639 7 101879885.772 8
E36  23320847.711 8  23320850.199 8 122551881.234 8  92709710.568 8
G01  22868000.906 5                  22868016.121 5 120172173.857 5                  93640695.363 5
G02  21182765.859 8  21182767.410 6                 111316186.678 8  86739891.018 6
G08  20305237.273 8                  20305244.082 8 106704781.623 8                  83146638.077 8
G10  21405423.766 8                  21405429.445 7 112486261.429 8                  87651633.139 7
G27  21639558.305 7                  21639564.625 7 113716644.737 7                  88610278.194 7
G32  22322890.367 7                  22322898.082 6 117307592.074 7                  91408514.986 6
R01  19878637.844 7                 106262714.149 7
R02  20360185.633 8  20360191.063 7 108645843.088 8  84502353.145 7
R17  19319788.945 8  19319793.641 7 103384100.758 8  80410061.361 7
R24  20621866.523 7  20621872.793 7 110274397.765 7  85768919.436 7
> 2025 06 15 10 45 50.0000000  0 21
C19  22364711.055 7 116458919.202 7
C20  23334430.266 7 121508499.575 7
C22  24912462.906 7 129725731.220 7
C29  23755466.297 7 123700936.114 7
E02  25725305.453 7  25725309.012 8 135187394.642 7 102268398.325 8
E04  25692770.867 7  25692771.973 8 135016414.175 7 102139050.873 8
E06  25353588.766 5  25353596.293 7 133234035.78015 100790691.61317
E11  25366122.898 7  25366122.531 7 133299870.215 7 100840487.201 7
E30  26297242.523 5  26297234.645 4 138193016.39515 104542030.52614
E34  25624095.797 7  25624099.391 8 134655529.796 7 101866049.628 8
E36  23319323.664 8  23319326.242 8 122543872.854 8  92703652.281 8
G01  22863759.398 5                  22863773.258 5 120149882.676 5                  93623325.571 5
G02  21179917.773 8  21179920.238 6                 111301222.385 8  86728230.523 6
G08  20304451.047 8                  20304457.625 8 106700649.069 8                  83143417.895 8
G10  21405749.180 8                  21405755.340 7 112487972.494 8                  87652966.425 7
G27  21640925.977 7                  21640933.367 7 113723833.990 7                  88615880.230 7
G32  22319675.086 7                  22319681.895 6 117290690.863 7                  91395345.226 6
R01  19878289.781 7                 106260856.126 7
R02  20355938.953 8  20355944.176 7 108623183.446 8  84484728.963 7
R17  19317248.234 8  19317252.438 7 103370503.852 8  80399485.992 7
R24  20622724.570 7  20622730.813 7 110278983.643 7  85772486.199 7
> 2025 06 15 10 45 55.0000000  0 21
C19  22361980.961 7 116444699.188 7
C20  23334630.547 7 121509545.512 7
C22  24907654.414 7 129700695.512 7
C29  23756616.563 7 123706922.628 7
E02  25726161.992 7  25726164.754 8 135191891.586 7 102271800.229 8
E04  25691292.500 7  25691293.305 8 135008644.241 7 102133172.942 8
E06  25350809.703 4                                
E11  25366583.492 7  25366583.410 7 133302292.062 7 100842319.299 7
E30  26295699.406 5  26295701.695 4 138184961.174 5 104535936.818 4
E34  25620615.750 7  25620619.051 8 134637241.031 7 101852214.311 8
E36  23317800.648 8  23317803.074 8 122535868.614 8  92697597.130 8
G01  22859521.375 5                  22859530.371 5 120127593.920 5                  93605957.619 5
G02  21177071.492 8  21177073.754 6                 111286263.804 8  86716574.489 6
G08  20303667.125 8                  20303674.027 8 106696530.325 8                  83140208.493 8
G10  21406075.961 8                  21406082.738 7 112489692.050 8                  87654306.339 7
G27  21642295.648 7                  21642303.613 7 113731031.492 7                  88621488.663 7
G32  22316460.797 7                  22316467.941 6 117273801.072 7                  91382184.381 6
R01  19877945.164 7                 106259018.336 7
R02  20351696.469 8  20351701.098 7 108600539.169 8  84467116.755 7
R17  19314709.078 8  19314713.375 7 103356917.376 8  80388918.725 7
R24  20623584.156 7  20623589.621 7 110283578.141 7  85776059.670 7
> 2025 06 15 10 46  0.0000000  0 21
C19  22359253.297 7 116430493.958 7
C20  23334833.414 7 121510604.694 7
C22  24902848.273 7 129675664.690 7
C29  23757765.953 7 123712916.233 7
E02  25727020.031 7  25727022.227 8 135196397.122 7 102275208.628 8
E04  25689816.055 7  25689817.332 8 135000888.101 7 102127305.477 8
E06  25348037.445 4  25348041.793 7 133204846.97914 100768610.49317
E11  25367045.641 7  25367045.207 7 133304718.522 7 100844154.890 7
E30  26294163.328 6  26294162.402 4 138176919.683 6 104529853.45614
E34  25617135.664 7  25617139.645 8 134618956.398 7 101838382.107 8
E36  23316278.586 8  23316281.258 8 122527871.562 8  92691547.411 8
G01  22855278.055 5                  22855291.922 5 120105310.299 5                  93588593.747 5
G02  21174226.328 8  21174228.707 6                 111271313.890 8  86704925.215 6
G08  20302886.719 8                  20302893.480 8 106692428.426 8                  83137012.220 8
G10  21406405.625 8                  21406412.215 7 112491423.171 8                  87655655.256 7
G27  21643667.844 7                  21643675.371 7 113738240.296 7                  88627105.897 7
G32  22313249.594 7                  22313256.617 6 117256925.633 7                  91369034.707 6
R01  19877607.016 7                 106257203.885 7
R02  20347455.680 8  20347460.793 7 108577913.168 8  84449518.762 7
R17  19312172.320 8  19312177.074 7 103343344.661 8  80378362.177 7
R24  20624446.398 7  20624451.098 7 110288184.597 7  85779642.453 7
> 2025 06 15 10 46  5.0000000  0 21
C19  22356528.180 7 116416303.116 7
C20  23335039.539 7 121511676.722 7
C22  24898042.164 7 129650638.367 7
C29  23758918.719 7 123718916.522 7
E02  25727878.125 7  25727881.094 8 135200910.875 7 102278623.239 8
E04  25688342.242 7  25688343.844 8 134993145.419 7 102121448.197 8
E06  25345260.492 4  25345267.965 7 133190270.65114 100757583.56217
E11  25367508.047 7  25367507.742 7 133307149.246 7 100845993.703 7
E30  26292633.742 5  26292634.641 5 138168891.585 5 104523780.709 5
E34  25613656.758 7  25613661.035 8 134600675.470 7 101824552.705 8
E36  23314757.953 8  23314760.738 9 122519881.289 8  92685502.813 9
G01  22851039.039 5                  22851049.070 4 120083031.668 5                  93571233.688 4
G02  21171383.328 8  21171385.496 6                 111256372.290 8  86693282.413 6
G08  20302109.328 8                  20302115.965 8 106688342.999 8                  83133828.754 8
G10  21406737.547 8                  21406743.887 7 112493165.468 8                  87657012.882 7
G27  21645041.422 7                  21645049.156 7 113745459.998 7                  88632731.610 7
G32  22310040.602 7                  22310048.348 6 117240064.275 7                  91355895.999 6
R01  19877271.445 7                 106255412.322 7
R02  20343219.148 8  20343224.188 7 108555305.228 8  84431934.799 7
R17  19309638.758 8  19309643.609 7 103329785.252 8  80367815.972 7
R24  20625309.055 7  20625314.559 7 110292802.444 7  85783234.096 7
> 2025 06 15 10 46 10.0000000  0 21
C19  22353805.219 7 116402127.066 7
C20  23335247.656 7 121512761.980 7
C22  24893236.430 7 129625616.977 7
C29  23760071.188 7 123724923.957 7
E02  25728738.438 7  25728741.715 8 135205433.204 7 102282044.343 8
E04  25686871.359 7  25686873.160 8 134985416.572 7 102115601.377 8
E06  25342491.203 5  25342496.535 7 133175706.36115 100746565.79217
E11  25367971.586 7  25367971.172 7 133309584.570 7 100847836.004 7
E30  26291107.703 5  26291109.699 5 138160877.321 5 104517717.943 5
E34  25610178.766 6  25610183.266 8 134582398.702 6 101810726.455 8
E36  23313238.891 8  23313241.594 9 122511898.204 8  92679463.663 9
G01  22846800.000 5                                 120060758.369 5                
G02  21168541.477 8  21168543.734 6                 111241439.423 8  86681646.423 6
G08  20301335.297 8                  20301341.754 8 106684274.396 8                  83130658.416 8
G10  21407071.336 8                  21407077.270 7 112494919.276 8                  87658379.501 7
G27  21646417.000 7                  21646424.895 7 113752690.973 7                  88638366.115 7
G32  22306835.266 7                  22306842.813 7 117223217.362 7                  91342768.525 7
R01  19876939.695 7                 106253644.207 7
R02  20338985.984 8  20338990.801 7 108532715.658 8  84414365.133 7
R17  19307107.852 8  19307111.738 7 103316239.443 8  80357280.329 7
R24  20626175.016 7  20626180.184 7 110297432.071 7  85786834.901 7
> 2025 06 15 10 46 15.0000000  0 22
C19  22351085.844 7 116387966.811 7
C20  23335459.945 7 121513861.454 7
C22  24888432.570 7 129600601.508 7
C29  23761226.406 7 123730939.431 7
E02  25729600.953 7  25729604.113 8 135209965.123 7 102285472.698 8
E04  25685403.531 7  25685405.199 8 134977702.616 7 102109765.813 8
E06  25339724.773 5  25339727.629 7 133161155.38115 100735558.12017
E11  25368435.500 7  25368435.668 7 133312025.527 7 100849682.576 7
E30  26289584.852 5  26289587.480 4 138152877.874 5 104511666.38014
E34  25606702.266 6  25606706.301 8 134564127.108 6 101796904.078 8
E36  23311721.266 8  23311724.055 9 122503923.317 8  92673430.708 9
G01  22842568.344 4                                 120038491.383 4                
G02  21165701.789 8  21165703.832 6                 111226516.292 8  86670018.016 6
G08  20300564.805 8                  20300571.031 8 106680223.669 8                  83127501.997 8
G10  21407407.055 8                  21407413.176 7 112496685.651 8                  87659755.908 7
G27  21647794.594 7                  21647802.883 7 113759934.236 7                  88644010.197 7
G32  22303632.484 7                  22303639.922 6 117206385.895 7                  91329653.085 6
R01  19876614.563 7                 106251900.459 7
R02  20334756.578 8  20334761.238 7 108510145.367 8  84396810.474 7
R16  22331507.477 5  22331468.547 3 119290790.35015  92781651.94013
R17  19304579.516 8  19304583.445 8 103302708.395 8  80346756.159 8
R24  20627043.258 7  20627048.512 7 110302074.492 7  85790445.670 7
> 2025 06 15 10 46 20.0000000  0 21
C19  22348369.469 7 116373821.852 7
C20  23335673.531 7 121514974.709 7
C22  24883629.375 7 129575591.538 7
C29  23762383.406 7 123736962.566 7
E02  25730465.828 7  25730468.266 8 135214506.182 7 102288907.962 8
E04  25683937.875 7  25683940.008 8 134970003.041 7 102103941.141 8
E06  25336956.375 4  25336961.090 7 133146617.17514 100724560.10217
E11  25368901.500 7  25368901.160 7 133314471.698 7 100851533.085 7
E30  26288065.938 5  26288068.148 4 138144892.746 5 104505625.53714
E34  25603226.305 6  25603230.242 8 134545860.218 6 101783085.278 8
E36  23310205.242 8  23310208.004 8 122495956.184 8  92667403.623 8
G02  21162863.719 8  21162865.504 6                 111211602.462 8  86658396.844 6
G08  20299796.297 8                  20299803.789 8 106676190.307 8                  83124359.114 8
G10  21407745.938 8                  21407751.965 7 112498464.112 8                  87661141.711 7
G27  21649176.039 7                  21649183.000 7 113767189.313 7                  88649663.491 7
G32  22300432.781 7                  22300438.977 6 117189569.492 7                  91316549.377 6
R01  19876293.008 8                 106250180.631 8
R02  20330529.875 8  20330535.301 7 108487594.208 8  84379270.693 7
R16  22331378.875 4                 119290111.401 4
R17  19302053.539 8  19302057.520 7 103289191.576 8  80336243.080 7
R24  20627913.188 7  20627919.074 7 110306729.272 7  85794066.063 7
> 2025 06 15 10 46 25.0000000  0 20
C19  22345656.109 7 116359691.020 7
C20  23335890.258 7 121516100.478 7
C22  24878826.703 6 129550585.810 6
C29  23763541.320 7 123742992.081 7
E02  25731331.617 7  25731333.961 8 135219055.125 7 102292349.183 8
E04  25682475.305 7  25682477.367 8 134962316.645 7 102098126.438 8
E06  25334193.500 5  25334196.797 7 133132090.51315 100713570.78117
E11  25369367.516 7  25369367.441 7 133316921.775 7 100853386.545 7
E30  26286549.281 5  26286551.293 3 138136920.801 5 104499594.832 3
E34  25599751.203 6  25599754.789 8 134527596.690 6 101769269.052 8
E36  23308690.195 8  23308693.148 8 122487995.537 8  92661381.441 8
G02  21160027.391 8  21160028.793 6                 111196696.690 8  86646781.945 6
G08  20299032.102 8                  20299039.219 8 106672173.120 8                  83121228.846 8
G10  21408085.914 8                  21408092.621 7 112500253.408 8                  87662535.958 7
G27  21650557.750 7                  21650565.414 7 113774454.978 7                  88655325.026 7
G32  22297236.250 7                  22297241.105 6 117172766.844 7                  91303456.400 6
R01  19875975.563 8                 106248483.326 8
R02  20326306.992 8  20326312.211 7 108465060.750 8  84361744.695 7
R17  19299529.063 8  19299534.180 8 103275687.746 8  80325740.139 8
R24  20628785.953 7  20628791.730 7 110311395.266 7  85797695.160 7
> 2025 06 15 10 46 30.0000000  0 20
C19  22342945.258 7 116345574.534 7
C20  23336109.383 7 121517238.979 7
C22  24874026.258 6 129525584.510 6
C29  23764700.539 7 123749028.244 7
E02  25732198.828 7  25732201.098 8 135223612.109 7 102295796.511 8
E04  25681015.250 7  25681017.215 8 134954643.582 7 102092321.814 8
E06  25331428.516 5  25331434.664 7 133117575.77615 100702590.45017
E11  25369834.703 7  25369834.484 7 133319376.017 7 100855243.157 7
E30  26285033.750 5  26285036.969 4 138128962.128 5 104493574.18514
E34  25596276.078 7  25596280.066 8 134509336.807 7 101755455.608 8
E36  23307176.758 8  23307179.531 8 122480041.574 8  92655364.318 8
G02  21157192.711 8  21157193.652 6                 111181799.155 8  86635173.462 6
G08  20298270.391 8                  20298277.859 8 106668172.303 8                  83118111.332 8
G10  21408428.344 8                  21408435.102 7 112502053.736 8                  87663938.793 7
G27  21651942.875 7                  21651950.449 7 113781731.399 7                  88660994.965 7
G32  22294041.094 7                  22294046.859 7 117155978.178 7                  91290374.323 7
R01  19875662.016 7                 106246808.813 7
R02  20322087.883 8  20322093.527 7 108442545.175 8  84344232.578 7
R17  19297007.539 8  19297012.906 8 103262197.105 8  80315247.421 8
R24  20629660.383 7  20629666.410 7 110316072.592 7  85801333.070 7
> 2025 06 15 10 46 35.0000000  0 21
C19  22340237.258 7 116331473.569 7
C20  23336330.211 7 121518391.414 7
C22  24869227.047 6 129500588.937 6
C29  23765861.672 7 123755072.172 7
E02  25733067.609 7  25733070.051 8 135228178.391 7 102299250.857 8
E04  25679557.359 7  25679559.879 8 134946985.098 7 102086528.229 8
E06  25328673.164 5  25328674.996 7 133103074.024 5 100691619.914 7
E11  25370302.570 7  25370302.559 7 133321835.611 7 100857103.802 7
E30  26283520.875 5  26283525.371 5 138121017.931 5 104487564.51415
E34  25592801.672 6  25592806.156 8 134491081.789 6 101741645.816 8
E36  23305664.664 8  23305667.445 8 122472095.551 8  92649353.203 8
G01  22825615.992 5                                                                
G02  21154359.648 8  21154360.500 6                 111166911.072 8  86623572.355 6
G08  20297512.773 8                  20297520.090 8 106664189.039 8                  83115007.476 8
G10  21408774.070 8                  21408779.691 7 112503866.293 8                  87665351.166 7
G27  21653330.664 7                  21653337.676 7 113789019.780 7                  88666674.193 7
G32  22290849.203 7                  22290855.301 7 117139204.717 7                  91277304.115 7
R01  19875353.242 7                 106245158.373 7
R02  20317872.320 8  20317877.230 7 108420048.784 8  84326735.400 7
R17  19294489.297 8  19294494.379 7 103248721.036 8  80304766.042 7
R24  20630539.164 7  20630543.035 7 110320762.233 7  85804980.524 7
> 2025 06 15 10 46 40.0000000  0 21
C19  22337532.055 7 116317387.765 7
C20  23336553.617 7 121519557.408 7
C22  24864427.438 6 129475598.695 6
C29  23767023.781 7 123761123.557 7
E02  25733937.984 7  25733940.676 8 135232753.578 7 102302711.958 8
E04  25678102.930 7  25678105.332 8 134939340.861 7 102080745.404 8
E06  25325917.398 5  25325917.703 7 133088584.844 5 100680658.930 7
E11  25370771.375 7  25370771.543 7 133324300.214 7 100858968.240 7
E30  26282011.641 5  26282016.438 5 138113087.955 5 104481565.515 5
E34  25589329.367 6  25589333.141 8 134472831.343 6 101727839.459 8
E36  23304154.094 8  23304156.797 8 122464157.082 8  92643347.802 8
G01  22821383.859 5                  22821385.117 4 119927238.09115                  93449756.53514
G02  21151528.344 8  21151529.633 6                 111152032.146 8  86611978.377 6
G08  20296758.172 8                  20296765.008 8 106660223.001 8                  83111917.053 8
G10  21409120.578 8                  21409126.996 7 112505690.715 8                  87666772.783 7
G27  21654719.813 7                  21654726.859 7 113796319.774 7                  88672362.475 7
G32  22287659.227 7                  22287665.996 7 117122446.158 7                  91264245.514 7
R01  19875049.055 7                 106243531.591 7
R02  20313659.703 8  20313664.559 7 108397571.260 8  84309252.893 7
R17  19291974.227 8  19291978.617 7 103235259.060 8  80294295.620 7
R24  20631417.141 7  20631422.320 7 110325464.139 7  85808637.567 7
> 2025 06 15 10 46 45.0000000  0 21
C19  22334829.523 7 116303317.051 7
C20  23336779.844 7 121520736.852 7
C22  24859628.953 6 129450613.694 6
C29  23768187.445 6 123767182.258 6
E02  25734810.688 7  25734812.859 8 135237337.524 7 102306179.671 8
E04  25676651.188 7  25676653.445 8 134931710.736 7 102074973.269 8
E06  25323160.805 5  25323162.809 8 133074108.183 5 100669707.435 8
E11  25371241.234 7  25371241.473 7 133326769.652 7 100860836.335 7
E30  26280506.094 5  26280510.379 5 138105172.039 5 104475577.10715
E34  25585856.961 6  25585860.945 8 134454585.266 6 101714036.425 8
E36  23302644.773 8  23302647.602 9 122456226.063 8  92637348.046 9
G01  22817152.547 5                  22817156.363 5 119905003.990 5                  93432431.279 5
G02  21148699.172 8  21148699.832 6                 111137162.207 8  86600391.411 6
G08  20296006.211 8                  20296013.953 8 106656274.032 8                  83108839.937 8
G10  21409470.477 8                  21409476.715 7 112507526.911 8                  87668203.566 7
G27  21656111.461 8                  21656117.973 7 113803631.221 8                  88678059.689 7
G32  22284473.703 7                  22284480.039 7 117105702.358 7                  91251198.414 7
R01  19874748.672 7                 106241928.297 7
R02  20309450.195 8  20309455.828 7 108375112.644 8  84291785.106 7
R17  19289461.461 8  19289465.270 7 103221811.093 8  80283836.070 7
R24  20632299.031 7  20632303.457 7 110330178.100 7  85812303.954 7
> 2025 06 15 10 46 50.0000000  0 21
C19  22332130.383 7 116289261.304 7
C20  23337008.930 7 121521929.631 7
C22  24854831.578 6 129425633.864 6
C29  23769352.477 6 123773248.243 6
E02  25735684.766 7  25735686.906 8 135241930.203 7 102309654.000 8
E04  25675202.328 7  25675204.195 8 134924094.661 7 102069211.752 8
E06  25320405.852 5  25320410.309 7 133059643.919 5 100658765.354 7
E11  25371712.523 7  25371712.289 7 133329243.917 7 100862708.083 7
E30  26279003.789 5  26279007.102 5 138097270.145 5 104469599.323 5
E34  25582385.891 6  25582389.570 8 134436343.504 6 101700236.646 8
E36  23301137.336 8  23301139.785 8 122448302.420 8  92631353.861 8
G01  22812922.914 4                  22812927.730 5 119882775.373 4                  93415110.271 5
G02  21145870.727 8  21145871.832 6                 111122301.222 8  86588811.418 6
G08  20295258.039 8                  20295265.582 8 106652342.133 8                  83105776.104 8
G10  21409821.938 8                  21409828.051 7 112509374.738 8                  87669643.438 7
G27  21657504.727 7                  21657511.270 7 113810954.061 7                  88683765.801 7
G32  22281289.508 7                  22281296.859 7 117088973.295 7                  91238162.768 7
R01  19874453.344 7                 106240348.592 7
R02  20305245.461 8  20305250.219 7 108352672.542 8  84274331.700 7
R17  19286950.758 8  19286954.883 7 103208377.076 8  80273387.379 7
R24  20633182.000 7  20633187.387 7 110334904.070 7  85815979.706 7
> 2025 06 15 10 46 55.0000000  0 21
C19  22329433.492 7 116275220.182 7
C20  23337240.586 7 121523135.396 7
C22  24850034.813 6 129400658.854 6
C29  23770518.727 6 123779321.052 6
E02  25736559.945 7  25736562.484 8 135246531.203 7 102313134.595 8
E04  25673755.242 7  25673757.594 8 134916492.215 7 102063460.547 8
E06  25317656.672 5  25317660.051 7 133045191.782 5 100647832.416 7
E11  25372184.313 7  25372184.008 7 133331722.616 7 100864583.203 7
E30  26277502.523 5  26277506.086 5 138089381.826 5 104463631.871 5
E34  25578915.094 6  25578919.027 7 134418105.632 6 101686439.902 7
E36  23299630.602 8  23299633.301 8 122440385.746 8  92625364.943 8
G01  22808694.203 4                  22808699.527 5 119860551.929 4                  93397793.305 5
G02  21143044.992 8  21143045.488 6                 111107448.813 8  86577238.117 6
G08  20294512.961 8                  20294520.484 8 106648426.811 8                  83102725.207 8
G10  21410175.656 8                  21410181.918 7 112511233.822 8                  87671092.065 7
G27  21658900.070 7                  21658907.027 7 113818287.883 7                  88689480.458 7
G32  22278109.320 7                  22278115.828 7 117072258.537 7                  91225138.294 7
R01  19874161.719 7                 106238791.768 7
R02  20301043.070 8  20301048.594 7 108330250.770 8  84256892.569 7
R17  19284442.414 8  19284446.762 7 103194956.542 8  80262949.193 7
R24  20634068.820 7  20634073.371 7 110339641.604 7  85819664.450 7
> 2025 06 15 10 47  0.0000000  0 20
C19  22326740.047 7 116261192.756 7
C20  23337474.375 7 121524353.165 7
C22  24845239.125 6 129375687.681 6
C29  23771685.383 6 123785399.821 6
E02  25737436.727 7  25737439.445 8 135251139.560 7 102316620.772 8
E04  25672311.250 7  25672313.422 8 134908902.479 7 102057718.952 8
E06  25314909.211 5  25314911.957 7 133030750.750 5 100636907.904 7
E11  25372656.656 7  25372656.402 7 133334204.798 7 100866460.946 7
E30  26276004.359 5  26276007.285 5 138081506.186 5 104457674.001 5
E34  25575445.445 7  25575448.996 7 134399870.771 7 101672645.374 7
E36  23298125.313 8  23298127.957 8 122432475.131 8  92619380.618 8
G02  21140219.750 8  21140220.801 6                 111092604.049 8  86565670.774 6
G08  20293771.047 8                  20293778.605 8 106644527.194 8                  83099686.565 8
G10  21410531.242 8                  21410537.426 7 112513103.248 8                  87672548.762 7
G27  21660297.766 7                  21660304.297 7 113825631.776 7                  88695202.960 7
G32  22274931.641 7                  22274937.816 7 117055557.147 7                  91212124.267 7
R01  19873875.047 7                 106237257.036 7
R02  20296845.039 8  20296849.754 7 108307846.305 8  84239466.880 7
R17  19281936.695 8  19281941.938 8 103181548.560 8  80252520.768 8
R24  20634956.445 7  20634961.695 7 110344389.777 7  85823357.473 7
> 2025 06 15 10 47  5.0000000  0 20
C19  22324049.281 7 116247180.437 7
C20  23337711.195 7 121525584.359 7
C22  24840444.750 6 129350721.813 6
C29  23772851.648 6 123791485.949 6
E02  25738314.469 7  25738318.023 8 135255756.700 7 102320113.603 8
E04  25670869.391 7  25670871.887 8 134901326.868 7 102051988.056 8
E06  25312162.445 5  25312166.211 7 133016322.463 5 100625992.930 7
E11  25373130.141 7  25373129.719 7 133336691.877 7 100868342.387 7
E30  26274508.953 5  26274511.023 5 138073644.582 5 104451726.754 5
E34  25571976.086 7  25571979.727 7 134381640.409 7 101658854.216 7
E36  23296621.461 8  23296624.047 8 122424571.985 8  92613401.945 8
G02  21137396.672 8  21137397.586 6                 111077768.344 8  86554110.489 6
G08  20293032.609 8                  20293039.645 8 106640644.723 8                  83096661.254 8
G10  21410888.883 7                  21410895.465 7 112514984.386 7                  87674014.601 7
G27  21661697.102 7                  21661703.746 7 113832987.159 7                  88700934.409 7
G32  22271755.172 7                  22271762.691 7 117038870.661 7                  91199121.822 7
R01  19873592.047 7                 106235745.931 7
R02  20292649.672 8  20292654.480 7 108285460.854 8  84222055.979 7
R17  19279434.281 8  19279438.766 8 103168154.693 8  80242103.316 8
R24  20635847.742 8  20635851.828 7 110349150.043 8  85827059.890 7
> 2025 06 15 10 47 10.0000000  0 20
C19  22321361.539 7 116233182.648 7
C20  23337950.664 7 121526828.417 7
C22  24835651.672 7 129325760.689 7
C29  23774023.227 6 123797578.767 6
E02  25739194.984 7  25739198.324 8 135260382.041 7 102323612.629 8
E04  25669430.727 7  25669432.965 8 134893764.834 7 102046267.428 8
E06  25309420.078 6  25309422.797 7 133001906.015 6 100615087.005 7
E11  25373603.602 7  25373603.863 7 133339183.282 7 100870227.106 7
E30  26273018.008 4  26273017.410 5 138065796.433 4 104445789.69615
E34  25568507.445 7  25568511.215 8 134363413.858 7 101645065.956 8
E36  23295118.813 8  23295121.422 8 122416675.742 8  92607428.484 8
G02  21134574.867 8  21134576.199 6                 111062941.096 8  86542556.798 6
G08  20292296.305 8                  20292303.918 8 106636778.775 8                  83093648.838 8
G10  21411249.359 7                  21411255.211 7 112516876.708 7                  87675489.140 7
G27  21663098.367 7                  21663105.121 7 113840353.408 7                  88706674.333 7
G32  22268582.953 7                  22268590.039 7 117022198.397 7                  91186130.471 7
R01  19873314.156 7                 106234257.756 7
R02  20288457.461 8  20288462.715 7 108263093.501 8  84204659.168 7
R17  19276935.039 8  19276938.449 7 103154774.344 8  80231696.394 7
R24  20636740.063 8  20636744.211 7 110353921.648 8  85830771.121 7
> 2025 06 15 10 47 15.0000000  0 20
C19  22318676.016 7 116219199.075 7
C20  23338191.148 7 121528085.003 7
C22  24830858.742 6 129300803.966 6
C29  23775194.539 6 123803678.033 6
E02  25740076.750 7  25740079.949 8 135265015.230 7 102327117.581 8
E04  25667993.672 7  25667996.453 8 134886216.027 7 102040556.797 8
E06  25306678.875 6  25306681.582 7 132987501.309 6 100604189.939 7
E11  25374078.695 7  25374078.707 7 133341678.674 7 100872114.828 7
E30  26271528.070 5  26271526.488 5 138057961.526 5 104439862.644 5
E34  25565040.508 7  25565043.426 8 134345190.876 7 101631280.418 8
E36  23293617.484 8  23293620.078 8 122408786.087 8  92601460.014 8
G02  21131754.555 8  21131756.465 6                 111048122.014 8  86531009.468 6
G08  20291563.930 8                  20291571.512 8 106632929.041 8                  83090649.036 8
G10  21411611.539 8                  21411617.633 7 112518779.847 8                  87676972.084 7
G27  21664502.016 7                  21664509.324 7 113847730.218 7                  88712422.486 7
G32  22265412.734 7                  22265420.273 7 117005540.095 7                  91173149.979 7
R01  19873040.656 7                 106232792.180 7
R02  20284269.352 8  20284274.973 7 108240744.133 8  84187276.326 7
R17  19274436.258 8  19274440.652 7 103141407.163 8  80221299.704 7
R24  20637633.016 7  20637638.750 7 110358704.475 7  85834491.092 7
> 2025 06 15 10 47 20.0000000  0 20
C19  22315993.914 8 116205232.128 8
C20  23338435.492 7 121529356.465 7
C22  24826067.586 7 129275854.045 7
C29  23776368.047 6 123809786.140 6
E02  25740960.734 7  25740963.625 8 135269658.660 7 102330630.316 8
E04  25666560.703 7  25666562.934 8 134878682.857 7 102034858.006 8
E06  25303939.555 6  25303943.145 7 132973110.707 6 100593303.550 7
E11  25374554.453 7  25374554.781 7 133344180.465 7 100874007.405 7
E30  26270037.664 5  26270038.539 5 138050142.226 5 104433947.387 5
E34  25561574.555 7  25561576.863 8 134326973.809 7 101617499.314 8
E36  23292118.281 8  23292120.465 8 122400905.380 8  92595498.311 8
G02  21128936.883 8  21128938.387 6                 111033313.488 8  86519470.356 6
G08  20290835.297 8                  20290842.340 8 106629097.918 8                  83087663.741 8
G10  21411976.125 8                  21411982.184 7 112520696.166 8                  87678465.325 7
G27  21665908.008 7                  21665915.609 7 113855119.960 7                  88718180.720 7
G32  22262245.305 7                  22262253.180 7 116988898.192 7                  91160182.264 7
R01  19872771.570 8                 106231351.533 8
R02  20280086.047 8  20280090.766 7 108218415.285 8  84169909.452 7
R17  19271940.484 8  19271945.254 7 103128055.551 8  80210915.111 7
R24  20638530.383 7  20638536.355 7 110363500.884 7  85838221.620 7
> 2025 06 15 10 47 25.0000000  0 20
C19  22313314.180 8 116191280.323 8
C20  23338681.969 7 121530641.371 7
C22  24821277.195 7 129250909.506 7
C29  23777542.375 6 123815901.547 6
E02  25741846.219 7  25741848.926 8 135274310.868 7 102334149.662 8
E04  25665130.023 7  25665132.164 8 134871163.825 7 102029169.899 8
E06  25301204.547 6  25301207.090 7 132958732.722 6 100582426.675 7
E11  25375032.203 7  25375031.785 7 133346687.164 7 100875903.698 7
E30  26268552.156 4  26268553.320 5 138042336.93814 104428042.71615
E34  25558108.008 7  25558111.203 8 134308761.225 7 101603721.598 8
E36  23290619.844 8  23290622.285 8 122393032.177 8  92589542.277 8
G02  21126120.680 8  21126122.309 6                 111018514.039 8  86507938.331 6
G08  20290109.563 8                  20290116.211 8 106625283.925 8                  83084691.783 8
G10  21412342.773 8                  21412348.836 7 112522624.249 8                  87679967.715 7
G27  21667316.844 7                  21667324.664 7 113862521.105 7                  88723947.858 7
G32  22259082.750 7                  22259088.813 7 116972271.173 7                  91147226.111 7
R01  19872504.531 7                 106229934.512 7
R02  20275904.953 8  20275910.367 7 108196105.183 8  84152557.128 7
R17  19269447.578 8  19269452.688 7 103114718.051 8  80200541.517 7
R24  20639429.805 8  20639434.973 7 110368309.377 8  85841961.544 7
> 2025 06 15 10 47 30.0000000  0 20
C19  22310636.828 7 116177342.253 7
C20  23338931.086 7 121531938.261 7
C22  24816488.633 7 129225968.889 7
C29  23778718.523 6 123822022.916 6
E02  25742732.609 7  25742735.664 8 135278970.404 7 102337674.576 8
E04  25663701.477 7  25663703.723 8 134863657.548 7 102023491.445 8
E06  25298470.992 6  25298473.246 7 132944365.981 6 100571558.325 7
E11  25375509.336 7  25375509.410 7 133349197.369 7 100877802.644 7
E30  26267067.914 4                                
E34  25554642.453 7  25554645.906 8 134290551.649 7 101589946.166 8
E36  23289122.391 8  23289125.164 8 122385165.032 8  92583590.837 8
G02  21123305.078 7  21123307.406 6                 111003722.285 7  86496412.282 6
G08  20289386.445 8                  20289393.633 8 106621485.621 8                  83081732.065 8
G10  21412711.922 8                  21412717.785 7 112524562.595 8                  87681478.115 7
G27  21668727.188 7                  21668735.273 7 113869932.294 7                  88729722.800 7
G32  22255921.805 7                  22255927.695 7 116955657.615 7                  91134280.500 7
R01  19872244.289 7                 106228539.483 7
R02  20271727.766 8  20271732.543 7 108173812.729 8  84135218.573 7
R17  19266957.500 8  19266963.297 7 103101393.240 8  80190177.767 7
R24  20640331.023 8  20640336.129 7 110373128.420 8  85845709.648 7
> 2025 06 15 10 47 35.0000000  0 20
C19  22307963.219 7 116163419.163 7
C20  23339182.594 7 121533248.371 7
C22  24811699.219 7 129201033.489 7
C29  23779897.422 6 123828151.388 6
E02  25743620.641 7  25743624.039 8 135283638.530 7 102341205.966 8
E04  25662275.539 7  25662277.926 8 134856165.236 7 102017823.563 8
E06  25295737.188 6  25295741.820 7 132930011.614 6 100560699.366 7
E11  25375988.094 7  25375987.984 7 133351712.302 7 100879705.167 7
E34  25551178.828 7  25551181.559 8 134272346.349 7 101576173.976 8
E36  23287626.953 8  23287629.543 8 122377305.239 8  92577644.956 8
G02  21120491.703 7  21120494.109 6                 110988939.450 7  86484893.189 6
G08  20288666.578 8                  20288673.980 8 106617704.298 8                  83078785.581 8
G10  21413082.680 8                  21413088.746 7 112526512.478 8                  87682997.522 7
G27  21670140.125 7                  21670147.680 7 113877354.747 7                  88735506.514 7
G32  22252762.344 7                  22252768.957 7 116939058.753 7                  91121346.340 7
R01  19871988.594 7                 106227167.654 7
R02  20267552.797 8  20267557.984 7 108151539.046 8  84117894.614 7
R16  22329859.266 4                                
R17  19264470.313 8  19264475.707 8 103088082.416 8  80179824.884 8
R24  20641235.203 8  20641240.008 7 110377959.429 8  85849467.073 7
> 2025 06 15 10 47 40.0000000  0 19
C19  22305292.461 7 116149512.664 7
C20  23339437.203 7 121534573.348 7
C22  24806911.563 7 129176104.943 7
C29  23781076.789 6 123834288.724 6
E02  25744511.031 7  25744514.293 8 135288316.864 7 102344745.087 8
E04  25660852.594 7  25660855.086 8 134848688.547 7 102012167.495 8
E06  25293008.180 6  25293013.043 7 132915671.386 6 100549851.077 7
E11  25376468.414 7  25376467.742 7 133354233.638 7 100881612.532 7
E34  25547714.883 7  25547718.438 8 134254146.997 7 101562406.289 8
E36  23286132.656 8  23286135.605 8 122369454.405 8  92571705.848 8
G02  21117680.797 7  21117683.141 6                 110974167.135 7  86473382.316 6
G08  20287950.852 8                  20287958.105 8 106613941.579 8                  83075853.572 8
G10  21413456.359 8                  21413462.336 7 112528475.548 8                  87684527.173 7
G27  21671554.805 7                  21671562.715 7 113884790.097 7                  88741300.259 7
G32  22249606.445 7                  22249613.297 7 116922476.303 7                  91108424.991 7
R01  19871736.391 8                 106225820.899 8
R02  20263382.430 8  20263388.539 7 108129285.725 8  84100586.480 7
R17  19261985.359 8  19261990.586 7 103074787.257 8  80169484.211 7
R24  20642140.125 8  20642145.078 7 110382803.976 8  85853235.085 7
> 2025 06 15 10 47 45.0000000  0 19
C19  22302625.391 7 116135622.316 7
C20  23339694.336 7 121535912.653 7
C22  24802125.492 7 129151182.717 7
C29  23782254.688 6 123840434.351 6
E02  25745402.883 7  25745406.406 8 135293004.935 7 102348291.562 8
E04  25659432.367 7  25659435.164 8 134841227.021 7 102006522.900 8
E06  25290282.500 6  25290286.793 7 132901344.737 6 100539013.087 7
E11  25376949.438 7  25376948.652 7 133356760.863 7 100883524.332 7
E34  25544252.898 7  25544256.238 8 134235953.039 7 101548642.711 8
E36  23284640.500 8  23284643.238 8 122361612.041 8  92565773.143 8
G02  21114872.219 7  21114874.125 6                 110959404.885 7  86461879.288 6
G08  20287238.555 8                  20287245.691 8 106610196.921 8                  83072935.668 8
G10  21413831.930 8                  21413838.508 7 112530451.285 8                  87686066.683 7
G27  21672972.344 7                  21672980.305 7 113892237.835 7                  88747103.665 7
G32  22246453.078 7                  22246460.836 7 116905909.769 7                  91095516.003 7
R01  19871488.352 7                 106224498.541 7
R02  20259216.695 8  20259221.645 7 108107052.416 8  84083293.940 7
R17  19259504.453 8  19259508.891 7 103061507.160 8  80159155.251 7
R24  20643048.773 8  20643054.168 7 110387661.546 8  85857013.179 7
> 2025 06 15 10 47 50.0000000  0 19
C19  22299960.703 7 116121747.503 7
C20  23339954.922 7 121537265.731 7
C22  24797340.539 7 129126266.307 7
C29  23783436.797 6 123846587.689 6
E02  25746296.906 7  25746300.230 8 135297702.100 7 102351844.927 8
E04  25658015.828 7  25658017.938 8 134833780.020 7 102000889.293 8
E06  25287559.039 6  25287563.152 7 132887031.177 6 100528184.946 7
E11  25377430.813 7  25377430.527 7 133359293.358 7 100885440.148 7
E34  25540790.984 7  25540795.082 8 134217763.947 7 101534882.803 8
E36  23283149.445 8  23283152.359 8 122353777.538 8  92559846.410 8
G02  21112064.539 7  21112066.961 6                 110944652.151 7  86450383.659 6
G08  20286528.953 8                  20286536.488 8 106606469.778 8                  83070031.412 8
G10  21414210.141 8                  21414216.910 7 112532439.088 8                  87687615.640 7
G27  21674391.211 7                  21674399.324 7 113899697.351 7                  88752916.246 7
G32  22243303.461 7                  22243311.020 7 116889358.620 7                  91082618.975 7
R01  19871245.094 7                 106223200.129 7
R02  20255053.484 8  20255058.750 7 108084838.432 8  84066016.391 7
R17  19257026.367 8  19257030.445 7 103048241.660 8  80148837.651 7
R24  20643960.008 8  20643964.336 7 110392531.536 8  85860800.957 7
> 2025 06 15 10 47 55.0000000  0 19
C19  22297299.000 7 116107887.279 7
C20  23340216.797 7 121538631.641 7
C22  24792556.078 7 129101354.711 7
C29  23784619.703 6 123852747.786 6
E02  25747192.469 7  25747195.563 8 135302407.431 7 102355404.463 8
E04  25656601.430 7  25656603.352 8 134826346.620 7 101995265.984 8
E06  25284837.641 7  25284841.680 7 132872729.677 7 100517365.952 7
E11  25377913.492 7  25377913.309 7 133361830.210 7 100887359.231 7
E34  25537329.703 7  25537334.582 8 134199578.771 7 101521125.841 8
E36  23281660.047 8  23281662.781 8 122345949.986 8  92553924.907 8
G02  21109258.617 8  21109261.047 6                 110929907.946 8  86438894.675 6
G08  20285823.414 8                  20285830.254 8 106602759.185 8                  83067140.040 8
G10  21414591.172 7                  21414597.559 7 112534438.017 7                  87689173.238 7
G27  21675812.906 7                  21675820.898 7 113907167.716 7                  88758737.280 7
G32  22240157.445 7                  22240164.484 7 116872821.745 7                  91069733.138 7
R01  19871007.508 8                 106221924.470 8
R02  20250893.461 8  20250899.387 7 108062643.038 8  84048753.311 7
R17  19254550.281 8  19254553.418 7 103034989.819 8  80138530.649 7
R24  20644870.813 7  20644877.340 7 110397413.001 7  85864597.676 7
> 2025 06 15 10 48  0.0000000  0 21
C19  22294640.016 7 116094041.507 7
C20  23340481.094 7 121540010.157 7
C22  24787772.883 7 129076447.820 7
C29  23785801.547 5 123858914.507 5
E02  25748089.547 7  25748092.422 8 135307120.694 7 102358970.007 8
E04  25655189.039 7  25655191.445 8 134818926.600 7 101989652.792 8
E06  25282117.961 6  25282122.449 7 132858440.103 6 100506555.988 7
E11  25378397.242 7  25378396.863 7 133364371.229 7 100889281.495 7
E30  26258228.688 5                 137987951.24715
E34  25533870.336 7  25533874.762 8 134181397.312 7 101507371.688 8
E36  23280171.820 8  23280174.512 8 122338129.176 8  92548008.523 8
G01  22753811.188 5                                 119572095.97915                
G02  21106454.859 8  21106457.242 6                 110915172.119 8  86427412.212 6
G08  20285119.836 8                  20285127.246 8 106599064.987 8                  83064261.437 8
G10  21414973.859 8                  21414979.754 7 112536447.845 8                  87690739.332 7
G27  21677236.289 7                  21677244.602 8 113914648.652 7                  88764566.604 8
G32  22237013.391 7                  22237020.336 7 116856299.157 7                  91056858.415 7
R01  19870771.953 7                 106220671.466 7
R02  20246737.406 8  20246743.367 7 108040465.876 8  84031504.422 7
R17  19252076.617 8  19252080.168 7 103021751.314 8  80128234.021 7
R24  20645786.695 7  20645792.273 7 110402305.648 7  85868403.067 7
> 2025 06 15 10 48  5.0000000  0 21
C19  22291983.547 8 116080206.711 8
C20  23340748.195 7 121541397.844 7
C22  24782989.898 7 129051542.135 7
C29  23786987.461 5 123865084.236 5
E02  25748986.320 7  25748990.211 8 135311838.434 7 102362538.947 8
E04  25653778.547 7  25653781.352 8 134811516.557 7 101984047.129 8
E06  25279400.680 6  25279404.766 7 132844158.955 6 100495752.382 7
E11  25378880.805 7  25378880.543 7 133366912.936 7 100891204.272 7
E30  26256763.531 5  26256765.105 4 137980254.66115 104381147.69414
E34  25530410.828 7  25530415.109 8 134163216.080 7 101493617.752 8
E36  23278684.438 8  23278686.820 8 122330311.638 8  92542094.608 8
G01  22749596.555 5                  22749600.246 5 119549946.660 5                  93155799.88515
G02  21103652.664 8  21103654.070 6                 110900441.155 8  86415933.540 6
G08  20284420.086 8                  20284426.457 8 106595383.680 8                  83061392.869 8
G10  21415357.883 8                  21415363.852 7 112538465.113 8                  87692311.223 7
G27  21678661.805 7                  21678669.820 7 113922136.776 7                  88770401.508 7
G32  22233870.797 7                  22233878.813 7 116839787.290 7                  91043992.033 7
R01  19870541.602 7                 106219437.637 7
R02  20242585.039 8  20242589.645 7 108018303.399 8  84014266.920 7
R17  19249603.945 8  19249607.680 7 103008522.628 8  80117945.049 7
R24  20646702.781 8  20646708.820 7 110407206.238 8  85872214.613 7
> 2025 06 15 10 48 10.0000000  0 21
C19  22289329.820 8 116066386.536 8
C20  23341016.820 7 121542798.323 7
C22  24778207.563 6 129026641.367 6
C29  23788174.359 5 123871260.784 5
E02  25749885.688 7  25749889.582 8 135316564.360 7 102366114.055 8
E04  25652371.391 7  25652373.801 8 134804120.099 7 101978451.754 8
E06  25276685.133 6  25276689.328 7 132829889.944 6 100484957.985 7
E11  25379365.266 7  25379365.039 7 133369459.019 7 100893130.354 7
E30  26255298.156 5                 137972571.48415
E34  25526952.609 7  25526956.121 8 134145038.786 7 101479866.752 8
E36  23277198.148 8  23277200.531 8 122322501.070 8  92536185.964 8
G01  22745382.602 5                  22745387.094 5 119527802.547 5                  93138544.727 5
G02  21100851.234 8  21100852.590 6                 110885718.744 8  86404461.529 6
G08  20283722.047 8                  20283729.582 8 106591718.951 8                  83058537.221 8
G10  21415743.313 8                  21415749.344 7 112540493.496 8                  87693891.763 7
G27  21680088.688 7                  21680096.840 7 113929635.738 7                  88776244.843 7
G32  22230731.188 7                  22230739.668 7 116823289.855 7                  91031136.914 7
R01  19870314.797 7                 106218226.677 7
R02  20238434.891 8  20238439.969 7 107996159.460 8  83997043.886 7
R17  19247134.352 8  19247138.344 7 102995307.614 8  80107666.708 7
R24  20647620.922 7  20647627.043 7 110412118.250 7  85876035.070 7
> 2025 06 15 10 48 15.0000000  0 21
C19  22286677.500 8 116052580.696 8
C20  23341288.008 7 121544211.297 7
C22  24773426.500 6 129001745.179 6
C29  23789363.016 5 123877443.791 5
E02  25750786.813 7  25750790.305 8 135321298.048 7 102369695.046 8
E04  25650966.727 7  25650968.867 8 134796736.972 7 101972866.449 8
E06  25273971.961 6  25273976.266 7 132815632.740 6 100474172.477 7
E11  25379851.523 7  25379850.324 7 133372009.109 7 100895059.492 7
E30  26253839.758 5                 137964901.659 5
E34  25523494.258 7  25523497.727 7 134126865.110 7 101466118.468 7
E36  23275713.180 8  23275715.465 8 122314697.112 8  92530282.323 8
G01  22741168.805 5                  22741174.715 5 119505663.393 5                  93121293.372 5
G02  21098050.891 8  21098052.313 6                 110871004.604 8  86392995.971 6
G08  20283027.766 8                  20283035.395 8 106588070.435 8                  83055694.218 8
G10  21416132.273 8                  21416137.320 7 112542532.625 8                  87695480.699 7
G27  21681517.406 7                  21681525.688 7 113937145.188 7                  88782096.345 7
G32  22227593.977 7                  22227602.703 7 116806806.556 7                  91018292.752 7
R01  19870093.047 7                 106217038.359 7
R02  20234288.313 8  20234293.762 7 107974033.796 8  83979835.023 7
R17  19244666.305 8  19244670.910 7 102982105.867 8  80097398.712 7
R24  20648542.758 8  20648547.723 7 110417041.438 8  85879864.185 7
> 2025 06 15 10 48 20.0000000  0 21
C19  22284029.438 8 116038789.965 8
C20  23341561.750 7 121545637.499 7
C22  24768647.828 6 128976854.333 6
C29  23790551.438 6 123883633.987 6
E02  25751689.391 7  25751692.813 8 135326040.358 7 102373282.561 8
E04  25649564.789 7  25649566.504 8 134789367.835 7 101967291.763 8
E06  25271262.133 6  25271265.582 7 132801388.147 6 100463396.547 7
E11  25380337.094 7  25380336.523 7 133374564.061 7 100896992.274 7
E30  26252383.188 5  26252387.652 4 137957245.891 5 104363746.20814
E34  25520036.102 7  25520040.262 8 134108695.869 7 101452373.550 8
E36  23274228.859 8  23274231.891 8 122306900.582 8  92524384.298 8
G01  22736956.984 4                                                                
G02  21095252.484 8  21095254.383 6                 110856299.508 8  86381537.452 6
G08  20282336.828 8                  20282344.289 8 106584438.965 8                  83052864.505 8
G10  21416521.820 8                  21416528.320 7 112544583.338 8                  87697078.644 7
G27  21682949.391 7                  21682956.594 7 113944665.890 7                  88787956.585 7
G32  22224460.805 7                  22224468.695 7 116790338.186 7                  91005460.256 7
R01  19869875.727 7                 106215873.243 7
R02  20230146.000 8  20230150.813 7 107951926.990 8  83962640.876 7
R17  19242201.703 8  19242206.543 7 102968918.294 8  80087141.732 7
R24  20649465.086 8  20649470.672 7 110421976.501 8  85883702.530 7
> 2025 06 15 10 48 25.0000000  0 20
C19  22281383.781 7 116025014.451 7
C20  23341839.031 7 121547077.086 7
C22  24763870.063 6 128951969.009 6
C29  23791741.648 6 123889831.501 6
E02  25752592.602 7  25752596.941 8 135330791.407 7 102376876.650 8
E04  25648165.273 7  25648166.922 8 134782012.953 7 101961727.834 8
E06  25268553.617 6  25268557.504 7 132787156.253 6 100452630.219 7
E11  25380824.188 7  25380823.668 7 133377123.924 7 100898928.777 7
E34  25516580.094 7  25516583.516 8 134090531.061 7 101438631.978 8
E36  23272747.133 8  23272749.676 9 122299111.588 8  92518491.967 9
G01  22732746.383 5                  22732751.840 6 119461402.21815                  93086804.14516
G02  21092456.000 8  21092457.813 6                 110841603.592 8  86370086.065 6
G08  20281649.633 8                  20281656.336 8 106580824.662 8                  83050048.159 8
G10  21416914.539 8                  21416920.363 7 112546645.704 8                  87698685.685 7
G27  21684382.367 7                  21684389.984 7 113952197.964 7                  88793825.722 7
G32  22221330.875 7                  22221337.918 7 116773884.886 7                  90992639.512 7
R01  19869662.047 7                 106214731.528 7
R02  20226005.953 8  20226011.797 7 107929839.377 8  83945461.645 7
R17  19239740.281 8  19239744.844 7 102955744.981 8  80076895.816 7
R24  20650390.734 8  20650395.742 7 110426923.761 8  85887550.391 7
> 2025 06 15 10 48 30.0000000  0 21
C19  22278741.172 7 116011253.028 7
C20  23342117.750 7 121548528.893 7
C22  24759091.148 6 128927088.102 6
C29  23792931.563 6 123896035.311 6
E02  25753498.203 7  25753502.328 8 135335549.938 7 102380476.462 8
E04  25646768.188 7  25646769.863 8 134774671.126 7 101956173.784 8
E06  25265847.234 7  25265851.496 7 132772935.954 7 100441872.647 7
E11  25381311.898 7  25381311.543 7 133379687.601 7 100900868.180 7
E30  26249478.000 5                 137941977.42515
E34  25513122.461 7  25513127.551 8 134072369.665 7 101424893.001 8
E36  23271266.234 8  23271268.723 8 122291329.008 8  92512604.491 8
G01  22728538.070 5                  22728542.676 6 119439279.120 5                  93069565.413 6
G02  21089660.523 8  21089663.121 6                 110826915.678 8  86358640.936 6
G08  20280964.430 8                  20280971.367 8 106577226.347 8                  83047244.278 8
G10  21417308.094 8                  21417315.109 7 112548718.567 8                  87700300.884 7
G27  21685818.492 7                  21685825.523 7 113959740.281 7                  88799702.832 7
G32  22218203.125 7                  22218209.629 7 116757445.472 7                  90979829.535 7
R01  19869452.117 7                 106213612.098 7
R02  20221871.023 8  20221876.008 7 107907769.764 8  83928296.397 7
R17  19237281.445 8  19237285.703 7 102942584.698 8  80066660.009 7
R24  20651318.453 8  20651322.797 7 110431881.735 8  85891406.610 7
> 2025 06 15 10 48 35.0000000  0 21
C19  22276102.164 7 115997506.293 7
C20  23342398.234 7 121549993.483 7
C22  24754314.305 6 128902212.152 6
C29  23794124.008 5 123902245.865 5
E02  25754406.133 7  25754409.402 8 135340316.690 7 102384082.466 8
E04  25645373.453 7  25645375.270 8 134767342.927 7 101950630.034 8
E06  25263143.961 7  25263147.711 7 132758727.848 7 100431124.305 7
E11  25381801.023 7  25381800.273 7 133382255.674 7 100902810.914 7
E30  26248027.641 4  26248032.797 6 137934362.34114 104346433.46516
E34  25509668.898 7  25509672.336 8 134054212.233 7 101411157.047 8
E36  23269786.391 8  23269789.039 8 122283553.404 8  92506722.288 8
G01  22724328.906 5                                                                
G02  21086867.656 8  21086870.004 6                 110812236.367 8  86347202.505 6
G08  20280282.500 8                  20280289.758 8 106573644.641 8                  83044453.347 8
G10  21417704.883 8                  21417711.488 7 112550802.548 8                  87701924.764 7
G27  21687255.266 8                  21687262.871 7 113967293.410 8                  88805588.365 7
G32  22215076.250 7                  22215083.879 7 116741020.527 7                  90967030.897 7
R01  19869247.367 7                 106212515.535 7
R02  20217738.633 8  20217742.582 7 107885718.601 8  83911145.502 7
R17  19234824.617 8  19234828.754 7 102929438.124 8  80056434.896 7
R24  20652246.352 8  20652252.668 7 110436851.280 8  85895271.777 7
> 2025 06 15 10 48 40.0000000  0 21
C19  22273464.797 7 115983776.088 7
C20  23342682.867 7 121551472.708 7
C22  24749537.180 7 128877343.025 7
C29  23795320.695 5 123908465.008 5
E02  25755315.289 7  25755318.238 8 135345093.363 7 102387695.964 8
E04  25643982.383 7  25643983.805 8 134760030.221 7 101945098.016 8
E06  25260443.211 7  25260446.676 7 132744533.770 7 100420386.562 7
E11  25382290.727 7  25382290.238 7 133384829.975 7 100904758.345 7
E30  26246582.172 4  26246586.734 6 137926762.71914 104340684.31816
E34  25506214.375 7  25506218.039 8 134036060.564 7 101397425.426 8
E36  23268308.656 8  23268311.063 8 122275786.617 8  92500846.773 8
G01  22720125.570 5                  22720126.785 5 119395050.48815                  93035101.60715
G02  21084076.039 7  21084078.574 6                 110797567.512 7  86335772.230 6
G08  20279605.141 8                  20279611.594 8 106570081.373 8                  83041676.772 8
G10  21418104.422 8                  21418110.359 7 112552899.446 8                  87703558.692 7
G27  21688694.688 7                  21688702.828 8 113974859.139 7                  88811483.737 8
G32  22211953.688 7                  22211961.008 7 116724611.942 7                  90954244.977 7
R01  19869047.258 7                 106211443.648 7
R02  20213610.070 8  20213613.969 7 107863688.171 8  83894010.728 7
R17  19232370.461 8  19232375.105 7 102916307.131 8  80046221.897 7
R24  20653178.289 7  20653183.965 7 110441834.214 7  85899147.406 7
> 2025 06 15 10 48 45.0000000  0 20
C19  22570623.680 7 117531160.794 7
C20  23642761.406 7 123114061.889 7
C22  25044554.570 6 130413581.314 6
C29  24096308.086 6 125475787.155 6
E02  26056018.438 7  26056020.988 8 136925296.693 7 103583109.493 8
E04  25942385.703 7  25942387.531 8 136328152.098 7 103131372.026 8
E06  25557536.461 7  25557540.809 7 134305774.218 7 101601454.840 7
E11  25682573.844 7  25682573.207 7 134962827.626 7 102098503.327 7
E30  26544929.727 5  26544935.816 6 139494597.87715 105526741.38816
E34  25802553.961 7  25802557.699 8 135593336.009 7 102575494.216 8
E36  23566624.391 8  23566627.105 8 123843447.863 8  93686772.327 8
G02  21381079.211 8  21381081.750 6                 112358329.687 8  87551950.554 6
G08  20578722.406 8                  20578729.430 8 108141954.878 8                  84266513.281 8
G10  21718298.484 8                  21718304.047 7 114130426.480 8                  88932800.534 7
G27  21989927.727 7                  21989936.188 8 115557853.639 7                  90044985.929 8
G32  22508626.789 7                  22508634.230 7 118283640.678 7                  92169072.582 7
R01  20168643.500 7                 107812956.737 7
R02  20509277.383 8  20509282.410 7 109441430.239 8  85121143.429 7
R17  19529712.758 8  19529717.000 8 104507442.051 8  81283771.271 8
R24  20953905.414 7  20953910.230 7 112049952.138 7  87149905.803 7
> 2025 06 15 10 48 50.0000000  0 20
C19  22567992.633 7 117517460.546 7
C20  23643050.914 7 123115567.221 7
C22  25039780.305 6 130388722.739 6
C29  24097505.906 6 125482020.414 6
E02  26056930.523 7  26056933.121 8 136930090.121 7 103586735.690 8
E04  25940999.813 7  25941001.387 8 136320867.253 7 103125861.084 8
E06  25554841.031 7  25554844.434 7 134291605.072 7 101590735.958 7
E11  25683065.633 7  25683064.895 7 134965411.267 7 102100457.826 7
E30  26543490.883 5  26543495.039 6 139487025.956 5 105521013.281 6
E34  25799101.531 7  25799105.160 8 135575192.880 7 102561769.059 8
E36  23565149.422 8  23565151.918 8 123835695.623 8  93680907.809 8
G02  21378291.313 7  21378293.582 6                 112343678.642 7  87540534.166 6
G08  20578050.813 8                  20578057.645 8 108138425.358 8                  84263763.005 8
G10  21718701.195 8                  21718707.504 7 114132546.092 8                  88934452.187 7
G27  21991371.789 7                  21991379.777 7 115565441.530 7                  90050898.560 7
G32  22505510.344 7                  22505517.406 7 118267261.754 7                  92156309.816 7
R01  20168452.211 8                 107811931.039 8
R02  20505157.336 8  20505161.082 7 109419437.596 8  85104038.038 7
R17  19527262.656 8  19527268.090 7 104494339.063 8  81273580.095 7
R24  20954841.766 7  20954847.012 7 112054958.664 7  87153799.757 7
> 2025 06 15 10 48 55.0000000  0 20
C19  22565364.703 8 117503775.925 8
C20  23643342.453 7 123117086.255 7
C22  25035008.344 6 130363870.072 6
C29  24098703.406 6 125488261.427 6
E02  26057844.828 7  26057847.035 8 136934892.700 7 103590368.795 8
E04  25939615.992 7  25939617.871 8 136313596.997 7 103120361.187 8
E06  25552147.031 7  25552150.617 7 134277449.136 7 101580027.086 7
E11  25683558.383 7  25683557.598 7 134968000.215 7 102102416.348 7
E30  26542053.352 5  26542057.133 6 139479468.647 5 105515296.240 6
E34  25795649.875 7  25795653.480 8 135557054.656 7 102548047.619 8
E36  23563675.758 8  23563678.238 9 123827951.340 8  93675049.313 9
G02  21375504.820 8  21375507.113 6                 112329037.186 8  87529125.237 6
G08  20577382.328 8                  20577389.477 8 108134913.378 8                  84261026.385 8
G10  21719106.781 8                  21719113.000 7 114134677.724 8                  88936113.191 7
G27  21992818.352 7                  21992826.035 7 115573041.132 7                  90056820.331 7
G32  22502397.227 7                  22502404.004 7 118250898.345 7                  92143559.103 7
R01  20168264.211 8                 107810929.057 8
R02  20501037.789 8  20501043.492 7 109397464.629 8  85086947.965 7
R17  19524817.727 8  19524822.422 7 104481250.797 8  81263400.338 7
R24  20955779.664 7  20955785.797 7 112059977.597 7  87157703.375 7
> 2025 06 15 10 49  0.0000000  0 20
C19  22562739.609 8 117490106.475 8
C20  23643636.883 7 123118618.513 7
C22  25030236.922 6 130339022.938 6
C29  24099904.086 6 125494509.629 6
E02  26058759.836 7  26058762.715 8 136939703.764 7 103594008.326 8
E04  25938235.367 7  25938237.012 8 136306340.851 7 103114871.971 8
E06  25549455.398 7  25549459.223 8 134263305.824 7 101569327.773 8
E11  25684051.578 7  25684051.195 7 134970594.036 7 102104378.548 7
E30  26540617.945 5  26540621.988 6 139471925.355 5 105509589.81916
E34  25792199.328 7  25792202.773 8 135538920.875 7 102534329.536 8
E36  23562203.375 8  23562205.965 8 123820214.510 8  93669196.450 8
G02  21372719.867 7  21372722.449 6                 112314404.823 7  87517723.403 6
G08  20576717.398 8                  20576724.730 8 108131418.430 8                  84258303.050 8
G10  21719515.102 8                  21719520.375 7 114136820.861 8                  88937783.182 7
G27  21994266.461 7                  21994274.766 7 115580652.000 7                  90062750.845 7
G32  22499286.336 7                  22499292.742 7 118234549.926 7                  92130820.102 7
R01  20168080.547 8                 107809950.289 8
R02  20496924.102 8  20496930.117 7 109375510.832 8  85069872.793 7
R17  19522375.359 8  19522379.082 7 104468176.713 8  81253231.590 7
R24  20956721.313 7  20956726.512 7 112065008.465 7  87161616.270 7
> 2025 06 15 10 49  5.0000000  0 21
C19  22560117.500 7 117476451.838 7
C20  23643933.859 7 123120163.609 7
C22  25025466.531 6 130314180.885 6
C29  24101104.680 6 125500764.736 6
E02  26059676.406 7  26059679.789 8 136944523.014 7 103597654.063 8
E04  25936857.422 7  25936858.855 8 136299098.459 7 103109393.144 8
E06  25546766.781 7  25546770.223 8 134249174.858 7 101558637.787 8
E11  25684545.867 7  25684545.691 7 134973192.338 7 102106344.136 7
E30  26539185.570 5  26539189.324 6 139464395.834 5 105503893.779 6
E34  25788749.453 7  25788752.879 8 135520791.214 7 102520614.571 8
E36  23560732.445 8  23560735.047 8 123812484.758 8  93663348.946 8
G02  21369937.578 8  21369939.609 6                 112299781.190 8  87506328.377 6
G08  20576055.609 8                  20576062.453 8 108127940.186 8                  84255592.724 8
G10  21719924.945 8                  21719930.684 7 114138975.147 8                  88939461.842 7
G27  21995716.203 7                  21995725.094 7 115588273.688 7                  90068689.807 7
G32  22496177.992 7                  22496184.324 7 118218216.212 7                  92118092.536 7
R01  20167901.469 7                 107808994.491 7
R02  20492813.484 8  20492819.559 7 109353575.663 8  85052812.120 7
R16  22629242.656 5  22629229.406 4 120881196.27815  94018778.59914
R17  19519933.719 8  19519938.203 7 104455116.573 8  81243073.711 7
R24  20957663.563 7  20957669.141 7 112070050.919 7  87165538.187 7
> 2025 06 15 10 49 10.0000000  0 20
C19  22557497.914 7 117462811.460 7
C20  23644233.211 7 123121721.032 7
C22  25020696.961 6 130289343.455 6
C29  24102307.484 6 125507026.090 6
E02  26060595.117 7  26060598.297 8 136949349.945 7 103601305.586 8
E04  25935481.992 7  25935483.148 8 136291869.249 7 103103924.282 8
E06  25544079.281 7  25544083.406 7 134235055.667 7 101547956.725 7
E11  25685041.172 7  25685040.875 7 134975794.620 7 102108312.730 7
E30  26537752.453 5  26537759.410 6 139456879.434 5 105498207.67016
E34  25785300.180 7  25785303.664 8 135502665.022 7 102506902.237 8
E36  23559262.500 8  23559265.383 8 123804761.558 8  93657506.395 8
G02  21367156.516 7  21367158.473 6                 112285165.768 7  87494939.722 6
G08  20575396.930 8                  20575403.824 8 108124478.079 8                  84252894.980 8
G10  21720336.469 8                  21720343.090 7 114141140.025 8                  88941148.760 7
G27  21997168.734 7                  21997177.414 7 115595905.657 7                  90074636.809 7
G32  22493071.648 7                  22493079.063 7 118201896.587 7                  92105375.964 7
R01  20167726.281 8                 107808061.068 8
R02  20488706.938 8  20488712.371 7 109331658.806 8  85035765.715 7
R17  19517496.383 8  19517499.934 7 104442069.723 8  81232926.132 7
R24  20958608.773 7  20958613.723 7 112075104.467 7  87169468.746 7
> 2025 06 15 10 49 15.0000000  0 20
C19  22554881.680 7 117449184.330 7
C20  23644533.820 7 123123289.709 7
C22  25015927.367 7 130264509.587 7
C29  24103511.117 6 125513292.813 6
E02  26061515.188 7  26061518.020 8 136954183.428 7 103604962.082 8
E04  25934108.039 7  25934109.816 8 136284652.191 7 103098464.646 8
E06  25541394.828 7  25541398.668 7 134220947.224 7 101537283.785 7
E11  25685537.273 7  25685536.648 7 134978399.748 7 102110283.481 7
E30  26536328.211 4  26536331.871 6 139449375.25714 105492530.72416
E34  25781851.305 7  25781854.875 8 135484541.356 7 102493191.807 8
E36  23557793.734 8  23557796.738 8 123797043.850 8  93651668.000 8
G02  21364376.477 8  21364378.285 6                 112270557.492 8  87483556.664 6
G08  20574740.453 8                  20574747.715 8 108121031.067 8                  84250208.995 8
G10  21720750.148 8                  21720756.621 7 114143314.456 8                  88942843.129 7
G27  21998623.117 7                  21998631.809 7 115603546.897 7                  90080590.987 7
G32  22489968.398 7                  22489975.625 7 118185590.093 7                  92092669.639 7
R01  20167556.500 8                 107807148.818 8
R02  20484602.906 8  20484608.266 7 109309759.294 8  85018732.780 7
R17  19515061.141 8  19515064.227 7 104429035.157 8  81222788.148 7
R24  20959555.594 7  20959561.125 7 112080167.939 7  87173406.980 7
> 2025 06 15 10 49 20.0000000  0 21
C19  22552267.977 7 117435572.282 7
C20  23644837.813 7 123124871.466 7
C22  25011159.180 7 130239681.151 7
C29  24104716.063 6 125519566.575 6
E02  26062436.969 7  26062439.359 8 136959025.362 7 103608624.954 8
E04  25932737.055 7  25932739.141 8 136277449.178 7 103093015.611 8
E06  25538712.453 7  25538716.270 7 134206851.355 7 101526620.345 7
E11  25686033.820 7  25686033.301 7 134981009.646 7 102112257.836 7
E30  26534905.094 4  26534906.594 6 139441885.00014 105486864.35616
E34  25778401.953 7  25778406.891 8 135466422.033 7 102479484.678 8
E36  23556326.289 8  23556329.441 8 123789333.509 8  93645835.176 8
G01  22986290.992 5                  22986296.699 6 120793787.85415                
G02  21361598.328 7  21361599.555 6                 112255958.253 7  87472180.629 6
G08  20574087.680 8                  20574094.969 8 108117600.991 8                  84247536.204 8
G10  21721165.906 8                  21721172.770 7 114145500.259 8                  88944546.355 7
G27  22000079.102 7                  22000087.957 7 115611199.213 7                  90086553.836 7
G32  22486868.953 7                  22486875.613 7 118169298.566 7                  92079974.938 7
R01  20167389.586 7                 107806259.741 7
R02  20480502.531 8  20480508.484 8 109287878.834 8  85001714.629 8
R17  19512627.391 8  19512630.984 7 104416014.719 8  81212661.149 7
R24  20960504.734 8  20960509.992 7 112085243.235 8  87177354.408 7
> 2025 06 15 10 49 25.0000000  0 22
C19  22549656.813 7 117421974.649 7
C20  23645144.078 7 123126465.604 7
C22  25006392.047 7 130214857.466 7
C29  24105922.477 6 125525846.818 6
E02  26063360.219 7  26063362.277 8 136963875.003 7 103612293.674 8
E04  25931368.336 7  25931370.898 8 136270259.482 7 103087576.660 8
E06  25536032.125 7  25536036.191 8 134192767.436 7 101515965.968 8
E11  25686530.750 7  25686530.730 7 134983623.658 7 102114235.310 7
E30  26533486.922 4  26533483.652 6 139434407.928 4 105481207.923 6
E34  25774954.906 7  25774959.508 8 135448306.387 7 102465780.288 8
E36  23554860.469 8  23554863.480 8 123781629.853 8  93640007.411 8
G01  22982092.359 5                  22982097.141 6 120771724.786 5                  94107849.02016
G02  21358821.008 7  21358822.949 6                 112241367.344 7  87460811.107 6
G08  20573438.281 8                  20573445.359 8 108114187.180 8                  84244876.103 8
G10  21721583.734 7                  21721590.613 7 114147696.801 7                  88946257.927 7
G27  22001537.531 7                  22001546.188 8 115618861.924 7                  90092524.784 8
G32  22483770.836 7                  22483777.672 6 118153021.318 7                  92067291.395 6
R01  20167227.320 7                 107805393.000 7
R02  20476405.930 8  20476411.602 8 109266016.747 8  84984710.773 8
R16  22629215.945 5                                
R17  19510196.453 8  19510200.512 7 104403007.767 8  81202544.617 7
R24  20961455.758 8  20961461.598 7 112090329.693 8  87181310.568 7
> 2025 06 15 10 49 30.0000000  0 22
C19  22547048.344 7 117408391.865 7
C20  23645453.125 7 123128072.604 7
C22  25001625.406 7 130190038.982 7
C29  24107128.688 6 125532133.919 6
E02  26064284.570 7  26064286.750 8 136968732.825 7 103615968.582 8
E04  25930002.891 7  25930005.297 8 136263083.534 7 103082148.122 8
E06  25533354.180 7  25533358.449 8 134178695.873 7 101505320.933 8
E11  25687029.008 7  25687029.020 7 134986242.111 7 102116216.139 7
E30  26532067.992 4  26532063.125 6 139426944.57414 105475561.95316
E34  25771508.766 7  25771512.949 8 135430194.826 7 102452079.023 8
E36  23553396.016 8  23553398.852 8 123773933.298 8  93634185.013 8
G01  22977893.375 4                  22977899.859 6 120749667.134 4                  94090661.354 6
G02  21356046.047 7  21356048.484 6                 112226785.188 7  87449448.410 6
G08  20572791.719 8                  20572799.027 8 108110790.058 8                  84242229.002 8
G10  21722003.914 8                  21722010.730 7 114149904.436 8                  88947978.148 7
G27  22002998.023 7                  22003006.066 7 115626535.512 7                  90098504.166 7
G32  22480675.805 7                  22480683.090 6 118136758.832 7                  92054619.324 6
R01  20167070.016 7                 107804549.097 7
R02  20472312.078 8  20472317.910 8 109244173.793 8  84967721.813 8
R16  22629231.945 5  22629228.285 5 120881376.48215
R17  19507767.078 8  19507772.676 7 104390014.629 8  81192438.867 7
R24  20962408.961 8  20962415.563 7 112095427.840 8  87185275.780 7
> 2025 06 15 10 49 35.0000000  0 21
C19  22544443.305 8 117394824.685 8
C20  23645763.727 7 123129693.171 7
C22  24996860.680 7 130165226.473 7
C29  24108338.023 6 125538428.695 6
E02  26065210.250 7  26065212.910 8 136973599.634 7 103619650.269 8
E04  25928639.797 7  25928642.531 8 136255922.121 7 103076730.575 8
E06  25530678.711 7  25530683.246 8 134164637.447 7 101494685.835 8
E11  25687528.000 7  25687528.266 7 134988865.832 7 102118200.962 7
E30  26530648.523 3                                
E34  25768063.633 7  25768067.363 8 135412088.163 7 102438381.461 8
E36  23551932.750 8  23551935.809 8 123766244.644 8  93628368.585 8
G01  22973699.609 5                  22973703.500 6 120727615.766 5                  94073478.525 6
G02  21353273.383 7  21353276.121 6                 112212212.592 7  87438093.142 6
G08  20572148.648 8                  20572155.613 8 108107410.437 8                  84239595.527 8
G10  21722426.109 7                  21722433.148 7 114152123.946 7                  88949707.660 7
G27  22004460.281 7                  22004468.203 7 115634220.654 7                  90104492.575 7
G32  22477585.266 7                  22477591.723 7 118120511.858 7                  92041959.331 7
R01  20166916.859 8                 107803728.886 8
R02  20468222.594 8  20468227.684 7 109222350.390 8  84950748.081 7
R17  19505341.875 8  19505346.992 7 104377036.312 8  81182344.628 7
R24  20963364.688 7  20963370.813 7 112100538.057 7  87189250.373 7
> 2025 06 15 10 49 40.0000000  0 20
C19  22541840.234 8 117381273.646 8
C20  23646077.219 7 123131327.812 7
C22  24992096.852 7 130140420.408 7
C29  24109548.414 6 125544731.535 6
E02  26066138.148 7  26066140.770 8 136978475.790 7 103623339.033 8
E04  25927280.141 7  25927282.590 8 136248775.762 7 103071324.400 8
E06  25528006.633 7  25528010.590 8 134150592.657 7 101484061.038 8
E11  25688029.047 7  25688028.641 7 134991495.382 7 102120190.184 7
E34  25764619.086 7  25764622.824 8 135393986.878 7 102424687.946 8
E36  23550471.469 8  23550474.344 8 123758564.360 8  93622558.512 8
G01  22969504.328 5                  22969508.832 6 120705571.139 5                  94056300.841 6
G02  21350502.430 8  21350505.297 6                 112197650.038 8  87426745.693 6
G08  20571509.305 8                  20571515.969 8 108104048.772 8                  84236976.031 8
G10  21722850.531 7                  21722858.316 7 114154355.846 7                  88951446.812 7
G27  22005925.555 7                  22005933.605 7 115641917.886 7                  90110490.380 7
G32  22474495.680 7                  22474502.613 7 118104280.873 7                  92029311.813 7
R01  20166767.477 7                 107802932.776 7
R02  20464137.188 8  20464142.184 8 109200547.245 8  84933790.086 8
R17  19502918.656 8  19502924.539 7 104364073.170 8  81172262.199 7
R24  20964322.961 7  20964329.227 7 112105661.386 7  87193235.164 7
> 2025 06 15 10 49 45.0000000  0 20
C19  22539240.727 7 117367740.502 7
C20  23646393.594 7 123132978.318 7
C22  24987334.461 6 130115622.633 6
C29  24110759.969 5 125551044.272 5
E02  26067067.508 7  26067070.734 8 136983363.147 7 103627036.313 8
E04  25925923.516 7  25925925.891 8 136241646.263 7 103065930.981 8
E06  25525336.258 7  25525340.957 8 134136563.367 7 101473447.971 8
E11  25688530.578 7  25688530.477 7 134994132.420 7 102122185.079 7
E34  25761176.063 7  25761179.895 8 135375892.761 7 102410999.899 8
E36  23549011.969 8  23549014.746 8 123750894.263 8  93616756.135 8
G01  22965307.227 5                  22965314.594 5 120683535.102 5                  94039129.813 5
G02  21347733.633 8  21347736.453 6                 112183099.330 8  87415407.486 6
G08  20570872.281 8                  20570880.309 8 108100706.859 8                  84234371.943 8
G10  21723278.383 7                  21723285.434 7 114156601.925 7                  88953196.989 7
G27  22007392.570 7                  22007400.688 8 115649628.994 7                  90116499.026 8
G32  22471410.859 7                  22471417.461 6 118088067.758 7                  92016678.222 6
R01  20166623.719 7                 107802162.567 7
R02  20460055.570 8  20460060.469 7 109178766.176 8  84916849.271 7
R17  19500500.555 8  19500505.250 7 104351127.062 8  81162193.004 7
R24  20965285.719 8  20965288.984 6 112110799.482 8  87197231.453 6
> 2025 06 15 10 49 50.0000000  0 20
C19  22536644.430 7 117354222.731 7
C20  23646713.766 7 123134642.161 7
C22  24982573.102 6 130090830.604 6
C29  24111972.273 5 125557364.418 5
E02  26068000.117 7  26068002.543 8 136988259.195 7 103630740.117 8
E04  25924569.898 7  25924571.988 8 136234531.047 7 103060548.360 8
E06  25522669.492 7  25522673.766 8 134122546.956 7 101462844.659 8
E11  25689033.523 7  25689033.223 7 134996774.511 7 102124183.794 7
E34  25757733.422 7  25757737.555 8 135357803.281 7 102397315.308 8
E36  23547553.523 8  23547556.680 8 123743231.813 8  93610959.539 8
G01  22961115.516 4                  22961122.344 6 120661504.903 4                  94021963.460 6
G02  21344966.305 8  21344968.777 6                 112168557.895 8  87404076.521 6
G08  20570240.680 8                  20570247.434 8 108097382.156 8                  84231781.266 8
G10  21723708.430 7                  21723715.020 7 114158859.644 7                  88954956.231 7
G27  22008861.781 7                  22008869.750 7 115657351.412 7                  90122516.487 7
G32  22468327.664 7                  22468335.348 7 118071869.926 7                  92004056.552 7
R01  20166484.031 7                 107801415.780 7
R02  20455977.086 8  20455982.273 7 109157004.746 8  84899923.714 7
R17  19498084.414 8  19498088.754 7 104338195.486 8  81152135.100 7
R24  20966247.234 8  20966252.785 6 112115949.404 8  87201237.003 6
> 2025 06 15 10 49 55.0000000  0 20
C19  22534051.523 7 117340719.575 7
C20  23647035.648 7 123136318.495 7
C22  24977813.336 6 130066043.540 6
C29  24113187.617 6 125563691.119 6
E02  26068933.305 7  26068935.738 8 136993163.130 7 103634449.893 8
E04  25923217.813 7  25923220.516 8 136227429.305 7 103055175.953 8
E06  25520005.039 7  25520008.785 8 134108542.694 7 101452250.518 8
E11  25689537.297 7  25689536.766 7 134999420.852 7 102126185.732 7
E34  25754292.578 7  25754295.984 8 135339717.658 7 102383633.659 8
E36  23546096.961 8  23546099.836 8 123735576.216 8  93605168.129 8
G01  22956924.102 4                  22956930.945 6 120639479.952 4                  94004801.154 6
G02  21342201.219 8  21342202.707 6                 112154025.031 8  87392752.202 6
G08  20569610.695 8                  20569617.746 8 108094073.890 8                  84229203.402 8
G10  21724139.789 7                  21724147.168 7 114161128.170 7                  88956723.925 7
G27  22010333.906 7                  22010341.125 7 115665084.314 7                  90128542.136 7
G32  22465248.422 7                  22465256.121 7 118055686.593 7                  91991446.188 7
R01  20166347.281 7                 107800691.392 7
R02  20451901.859 8  20451907.727 7 109135261.795 8  84883012.530 7
R17  19495671.250 8  19495674.863 7 104325277.667 8  81142087.905 7
R24  20967211.367 7  20967217.992 7 112121110.820 7  87205251.403 7
> 2025 06 15 10 50  0.0000000  0 19
C19  22531461.234 7 117327231.138 7
C20  23647360.094 7 123138007.484 7
C22  24973055.156 6 130041261.632 6
C29  24114406.125 6 125570024.439 6
E02  26069867.766 7  26069870.520 8 136998075.034 7 103638165.703 8
E04  25921869.586 7  25921871.707 8 136220341.233 7 103049813.860 8
E06  25517341.648 7  25517346.184 8 134094550.652 7 101441665.644 8
E11  25690041.258 7  25690041.164 7 135002071.574 7 102128190.975 7
E34  25750850.945 7  25750855.004 8 135321636.021 7 102369955.012 8
E36  23544641.414 8  23544644.402 8 123727927.624 8  93599382.016 8
G02  21339437.195 8  21339438.230 6                 112139500.871 8  87381434.663 6
G08  20568984.445 8                  20568991.348 8 108090782.193 8                  84226638.430 8
G10  21724573.141 7                  21724580.598 7 114163407.653 7                  88958500.146 7
G27  22011807.281 7                  22011815.133 8 115672827.888 7                  90134576.088 8
G32  22462172.008 7                  22462178.637 7 118039517.944 7                  91978847.243 7
R01  20166216.117 7                 107799989.838 7
R02  20447830.359 8  20447836.254 7 109113537.604 8  84866115.950 7
R17  19493259.836 8  19493263.340 7 104312373.622 8  81132051.431 7
R24  20968179.406 7  20968184.805 7 112126283.601 7  87209274.655 7
> 2025 06 15 10 50  5.0000000  0 19
C19  22528874.156 7 117313756.849 7
C20  23647688.000 7 123139708.510 7
C22  24968297.461 7 130016484.209 7
C29  24115623.648 6 125576363.990 6
E02  26070802.672 7  26070806.535 8 137002994.285 7 103641887.083 8
E04  25920523.383 7  25920525.395 8 136213266.143 7 103044461.622 8
E06  25514681.727 7  25514685.781 8 134080570.323 7 101431089.616 8
E11  25690546.648 7  25690546.266 7 135004726.020 7 102130199.042 7
E34  25747410.953 7  25747414.777 8 135303557.737 7 102356278.911 8
E36  23543187.141 8  23543190.039 8 123720285.382 8  93593600.700 8
G02  21336674.766 8  21336675.859 6                 112124984.767 8  87370123.419 6
G08  20568360.852 8                  20568367.977 8 108087506.434 8                  84224085.898 8
G10  21725009.156 7                  21725016.059 7 114165697.461 7                  88960284.406 7
G27  22013282.820 7                  22013290.457 7 115680581.481 7                  90140617.847 7
G32  22459098.664 7                  22459105.152 7 118023363.392 7                  91966259.284 7
R01  20166089.938 7                 107799310.188 7
R02  20443762.977 8  20443768.242 7 109091831.763 8  84849233.651 7
R17  19490850.727 8  19490854.676 7 104299482.891 8  81122025.287 7
R24  20969147.656 7  20969154.691 7 112131467.198 7  87213306.342 7
> 2025 06 15 10 50 10.0000000  0 19
C19  22526289.281 7 117300296.487 7
C20  23648015.563 7 123141421.363 7
C22  24963538.859 6 129991711.155 6
C29  24116842.359 6 125582709.426 6
E02  26071741.070 7  26071743.969 8 137007920.710 7 103645613.876 8
E04  25919179.352 7  25919181.457 8 136206203.896 7 103039119.089 8
E06  25512023.648 7  25512027.535 8 134066601.424 7 101420522.254 8
E11  25691052.547 7  25691052.082 7 135007384.065 7 102132209.827 7
E34  25743970.742 7  25743975.156 8 135285482.635 7 102342605.215 8
E36  23541733.992 8  23541736.945 8 123712649.324 8  93587824.084 8
G02  21333913.977 8  21333915.141 6                 112110476.477 8  87358818.277 6
G08  20567740.961 8                  20567747.594 7 108084246.387 8                  84221545.602 7
G10  21725446.688 7                  21725453.895 7 114167997.379 7                  88962076.548 7
G27  22014759.672 7                  22014768.000 8 115688344.895 7                  90146667.257 8
G32  22456027.438 8                  22456033.328 7 118007222.690 8                  91953682.118 7
R01  20165965.570 7                 107798652.311 7
R02  20439698.492 8  20439704.340 7 109070144.005 8  84832365.405 7
R17  19488444.797 8  19488447.738 7 104286605.081 8  81112009.205 7
R24  20970119.750 7  20970125.137 6 112136661.458 7  87217346.313 6
> 2025 06 15 10 50 15.0000000  0 19
C19  22523707.039 7 117286851.932 7
C20  23648347.289 7 123143147.888 7
C22  24958782.555 6 129966944.286 6
C29  24118061.359 5 125589062.560 5
E02  26072680.172 7  26072683.176 8 137012856.136 7 103649347.489 8
E04  25917838.773 7  25917840.305 8 136199156.354 7 103033787.666 8
E06  25509367.828 7  25509371.883 8 134052645.865 7 101409964.962 8
E11  25691558.641 7  25691558.887 7 135010047.453 7 102134224.653 7
E34  25740532.195 7  25740536.547 8 135267412.584 7 102328935.339 8
E36  23540283.023 8  23540285.320 9 123705021.322 8  93582053.551 9
G02  21331155.352 8  21331156.516 6                 112095977.976 8  87347520.721 6
G08  20567123.836 8                  20567130.859 8 108081003.969 8                  84219019.044 8
G10  21725886.344 7                  21725893.785 7 114170309.261 7                  88963878.032 7
G27  22016239.844 7                  22016247.496 7 115696119.971 7                  90152725.724 7
G32  22452958.336 8                  22452964.766 7 117991097.684 8                  91941117.168 7
R01  20165847.438 7                 107798018.051 7
R02  20435638.469 8  20435643.199 7 109048476.468 8  84815512.880 7
R17  19486039.969 8  19486044.176 7 104273742.134 8  81102004.693 7
R24  20971093.422 7  20971098.633 6 112141868.227 7  87221396.015 6
> 2025 06 15 10 50 20.0000000  0 20
C19  22521128.516 7 117273422.352 7
C20  23648682.063 7 123144887.276 7
C22  24954028.375 6 129942182.796 6
C29  24119283.102 5 125595422.691 5
E02  26073620.195 7  26073623.867 8 137017799.779 7 103653087.298 8
E04  25916500.172 7  25916501.938 8 136192122.664 7 103028466.737 8
E06  25506713.820 7  25506718.613 8 134038702.823 7 101399417.160 8
E11  25692066.469 7  25692066.586 7 135012715.456 7 102136242.958 7
E34  25737094.258 7  25737098.660 8 135249346.729 7 102315268.651 8
E36  23538832.430 8  23538835.109 9 123697400.493 8  93576288.440 9
G01  22935988.375 5                                 120529432.30815                
G02  21328397.617 8  21328399.340 6                 112081488.425 8  87336230.176 6
G08  20566509.953 8                  20566517.141 8 108077778.307 8                  84216505.532 8
G10  21726328.336 8                  21726335.742 7 114172632.278 8                  88965688.190 7
G27  22017721.445 7                  22017728.953 7 115703905.870 7                  90158792.666 7
G32  22449892.523 8                  22449899.066 7 117974987.634 8                  91928563.925 7
R01  20165732.820 7                 107797406.812 7
R02  20431580.969 8  20431586.734 7 109026827.551 8  84798674.831 7
R17  19483637.609 8  19483643.039 7 104260893.334 8  81092011.215 7
R24  20972069.625 7  20972074.973 6 112147086.589 7  87225454.777 6
> 2025 06 15 10 50 25.0000000  0 20
C19  22518552.188 7 117260007.673 7
C20  23649017.445 7 123146639.409 7
C22  24949273.906 6 129917426.646 6
C29  24120505.961 5 125601789.557 5
E02  26074562.914 7  26074566.227 8 137022751.471 7 103656833.207 8
E04  25915164.086 7  25915166.090 8 136185102.760 7 103023156.210 8
E06  25504064.109 7  25504067.750 8 134024772.235 7 101388878.761 8
E11  25692574.352 6  25692575.160 7 135015387.967 6 102138264.690 7
E34  25733657.773 7  25733661.645 8 135231285.052 7 102301605.123 8
E36  23537383.695 8  23537386.250 8 123689786.834 8  93570528.760 8
G01  22931798.125 4                  22931804.336 6 120507439.267 4                  93901907.48016
G02  21325641.992 8  21325643.813 6                 112067007.681 8  87324946.470 6
G08  20565899.367 8                  20565906.426 8 108074569.356 8                  84214005.052 8
G10  21726772.352 7                  21726780.059 7 114174966.350 7                  88967506.916 7
G27  22019204.914 7                  22019212.941 7 115711702.532 7                  90164867.958 7
G32  22446830.164 8                  22446836.633 7 117958892.443 8                  91916022.213 7
R01  20165624.273 7                 107796818.247 7
R02  20427528.930 8  20427533.691 7 109005198.086 8  84781851.914 7
R17  19481239.000 8  19481244.309 7 104248058.535 8  81082028.603 7
R24  20973048.875 8  20973053.445 6 112152316.544 8  87229522.523 6
> 2025 06 15 10 50 30.0000000  0 20
C19  22515978.508 7 117246607.510 7
C20  23649356.492 7 123148403.909 7
C22  24944520.414 6 129892675.415 6
C29  24121729.672 5 125608162.961 5
E02  26075505.664 6  26075510.004 8 137027710.908 6 103660584.985 8
E04  25913831.047 7  25913832.848 8 136178096.281 7 103017855.845 8
E06  25501415.430 6  25501419.180 8 134010853.682 6 101378349.493 8
E11  25693084.359 6  25693084.496 7 135018064.596 6 102140289.533 7
E34  25730221.422 8  25730225.262 8 135213227.115 8 102287944.400 8
E36  23535936.125 8  23535938.719 8 123682179.923 8  93564774.178 8
G01  22927612.813 4                                                                
G02  21322887.922 8  21322889.723 6                 112052535.347 8  87313669.357 6
G08  20565291.859 8                  20565298.793 8 108071376.708 8                  84211517.273 8
G10  21727219.016 7                  21727225.938 7 114177311.104 7                  88969333.993 7
G27  22020689.898 7                  22020698.633 7 115719509.532 7                  90170951.329 7
G32  22443769.891 8                  22443776.672 7 117942811.712 8                  91903491.785 7
R01  20165516.945 7                 107796252.002 7
R02  20423477.250 8  20423484.203 7 108983587.240 8  84765043.474 7
R17  19478844.555 8  19478848.762 7 104235237.421 8  81072056.596 7
R24  20974028.477 7  20974033.730 6 112157557.571 7  87233598.861 6
> 2025 06 15 10 50 35.0000000  0 20
C19  22513408.383 7 117233222.095 7
C20  23649697.844 7 123150180.972 7
C22  24939767.180 6 129867929.389 6
C29  24122955.938 5 125614543.033 5
E02  26076452.055 6  26076455.250 8 137032678.204 6 103664342.692 8
E04  25912500.469 7  25912502.000 8 136171103.382 7 103012565.760 8
E06  25498769.297 7  25498772.984 8 133996947.449 7 101367829.526 8
E11  25693594.883 6  25693594.648 7 135020745.564 6 102142317.668 7
E34  25726786.203 7  25726789.691 8 135195173.143 7 102274286.708 8
E36  23534489.844 8  23534492.465 8 123674579.976 8  93559024.866 8
G01  22923429.102 4                  22923437.844 6 120463468.87014                  93867644.88716
G02  21320135.398 8  21320137.145 6                 112038071.685 8  87302398.980 6
G08  20564687.227 8                  20564694.758 8 108068200.585 8                  84209042.355 8
G10  21727667.578 7                  21727674.004 7 114179666.692 7                  88971169.519 7
G27  22022177.586 7                  22022186.152 7 115727327.077 7                  90177042.914 7
G32  22440712.922 8                  22440719.191 7 117926745.691 8                  91890972.796 7
R01  20165416.547 8                 107795708.423 8
R02  20419431.945 8  20419437.840 7 108961995.313 8  84748249.786 7
R17  19476451.086 8  19476455.453 7 104222430.225 8  81062095.456 7
R24  20975009.563 7  20975015.762 6 112162810.094 7  87237684.146 6
> 2025 06 15 10 50 40.0000000  0 20
C19  22510840.094 7 117219851.558 7
C20  23650042.352 7 123151970.726 7
C22  24935016.242 7 129843188.553 7
C29  24124181.938 5 125620929.850 5
E02  26077397.875 6  26077402.117 8 137037653.536 6 103668106.485 8
E04  25911171.906 7  25911173.898 8 136164124.212 7 103007286.060 8
E06  25496125.953 7  25496129.063 8 133983053.587 7 101357318.923 8
E11  25694105.664 7  25694105.707 7 135023430.995 7 102144349.171 7
E34  25723351.555 8  25723354.879 8 135177123.247 8 102260632.087 8
E36  23533045.281 8  23533047.563 8 123666987.081 8  93553280.909 8
G01  22919249.281 4                  22919256.461 6 120441491.77914                  93850519.82416
G02  21317384.617 7  21317386.063 6                 112023616.758 7  87291135.406 6
G08  20564085.984 8                  20564093.648 8 108065041.076 8                  84206580.416 8
G10  21728117.914 8                  21728124.285 7 114182033.273 8                  88973013.602 7
G27  22023668.445 7                  22023676.113 8 115735155.256 7                  90183142.804 8
G32  22437658.398 8                  22437665.031 7 117910694.503 8                  91878465.400 7
R01  20165318.109 7                 107795187.367 7
R02  20415388.938 8  20415395.227 7 108940422.412 8  84731470.887 7
R17  19474060.820 8  19474064.660 7 104209637.042 8  81052145.204 7
R24  20975994.133 7  20976000.723 6 112168074.113 7  87241778.352 6
> 2025 06 15 10 50 45.0000000  0 20
C19  22508275.000 7 117206495.297 7
C20  23650387.859 7 123153772.572 7
C22  24930266.648 7 129818452.475 7
C29  24125410.539 6 125627322.870 6
E02  26078345.117 6  26078350.301 8 137042636.254 6 103671875.891 8
E04  25909846.680 7  25909848.258 8 136157158.209 7 103002016.318 8
E06  25493484.047 7  25493487.496 8 133969171.547 7 101346817.247 8
E11  25694616.539 7  25694617.477 7 135026120.259 7 102146383.565 7
E34  25719917.430 8  25719920.805 8 135159076.886 8 102246980.139 8
E36  23531601.570 8  23531603.984 8 123659400.701 8  93547541.869 8
G01  22915073.227 5                  22915074.980 6 120419519.625 5                  93833398.717 6
G02  21314635.609 7  21314636.824 6                 112009170.031 7  87279878.217 6
G08  20563487.758 8                  20563495.246 8 108061897.646 8                  84204130.987 8
G10  21728570.352 8                  21728576.953 7 114184410.259 8                  88974865.771 7
G27  22025158.891 7                  22025167.117 7 115742993.521 7                  90189250.535 7
G32  22434606.141 8                  22434613.219 7 117894657.571 8                  91865969.095 7
R01  20165225.086 7                 107794688.544 7
R02  20411350.180 8  20411355.867 8 108918867.991 8  84714706.361 8
R17  19471671.891 8  19471676.695 7 104196857.133 8  81042205.261 7
R24  20976980.500 7  20976987.352 7 112173349.048 7  87245881.049 7
> 2025 06 15 10 50 50.0000000  0 20
C19  22505713.008 7 117193154.003 7
C20  23650736.406 7 123155587.163 7
C22  24925516.969 6 129793721.841 6
C29  24126639.508 5 125633722.808 5
E02  26079294.453 6  26079299.953 8 137047627.097 6 103675651.429 8
E04  25908522.680 7  25908525.199 8 136150205.991 7 102996757.028 8
E06  25490844.875 7  25490848.230 8 133955302.045 7 101336325.071 8
E11  25695129.656 6  25695130.129 7 135028814.106 6 102148421.434 7
E34  25716483.531 7  25716487.477 8 135141034.731 7 102233331.367 8
E36  23530159.211 8  23530161.730 8 123651821.536 8  93541808.272 8
G01  22910889.922 5                  22910894.609 6 120397553.019 5                  93816281.807 6
G02  21311887.813 7  21311889.465 6                 111994732.211 7  87268627.964 6
G08  20562892.617 8                  20562900.184 8 108058770.936 8                  84201694.581 8
G10  21729024.594 7                  21729031.242 7 114186798.272 7                  88976726.556 7
G27  22026652.641 7                  22026661.004 7 115750842.569 7                  90195366.688 7
G32  22431556.680 8                  22431564.457 7 117878635.586 8                  91853484.442 7
R01  20165135.961 7                 107794212.333 7
R02  20407313.930 8  20407320.234 7 108897332.903 8  84697956.862 7
R17  19469286.664 8  19469290.723 7 104184091.311 8  81032276.289 7
R24  20977969.156 7  20977975.754 6 112178635.620 7  87249992.866 6
> 2025 06 15 10 50 55.0000000  0 20
C19  22503153.227 7 117179828.285 7
C20  23651087.250 7 123157415.158 7
C22  24920768.453 6 129768997.205 6
C29  24127870.234 5 125640130.175 5
E02  26080246.250 7  26080251.449 8 137052626.633 7 103679433.516 8
E04  25907202.828 7  25907204.949 7 136143268.251 7 102991508.681 7
E06  25488207.734 7  25488211.316 7 133941445.704 7 101325842.849 7
E11  25695643.383 6  25695643.746 7 135031513.147 6 102150463.219 7
E34  25713051.516 7  25713054.992 8 135122997.339 7 102219686.230 8
E36  23528718.141 8  23528720.957 8 123644250.183 8  93536080.587 8
G01  22906711.289 4                  22906715.418 6 120375592.565 4                  93799169.789 6
G02  21309142.531 8  21309143.727 6                 111980303.899 8  87257385.138 6
G08  20562301.164 8                  20562308.348 8 108055661.585 8                  84199271.698 8
G10  21729481.117 7                  21729487.570 7 114189197.938 7                  88978596.437 7
G27  22028149.492 7                  22028156.914 8 115758702.933 7                  90201491.635 8
G32  22428510.648 7                  22428518.063 7 117862629.158 7                  91841011.942 7
R01  20165051.609 7                 107793759.585 7
R02  20403282.508 8  20403288.539 7 108875817.598 8  84681222.758 7
R17  19466903.406 8  19466907.703 7 104171340.322 8  81022358.856 7
R24  20978960.398 7  20978966.473 6 112183934.388 7  87254114.070 6
> 2025 06 15 10 51  0.0000000  0 20
C19  22500597.305 7 117166517.104 7
C20  23651440.289 7 123159255.476 7
C22  24916022.359 7 129744277.600 7
C29  24129102.219 5 125646543.951 5
E02  26081199.805 6  26081204.090 8 137057633.841 6 103683221.444 8
E04  25905885.523 7  25905887.148 8 136136343.927 7 102986270.475 8
E06  25485573.375 7  25485576.664 7 133927601.378 7 101315369.722 7
E11  25696157.781 7  25696158.129 7 135034216.279 7 102152508.104 7
E34  25709619.938 7  25709623.285 8 135104963.766 7 102206043.947 8
E36  23527279.047 8  23527281.457 8 123636685.562 8  93530357.998 8
G01  22902532.648 5                  22902537.227 6 120353637.268 5                  93782061.756 6
G02  21306398.047 7  21306400.012 6                 111965884.043 7  87246148.886 6
G08  20561712.750 8                  20561719.789 8 108052568.506 8                  84196861.511 8
G10  21729940.008 8                  21729946.668 7 114191608.238 8                  88980474.579 7
G27  22029646.648 7                  22029654.699 7 115766573.628 7                  90207624.620 7
G32  22425467.430 7                  22425475.668 7 117846637.279 7                  91828550.733 7
R01  20164970.617 7                 107793329.037 7
R02  20399253.578 8  20399259.402 8 108854321.073 8  84664503.262 8
R17  19464524.141 8  19464528.156 7 104158603.011 8  81012452.063 7
R24  20979952.953 7  20979958.574 6 112189244.109 7  87258243.859 6
> 2025 06 15 10 51  5.0000000  0 20
C19  22498043.648 7 117153219.581 7
C20  23651796.500 7 123161107.182 7
C22  24911276.156 7 129719562.079 7
C29  24130333.594 5 125652963.357 5
E02  26082153.555 7  26082158.160 8 137062647.783 7 103687014.431 8
E04  25904570.063 7  25904571.902 8 136129432.049 7 102981041.680 8
E06  25482941.133 7  25482944.223 7 133913768.300 7 101304905.091 7
E11  25696673.063 7  25696673.133 7 135036922.608 7 102154555.433 7
E34  25706188.773 7  25706192.172 8 135086933.048 7 102192403.827 8
E36  23525840.383 8  23525843.074 8 123629126.782 8  93524639.832 8
G01  22898359.031 5                  22898360.070 6 120331686.252 5                  93764957.060 6
G02  21303656.125 8  21303657.883 6                 111951471.809 8  87234918.579 6
G08  20561126.797 8                  20561133.875 8 108049490.819 8                  84194463.312 8
G10  21730401.109 8                  21730406.809 7 114194028.218 8                  88982360.289 7
G27  22031145.922 7                  22031154.520 8 115774453.676 7                  90213764.900 8
G32  22422427.164 8                  22422434.246 7 117830659.043 8                  91816100.159 7
R01  20164894.031 7                 107792919.792 7
R02  20395227.609 8  20395234.129 7 108832842.446 8  84647797.685 7
R17  19462145.188 8  19462150.453 7 104145878.527 8  81002555.255 7
R24  20980949.336 7  20980954.184 6 112194564.345 7  87262381.813 6
> 2025 06 15 10 51 10.0000000  0 20
C19  22495493.492 7 117139936.616 7
C20  23652154.547 7 123162971.195 7
C22  24906530.133 7 129694851.626 7
C29  24131567.938 5 125659389.101 5
E02  26083109.297 7  26083113.605 8 137067669.360 7 103690813.219 8
E04  25903257.492 7  25903258.973 7 136122533.587 7 102975823.046 7
E06  25480310.953 7  25480314.039 7 133899947.332 7 101294449.623 7
E11  25697188.602 7  25697188.910 7 135039633.060 7 102156605.868 7
E34  25702758.172 7  25702761.770 8 135068906.106 7 102178766.542 8
E36  23524403.469 8  23524405.930 8 123621574.771 8  93518926.784 8
G01  22894182.430 5                  22894183.594 6 120309740.437 5                  93747856.424 6
G02  21300915.836 8  21300917.766 6                 111937067.988 8  87223694.842 6
G08  20560544.000 8                  20560551.484 8 108046429.443 8                  84192077.838 8
G10  21730862.711 7                  21730869.375 7 114196458.792 7                  88984254.248 7
G27  22032647.766 7                  22032655.895 7 115782343.990 7                  90219913.185 7
G32  22419390.422 8                  22419396.980 7 117814695.334 8                  91803660.923 7
R01  20164821.305 7                 107792532.899 7
R02  20391205.852 8  20391211.898 7 108811382.655 8  84631106.763 7
R17  19459769.391 8  19459774.340 7 104133167.706 8  80992669.063 7
R24  20981946.781 7  20981950.938 6 112199895.560 7  87266528.313 6
> 2025 06 15 10 51 15.0000000  0 20
C19  22492945.391 7 117126668.525 7
C20  23652514.977 7 123164847.794 7
C22  24901785.664 7 129670146.415 7
C29  24132799.672 4 125665821.57614
E02  26084065.625 6  26084070.762 8 137072698.861 6 103694617.987 8
E04  25901946.813 7  25901948.738 8 136115648.816 7 102970614.779 8
E06  25477682.992 7  25477686.250 7 133886138.764 7 101284003.526 7
E11  25697704.898 6  25697705.535 7 135042347.898 6 102158659.617 7
E34  25699327.586 7  25699332.117 8 135050883.218 7 102165132.336 8
E36  23522967.539 8  23522970.250 8 123614029.804 8  93513219.084 8
G01  22890003.820 5                  22890008.637 6 120287799.982 5                  93730760.005 6
G02  21298176.094 8  21298177.801 6                 111922672.963 8  87212477.946 6
G08  20559965.633 8                  20559972.344 8 108043384.629 8                  84189705.261 8
G10  21731327.406 7                  21731333.648 7 114198900.269 7                  88986156.690 7
G27  22034151.375 7                  22034159.559 7 115790244.891 7                  90226069.706 7
G32  22416355.617 8                  22416361.797 7 117798746.507 8                  91791233.289 7
R01  20164753.922 8                 107792168.543 8
R02  20387188.359 8  20387193.695 7 108789941.921 8  84614430.607 7
R17  19457397.352 8  19457401.660 7 104120470.845 8  80982793.740 7
R24  20982944.188 7  20982949.391 6 112205238.220 7  87270683.679 6
> 2025 06 15 10 51 20.0000000  0 19
C19  22490400.156 7 117113414.525 7
C20  23652877.164 7 123166736.250 7
C22  24897041.680 7 129645445.848 7
E02  26085026.422 7  26085029.125 8 137077735.569 7 103698428.201 8
E04  25900639.391 7  25900641.039 8 136108777.003 7 102965416.297 8
E06  25475057.234 7  25475060.719 7 133872341.890 7 101273566.296 7
E11  25698222.633 6  25698222.875 7 135045066.484 6 102160716.190 7
E34  25695898.867 7  25695903.020 8 135032863.689 7 102151500.696 8
E36  23521532.773 8  23521535.676 8 123606491.177 8  93507516.155 8
G01  22885829.469 5                  22885834.789 6 120265864.216 5                  93713667.224 6
G02  21295438.727 8  21295440.207 6                 111908285.991 8  87201267.300 6
G08  20559389.352 8                  20559395.953 8 108040355.692 8                  84187345.030 8
G10  21731795.313 8                  21731800.414 7 114201351.864 8                  88988067.021 7
G27  22035656.680 7                  22035664.625 7 115798155.593 7                  90232233.898 7
G32  22413322.773 8                  22413329.273 7 117782811.835 8                  91778816.660 7
R01  20164690.109 8                 107791825.914 8
R02  20383173.266 8  20383179.262 7 108768519.562 8  84597768.818 7
R17  19455027.781 8  19455031.426 7 104107787.294 8  80972928.766 7
R24  20983945.172 7  20983950.820 6 112210591.646 7  87274847.472 6
> 2025 06 15 10 51 25.0000000  0 20
C19  22487857.414 7 117100176.295 7
C20  23653242.555 7 123168638.154 7
C22  24892301.023 7 129620751.509 7
C29  24135275.797 5 125678707.12915
E02  26085985.516 7  26085989.449 8 137082781.014 7 103702245.021 8
E04  25899335.047 7  25899336.117 8 136101919.772 7 102960228.829 8
E06  25472435.359 7  25472437.867 8 133858558.308 7 101263139.114 8
E11  25698740.766 6  25698741.238 7 135047790.352 6 102162776.755 7
E34  25692470.672 7  25692474.984 8 135014849.091 7 102137872.789 8
E36  23520099.875 8  23520102.668 8 123598960.492 8  93501819.248 8
G01  22881657.906 5                  22881661.949 6 120243934.884 5                  93696579.477 6
G02  21292702.031 8  21292703.777 6                 111893908.682 8  87190064.193 6
G08  20558815.602 8                  20558822.723 8 108037344.205 8                  84184998.419 8
G10  21732263.242 7                  21732269.180 7 114203815.247 7                  88989986.549 7
G27  22037164.492 7                  22037172.152 7 115806077.752 7                  90238406.984 7
G32  22410293.617 8                  22410300.230 7 117766892.934 8                  91766412.330 7
R01  20164630.148 8                 107791506.740 8
R02  20379163.148 8  20379168.344 7 108747117.394 8  84581122.682 7
R17  19452659.625 8  19452664.352 7 104095118.683 8  80963075.391 7
R24  20984949.789 7  20984954.406 6 112215957.388 7  87279020.793 6
> 2025 06 15 10 51 30.0000000  0 20
C19  22485318.766 7 117086954.892 7
C20  23653611.281 7 123170554.635 7
C22  24887559.703 7 129596064.485 7
C29  24136513.805 5 125685161.926 5
E02  26086948.563 7  26086951.406 8 137087836.416 7 103706069.384 8
E04  25898033.563 7  25898034.379 7 136095078.299 7 102955053.281 7
E06  25469814.672 7  25469817.699 7 133844789.169 7 101252722.866 7
E11  25699260.992 6  25699260.805 7 135050520.583 6 102164842.134 7
E34  25689044.242 8  25689047.754 8 134996840.596 8 102124249.466 8
E36  23518668.461 8  23518671.383 8 123591438.875 8  93496129.195 8
G01  22877486.516 5                  22877490.527 6 120222013.073 5                  93679497.476 6
G02  21289968.398 8  21289970.051 6                 111879542.154 8  87178869.500 6
G08  20558246.680 8                  20558253.090 8 108034351.352 8                  84182666.329 8
G10  21732734.281 7                  21732740.211 7 114206291.458 7                  88991916.051 7
G27  22038673.898 7                  22038682.578 8 115814012.459 7                  90244589.857 8
G32  22407267.477 8                  22407273.840 7 117750990.907 8                  91754021.120 7
R01  20164575.766 8                 107791212.211 8
R02  20375155.930 8  20375161.324 7 108725736.324 8  84564492.989 7
R17  19450295.906 8  19450299.785 7 104082466.267 8  80953234.621 7
R24  20985955.992 7  20985960.250 6 112221336.577 7  87283204.582 6
> 2025 06 15 10 51 35.0000000  0 20
C19  22482782.563 7 117073747.999 7
C20  23653981.352 7 123172483.294 7
C22  24882819.008 6 129571382.503 6
C29  24137756.000 5 125691622.938 5
E02  26087910.898 7  26087914.770 8 137092899.292 7 103709899.412 8
E04  25896733.625 7  25896735.023 7 136088250.085 7 102949887.796 7
E06  25467197.031 7  25467199.875 7 133831032.062 7 101242315.736 7
E11  25699781.266 6  25699781.117 7 135053254.912 6 102166910.638 7
E34  25685617.625 7  25685621.418 8 134978835.828 7 102110629.008 8
E36  23517238.383 8  23517241.301 8 123583923.938 8  93490444.185 8
G01  22873315.453 5                  22873320.172 6 120200096.377 5                  93662419.541 6
G02  21287236.641 8  21287237.531 6                 111865184.075 8  87167681.362 6
G08  20557679.664 8                  20557686.371 8 108031374.658 8                  84180346.822 8
G10  21733207.914 7                  21733213.504 7 114208778.150 7                  88993853.720 7
G27  22040185.000 7                  22040193.973 8 115821957.293 7                  90250780.627 8
G32  22404244.195 8                  22404250.418 7 117735103.409 8                  91741641.282 7
R01  20164524.555 8                 107790939.736 8
R02  20371152.711 8  20371158.715 7 108704374.240 8  84547878.033 7
R17  19447934.289 8  19447937.648 7 104069827.308 8  80943404.305 7
R24  20986963.023 7  20986967.918 6 112226726.758 7  87287396.992 6
> 2025 06 15 10 51 40.0000000  0 20
C19  22480249.445 7 117060555.813 7
C20  23654353.961 7 123174424.358 7
C22  24878081.117 7 129546705.683 7
C29  24138998.234 5 125698090.636 5
E02  26088875.586 7  26088879.688 8 137097969.917 7 103713735.309 8
E04  25895436.820 7  25895438.359 8 136081435.432 7 102944732.542 8
E06  25464582.031 7  25464584.484 8 133817287.239 7 101231917.869 8
E11  25700301.977 6  25700302.230 7 135055993.450 6 102168982.314 7
E34  25682192.555 7  25682196.211 8 134960834.986 7 102097011.504 8
E36  23515809.734 8  23515812.547 8 123576415.909 8  93484764.411 8
G01  22869143.828 5                  22869149.898 6 120178184.813 5                  93645345.621 6
G02  21284505.305 8  21284506.699 6                 111850834.587 8  87156499.961 6
G08  20557116.117 8                  20557123.633 8 108028414.408 8                  84178040.146 8
G10  21733682.406 7                  21733688.617 7 114211275.565 7                  88995799.765 7
G27  22041699.539 7                  22041707.754 8 115829912.514 7                  90256979.487 8
G32  22401223.195 8                  22401230.379 7 117719230.647 8                  91729272.909 7
R01  20164476.789 8                 107790689.592 8
R02  20367153.578 8  20367158.953 7 108683031.162 8  84531277.854 7
R17  19445574.656 8  19445578.137 7 104057202.384 8  80933584.888 7
R24  20987973.242 7  20987978.914 6 112232128.270 7  87291598.149 6
> 2025 06 15 10 51 45.0000000  0 20
C19  22477719.102 7 117047377.446 7
C20  23654728.578 7 123176376.916 7
C22  24873342.258 7 129522033.204 7
C29  24140242.383 5 125704563.909 5
E02  26089842.227 7  26089845.875 8 137103047.358 7 103717576.326 8
E04  25894142.523 7  25894144.129 8 136074633.438 7 102939586.855 8
E06  25461968.484 7  25461971.180 7 133803553.817 7 101221528.638 7
E11  25700824.008 6  25700824.004 7 135058735.367 6 102171056.540 7
E34  25678767.547 7  25678771.078 8 134942837.133 7 102083396.223 8
E36  23514381.695 8  23514384.953 8 123568913.880 8  93479089.176 8
G01  22864974.289 5                  22864981.324 6 120156277.750 5                  93628275.268 6
G02  21281776.391 7  21281778.113 6                 111836492.819 7  87145324.558 6
G08  20556555.773 8                  20556563.035 8 108025469.678 8                  84175745.569 8
G10  21734160.430 7                  21734165.949 7 114213782.730 7                  88997753.415 7
G27  22043215.828 7                  22043223.555 7 115837877.159 7                  90263185.694 7
G32  22398204.914 7                  22398212.848 7 117703371.750 7                  91716915.343 7
R01  20164434.016 7                 107790460.917 7
R02  20363157.867 8  20363162.664 7 108661706.181 8  84514691.753 7
R17  19443218.313 8  19443221.590 7 104044590.380 8  80923775.589 7
R24  20988985.258 7  20988989.980 6 112237540.019 7  87295807.271 6
> 2025 06 15 10 51 50.0000000  0 21
C19  22475191.227 7 117034214.314 7
C20  23655106.227 7 123178342.313 7
C22  24868604.961 7 129497366.457 7
C29  24141488.875 6 125711044.254 6
E02  26090810.242 6  26090813.766 8 137108132.993 6 103721423.575 8
E04  25892850.469 7  25892852.602 8 136067845.465 7 102934451.789 8
E06  25459357.070 7  25459360.211 7 133789833.171 7 101211149.058 7
E11  25701346.703 6  25701346.645 7 135061482.016 6 102173134.369 7
E30  26493389.102 5  26493373.359 6 139223721.03415 105321760.16316
E34  25675343.727 7  25675347.184 8 134924843.758 7 102069784.369 8
E36  23512956.109 8  23512958.836 8 123561419.259 8  93473419.543 8
G01  22860806.531 5                  22860813.934 5 120134376.652 5                  93611209.430 5
G02  21279049.313 7  21279051.035 6                 111822160.222 7  87134156.306 6
G08  20555998.656 8                  20556006.145 8 108022541.838 8                  84173464.121 8
G10  21734638.938 7                  21734645.230 7 114216301.078 7                  88999715.766 7
G27  22044732.805 7                  22044741.141 7 115845852.674 7                  90269400.368 7
G32  22395189.477 7                  22395198.156 7 117687528.146 7                  91704569.688 7
R01  20164396.117 7                 107790255.028 7
R02  20359165.250 8  20359170.043 7 108640400.899 8  84498121.002 7
R17  19440863.813 8  19440867.914 8 104031992.831 8  80913977.495 8
R24  20989999.984 7  20990004.098 6 112242963.689 7  87300025.647 6
> 2025 06 15 10 51 55.0000000  0 21
C19  22472665.727 7 117021064.171 7
C20  23655485.000 7 123180318.373 7
C22  24863868.891 6 129472703.228 6
C29  24142733.547 5 125717529.419 5
E02  26091780.086 7  26091782.516 8 137113224.594 7 103725275.333 8
E04  25891560.773 7  25891563.160 8 136061069.292 7 102929325.650 8
E06  25456747.727 7  25456751.172 7 133776123.055 7 101200777.439 7
E11  25701870.195 6  25701869.824 7 135064231.164 6 102175214.062 7
E30  26492059.656 5  26492029.176 6 139216656.20715 105316415.62916
E34  25671920.250 7  25671923.547 8 134906852.530 7 102056174.120 8
E36  23511531.242 8  23511533.656 8 123553929.789 8  93467753.812 8
G01  22856640.711 5                  22856646.727 5 120112478.907 5                  93594146.278 5
G02  21276322.727 7  21276325.297 6                 111807834.518 7  87122993.456 6
G08  20555444.039 8                  20555452.109 8 108019628.721 8                  84171194.168 8
G10  21735120.078 8                  21735125.965 7 114218828.367 8                  89001685.074 7
G27  22046251.984 7                  22046260.305 7 115853836.764 7                  90275621.729 7
G32  22392178.039 7                  22392185.770 7 117671697.525 7                  91692234.139 7
R01  20164361.766 8                 107790069.709 8
R02  20355175.953 8  20355181.008 7 108619112.866 8  84481563.646 7
R17  19438511.813 8  19438515.543 7 104019407.395 8  80904188.824 7
R24  20991016.055 7  20991020.961 6 112248396.845 7  87304251.466 6
> 2025 06 15 10 52  0.0000000  0 21
C19  22470143.398 7 117007928.333 7
C20  23655866.281 7 123182306.380 7
C22  24859135.063 7 129448044.806 7
C29  24143979.844 6 125724020.669 6
E02  26092748.992 6  26092752.789 8 137118323.435 6 103729132.552 8
E04  25890274.773 7  25890276.348 8 136054306.219 7 102924209.422 8
E06  25454140.766 7  25454144.594 8 133762424.809 7 101190414.854 8
E11  25702393.727 7  25702393.668 7 135066984.107 7 102177296.655 7
E30  26490715.680 5  26490687.473 6 139209604.31315 105311080.95116
E34  25668496.969 7  25668500.313 8 134888864.805 7 102042566.531 8
E36  23510106.805 8  23510109.684 8 123546446.791 8  93462092.973 8
G01  22852475.273 5                  22852480.715 6 120090586.330 5                  93577087.197 6
G02  21273598.172 7  21273600.367 6                 111793517.044 7  87111836.991 6
G08  20554893.672 8                  20554900.332 8 108016731.563 8                  84168936.629 8
G10  21735603.406 7                  21735609.367 7 114221365.870 7                  89003662.313 7
G27  22047773.266 7                  22047781.406 7 115861830.744 7                  90281850.816 7
G32  22389167.727 7                  22389176.125 7 117655881.298 7                  91679909.823 7
R01  20164330.906 8                 107789906.178 8
R02  20351188.805 8  20351195.035 7 108597843.519 8  84465020.843 7
R17  19436162.438 8  19436166.781 7 104006835.438 8  80894410.632 7
R24  20992033.852 7  20992038.648 6 112253840.743 7  87308485.592 6
> 2025 06 15 10 52  5.0000000  0 20
C19  22467623.227 7 116994807.324 7
C20  23656251.055 7 123184306.804 7
C22  24854401.133 7 129423391.716 7
C29  24145226.352 6 125730518.583 6
E02  26093720.625 6  26093724.570 8 137123430.032 6 103732995.678 8
E04  25888989.164 7  25888991.922 8 136047556.756 7 102919103.506 8
E06  25451536.852 7  25451540.273 7 133748738.980 7 101180061.597 7
E11  25702918.422 6  25702918.309 7 135069741.427 6 102179382.541 7
E34  25665075.539 7  25665078.020 8 134870881.055 7 102028961.967 8
E36  23508684.313 8  23508687.027 8 123538970.786 8  93456437.419 8
G01  22848312.578 5                  22848316.387 6 120068699.098 5                  93560032.222 6
G02  21270875.188 7  21270877.578 6                 111779208.348 7  87100687.358 6
G08  20554344.852 8                  20554351.746 7 108013850.907 8                  84166691.964 7
G10  21736088.523 8                  21736093.824 7 114223914.099 8                  89005647.922 7
G27  22049296.883 7                  22049304.555 7 115869835.136 7                  90288087.979 7
G32  22386160.750 7                  22386169.777 7 117640079.930 7                  91667597.083 7
R01  20164304.367 8                 107789765.005 8
R02  20347207.055 8  20347212.609 7 108576593.356 8  84448492.955 7
R17  19433815.516 8  19433819.820 7 103994277.542 8  80884643.394 7
R24  20993054.023 7  20993059.270 6 112259296.019 7  87312728.568 6
> 2025 06 15 10 52 10.0000000  0 21
C19  22465105.664 7 116981701.621 7
C20  23656638.148 7 123186320.183 7
C22  24849666.063 7 129398744.559 7
C29  24146476.961 5 125737023.556 5
E02  26094695.211 7  26094697.750 8 137128544.974 7 103736865.052 8
E04  25887708.586 7  25887710.270 8 136040821.432 7 102914008.295 8
E06  25448935.016 7  25448938.383 7 133735066.032 7 101169718.116 7
E11  25703444.258 7  25703443.867 7 135072503.612 7 102181472.100 7
E30  26488023.648 4                 139195538.94714
E34  25661654.141 7  25661656.578 8 134852901.919 7 102015360.853 8
E36  23507263.648 8  23507265.832 8 123531502.274 8  93450787.545 8
G01  22844147.305 5                  22844152.105 5 120046817.848 5                  93542981.855 5
G02  21268154.602 8  21268156.766 6                 111764908.927 8  87089544.967 6
G08  20553799.984 8                  20553806.992 8 108010987.269 8                  84164460.546 8
G10  21736575.773 8                  21736581.176 7 114226473.521 8                  89007642.274 7
G27  22050821.977 7                  22050830.027 7 115877850.445 7                  90294333.660 7
G32  22383157.398 7                  22383165.520 7 117624294.004 7                  91655296.376 7
R01  20164282.711 8                 107789646.727 8
R02  20343228.063 8  20343234.723 7 108555362.806 8  84431980.304 7
R17  19431472.227 8  19431475.652 7 103981734.188 8  80874887.425 7
R24  20994076.836 7  20994080.836 6 112264763.080 7  87316980.635 6
> 2025 06 15 10 52 15.0000000  0 21
C19  22462591.906 7 116968612.715 7
C20  23657027.055 7 123188347.942 7
C22  24844935.445 7 129374104.659 7
C29  24147726.375 5 125743537.145 5
E02  26095669.305 6  26095672.797 8 137133669.606 6 103740741.786 8
E04  25886429.867 7  25886431.574 8 136034101.699 7 102908924.861 8
E06  25446336.141 7  25446339.336 8 133721407.530 7 101159385.549 8
E11  25703971.289 7  25703970.699 7 135075272.097 7 102183566.432 7
E30  26486675.906 5  26486678.594 5 139188530.35815 105295183.92215
E34  25658234.070 8  25658236.535 8 134834928.728 8 102001764.302 8
E36  23505843.930 8  23505846.340 8 123524042.753 8  93445144.456 8
G01  22839983.633 5                  22839989.672 5 120024943.979 5                  93525937.224 5
G02  21265435.633 8  21265437.340 6                 111750620.199 8  87078410.899 6
G08  20553258.539 8                  20553265.543 8 108008142.078 8                  84162243.515 8
G10  21737064.172 7                  21737070.543 7 114229045.670 7                  89009646.541 7
G27  22052349.563 7                  22052357.324 7 115885878.108 7                  90300588.982 7
G32  22380156.211 7                  22380164.684 7 117608524.931 7                  91643008.801 7
R01  20164264.586 7                 107789552.769 7
R02  20339254.133 8  20339259.883 7 108534153.608 8  84415484.275 7
R17  19429130.516 8  19429134.742 7 103969206.891 8  80865143.998 7
R24  20995102.063 7  20995106.051 6 112270243.695 7  87321243.319 6
> 2025 06 15 10 52 20.0000000  0 21
C19  22460081.672 7 116955538.039 7
C20  23657418.461 7 123190387.545 7
C22  24840204.781 7 129349469.604 7
C29  24148979.711 6 125750056.755 6
E02  26096646.844 7  26096649.441 8 137138801.408 7 103744623.937 8
E04  25885152.430 7  25885155.332 8 136027395.026 7 102903851.295 8
E06  25443738.813 7  25443742.488 8 133707760.811 7 101149061.910 8
E11  25704498.672 7  25704498.246 7 135078044.311 7 102185663.579 7
E30  26485342.992 5  26485347.430 5 139181534.818 5 105289891.880 5
E34  25654814.438 8  25654816.973 8 134816959.015 8 101988170.299 8
E36  23504425.633 8  23504428.121 8 123516589.646 8  93439506.227 8
G01  22835823.234 5                  22835827.520 5 120003075.079 5                  93508896.480 5
G02  21262717.719 8  21262719.594 6                 111736339.666 8  87067283.216 6
G08  20552720.875 8                  20552727.234 8 108005312.810 8                  84160038.890 8
G10  21737556.023 7                  21737562.258 7 114231627.947 7                  89011658.703 7
G27  22053879.672 7                  22053886.973 7 115893915.586 7                  90306851.945 7
G32  22377157.656 7                  22377166.723 7 117592770.156 7                  91630732.386 7
R01  20164251.641 8                 107789480.573 8
R02  20335283.039 8  20335288.715 7 108512963.096 8  84399002.790 7
R17  19426792.172 8  19426796.402 7 103956693.083 8  80855411.056 7
R24  20996129.328 7  20996133.105 6 112275734.890 7  87325514.221 6
> 2025 06 15 10 52 25.0000000  0 21
C19  22457574.469 7 116942477.976 7
C20  23657811.672 7 123192439.361 7
C22  24835475.742 7 129324839.701 7
C29  24150231.617 5 125756582.771 5
E02  26097624.234 7  26097627.445 8 137143940.680 7 103748511.786 8
E04  25883879.266 7  25883881.672 8 136020701.762 7 102898787.881 8
E06  25441144.602 7  25441147.859 7 133694126.313 7 101138747.527 7
E11  25705027.086 7  25705026.621 7 135080820.662 7 102187763.862 7
E30  26484016.469 5  26484018.676 6 139174552.88615 105284609.98216
E34  25651395.461 7  25651398.309 8 134798993.140 7 101974579.255 8
E36  23503008.711 8  23503011.121 8 123509143.320 8  93433873.135 8
G01  22831662.289 5                  22831666.121 5 119981211.198 5                  93491859.763 5
G02  21260002.352 8  21260003.820 6                 111722067.701 8  87056162.201 6
G08  20552185.742 8                  20552192.238 8 108002499.828 8                  84157846.952 8
G10  21738049.891 7                  21738055.340 7 114234220.704 7                  89013679.036 7
G27  22055409.961 7                  22055418.027 7 115901963.173 7                  90313122.765 7
G32  22374162.211 7                  22374170.871 7 117577030.135 7                  91618467.438 7
R01  20164242.047 8                 107789430.551 8
R02  20331314.125 8  20331320.773 7 108491791.688 8  84382536.169 7
R17  19424455.227 8  19424460.352 7 103944193.061 8  80845688.810 7
R24  20997157.055 7  20997162.844 6 112281237.187 7  87329793.862 6
> 2025 06 15 10 52 30.0000000  0 21
C19  22455069.445 8 116929432.437 8
C20  23658208.414 7 123194503.219 7
C22  24830745.797 7 129300214.840 7
C29  24151487.891 5 125763114.978 5
E02  26098603.383 6  26098606.926 8 137149087.380 6 103752405.223 8
E04  25882607.344 7  25882610.691 8 136014021.768 7 102893734.540 8
E06  25438552.766 7  25438555.590 8 133680503.840 7 101128442.244 8
E11  25705556.391 7  25705555.738 7 135083600.989 7 102189867.168 7
E30  26482688.305 5  26482692.395 5 139167583.79715 105279337.86015
E34  25647977.328 8  25647980.160 8 134781030.893 8 101960990.922 8
E36  23501592.836 8  23501595.355 8 123501703.652 8  93428245.071 8
G01  22827499.266 4                                                                
G02  21257287.945 8  21257290.277 6                 111707804.143 8  87045047.744 6
G08  20551653.203 8                  20551659.406 8 107999702.977 8                  84155667.591 8
G10  21738545.078 7                  21738550.672 7 114236823.797 7                  89015707.417 7
G27  22056943.219 7                  22056951.703 7 115910020.798 7                  90319401.433 7
G32  22371169.766 7                  22371178.258 7 117561304.678 7                  91606213.854 7
R01  20164236.578 8                 107789402.490 8
R02  20327350.875 8  20327356.734 7 108470639.120 8  84366084.172 7
R17  19422121.906 8  19422126.852 7 103931706.729 8  80835977.229 7
R24  20998188.648 7  20998194.285 5 112286750.406 7  87334081.864 5
> 2025 06 15 10 52 35.0000000  0 21
C19  22452567.063 8 116916402.285 8
C20  23658608.031 7 123196580.019 7
C22  24826017.953 7 129275595.992 7
C29  24152743.828 5 125769654.439 5
E02  26099585.375 6  26099587.824 8 137154242.393 6 103756304.943 8
E04  25881339.273 7  25881342.176 8 136007356.016 7 102888691.932 8
E06  25435962.289 7  25435965.734 7 133666894.388 7 101118146.791 7
E11  25706086.336 7  25706085.738 7 135086386.243 7 102191974.174 7
E30  26481365.586 4  26481369.109 5 139160628.942 4 105274076.641 5
E34  25644560.516 8  25644563.141 8 134763073.270 8 101947406.141 8
E36  23500178.445 8  23500181.035 8 123494271.537 8  93422622.727 8
G01  22823343.922 5                  22823347.867 5 119937500.13015                  93457799.04515
G02  21254575.711 8  21254576.949 6                 111693549.909 8  87033940.548 6
G08  20551123.492 8                  20551131.047 8 107996923.202 8                  84153501.530 8
G10  21739042.430 8                  21739048.375 7 114239438.170 8                  89017744.582 7
G27  22058478.625 7                  22058486.488 7 115918089.345 7                  90325688.607 7
G32  22368181.023 7                  22368188.789 7 117545594.733 7                  91593972.354 7
R01  20164236.039 8                 107789397.344 8
R02  20323390.172 8  20323396.230 7 108449506.433 8  84349647.659 7
R17  19419791.633 8  19419796.391 7 103919235.111 8  80826277.075 7
R24  20999222.438 7  20999226.617 6 112292275.611 7  87338379.268 6
> 2025 06 15 10 52 40.0000000  0 20
C19  22450066.734 8 116903387.661 8
C20  23659009.773 7 123198669.882 7
C22  24821291.492 7 129250983.205 7
C29  24154000.938 5 125776201.056 5
E02  26100567.313 6  26100570.320 8 137159405.762 6 103760210.996 8
E04  25880074.719 7  25880076.332 8 136000704.512 7 102883660.113 8
E06  25433374.680 7  25433378.355 7 133653298.062 7 101107861.267 7
E11  25706617.070 7  25706616.641 7 135089176.455 7 102194084.959 7
E30  26480045.000 5  26480048.156 5 139153688.415 5 105268826.18815
E34  25641144.008 8  25641146.914 8 134745120.368 8 101933824.888 8
E36  23498765.211 8  23498768.238 8 123486847.096 8  93417006.191 8
G02  21251865.234 8  21251865.984 6                 111679305.102 8  87022840.701 6
G08  20550598.523 8                  20550605.051 8 107994160.564 8                  84151348.842 8
G10  21739541.898 7                  21739547.496 7 114242063.887 7                  89019790.587 7
G27  22060015.813 7                  22060024.188 7 115926168.936 7                  90331984.386 7
G32  22365194.672 7                  22365202.020 7 117529900.402 7                  91581743.019 7
R01  20164239.656 8                 107789415.106 8
R02  20319435.758 8  20319439.984 7 108428393.823 8  84333226.754 7
R17  19417463.453 8  19417468.238 7 103906778.245 8  80816588.387 7
R24  21000257.664 7  21000261.781 6 112297812.732 7  87342685.888 6
> 2025 06 15 10 52 45.0000000  0 20
C19  22447570.008 7 116890386.989 7
C20  23659413.203 7 123200771.245 7
C22  24816564.563 7 129226374.961 7
C29  24155261.938 5 125782753.451 5
E02  26101550.688 6  26101554.215 8 137164575.974 6 103764122.195 8
E04  25878811.094 7  25878813.031 8 135994065.736 7 102878637.925 8
E06  25430789.336 7  25430793.301 7 133639713.274 7 101097584.455 7
E11  25707148.594 7  25707148.227 7 135091970.146 7 102196198.372 7
E30  26478724.836 5  26478729.625 6 139146760.586 5 105263585.318 6
E34  25637727.828 7  25637731.332 8 134727170.639 7 101920246.033 8
E36  23497353.984 8  23497356.570 9 123479428.756 8  93411394.259 9
G02  21249156.258 8  21249157.078 6                 111665068.163 8  87011746.984 6
G08  20550075.258 8                  20550082.461 8 107991413.528 8                  84149208.284 8
G10  21740042.734 7                  21740049.391 7 114244699.389 7                  89021844.209 7
G27  22061556.039 7                  22061563.723 7 115934257.903 7                  90338287.468 7
G32  22362210.141 7                  22362218.043 7 117514220.168 7                  91569524.641 7
R01  20164246.266 7                 107789454.259 7
R02  20315481.039 8  20315486.344 7 108407299.626 8  84316820.162 7
R17  19415137.773 8  19415142.406 7 103894334.527 8  80806909.958 7
R24  21001295.141 7  21001299.160 6 112303360.365 7  87347000.711 6
> 2025 06 15 10 52 50.0000000  0 20
C19  22445076.078 7 116877400.923 7
C20  23659818.797 7 123202884.753 7
C22  24811839.945 7 129201771.917 7
C29  24156520.211 6 125789312.258 6
E02  26102536.500 7  26102539.504 8 137169753.620 7 103768039.029 8
E04  25877549.539 7  25877552.230 8 135987440.400 7 102873625.897 8
E06  25428205.242 6  25428210.363 7 133626140.670 6 101087316.874 7
E11  25707681.148 7  25707680.605 7 135094767.902 7 102198314.846 7
E30  26477408.047 5  26477414.078 6 139139846.066 5 105258354.533 6
E34  25634312.742 7  25634316.379 8 134709224.660 7 101906670.032 8
E36  23495943.609 8  23495946.184 8 123472017.196 8  93405787.464 8
G02  21246448.383 8  21246449.941 6                 111650839.763 8  87000659.923 6
G08  20549555.555 8                  20549562.516 8 107988682.719 8                  84147080.377 8
G10  21740546.734 7                  21740553.273 7 114247345.280 7                  89023905.942 7
G27  22063097.508 7                  22063104.832 7 115942356.993 7                  90344598.422 7
G32  22359229.992 7                  22359236.895 7 117498554.619 7                  91557317.716 7
R01  20164258.531 8                 107789515.442 8
R02  20311531.836 8  20311537.426 7 108386224.501 8  84300428.404 7
R17  19412815.719 8  19412819.863 7 103881904.699 8  80797242.295 7
R24  21002334.539 7  21002338.363 6 112308918.980 7  87351324.117 6
> 2025 06 15 10 52 55.0000000  0 20
C19  22442585.414 8 116864429.785 8
C20  23660226.930 7 123205010.659 7
C22  24807116.359 7 129177174.369 7
C29  24157779.641 5 125795877.656 5
E02  26103522.258 6  26103526.301 8 137174938.981 6 103771961.748 8
E04  25876292.227 7  25876294.004 8 135980828.719 7 102868624.212 8
E06  25425625.945 6  25425629.918 7 133612580.588 6 101077058.740 7
E11  25708214.258 7  25708213.836 7 135097570.091 7 102200434.680 7
E30  26476092.969 4                 139132813.15214
E34  25630898.641 7  25630902.273 8 134691282.817 7 101893097.148 8
E36  23494534.563 8  23494537.152 8 123464612.700 8  93400186.004 8
G02  21243742.125 8  21243743.699 6                 111636620.250 8  86989579.796 6
G08  20549039.070 8                  20549046.043 8 107985968.510 8                  84144965.382 8
G10  21741051.727 7                  21741058.707 7 114250001.911 7                  89025976.072 7
G27  22064640.773 7                  22064648.395 7 115950466.454 7                  90350917.488 7
G32  22356251.266 7                  22356258.688 7 117482904.167 7                  91545122.551 7
R01  20164273.609 8                 107789598.942 8
R02  20307586.648 8  20307591.684 7 108365168.852 8  84284051.809 7
R17  19410495.766 8  19410499.527 7 103869489.155 8  80787585.758 7
R24  21003375.320 7  21003380.117 6 112314488.935 7  87355656.337 6
> 2025 06 15 10 53  0.0000000  0 19
C19  22440097.016 7 116851472.794 7
C20  23660638.273 7 123207148.232 7
C22  24802393.203 7 129152581.563 7
C29  24159041.867 5 125802448.943 5
E02  26104510.914 6  26104514.262 8 137180131.391 6 103775889.746 8
E04  25875035.703 7  25875038.316 8 135974229.944 7 102863632.280 8
E06  25423047.875 6  25423051.645 7 133599032.243 6 101066809.515 7
E11  25708747.375 7  25708747.730 7 135100375.887 7 102202557.233 7
E34  25627485.625 7  25627488.766 8 134673344.346 7 101879526.808 8
E36  23493126.469 8  23493129.305 8 123457214.502 8  93394589.314 8
G02  21241038.242 8  21241039.273 6                 111622408.792 8  86978505.922 6
G08  20548525.852 8                  20548532.625 8 107983270.028 8                  84142862.680 8
G10  21741559.406 7                  21741566.191 7 114252668.466 7                  89028053.908 7
G27  22066185.938 7                  22066193.477 7 115958585.522 7                  90357244.003 7
G32  22353275.266 7                  22353283.328 7 117467267.928 7                  91532938.497 7
R01  20164293.625 8                 107789704.055 8
R02  20303644.578 8  20303648.785 7 108344131.941 8  84267689.792 7
R17  19408176.969 8  19408182.160 8 103857086.898 8  80777939.566 8
R24  21004418.398 7  21004424.074 6 112320069.500 7  87359996.738 6
> 2025 06 15 10 53  5.0000000  0 19
C19  22437611.797 8 116838530.648 8
C20  23661051.609 7 123209298.145 7
C22  24797671.844 7 129127994.249 7
C29  24160305.273 5 125809026.773 5
E02  26105500.117 6  26105503.801 8 137185331.417 6 103779823.538 8
E04  25873783.086 7  25873785.059 8 135967644.785 7 102858650.652 8
E06  25420472.039 6  25420475.766 7 133585496.339 6 101056569.692 7
E11  25709282.633 7  25709282.516 7 135103186.016 7 102204683.078 7
E34  25624072.344 7  25624075.898 8 134655409.833 7 101865959.473 8
E36  23491720.047 8  23491722.723 8 123449823.285 8  93388997.913 8
G02  21238335.289 8  21238336.230 6                 111608206.095 8  86967438.893 6
G08  20548015.266 8                  20548022.094 8 107980587.991 8                  84140772.801 8
G10  21742068.742 7                  21742075.527 7 114255345.680 7                  89030140.020 7
G27  22067732.359 7                  22067740.879 7 115966714.845 7                  90363578.522 7
G32  22350302.828 7                  22350310.672 7 117451646.694 7                  91520766.129 7
R01  20164317.039 8                 107789831.288 8
R02  20299705.305 8  20299709.773 7 108323114.313 8  84251342.717 7
R17  19405862.297 8  19405867.027 7 103844698.779 8  80768304.365 7
R24  21005462.578 6  21005470.090 6 112325661.396 6  87364346.005 6
> 2025 06 15 10 53 10.0000000  0 20
C19  22435128.695 8 116825604.165 8
C20  23661466.867 7 123211461.184 7
C22  24792951.281 7 129103413.145 7
C29  24161572.016 5 125815612.04515
E02  26106491.641 6  26106494.906 8 137190539.908 6 103783763.723 8
E04  25872532.664 7  25872534.773 8 135961074.065 7 102853679.934 8
E06  25417899.586 7  25417902.441 7 133571973.682 7 101046339.929 7
E11  25709818.516 7  25709818.301 7 135106001.248 7 102206812.764 7
E34  25620660.477 7  25620663.863 8 134637480.256 7 101852395.843 8
E36  23490315.609 8  23490317.633 8 123442439.861 8  93383412.401 8
G01  22794266.203 5                                                                
G02  21235634.617 8  21235635.203 6                 111594012.979 8  86956379.331 6
G08  20547507.953 8                  20547515.160 8 107977923.246 8                  84138696.378 8
G10  21742580.281 7                  21742587.320 7 114258034.286 7                  89032235.056 7
G27  22069281.359 7                  22069289.777 7 115974855.254 7                  90369921.699 7
G32  22347333.234 7                  22347341.512 7 117436041.245 7                  91508606.066 7
R01  20164345.141 8                 107789981.597 8
R02  20295770.305 8  20295775.898 7 108302116.846 8  84235011.369 7
R17  19403548.625 8  19403555.043 7 103832325.657 8  80758680.833 7
R24  21006511.734 7  21006518.422 6 112331265.340 7  87368704.585 6
> 2025 06 15 10 53 15.0000000  0 20
C19  22432648.984 7 116812692.896 7
C20  23661883.969 7 123213636.938 7
C22  24788230.813 7 129078837.918 7
C29  24162838.758 4 125822204.15014
E02  26107484.398 6  26107487.492 8 137195756.465 6 103787709.969 8
E04  25871285.070 7  25871287.035 8 135954517.333 7 102848719.807 8
E06  25415328.961 7  25415331.590 7 133558463.909 7 101036119.865 7
E11  25710355.781 7  25710354.922 7 135108821.184 7 102208946.016 7
E34  25617249.336 7  25617252.699 8 134619555.021 7 101838835.533 8
E36  23488911.203 8  23488914.031 8 123435063.824 8  93377832.481 8
G01  22790115.461 5                                 119762871.70915                
G02  21232935.195 8  21232936.203 6                 111579829.045 8  86945326.929 6
G08  20547004.305 8                  20547011.199 8 107975275.369 8                  84136633.067 8
G10  21743093.891 7                  21743101.094 7 114260733.894 7                  89034338.649 7
G27  22070834.156 7                  22070840.438 7 115983006.328 7                  90376273.169 7
G32  22344366.766 7                  22344374.848 7 117420451.189 7                  91496457.972 7
R01  20164377.281 8                 107790154.510 8
R02  20291839.078 8  20291844.715 7 108281139.354 8  84218695.562 7
R17  19401241.914 8  19401245.625 8 103819966.988 8  80749068.512 8
R24  21007561.352 7  21007567.980 6 112336881.026 7  87373072.315 6
> 2025 06 15 10 53 20.0000000  0 20
C19  22430173.203 7 116799797.816 7
C20  23662304.102 7 123215826.314 7
C22  24783512.281 6 129054269.475 6
C29  24164102.266 5 125828804.13615
E02  26108478.305 6  26108482.043 8 137200981.977 6 103791663.031 8
E04  25870040.000 7  25870042.098 8 135947975.534 7 102843770.999 8
E06  25412760.273 7  25412763.422 8 133544967.895 7 101025910.227 8
E11  25710893.031 7  25710892.660 7 135111646.761 7 102211083.537 7
E34  25613839.688 7  25613842.734 8 134601635.220 7 101825279.316 8
E36  23487509.617 8  23487511.973 8 123427696.121 8  93372258.861 8
G01  22785965.844 5                  22785969.039 5 119741069.954 5                  93304730.58615
G02  21230237.859 8  21230239.332 6                 111565655.263 8  86934282.400 6
G08  20546503.961 8                  20546510.672 8 107972645.292 8                  84134583.652 8
G10  21743609.766 7                  21743617.043 7 114263445.476 7                  89036451.543 7
G27  22072386.492 7                  22072393.754 7 115991168.990 7                  90382633.677 7
G32  22341403.555 7                  22341410.910 7 117404877.465 7                  91484322.615 7
R01  20164414.406 7                 107790350.991 7
R02  20287912.766 8  20287917.254 7 108260182.501 8  84202395.768 7
R17  19398933.602 8  19398939.535 8 103807623.817 8  80739468.291 8
R24  21008614.320 7  21008620.398 6 112342509.408 7  87377449.850 6
> 2025 06 15 10 53 25.0000000  0 20
C19  22427699.063 7 116786918.888 7
C20  23662727.820 7 123218029.267 7
C22  24778796.125 6 129029707.789 6
C29  24165372.172 4 125835412.03914
E02  26109474.484 6  26109478.184 8 137206216.394 6 103795622.816 8
E04  25868798.055 7  25868800.121 8 135941448.655 7 102838833.451 8
E06  25410194.414 7  25410197.887 8 133531485.629 7 101015711.005 8
E11  25711431.859 7  25711431.520 7 135114477.967 7 102213225.323 7
E34  25610430.719 7  25610433.563 8 134583720.700 7 101811727.118 8
E36  23486109.008 8  23486111.504 8 123420336.708 8  93366691.518 8
G01  22781817.508 5                  22781823.301 5 119719275.01815                  93287747.52615
G02  21227542.352 8  21227543.895 6                 111551491.525 8  86923245.733 6
G08  20546006.570 8                  20546013.434 8 107970032.910 8                  84132548.021 8
G10  21744128.063 7                  21744135.168 7 114266168.930 7                  89038573.708 7
G27  22073941.758 7                  22073948.977 7 115999343.205 7                  90389003.171 7
G32  22338443.180 7                  22338450.359 7 117389320.064 7                  91472200.006 7
R01  20164454.906 7                 107790570.978 7
R02  20283989.133 8  20283993.410 7 108239246.419 8  84186112.155 7
R17  19396630.648 8  19396635.191 8 103795296.103 8  80729880.087 8
R24  21009669.555 7  21009675.289 6 112348150.352 7  87381837.263 6
> 2025 06 15 10 53 30.0000000  0 19
C19  22425229.266 7 116774055.070 7
C20  23663153.328 7 123220244.773 7
C22  24774081.336 6 129005151.860 6
E02  26110472.547 6  26110475.785 8 137211458.698 6 103799588.583 8
E04  25867558.836 7  25867560.723 8 135934935.659 7 102833906.392 8
E06  25407631.102 6  25407634.668 8 133518016.109 6 101005521.435 8
E11  25711971.383 7  25711971.160 7 135117313.752 7 102215370.562 7
E34  25607022.586 7  25607025.289 8 134565810.481 7 101798178.171 8
E36  23484709.938 8  23484712.461 8 123412984.532 8  93361129.638 8
G01  22777669.164 4                                                                
G02  21224849.094 8  21224850.215 6                 111537336.804 8  86912216.093 6
G08  20545512.633 8                  20545519.770 8 107967437.255 8                  84130525.450 8
G10  21744648.508 7                  21744655.926 7 114268903.210 7                  89040704.308 7
G27  22075498.852 7                  22075506.836 7 116007527.891 7                  90395380.833 7
G32  22335485.172 7                  22335492.711 7 117373777.943 7                  91460089.255 7
R01  20164500.117 7                 107790813.390 7
R02  20280068.641 8  20280073.656 7 108218330.066 8  84169843.935 7
R17  19394329.055 8  19394334.254 7 103782982.830 8  80720303.104 7
R24  21010727.844 7  21010731.832 6 112353802.770 7  87386233.499 6
> 2025 06 15 10 53 35.0000000  0 19
C19  22422761.250 7 116761205.750 7
C20  23663581.109 7 123222472.212 7
C22  24769366.852 6 128980601.071 6
E02  26111471.570 6  26111474.754 8 137216708.229 6 103803559.814 8
E04  25866321.656 7  25866323.832 8 135928435.845 7 102828989.346 8
E06  25405070.172 6  25405073.711 7 133504558.677 6 100995341.001 7
E11  25712511.758 7  25712511.492 7 135120153.457 7 102217518.768 7
E34  25603615.023 7  25603617.855 8 134547903.969 7 101784632.008 8
E36  23483312.203 8  23483314.695 8 123405638.985 8  93355572.776 8
G01  22773525.555 5                  22773526.602 4 119675701.77315                  93253794.47314
G02  21222156.969 8  21222158.285 6                 111523190.522 8  86901193.031 6
G08  20545021.758 8                  20545028.844 8 107964857.678 8                  84128515.396 8
G10  21745170.969 7                  21745178.273 7 114271647.688 7                  89042842.865 7
G27  22077058.563 7                  22077066.406 7 116015722.436 7                  90401766.158 7
G32  22332530.320 7                  22332538.016 7 117358250.519 7                  91447989.952 7
R01  20164549.531 7                 107791077.580 7
R02  20276152.484 8  20276157.691 7 108197432.609 8  84153590.356 7
R17  19392030.336 8  19392035.586 7 103770683.394 8  80710736.881 7
R24  21011786.680 7  21011791.859 7 112359466.065 7  87390638.295 7
> 2025 06 15 10 53 40.0000000  0 19
C19  22420296.648 7 116748370.816 7
C20  23664010.297 7 123224711.419 7
C22  24764652.984 6 128956055.313 6
E02  26112471.734 6  26112474.816 8 137221964.876 6 103807536.429 8
E04  25865086.727 7  25865089.387 8 135921949.207 7 102824082.253 8
E06  25402512.469 6  25402515.160 7 133491113.325 6 100985169.682 7
E11  25713052.773 7  25713052.617 7 135122997.004 7 102219669.886 7
E34  25600208.188 7  25600210.934 8 134530000.994 7 101771088.529 8
E36  23481915.609 8  23481918.141 8 123398299.965 8  93350020.857 8
G01  22769379.633 4                  22769381.727 4 119653922.719 4                  93236823.891 4
G02  21219466.578 8  21219467.438 6                 111509052.624 8  86890176.474 6
G08  20544534.570 8                  20544541.027 8 107962294.082 8                  84126517.792 8
G10  21745695.219 7                  21745702.594 8 114274402.258 7                  89044989.275 8
G27  22078620.320 7                  22078627.434 7 116023926.718 7                  90408159.107 7
G32  22329579.016 7                  22329586.102 7 117342737.654 7                  91435901.947 7
R01  20164602.867 7                 107791363.348 7
R02  20272239.961 8  20272245.383 7 108176554.313 8  84137351.686 7
R17  19389735.703 8  19389739.629 7 103758397.472 8  80701181.161 7
R24  21012849.656 7  21012852.469 6 112365140.149 7  87395051.458 6
> 2025 06 15 10 53 45.0000000  0 18
C19  22417834.539 7 116735550.375 7
C20  23664443.125 7 123226962.502 7
C22  24759940.344 6 128931514.707 6
E02  26113474.086 6  26113476.539 8 137227228.753 6 103811518.484 8
E04  25863855.094 7  25863857.492 8 135915475.770 7 102819185.146 8
E06  25399955.594 6  25399959.016 7 133477679.955 6 100975007.430 7
E11  25713595.063 7  25713594.512 7 135125844.489 7 102221823.969 7
E34  25596802.672 7  25596804.910 8 134512101.697 7 101757547.822 8
E36  23480520.000 8  23480522.859 8 123390967.514 8  93344473.913 8
G02  21216778.156 8  21216778.902 6                 111494923.064 8  86879166.421 6
G08  20544049.773 8                  20544055.902 8 107959746.512 8                  84124532.653 8
G10  21746221.211 7                  21746228.582 7 114277166.966 7                  89047143.598 7
G27  22080182.867 7                  22080189.941 7 116032140.837 7                  90414559.717 7
G32  22326629.203 7                  22326637.137 7 117327239.377 7                  91423825.425 7
R01  20164660.891 8                 107791670.854 8
R02  20268331.125 8  20268335.758 7 108155695.048 8  84121127.826 7
R17  19387441.953 8  19387446.152 7 103746125.521 8  80691636.299 7
R24  21013911.039 7  21013915.758 7 112370825.060 7  87399473.048 7
> 2025 06 15 10 53 50.0000000  0 19
C19  22415375.609 7 116722744.660 7
C20  23664877.422 7 123229225.726 7
C22  24755227.938 6 128906979.493 6
E02  26114475.391 6  26114479.625 8 137232500.059 6 103815506.173 8
E04  25862625.742 7  25862628.148 8 135909015.833 7 102814298.234 8
E06  25397400.977 6  25397405.141 8 133464259.009 6 100964854.556 8
E11  25714137.648 7  25714137.215 7 135128696.101 7 102223981.189 7
E34  25593397.219 7  25593399.535 8 134494206.277 7 101744010.061 8
E36  23479126.227 8  23479128.848 9 123383641.958 8  93338932.170 9
G01  22761094.977 5                                 119610379.36815                
G02  21214091.148 8  21214092.043 6                 111480802.168 8  86868163.133 6
G08  20543567.844 8                  20543574.645 8 107957215.237 8                  84122560.232 8
G10  21746749.250 7                  21746756.598 7 114279942.102 7                  89049306.025 7
G27  22081748.281 7                  22081755.301 7 116040365.007 7                  90420968.130 7
G32  22323682.844 7                  22323690.691 7 117311756.053 7                  91411760.484 7
R01  20164722.578 8                 107792000.379 8
R02  20264426.516 8  20264430.770 7 108134855.251 8  84104919.093 7
R17  19385151.711 8  19385155.605 7 103733867.547 8  80682102.308 7
R24  21014976.938 7  21014981.727 7 112376521.227 7  87403903.377 7
> 2025 06 15 10 53 55.0000000  0 19
C19  22412919.734 7 116709952.831 7
C20  23665314.523 7 123231500.203 7
C22  24750518.828 7 128882448.793 7
E02  26115480.930 6  26115484.293 8 137237777.927 6 103819498.866 8
E04  25861399.133 7  25861401.414 8 135902568.460 7 102809420.853 8
E06  25394849.344 6  25394853.355 8 133450849.561 6 100954710.386 8
E11  25714680.859 7  25714680.508 7 135131551.047 7 102226140.929 7
E34  25589992.469 7  25589994.582 8 134476313.892 7 101730474.616 8
E36  23477733.609 8  23477735.926 8 123376322.367 8  93333394.956 8
G01  22756958.633 5                  22756957.105 5 119588615.58315                  93185933.77115
G02  21211405.070 8  21211406.508 6                 111466689.102 8  86857165.946 6
G08  20543088.922 8                  20543095.738 8 107954699.437 8                  84120599.882 8
G10  21747279.555 7                  21747286.570 7 114282726.779 7                  89051475.912 7
G27  22083315.680 7                  22083322.320 7 116048598.363 7                  90427383.721 7
G32  22320739.797 7                  22320747.266 7 117296286.765 7                  91399706.505 7
R01  20164787.531 7                 107792350.944 7
R02  20260524.273 8  20260529.402 7 108114033.834 8  84088724.672 7
R17  19382863.383 8  19382867.602 7 103721622.762 8  80672578.583 7
R24  21016042.555 7  21016048.340 7 112382227.527 7  87408341.597 7
> 2025 06 15 10 54  0.0000000  0 19
C19  22410465.125 7 116697174.913 7
C20  23665753.516 7 123233785.909 7
C22  24745807.648 6 128857922.748 6
E02  26116485.711 6  26116489.879 8 137243062.381 6 103823496.523 8
E04  25860174.492 7  25860177.086 8 135896133.723 7 102804553.016 8
E06  25392300.375 6  25392303.879 8 133437451.536 6 100944574.901 8
E11  25715224.758 7  25715224.461 7 135134409.291 7 102228303.154 7
E34  25586587.617 7  25586590.461 8 134458424.616 7 101716941.502 8
E36  23476341.766 8  23476344.203 8 123369008.793 8  93327862.292 8
G01  22752815.234 5                  22752816.348 4 119566856.091 5                  93168978.290 4
G02  21208720.578 7  21208722.738 6                 111452583.860 7  86846174.863 6
G08  20542613.500 8                  20542619.645 8 107952199.060 8                  84118651.512 8
G10  21747811.711 7                  21747818.035 7 114285521.016 7                  89053653.235 7
G27  22084883.273 7                  22084890.531 7 116056840.890 7                  90433806.453 7
G32  22317798.273 7                  22317806.258 7 117280831.589 7                  91387663.563 7
R01  20164857.727 7                 107792722.684 7
R02  20256625.180 8  20256630.695 7 108093230.916 8  84072544.645 7
R17  19380576.609 8  19380581.820 8 103709391.183 8  80663065.160 8
R24  21017112.461 7  21017117.414 6 112387944.154 7  87412787.833 6
> 2025 06 15 10 54  5.0000000  0 19
C19  22408014.000 7 116684410.473 7
C20  23666194.141 7 123236082.481 7
C22  24741098.891 6 128833400.807 6
E02  26117493.148 6  26117496.824 8 137248353.004 6 103827498.814 8
E04  25858952.250 7  25858954.785 8 135889711.193 7 102799694.403 8
E06  25389753.461 6  25389756.555 8 133424064.679 6 100934447.842 8
E11  25715769.000 7  25715768.953 7 135137270.464 7 102230467.608 7
E30  26457989.820 5                 139037602.93515
E34  25583183.906 7  25583186.699 8 134440537.961 7 101703410.372 8
E36  23474951.102 8  23474953.520 8 123361700.814 8  93322333.855 8
G02  21206037.859 7  21206039.703 6                 111438486.053 7  86835189.554 6
G08  20542140.508 8                  20542146.887 8 107949713.725 8                  84116714.883 8
G10  21748344.641 7                  21748351.211 7 114288324.370 7                  89055837.645 7
G27  22086454.258 7                  22086460.734 7 116065092.197 7                  90440236.015 7
G32  22314859.945 7                  22314867.930 7 117265390.102 7                  91375631.258 7
R01  20164930.391 7                 107793115.097 7
R02  20252730.016 8  20252735.910 7 108072446.274 8  84056378.833 7
R17  19378293.945 8  19378298.301 7 103697172.355 8  80653561.618 7
R24  21018183.609 7  21018187.965 6 112393670.489 7  87417241.640 6
> 2025 06 15 10 54 10.0000000  0 20
C19  22405565.898 7 116671661.428 7
C20  23666637.727 7 123238391.794 7
C22  24736390.992 7 128808884.949 7
C29  24176851.953 4 125895148.81514
E02  26118501.680 6  26118504.887 8 137253651.720 6 103831507.243 8
E04  25857733.422 7  25857735.324 8 135883302.783 7 102794846.477 8
E06  25387208.242 6  25387211.660 8 133410690.850 6 100924330.626 8
E11  25716314.453 7  25716314.375 7 135140136.466 7 102232635.707 7
E30  26456713.258 5  26456724.840 6 139030904.708 5 105176069.82716
E34  25579780.797 7  25579783.691 8 134422655.901 7 101689882.729 8
E36  23473561.641 8  23473564.238 8 123354400.351 8  93316811.088 8
G02  21203357.211 8  21203358.840 6                 111424397.552 8  86824211.516 6
G08  20541670.180 8                  20541677.004 8 107947245.317 8                  84114791.473 8
G10  21748879.875 7                  21748886.891 7 114291138.734 7                  89058030.672 7
G27  22088026.125 7                  22088033.340 7 116073354.149 7                  90446673.910 7
G32  22311923.914 7                  22311931.684 7 117249964.223 7                  91363611.061 7
R01  20165008.164 7                 107793529.991 7
R02  20248839.297 8  20248843.941 7 108051681.513 8  84040228.468 7
R17  19376012.477 8  19376017.914 7 103684968.325 8  80644069.596 7
R24  21019256.414 7  21019260.941 6 112399408.582 7  87421704.596 6
> 2025 06 15 10 54 15.0000000  0 20
C19  22403120.750 7 116658927.060 7
C20  23667084.297 7 123240713.080 7
C22  24731682.430 6 128784374.488 6
C29  24178130.180 4 125901817.772 4
E02  26119511.133 6  26119514.496 8 137258957.692 6 103835521.164 8
E04  25856516.320 7  25856518.418 8 135876907.731 7 102790008.660 8
E06  25384665.703 6  25384668.973 8 133397329.328 6 100914222.724 8
E11  25716860.992 7  25716860.520 7 135143006.532 7 102234806.893 7
E30  26455438.961 5  26455451.824 6 139024219.907 5 105171012.755 6
E34  25576378.359 7  25576381.594 8 134404777.680 7 101676357.965 8
E36  23472174.055 8  23472176.371 8 123347106.666 8  93311293.462 8
G02  21200678.281 8  21200679.762 6                 111410317.671 8  86813240.176 6
G08  20541204.156 8                  20541210.449 7 107944793.138 8                  84112880.676 7
G10  21749417.445 7                  21749423.848 7 114293963.412 7                  89060231.716 7
G27  22089600.797 7                  22089607.363 7 116081626.054 7                  90453119.541 7
G32  22308991.641 7                  22308999.418 7 117234553.196 7                  91351602.496 7
R01  20165090.602 7                 107793966.834 7
R02  20244951.086 8  20244956.383 7 108030936.183 8  84024093.213 7
R17  19373734.102 8  19373739.840 7 103672778.265 8  80634588.445 7
R24  21020332.125 7  21020336.770 6 112405157.655 7  87426176.111 6
> 2025 06 15 10 54 20.0000000  0 19
C19  22400678.008 7 116646207.538 7
C20  23667531.352 7 123243046.563 7
C22  24726976.914 7 128759869.539 7
E02  26120522.656 6  26120525.660 8 137264271.221 6 103839540.779 8
E04  25855301.609 7  25855304.094 8 135870526.260 7 102785181.118 8
E06  25382124.609 6  25382128.766 8 133383980.210 6 100904124.243 8
E11  25717408.273 7  25717407.488 7 135145880.837 7 102236981.285 7
E30  26454169.148 6  26454181.875 5 139017548.629 6 105165965.939 5
E34  25572976.961 7  25572980.137 8 134386903.498 7 101662836.279 8
E36  23470787.617 8  23470789.789 8 123339819.946 8  93305781.101 8
G02  21198001.289 8  21198001.789 6                 111396246.552 8  86802275.660 6
G08  20540740.094 8                  20540746.875 8 107942357.327 8                  84110982.656 8
G10  21749957.016 7                  21749963.617 7 114296798.520 7                  89062440.901 7
G27  22091176.266 7                  22091183.043 7 116089908.063 7                  90459573.027 7
G32  22306062.117 7                  22306069.730 7 117219157.240 7                  91339605.656 7
R01  20165176.133 7                 107794425.536 7
R02  20241067.109 8  20241072.281 7 108010210.468 8  84007973.223 7
R17  19371460.859 8  19371464.477 7 103660602.255 8  80625118.217 7
R24  21021408.797 7  21021413.727 6 112410917.988 7  87430656.390 6
> 2025 06 15 10 54 25.0000000  0 19
C19  22398237.797 7 116633503.719 7
C20  23667981.070 7 123245393.021 7
C22  24722271.938 7 128735370.982 7
E02  26121535.820 6  26121538.453 8 137269592.996 6 103843566.658 8
E04  25854090.328 7  25854092.531 8 135864159.175 7 102780364.452 8
E06  25379587.359 6  25379591.102 8 133370644.446 6 100894035.856 8
E11  25717955.461 7  25717955.449 7 135148760.271 7 102239159.560 7
E30  26452903.102 6  26452915.086 6 139010891.646 6 105160929.949 6
E34  25569576.641 7  25569579.645 8 134369034.119 7 101649318.223 8
E36  23469402.094 8  23469404.645 8 123332541.005 8  93300274.641 8
G02  21195324.992 8  21195325.770 6                 111382185.046 8  86791318.656 6
G08  20540279.625 8                  20540287.039 8 107939938.734 8                  84109098.040 8
G10  21750498.773 7                  21750505.898 7 114299644.918 7                  89064658.876 7
G27  22092754.523 7                  22092761.445 7 116098200.997 7                  90466035.049 7
G32  22303134.500 7                  22303142.789 7 117203777.257 7                  91327621.214 7
R01  20165265.328 7                 107794907.164 7
R02  20237186.656 8  20237192.176 7 107989505.184 8  83991869.140 7
R17  19369187.945 8  19369191.906 7 103648441.465 8  80615659.823 7
R24  21022488.500 7  21022493.293 7 112416690.420 7  87435146.004 7
> 2025 06 15 10 54 30.0000000  0 19
C19  22395801.594 7 116620814.327 7
C20  23668434.750 7 123247751.239 7
C22  24717567.953 7 128710877.606 7
E02  26122549.266 6  26122552.504 8 137274921.851 6 103847597.933 8
E04  25852880.789 7  25852883.363 8 135857805.271 7 102775557.763 8
E06  25377051.594 6  25377055.621 8 133357320.690 6 100883956.564 8
E11  25718504.219 7  25718504.102 7 135151643.561 7 102241340.736 7
E30  26451637.422 5  26451650.871 5 139004247.767 5 105155903.932 5
E34  25566176.938 7  25566179.809 8 134351168.406 7 101635802.939 8
E36  23468018.492 8  23468020.750 8 123325268.638 8  93294773.138 8
G02  21192650.398 8  21192651.539 6                 111368131.972 8  86780368.200 6
G08  20539822.656 8                  20539829.230 8 107937536.153 8                  84107225.875 8
G10  21751042.906 7                  21751049.027 7 114302501.380 7                  89066884.688 7
G27  22094334.453 7                  22094341.500 7 116106503.631 7                  90472504.619 7
G32  22300211.797 7                  22300218.848 7 117188411.922 7                  91315648.266 7
R01  20165359.156 7                 107795410.488 7
R02  20233310.742 8  20233315.297 7 107968818.980 8  83975779.846 7
R17  19366917.523 8  19366922.016 7 103636294.476 8  80606212.167 7
R24  21023568.906 6  21023574.500 6 112422473.558 6  87439644.036 6
> 2025 06 15 10 54 35.0000000  0 19
C19  22393367.992 8 116608140.863 8
C20  23668891.414 7 123250122.627 7
C22  24712865.156 7 128686390.844 7
E02  26123565.125 6  26123568.242 8 137280259.310 6 103851635.651 8
E04  25851674.305 7  25851677.172 8 135851465.979 7 102770762.134 8
E06  25374518.078 6  25374522.852 8 133344010.657 6 100873887.615 8
E11  25719053.508 7  25719053.824 7 135154532.185 7 102243525.947 7
E30  26450377.461 6  26450389.730 5 138997618.517 6 105150888.945 5
E34  25562777.922 7  25562781.051 8 134333307.775 7 101622291.493 8
E36  23466636.063 8  23466638.387 8 123318004.284 8  93289277.704 8
G02  21189978.617 8  21189979.547 6                 111354088.746 8  86769425.424 6
G08  20539369.305 8                  20539375.559 8 107935150.991 8                  84105367.313 8
G10  21751588.477 7                  21751595.000 7 114305369.344 7                  89069119.461 7
G27  22095916.125 7                  22095923.324 7 116114817.360 7                  90478982.846 7
G32  22297290.336 7                  22297298.555 7 117173062.753 7                  91303687.896 7
R01  20165458.242 7                 107795936.798 7
R02  20229436.422 8  20229443.520 7 107948153.363 8  83959706.595 7
R17  19364650.469 8  19364654.945 8 103624162.671 8  80596776.316 8
R24  21024653.195 6  21024658.512 7 112428268.960 6  87444151.561 7
> 2025 06 15 10 54 40.0000000  0 20
C19  22390936.508 8 116595482.330 8
C20  23669349.711 7 123252506.229 7
C22  24708164.422 6 128661909.731 6
E02  26124580.828 6  26124585.414 8 137285604.230 6 103855679.038 8
E04  25850470.898 7  25850473.480 8 135845140.312 7 102765976.811 8
E06  25371988.195 6  25371992.430 8 133330713.112 6 100863828.104 8
E11  25719604.367 7  25719604.344 7 135157425.120 7 102245714.431 7
E30  26449119.258 5  26449131.031 5 138991002.816 5 105145884.178 5
E34  25559380.125 7  25559383.098 8 134315451.202 7 101608783.139 8
E36  23465254.648 8  23465257.383 8 123310746.955 8  93283787.581 8
G01  22719725.438 5                                 119392979.60515                
G02  21187308.063 8  21187308.730 6                 111340054.397 8  86758489.565 6
G08  20538918.438 8                  20538924.914 8 107932782.243 8                  84103521.545 8
G10  21752136.547 8                  21752142.520 7 114308247.784 8                  89071362.392 7
G27  22097500.383 7                  22097507.051 7 116123141.207 7                  90485468.956 7
G32  22294372.664 7                  22294380.832 7 117157728.749 7                  91291739.291 7
R01  20165560.789 7                 107796485.160 7
R02  20225568.773 8  20225574.570 7 107927507.572 8  83943648.765 7
R17  19362386.672 8  19362390.316 7 103612045.118 8  80587351.558 7
R24  21025739.000 7  21025744.371 7 112434075.484 7  87448667.758 7
> 2025 06 15 10 54 45.0000000  0 20
C19  22388508.219 7 116582838.241 7
C20  23669809.992 7 123254901.556 7
C22  24703464.375 6 128637433.790 6
E02  26125599.539 7  26125603.973 8 137290956.197 7 103859727.755 8
E04  25849269.211 7  25849272.285 8 135838827.821 7 102761201.452 8
E06  25369459.680 6  25369464.246 8 133317427.654 6 100853777.766 8
E11  25720156.078 7  25720155.613 7 135160321.903 7 102247905.807 7
E30  26447862.320 6  26447865.730 6 138984400.271 6 105140889.84016
E34  25555983.125 7  25555985.895 8 134297598.258 7 101595277.524 8
E36  23463874.961 8  23463877.602 8 123303496.171 8  93278302.414 8
G01  22715594.344 5                  22715598.582 5 119371270.061 5                  93016580.65215
G02  21184638.766 8  21184639.910 6                 111326028.444 8  86747560.254 6
G08  20538470.742 8                  20538476.727 8 107930429.477 8                  84101688.220 8
G10  21752685.813 7                  21752692.301 7 114311136.239 7                  89073613.131 7
G27  22099086.281 7                  22099093.078 7 116131474.707 7                  90491962.583 7
G32  22291457.313 7                  22291465.016 7 117142409.437 7                  91279802.190 7
R01  20165668.578 8                 107797055.048 8
R02  20221702.922 8  20221708.918 7 107906880.943 8  83927605.837 7
R17  19360124.094 8  19360128.586 7 103599941.464 8  80577937.596 7
R24  21026827.836 7  21026832.188 6 112439892.918 7  87453192.382 6
> 2025 06 15 10 54 50.0000000  0 20
C19  22386082.602 8 116570210.320 8
C20  23670271.758 7 123257310.308 7
C22  24698765.984 6 128612964.729 6
E02  26126620.750 7  26126624.141 8 137296316.927 7 103863783.090 8
E04  25848071.281 7  25848073.887 8 135832530.172 7 102756437.322 8
E06  25366935.047 6  25366938.695 8 133304155.997 6 100843737.852 8
E11  25720708.148 7  25720707.902 7 135163224.249 7 102250101.404 7
E30  26446607.766 6  26446612.344 6 138977812.501 6 105135906.193 6
E34  25552586.805 7  25552589.645 8 134279750.646 7 101581775.945 8
E36  23462496.969 8  23462499.391 8 123296253.663 8  93272823.506 8
G01  22711461.625 5                  22711470.180 5 119349567.516 5                  92999669.456 5
G02  21181971.555 8  21181972.824 6                 111312012.577 8  86736638.810 6
G08  20538026.133 8                  20538032.613 8 107928094.368 8                  84099868.662 8
G10  21753237.047 7                  21753244.105 7 114314036.396 7                  89075872.982 7
G27  22100673.414 7                  22100681.109 7 116139819.567 7                  90498465.054 7
G32  22288544.648 7                  22288553.066 7 117127106.545 7                  91267877.876 7
R01  20165779.492 8                 107797648.183 8
R02  20217841.102 8  20217847.875 7 107886275.081 8  83911579.085 7
R17  19357864.180 8  19357869.441 7 103587853.329 8  80568535.729 7
R24  21027916.805 7  21027922.832 7 112445722.785 7  87457726.697 7
> 2025 06 15 10 54 55.0000000  0 21
C19  22383660.617 7 116557597.729 7
C20  23670736.477 7 123259731.610 7
C22  24694068.000 6 128588501.779 6
C29  24188417.336 5 125955404.90715
E02  26127642.500 7  26127645.859 8 137301685.513 7 103867844.388 8
E04  25846875.539 7  25846878.156 8 135826246.534 7 102751683.785 8
E06  25364411.352 6  25364415.586 8 133290897.339 6 100833707.764 8
E11  25721261.242 7  25721261.117 7 135166131.313 7 102252300.572 7
E30  26445356.320 6  26445361.609 6 138971238.739 6 105130933.180 6
E34  25549191.727 7  25549194.398 8 134261907.541 7 101568277.764 8
E36  23461119.820 8  23461122.590 8 123289018.568 8  93267350.201 8
G01  22707330.188 4                                                                
G02  21179306.859 8  21179307.676 6                 111298006.004 8  86725724.594 6
G08  20537585.422 8                  20537591.563 7 107925776.091 8                  84098062.203 7
G10  21753791.453 7                  21753798.035 7 114316947.420 7                  89078141.313 7
G27  22102263.734 7                  22102271.570 7 116148174.898 7                  90504975.701 7
G32  22285636.063 7                  22285643.574 7 117111819.226 7                  91255965.686 7
R01  20165895.133 8                 107798263.675 8
R02  20213983.961 8  20213989.883 7 107865689.490 8  83895568.082 7
R17  19355608.031 8  19355613.387 7 103575779.883 8  80559145.276 7
R24  21029010.094 7  21029015.379 7 112451564.270 7  87462270.098 7
> 2025 06 15 10 55  0.0000000  0 21
C19  22381241.531 7 116544999.293 7
C20  23671204.039 7 123262164.279 7
C22  24689369.859 6 128564043.739 6
C29  24189709.820 5 125962134.129 5
E02  26128665.133 7  26128668.801 8 137307060.807 7 103871910.761 8
E04  25845682.328 7  25845684.758 8 135819975.725 7 102746939.966 8
E06  25361890.828 6  25361894.738 8 133277650.453 6 100823686.583 8
E11  25721815.711 7  25721814.980 7 135169041.921 7 102254502.412 7
E30  26444109.047 6  26444113.223 6 138964677.763 6 105125969.807 6
E34  25545796.633 7  25545799.609 8 134244067.719 7 101554782.070 8
E36  23459744.164 8  23459747.012 8 123281789.705 8  93261881.614 8
G01  22703202.703 4                                                                
G02  21176642.344 8  21176643.930 6                 111284007.506 8  86714816.688 6
G08  20537147.172 8                  20537153.375 7 107923473.451 8                  84096267.934 7
G10  21754347.273 7                  21754353.605 7 114319868.113 7                  89080417.155 7
G27  22103854.391 7                  22103863.246 7 116156539.539 7                  90511493.604 7
G32  22282729.211 7                  22282737.184 6 117096546.355 7                  91244064.726 6
R01  20166013.242 8                 107798900.401 8
R02  20210129.563 8  20210135.660 7 107845122.883 8  83879571.861 7
R17  19353355.297 8  19353359.461 7 103563719.990 8  80549765.349 7
R24  21030103.445 6  21030109.570 6 112457416.236 6  87466821.589 6
> 2025 06 15 10 55  5.0000000  0 21
C19  22378824.961 7 116532414.776 7
C20  23671672.961 8 123264608.108 8
C22  24684673.328 6 128539590.380 6
C29  24191003.469 5 125968868.731 5
E02  26129688.688 7  26129692.965 8 137312442.563 7 103875982.028 8
E04  25844491.219 7  25844493.840 8 135813717.531 7 102742205.696 8
E06  25359371.875 6  25359376.137 8 133264415.123 6 100813674.173 8
E11  25722370.211 7  25722369.480 7 135171955.823 7 102256706.751 7
E30  26442862.492 6  26442867.297 6 138958129.357 6 105121015.958 6
E34  25542402.750 7  25542405.500 8 134226231.006 7 101541288.732 8
E36  23458369.828 8  23458372.543 8 123274566.854 8  93256417.573 8
G01  22699073.523 4                                                                
G02  21173980.109 8  21173981.234 6                 111270016.861 8  86703914.893 6
G08  20536711.836 8                  20536718.098 7 107921186.235 8                  84094485.666 7
G10  21754904.820 7                  21754911.266 7 114322798.248 7                  89082700.381 7
G27  22105447.852 7                  22105456.516 7 116164913.272 7                  90518018.570 7
G32  22279826.203 7                  22279833.547 6 117081287.641 7                  91232174.863 6
R01  20166135.750 8                 107799558.108 8
R02  20206280.117 8  20206284.781 7 107824574.912 8  83863590.110 7
R17  19351104.664 8  19351108.469 8 103551673.508 8  80540395.858 8
R24  21031199.391 6  21031205.645 7 112463278.313 6  87471380.984 7
> 2025 06 15 10 55 10.0000000  0 21
C19  22376411.422 7 116519845.445 7
C20  23672144.578 7 123267064.343 7
C22  24679978.844 6 128515142.902 6
C29  24192298.484 5 125975610.112 5
E02  26130714.594 7  26130718.602 8 137317832.057 7 103880059.130 8
E04  25843303.102 7  25843305.527 8 135807473.183 7 102737481.896 8
E06  25356856.148 6  25356859.973 8 133251192.630 6 100803671.452 8
E11  25722925.422 7  25722924.871 7 135174874.287 7 102258914.533 7
E30  26441620.445 6  26441623.859 6 138951594.780 6 105116072.563 6
E34  25539009.078 7  25539012.219 8 134208398.627 7 101527798.672 8
E36  23456996.922 8  23456999.477 8 123267351.290 8  93250959.045 8
G01  22694951.883 5                                 119262810.34715                
G02  21171319.688 8  21171320.617 6                 111256035.395 8  86693020.227 6
G08  20536279.359 8                  20536286.023 8 107918915.671 8                  84092716.394 8
G10  21755464.930 7                  21755470.797 7 114325739.056 7                  89084991.896 7
G27  22107043.625 7                  22107052.105 7 116173297.294 7                  90524551.566 7
G32  22276925.336 7                  22276932.484 6 117066044.398 7                  91220297.029 6
R01  20166263.953 7                 107800237.945 7
R02  20202432.289 8  20202438.086 7 107804046.915 8  83847623.901 7
R17  19348855.406 8  19348860.168 8 103539641.551 8  80531037.680 8
R24  21032297.953 7  21032304.551 7 112469151.961 7  87475949.365 7
> 2025 06 15 10 55 15.0000000  0 21
C19  22374000.945 7 116507290.864 7
C20  23672619.180 7 123269532.495 7
C22  24675285.367 7 128490700.989 7
C29  24193595.438 5 125982357.836 5
E02  26131741.664 7  26131745.645 8 137323228.814 7 103884141.716 8
E04  25842117.484 7  25842119.863 8 135801242.280 7 102732768.263 8
E06  25354341.703 6  25354346.117 8 133237982.548 6 100793678.147 8
E11  25723481.344 7  25723481.004 7 135177796.861 7 102261125.439 7
E30  26440379.859 6  26440382.863 6 138945073.568 6 105111139.32116
E34  25535616.445 7  25535619.652 8 134190570.158 7 101514311.557 8
E36  23455625.055 8  23455627.695 8 123260142.550 8  93245505.675 8
G01  22690828.977 5                                 119241134.457 5                
G02  21168660.813 8  21168661.559 6                 111242062.602 8  86682132.326 6
G08  20535850.469 8                  20535856.930 7 107916661.334 8                  84090959.778 7
G10  21756026.125 7                  21756032.512 7 114328690.104 7                  89087291.416 7
G27  22108641.055 7                  22108649.355 7 116181691.224 7                  90531092.284 7
G32  22274027.398 7                  22274035.156 6 117050816.204 7                  91208430.900 6
R01  20166394.375 7                 107800939.432 7
R02  20198588.664 8  20198594.449 7 107783538.527 8  83831672.936 7
R17  19346609.672 8  19346614.070 7 103527623.724 8  80521690.480 7
R24  21033398.750 7  21033404.691 7 112475036.599 7  87480526.330 7
> 2025 06 15 10 55 20.0000000  0 21
C19  22371591.906 7 116494751.129 7
C20  23673095.688 7 123272012.653 7
C22  24670592.234 7 128466264.663 7
C29  24194891.484 5 125989111.940 5
E02  26132770.203 6  26132774.066 8 137328632.906 6 103888229.863 8
E04  25840934.359 7  25840936.734 8 135795024.875 7 102728064.836 8
E06  25351830.039 6  25351834.703 8 133224784.897 6 100783694.232 8
E11  25724038.148 7  25724038.008 7 135180723.642 7 102263339.518 7
E30  26439141.445 6  26439144.387 6 138938565.885 6 105106216.294 6
E34  25532224.594 7  25532227.820 8 134172745.651 7 101500827.449 8
E36  23454254.836 8  23454257.242 8 123252940.732 8  93240057.545 8
G01  22686706.008 5                  22686731.750 5 119219464.117 5                  92898372.54115
G02  21166003.508 8  21166004.441 6                 111228098.555 8  86671251.257 6
G08  20535424.852 8                  20535431.324 7 107914423.284 8                  84089215.845 7
G10  21756590.164 7                  21756595.781 7 114331651.445 7                  89089598.974 7
G27  22110240.664 7                  22110248.684 7 116190095.071 7                  90537640.697 7
G32  22271133.227 7                  22271140.309 6 117035603.113 7                  91196576.563 6
R01  20166529.813 7                 107801662.862 7
R02  20194749.102 8  20194754.734 7 107763049.796 8  83815737.267 7
R17  19344366.867 8  19344370.781 7 103515620.056 8  80512354.311 7
R24  21034501.656 7  21034507.082 6 112480932.336 7  87485111.913 6
> 2025 06 15 10 55 25.0000000  0 21
C19  22369187.234 7 116482227.284 7
C20  23673574.258 7 123274505.880 7
C22  24665900.898 7 128441835.041 7
C29  24196191.641 5 125995873.428 5
E02  26133800.555 6  26133803.938 8 137334045.413 6 103892324.346 8
E04  25839754.320 7  25839756.395 8 135788822.022 7 102723372.414 8
E06  25349320.164 6  25349325.840 8 133211600.854 6 100773720.609 8
E11  25724596.352 7  25724596.000 7 135183655.679 7 102265557.578 7
E30  26437905.305 6  26437908.672 5 138932072.684 6 105101304.223 5
E34  25528833.477 7  25528836.781 8 134154926.193 7 101487347.172 8
E36  23452885.703 8  23452888.332 8 123245746.882 8  93234615.440 8
G01  22682583.031 5                  22682607.707 5 119197800.291 5                  92881491.666 5
G02  21163347.336 7  21163349.219 6                 111214144.313 7  86660377.840 6
G08  20535002.211 8                  20535008.871 7 107912202.587 8                  84087485.434 7
G10  21757155.719 7                  21757161.438 7 114334624.176 7                  89091915.385 7
G27  22111841.117 7                  22111850.090 7 116198509.870 7                  90544197.680 7
G32  22268241.133 7                  22268248.871 6 117020406.200 7                  91184734.826 6
R01  20166669.961 7                 107802409.231 7
R02  20190913.867 8  20190919.203 7 107742581.753 8  83799817.705 7
R17  19342125.977 8  19342130.809 7 103503631.739 8  80503030.060 7
R24  21035605.914 7  21035611.434 6 112486840.286 7  87489706.968 6
> 2025 06 15 10 55 30.0000000  0 21
C19  22366784.984 7 116469718.647 7
C20  23674055.141 7 123277011.479 7
C22  24661210.180 7 128417411.349 7
C29  24197491.063 5 126002641.729 5
E02  26134831.500 6  26134835.469 8 137339465.598 6 103896424.649 8
E04  25838576.492 7  25838578.645 8 135782633.049 7 102718690.496 8
E06  25346814.203 6  25346819.406 8 133198429.664 6 100763756.712 8
E11  25725155.586 7  25725154.840 7 135186592.288 7 102267779.091 7
E30  26436672.164 5  26436675.801 6 138925593.246 5 105096402.550 6
E34  25525443.188 7  25525446.684 8 134137111.150 7 101473870.192 8
E36  23451518.508 8  23451520.785 8 123238560.288 8  93229178.840 8
G01  22678460.625 4                  22678486.590 5 119176142.296 4                  92864615.428 5
G02  21160694.484 8  21160695.719 6                 111200199.229 8  86649511.547 6
G08  20534583.008 8                  20534589.426 7 107909998.586 8                  84085768.024 7
G10  21757722.641 7                  21757729.492 7 114337607.542 7                  89094240.063 7
G27  22113445.711 7                  22113453.539 7 116206934.938 7                  90550762.671 7
G32  22265351.688 7                  22265360.141 7 117005224.815 7                  91172905.178 7
R01  20166812.953 7                 107803177.587 7
R02  20187082.156 8  20187087.105 7 107722133.901 8  83783913.820 7
R17  19339888.820 8  19339893.027 7 103491658.061 8  80493717.195 7
R24  21036712.547 7  21036718.660 6 112492759.555 7  87494310.858 6
> 2025 06 15 10 55 35.0000000  0 21
C19  22364385.422 7 116457224.912 7
C20  23674538.023 7 123279529.140 7
C22  24656521.000 7 128392993.439 7
C29  24198791.930 5 126009416.410 5
E02  26135863.164 6  26135868.188 8 137344893.197 6 103900530.562 8
E04  25837401.055 7  25837403.551 8 135776457.674 7 102714018.862 8
E06  25344311.289 7  25344315.398 8 133185271.040 7 100753802.309 8
E11  25725715.711 7  25725714.500 7 135189533.169 7 102270003.842 7
E30  26435441.477 6  26435445.535 6 138919127.462 6 105091511.265 6
E34  25522053.367 7  25522057.211 8 134119300.130 7 101460396.260 8
E36  23450152.289 8  23450154.512 8 123231380.715 8  93223747.536 8
G01  22674344.500 4                  22674369.941 6 119154489.924 4                  92847743.494 6
G02  21158041.609 8  21158043.613 6                 111186262.987 8  86638652.158 6
G08  20534166.750 8                  20534173.461 8 107907810.932 8                  84084063.362 8
G10  21758293.219 8                  21758298.695 7 114340601.286 8                  89096572.863 7
G27  22115049.617 7                  22115058.676 7 116215370.018 7                  90557335.431 7
G32  22262466.297 7                  22262473.855 6 116990058.668 7                  91161087.387 6
R01  20166960.594 8                 107803967.893 8
R02  20183253.320 8  20183258.977 7 107701705.638 8  83768025.180 7
R17  19337653.188 8  19337658.324 7 103479698.810 8  80484415.573 7
R24  21037821.445 7  21037827.926 6 112498690.103 7  87498923.474 6
> 2025 06 15 10 55 40.0000000  0 21
C19  22361989.289 7 116444746.745 7
C20  23675023.477 7 123282059.519 7
C22  24651832.789 7 128368581.860 7
C29  24200093.477 5 126016198.215 5
E02  26136898.766 6  26136902.445 8 137350328.781 6 103904642.541 8
E04  25836229.227 7  25836231.117 8 135770296.504 7 102709357.981 8
E06  25341809.898 7  25341813.965 8 133172125.678 7 100743857.926 8
E11  25726275.797 7  25726275.105 7 135192479.004 7 102272232.341 7
E30  26434213.750 6  26434217.773 5 138912675.846 6 105086630.631 5
E34  25518664.766 7  25518668.859 8 134101493.879 7 101446925.976 8
E36  23448787.320 8  23448789.699 8 123224208.796 8  93218322.021 8
G01  22670238.820 4                  22670250.516 6 119132843.999 4                  92830876.537 6
G02  21155390.914 8  21155393.617 6                 111172336.307 8  86627800.192 6
G08  20533753.305 8                  20533760.246 8 107905640.310 8                  84082371.963 8
G10  21758864.688 8                  21758870.453 7 114343606.041 8                  89098914.220 7
G27  22116656.945 7                  22116665.480 7 116223815.689 7                  90563916.491 7
G32  22259583.055 7                  22259590.934 6 116974908.434 7                  91149282.006 6
R01  20167113.508 8                 107804780.669 8
R02  20179429.070 8  20179434.133 7 107681298.072 8  83752152.646 7
R17  19335421.031 8  19335425.918 7 103467754.423 8  80475125.497 7
R24  21038934.086 7  21038938.875 6 112504632.459 7  87503545.268 6
> 2025 06 15 10 55 45.0000000  0 20
C19  22359595.234 7 116432282.871 7
C20  23675511.461 7 123284601.293 7
C22  24647145.383 7 128344175.366 7
C29  24201397.547 5 126022985.768 5
E02  26137934.836 6  26137937.992 8 137355771.067 6 103908759.613 8
E04  25835058.844 7  25835061.207 8 135764148.264 7 102704706.875 8
E06  25339310.828 7  25339314.727 8 133158992.228 7 100733922.564 8
E11  25726836.547 7  25726836.363 7 135195428.440 7 102274463.568 7
E30  26432987.930 5  26432992.637 5 138906237.045 5 105081759.752 5
E34  25515276.781 7  25515281.090 8 134083691.024 7 101433458.242 8
E36  23447423.797 8  23447426.195 8 123217043.205 8  93212901.305 8
G02  21152742.898 7  21152745.176 6                 111158417.813 7  86616954.611 6
G08  20533343.445 8                  20533349.969 8 107903485.393 8                  84080692.797 8
G10  21759437.578 7                  21759444.426 7 114346620.459 7                  89101263.111 7
G27  22118266.141 7                  22118274.793 7 116232270.717 7                  90570504.773 7
G32  22256702.180 7                  22256710.227 6 116959772.709 7                  91137487.945 6
R01  20167269.367 8                 107805614.673 8
R02  20175608.352 8  20175613.105 7 107660909.380 8  83736294.806 7
R17  19333192.305 8  19333196.484 7 103455823.770 8  80465846.069 7
R24  21040048.344 6  21040051.820 6 112510585.277 6  87508175.213 6
> 2025 06 15 10 55 50.0000000  0 20
C19  22357205.070 7 116419833.115 7
C20  23676002.125 7 123287154.304 7
C22  24642460.461 7 128319773.796 7
C29  24202701.406 5 126029779.066 5
E02  26138972.398 6  26138974.926 8 137361219.956 6 103912881.657 8
E04  25833890.633 7  25833893.563 8 135758012.787 7 102700065.424 8
E06  25336814.594 7  25336817.816 8 133145870.633 7 100723996.153 8
E11  25727398.703 7  25727398.316 7 135198381.362 7 102276697.415 7
E30  26431764.836 6  26431769.613 5 138899811.021 6 105076898.505 5
E34  25511889.828 7  25511893.949 8 134065891.486 7 101419992.995 8
E36  23446061.414 8  23446063.793 8 123209883.813 8  93207485.270 8
G02  21150095.969 8  21150098.016 6                 111144507.359 8  86606115.326 6
G08  20532935.547 8                  20532942.914 8 107901346.025 8                  84079025.760 8
G10  21760013.172 7                  21760019.754 7 114349644.428 7                  89103619.430 7
G27  22119876.789 7                  22119885.156 7 116240734.896 7                  90577100.236 7
G32  22253824.656 7                  22253832.992 6 116944651.450 7                  91125705.170 6
R01  20167429.211 8                 107806469.618 8
R02  20171790.797 8  20171796.266 7 107640539.848 8  83720451.844 7
R17  19330964.977 8  19330969.539 7 103443906.695 8  80456577.237 7
R24  21041161.711 6  21041166.813 6 112516548.495 6  87512813.324 6
> 2025 06 15 10 55 55.0000000  0 21
C19  22354816.766 7 116407398.558 7
C20  23676495.219 7 123289719.610 7
C22  24637774.938 7 128295378.252 7
C29  24204010.086 5 126036578.929 5
E02  26140009.969 7  26140013.352 8 137366676.440 7 103917009.448 8
E04  25832726.148 7  25832728.645 8 135751891.168 7 102695434.453 8
E06  25334319.289 7  25334323.242 8 133132761.816 7 100714079.434 8
E11  25727961.375 7  25727961.082 7 135201338.819 7 102278934.697 7
E30  26430543.391 4  26430549.367 5 138893398.841 4 105072047.719 5
E34  25508503.344 7  25508507.629 8 134048096.286 7 101406531.051 8
E36  23444700.484 8  23444702.770 8 123202731.666 8  93202074.714 8
G01  22657871.758 4                                 119067932.69214                
G02  21147450.859 8  21147452.668 6                 111130606.083 8  86595283.170 6
G08  20532532.344 8                  20532539.262 8 107899223.304 8                  84077371.681 8
G10  21760591.305 7                  21760597.152 7 114352678.964 7                  89105983.997 7
G27  22121489.867 7                  22121497.695 7 116249209.254 7                  90583703.616 7
G32  22250949.797 7                  22250958.254 6 116929545.689 7                  91113934.429 6
R01  20167594.500 8                 107807346.590 8
R02  20167978.391 8  20167982.445 7 107620190.360 8  83704624.447 7
R17  19328740.297 8  19328745.176 7 103432004.253 8  80447319.783 7
R24  21042279.023 6  21042284.223 6 112522522.926 6  87517460.152 6
> 2025 06 15 10 56  0.0000000  0 21
C19  22352432.664 7 116394980.364 7
C20  23676990.188 7 123292298.381 7
C22  24633091.602 6 128270989.906 6
C29  24205316.039 4 126043386.604 4
E02  26141049.430 7  26141053.359 8 137372141.739 7 103921143.914 8
E04  25831563.734 7  25831566.598 8 135745784.616 7 102690814.877 8
E06  25331828.156 7  25331831.418 8 133119667.076 7 100704173.364 8
E11  25728525.133 7  25728524.984 7 135204302.025 7 102281176.347 7
E30  26429325.164 5  26429331.902 5 138887001.672 5 105067208.21715
E34  25505118.227 7  25505122.227 8 134030306.604 7 101393073.268 8
E36  23443341.039 8  23443343.359 8 123195587.975 8  93196670.564 8
G01  22653763.172 4                                 119046309.505 4                
G02  21144806.852 7  21144809.090 6                 111116715.193 7  86584459.104 6
G08  20532131.922 8                  20532138.664 8 107897118.373 8                  84075731.481 8
G10  21761170.586 7                  21761176.941 7 114355725.316 7                  89108357.782 7
G27  22123104.047 7                  22123112.430 7 116257695.049 7                  90590315.915 7
G32  22248078.836 7                  22248086.914 6 116914456.644 7                  91102176.745 6
R01  20167761.070 7                 107808246.897 7
R02  20164167.930 8  20164173.051 7 107599862.166 8  83688813.644 7
R17  19326519.750 8  19326523.797 7 103420117.567 8  80438074.601 7
R24  21043399.289 6  21043404.707 6 112528510.211 6  87522116.845 6
> 2025 06 15 10 56  5.0000000  0 21
C19  22350050.539 7 116382576.882 7
C20  23677487.555 7 123294888.953 7
C22  24628409.016 6 128246607.098 6
C29  24206625.820 4 126050200.531 4
E02  26142090.234 6  26142094.828 8 137377614.161 6 103925283.740 8
E04  25830405.023 7  25830407.129 8 135739691.354 7 102686205.361 8
E06  25329338.313 7  25329341.969 8 133106584.699 7 100694276.641 8
E11  25729089.688 7  25729089.656 7 135207269.249 7 102283421.016 7
E30  26428111.875 5  26428116.945 5 138880617.72715 105062378.82815
E34  25501734.055 7  25501737.641 8 134012520.763 7 101379618.407 8
E36  23441982.609 8  23441985.281 8 123188451.069 8  93191271.542 8
G01  22649663.172 5                  22649651.344 5 119024691.693 5                  92746537.97515
G02  21142165.250 8  21142167.125 6                 111102832.948 8  86573641.770 6
G08  20531734.680 8                  20531741.145 8 107895029.573 8                  84074103.844 8
G10  21761751.414 7                  21761758.301 7 114358781.725 7                  89110739.387 7
G27  22124720.742 7                  22124728.711 7 116266190.521 7                  90596935.758 7
G32  22245211.078 7                  22245217.973 6 116899382.703 7                  91090430.812 6
R01  20167934.500 8                 107809168.756 8
R02  20160361.875 8  20160367.379 7 107579553.767 8  83673018.238 7
R17  19324300.602 8  19324305.441 7 103408245.130 8  80428840.484 7
R24  21044519.438 5  21044526.363 6 112534508.343 5  87526782.083 6
> 2025 06 15 10 56 10.0000000  0 21
C19  22347670.961 7 116370187.546 7
C20  23677988.180 7 123297490.709 7
C22  24623727.086 6 128222229.238 6
C29  24207938.648 5 126057020.074 5
E02  26143133.156 6  26143137.488 8 137383093.053 6 103929428.479 8
E04  25829247.719 7  25829249.992 8 135733610.849 7 102681605.510 8
E06  25326850.414 7  25326854.641 8 133093514.129 7 100684388.857 8
E11  25729655.250 7  25729654.949 7 135210239.917 7 102285668.305 7
E30  26426898.750 5  26426904.090 5 138874246.448 5 105057559.02015
E34  25498350.336 7  25498353.680 8 133994738.207 7 101366166.036 8
E36  23440625.531 8  23440628.301 9 123181320.324 8  93185877.173 9
G01  22645554.523 4                  22645538.625 5 119003078.77214                  92729696.76715
G02  21139525.539 8  21139527.188 6                 111088958.785 8  86562830.721 6
G08  20531339.453 8                  20531346.289 8 107892956.278 8                  84072488.291 8
G10  21762335.859 7                  21762341.656 7 114361847.590 7                  89113128.385 7
G27  22126339.250 7                  22126347.414 7 116274695.100 7                  90603562.698 7
G32  22242344.805 7                  22242352.824 6 116884323.188 7                  91078696.119 6
R01  20168110.586 7                 107810111.457 7
R02  20156560.523 8  20156565.168 7 107559264.220 8  83657237.482 7
R17  19322083.922 8  19322089.297 8 103396386.197 8  80419616.880 8
R24  21045643.344 6  21045650.090 6 112540516.659 6  87531455.205 6
> 2025 06 15 10 56 15.0000000  0 21
C19  22345294.781 7 116357813.715 7
C20  23678489.789 7 123300105.045 7
C22  24619046.656 6 128197857.776 6
C29  24209250.641 5 126063846.554 5
E02  26144178.555 7  26144181.750 8 137388579.934 7 103933579.261 8
E04  25828093.117 7  25828095.676 8 135727544.526 7 102677016.375 8
E06  25324365.102 6  25324369.859 8 133080456.753 6 100674511.051 8
E11  25730221.719 7  25730221.191 7 135213215.456 7 102287919.261 7
E30  26425690.375 5  26425694.094 5 138867889.411 5 105052749.99715
E34  25494967.867 7  25494970.688 8 133976960.335 7 101352717.173 8
E36  23439270.477 8  23439272.816 9 123174197.168 8  93180488.563 9
G01  22641451.391 4                  22641427.453 5 118981472.018 4                  92712860.325 5
G02  21136887.398 8  21136888.527 6                 111075094.077 8  86552027.050 6
G08  20530947.758 8                  20530955.145 7 107890899.955 8                  84070885.955 7
G10  21762921.836 7                  21762927.496 7 114364924.381 7                  89115525.881 7
G27  22127960.492 7                  22127967.383 7 116283210.170 7                  90610197.792 7
G32  22239482.227 7                  22239490.098 6 116869279.550 7                  91066973.781 6
R01  20168291.039 7                 107811076.515 7
R02  20152761.586 8  20152766.469 7 107538995.241 8  83641472.729 7
R17  19319871.367 8  19319875.902 7 103384542.274 8  80410404.924 7
R24  21046770.102 6  21046776.223 6 112546536.815 6  87536137.490 6
> 2025 06 15 10 56 20.0000000  0 20
C19  22342920.836 7 116345454.771 7
C20  23678993.781 7 123302731.354 7
C22  24614367.375 6 128173492.031 6
C29  24210568.656 5 126070679.504 5
E02  26145223.945 7  26145227.328 8 137394074.027 7 103937735.496 8
E04  25826941.289 7  25826943.910 8 135721491.710 7 102672437.444 8
E06  25321883.336 7  25321887.492 8 133067411.939 7 100664642.738 8
E11  25730788.844 7  25730788.223 7 135216195.209 7 102290173.427 7
E30  26424483.898 5  26424486.605 5 138861545.846 5 105047951.099 5
E34  25491585.164 8  25491588.457 8 133959186.485 8 101339271.394 8
E36  23437916.430 8  23437918.637 9 123167080.959 8  93175105.199 9
G02  21134250.469 8  21134251.887 6                 111061238.170 8  86541230.241 6
G08  20530559.953 8                  20530566.625 7 107888859.896 8                  84069296.286 7
G10  21763508.875 7                  21763515.098 7 114368011.360 7                  89117931.311 7
G27  22129582.477 7                  22129590.203 7 116291735.093 7                  90616840.559 7
G32  22236623.406 7                  22236630.473 6 116854251.146 7                  91055263.354 6
R01  20168475.453 7                 107812063.375 7
R02  20148967.242 8  20148971.910 7 107518746.062 8  83625723.363 7
R17  19317661.516 8  19317665.289 7 103372712.740 8  80401204.183 7
R24  21047897.164 6  21047903.656 6 112552567.968 6  87540828.366 6
> 2025 06 15 10 56 25.0000000  0 20
C19  22340550.781 7 116333110.254 7
C20  23679500.813 7 123305369.100 7
C22  24609689.289 6 128149131.549 6
C29  24211884.266 5 126077518.246 5
E02  26146271.102 7  26146274.164 8 137399574.874 7 103941896.848 8
E04  25825791.859 7  25825794.570 8 135715451.936 7 102667868.405 8
E06  25319404.523 6  25319407.395 8 133054379.248 6 100654783.588 8
E11  25731356.133 7  25731355.992 7 135219178.667 7 102292430.379 7
E30  26423278.898 6  26423281.656 5 138855215.278 6 105043162.055 5
E34  25488203.766 8  25488206.863 8 133941416.196 8 101325828.295 8
E36  23436563.219 8  23436565.727 8 123159971.206 8  93169726.718 8
G02  21131615.672 8  21131616.980 6                 111047390.657 8  86530439.979 6
G08  20530175.031 8                  20530181.492 7 107886835.656 8                  84067718.970 7
G10  21764098.133 8                  21764104.465 7 114371108.101 8                  89120344.347 7
G27  22131206.852 7                  22131213.445 7 116300269.367 7                  90623490.644 7
G32  22233765.891 7                  22233773.617 6 116839237.497 7                  91043564.431 6
R01  20168664.484 7                 107813071.438 7
R02  20145176.508 8  20145180.879 7 107498516.266 8  83609989.089 7
R17  19315453.266 8  19315457.516 7 103360897.023 8  80392014.183 7
R24  21049028.820 6  21049033.152 6 112558609.732 6  87545527.595 6
> 2025 06 15 10 56 30.0000000  0 20
C19  22338182.719 7 116320781.107 7
C20  23680009.125 7 123308019.229 7
C22  24605012.648 6 128124777.353 6
C29  24213189.039 4
E02  26147319.000 7  26147322.512 8 137405083.519 7 103946064.081 8
E04  25824644.750 7  25824647.797 8 135709426.180 7 102663309.964 8
E06  25316925.289 7  25316929.809 8 133041359.615 7 100644934.332 8
E11  25731924.695 7  25731924.656 7 135222166.928 7 102294690.970 7
E30  26422077.844 6  26422079.395 5 138848898.647 6 105038383.557 5
E34  25484823.406 8  25484826.102 8 133923650.428 8 101312388.593 8
E36  23435211.570 8  23435214.195 9 123152868.897 8  93164353.871 9
G02  21128982.422 8  21128983.746 6                 111033552.511 8  86519657.005 6
G08  20529792.852 8                  20529800.012 8 107884828.188 8                  84066154.707 8
G10  21764689.313 7                  21764695.961 7 114374215.578 7                  89122765.749 7
G27  22132832.531 7                  22132839.523 7 116308813.938 7                  90630148.761 7
G32  22230912.563 7                  22230919.754 6 116824239.628 7                  91031877.814 6
R01  20168856.805 8                 107814101.622 8
R02  20141388.875 8  20141393.637 7 107478306.806 8  83594270.650 7
R17  19313247.406 8  19313252.035 7 103349096.124 8  80382835.711 7
R24  21050162.391 6  21050164.832 6 112564663.087 6  87550235.771 6
> 2025 06 15 10 56 35.0000000  0 20
C19  22335818.492 7 116308467.054 7
C20  23680520.258 7 123310681.494 7
C22  24600336.539 7 128100429.127 7
C29  24214504.961 5 126091215.92615
E02  26148367.344 6  26148372.277 8 137410599.502 6 103950236.879 8
E04  25823501.469 7  25823503.762 8 135703414.104 7 102658761.877 8
E06  25314450.125 7  25314454.754 8 133028352.790 7 100635094.743 8
E11  25732494.734 7  25732494.145 7 135225159.540 7 102296954.854 7
E30  26420878.281 6  26420879.996 4 138842595.710 6 105033615.468 4
E34  25481443.484 7  25481446.211 8 133905888.955 7 101298952.146 8
E36  23433861.305 8  23433864.074 8 123145773.753 8  93158986.429 8
G02  21126349.758 8  21126351.734 6                 111019723.410 8  86508881.058 6
G08  20529414.328 8                  20529420.824 7 107882837.206 8                  84064603.296 7
G10  21765282.656 7                  21765289.125 7 114377333.461 7                  89125195.267 7
G27  22134460.766 7                  22134467.480 7 116317368.535 7                  90636814.670 7
G32  22228061.070 7                  22228068.168 6 116809257.232 7                  91020203.234 6
R01  20169054.156 7                 107815153.726 7
R02  20137604.930 8  20137610.250 7 107458117.416 8  83578567.805 7
R17  19311045.430 8  19311049.398 8 103337309.872 8  80373668.625 8
R24  21051296.578 6  21051298.797 6 112570727.773 6  87554952.753 6
> 2025 06 15 10 56 40.0000000  0 20
C19  22333456.484 7 116296168.390 7
C20  23681033.375 7 123313356.127 7
C22  24595661.172 6 128076087.095 6
C29  24215821.805 4 126098074.808 4
E02  26149419.594 6  26149423.441 8 137416123.240 6 103954415.526 8
E04  25822359.359 7  25822362.406 8 135697416.034 7 102654224.373 8
E06  25311977.734 7  25311982.094 8 133015358.995 7 100625265.035 8
E11  25733065.227 7  25733064.551 7 135228156.848 7 102299222.282 7
E30  26419681.039 6  26419683.813 5 138836306.783 6 105028857.91615
E34  25478064.258 7  25478067.086 8 133888131.937 7 101285519.108 8
E36  23432512.789 8  23432515.328 8 123138686.003 8  93153624.602 8
G02  21123720.594 8  21123721.996 6                 111005903.644 8  86498112.425 6
G08  20529038.508 8                  20529045.059 7 107880862.981 8                  84063064.946 7
G10  21765878.148 7                  21765884.223 7 114380461.994 7                  89127633.090 7
G27  22136089.547 7                  22136097.477 7 116325933.429 7                  90643488.580 7
G32  22225212.227 7                  22225219.711 6 116794290.577 7                  91008540.954 6
R01  20169254.883 7                 107816227.906 7
R02  20133825.813 8  20133830.625 7 107437948.440 8  83562880.822 7
R17  19308844.844 8  19308849.824 7 103325538.423 8  80364513.066 7
R24  21052426.922 5  21052435.879 6 112576803.860 5  87559678.557 6
> 2025 06 15 10 56 45.0000000  0 20
C19  22331097.563 7 116283885.134 7
C20  23681549.922 7 123316043.170 7
C22  24590988.523 7 128051751.391 7
C29  24217145.070 5 126104940.622 5
E02  26150472.195 6  26150475.895 8 137421654.763 6 103958600.063 8
E04  25821220.633 7  25821223.605 8 135691432.023 7 102649697.512 8
E06  25309508.234 7  25309512.016 8 133002378.321 7 100615445.244 8
E11  25733636.195 7  25733635.859 7 135231158.901 7 102301493.319 7
E30  26418486.961 5  26418490.148 5 138830031.752 5 105024110.90815
E34  25474686.008 7  25474688.949 8 133870379.496 7 101272089.521 8
E36  23431165.094 8  23431168.027 8 123131605.729 8  93148268.425 8
G02  21121092.813 8  21121094.469 6                 110992093.244 8  86487351.095 6
G08  20528665.523 8                  20528672.551 7 107878905.558 8                  84061539.672 7
G10  21766474.617 7                  21766481.781 7 114383601.250 7                  89130079.250 7
G27  22137721.906 7                  22137729.496 7 116334508.647 7                  90650170.550 7
G32  22222367.508 7                  22222374.895 6 116779339.748 7                  90996890.954 6
R01  20169459.836 7                 107817324.229 7
R02  20130049.531 8  20130054.582 7 107417799.909 8  83547209.754 7
R17  19306647.359 8  19306653.059 7 103313781.896 8  80355369.091 7
R24  21053566.570 5  21053573.887 6 112582891.721 5  87564413.481 6
> 2025 06 15 10 56 50.0000000  0 20
C19  22328741.164 7 116271616.751 7
C20  23682068.336 7 123318742.055 7
C22  24586316.297 7 128027421.483 7
C29  24218467.688 5 126111812.762 5
E02  26151526.180 7  26151529.820 8 137427193.455 7 103962790.028 8
E04  25820084.852 7  25820087.383 8 135685461.507 7 102645180.833 8
E06  25307040.469 7  25307044.309 8 132989410.177 7 100605634.942 8
E11  25734208.070 7  25734207.988 7 135234165.108 7 102303767.476 7
E30  26417295.445 5  26417298.449 5 138823770.262 5 105019374.110 5
E34  25471308.781 7  25471311.504 8 133852631.086 7 101258662.970 8
E36  23429818.625 8  23429822.012 8 123124532.387 8  93142917.480 8
G02  21118466.438 8  21118468.191 6                 110978291.672 8  86476596.634 6
G08  20528296.461 8                  20528302.895 7 107876964.384 8                  84060027.042 7
G10  21767074.453 7                  21767080.672 7 114386750.683 7                  89132533.367 7
G27  22139355.617 7                  22139363.227 7 116343093.612 7                  90656860.106 7
G32  22219524.352 7                  22219532.961 6 116764404.167 7                  90985252.826 6
R01  20169669.516 7                 107818442.138 7
R02  20126276.531 8  20126282.969 7 107397671.214 8  83531554.153 7
R17  19304453.234 8  19304458.234 7 103302039.802 8  80346236.336 7
R24  21054707.852 5  21054714.641 6 112588990.480 5  87569156.944 6
> 2025 06 15 10 56 55.0000000  0 21
C19  22326387.500 7 116259362.414 7
C20  23682588.359 7 123321451.985 7
C22  24581645.031 7 128003096.463 7
C29  24219795.039 4 126118690.247 4
E02  26152581.063 7  26152585.133 8 137432738.403 7 103966984.729 8
E04  25818951.234 7  25818953.586 8 135679503.620 7 102640673.714 8
E06  25304574.367 7  25304578.789 8 132976453.770 7 100595833.530 8
E11  25734780.508 7  25734780.680 7 135237174.674 7 102306044.172 7
E30  26416105.375 5  26416109.383 5 138817521.292 5 105014646.84615
E34  25467931.508 7  25467934.660 8 133834885.851 7 101245238.830 8
E36  23428474.055 8  23428477.172 8 123117465.094 8  93137571.126 8
G01  22608566.336 5                                 118808814.14115                
G02  21115841.391 8  21115843.449 6                 110964498.104 8  86465848.396 6
G08  20527930.305 8                  20527936.859 8 107875038.587 8                  84058526.406 8
G10  21767675.266 7                  21767682.129 7 114389909.395 7                  89134994.686 7
G27  22140991.758 7                  22140997.996 7 116351687.477 7                  90663556.615 7
G32  22216685.727 7                  22216693.164 6 116749482.980 7                  90973625.933 6
R01  20169882.547 7                 107819580.741 7
R02  20122508.375 8  20122514.211 7 107377561.715 8  83515913.444 7
R17  19302262.047 8  19302266.535 7 103290311.197 8  80337114.104 7
R24  21055848.180 5  21055857.656 6 112595099.363 5  87573908.361 6
> 2025 06 15 10 57  0.0000000  0 21
C19  22324037.305 7 116247122.740 7
C20  23683111.375 7 123324173.542 7
C22  24576975.641 7 127978777.059 7
C29  24221114.797 4 126125573.865 4
E02  26153637.016 6  26153641.617 8 137438290.340 6 103971184.708 8
E04  25817820.594 7  25817822.313 8 135673558.982 7 102636176.648 8
E06  25302111.375 7  25302115.617 8 132963509.742 7 100586041.471 8
E11  25735353.320 7  25735354.156 7 135240188.221 7 102308323.887 7
E30  26414918.727 5  26414922.930 5 138811285.54815 105009929.49115
E34  25464555.070 7  25464558.527 8 133817144.384 7 101231817.573 8
E36  23427130.648 8  23427133.574 9 123110404.527 8  93132229.855 9
G01  22604463.820 5                  22604479.066 4 118787258.267 5                  92561564.62214
G02  21113218.367 8  21113220.141 6                 110950713.170 8  86455106.893 6
G08  20527566.797 8                  20527573.168 7 107873128.817 8                  84057038.281 7
G10  21768278.914 7                  21768284.910 7 114393078.006 7                  89137463.736 7
G27  22142628.297 7                  22142635.402 7 116360290.854 7                  90670260.544 7
G32  22213849.156 7                  22213856.965 6 116734576.893 7                  90962010.823 6
R01  20170098.531 7                 107820740.774 7
R02  20118743.727 8  20118749.219 7 107357471.813 8  83500287.988 7
R17  19300072.945 8  19300077.594 7 103278596.783 8  80328002.904 7
R24  21056995.172 5  21057001.887 6 112601219.143 5  87578668.090 6
> 2025 06 15 10 57  5.0000000  0 21
C19  22321689.563 7 116234896.601 7
C20  23683635.609 7 123326905.561 7
C22  24572306.313 7 127954462.072 7
C29  24222437.758 4 126132462.44514
E02  26154695.781 6  26154699.008 8 137443848.092 6 103975389.087 8
E04  25816691.352 7  25816693.316 8 135667626.471 7 102631688.739 8
E06  25299651.125 7  25299654.504 8 132950576.894 7 100576257.874 8
E11  25735927.141 6  25735928.145 7 135243204.563 6 102310605.719 7
E30  26413735.633 5  26413739.086 5 138805061.998 5 105005221.39515
E34  25461179.930 7  25461182.887 8 133799405.620 7 101218398.306 8
E36  23425788.102 8  23425791.027 8 123103349.525 8  93126892.791 8
G01  22600363.758 5                                 118765706.547 5                
G02  21110596.633 8  21110598.586 6                 110936935.730 8  86444371.222 6
G08  20527206.063 8                  20527212.375 7 107871233.919 8                  84055561.749 7
G10  21768883.313 7                  21768889.398 7 114396255.430 7                  89139939.647 7
G27  22144267.203 7                  22144273.707 7 116368902.633 7                  90676971.021 7
G32  22211015.414 7                  22211023.984 6 116719684.751 7                  90950406.568 6
R01  20170319.734 7                 107821920.908 7
R02  20114982.594 8  20114987.676 7 107337400.501 8  83484676.979 7
R17  19297886.500 8  19297890.691 7 103266895.377 8  80318901.794 7
R24  21058142.445 6  21058147.211 6 112607348.532 6  87583435.357 6
> 2025 06 15 10 57 10.0000000  0 20
C19  22319344.547 7 116222685.714 7
C20  23684162.703 7 123329649.764 7
C22  24567637.211 7 127930153.255 7
C29  24223768.031 5 126139357.654 5
E02  26155755.961 7  26155758.117 8 137449413.320 7 103979599.152 8
E04  25815565.188 7  25815567.020 8 135661707.793 7 102627211.293 8
E06  25297192.578 7  25297195.914 8 132937656.994 7 100566484.072 8
E11  25736502.422 7  25736502.984 7 135246225.425 7 102312890.978 7
E30  26412553.289 5  26412557.977 5 138798852.19315 105000523.64615
E34  25457805.492 7  25457808.152 8 133781671.213 7 101204982.336 8
E36  23424447.078 8  23424449.871 8 123096301.803 8  93121561.229 8
G02  21107975.852 8  21107978.621 6                 110923167.463 8  86433642.719 6
G08  20526848.703 8                  20526855.082 8 107869355.605 8                  84054098.128 8
G10  21769489.500 7                  21769496.262 7 114399443.310 7                  89142423.710 7
G27  22145907.758 7                  22145914.543 7 116377524.449 7                  90683689.307 7
G32  22208184.055 7                  22208194.176 7 116704808.222 7                  90938814.491 7
R01  20170543.930 7                 107823122.926 7
R02  20111225.430 8  20111229.578 7 107317349.453 8  83469081.728 7
R17  19295701.500 8  19295707.309 8 103255208.714 8  80309812.191 8
R24  21059290.727 6  21059295.809 6 112613489.059 6  87588211.325 6
> 2025 06 15 10 57 15.0000000  0 20
C19  22317003.109 8 116210491.271 8
C20  23684693.039 7 123332407.355 7
C22  24562970.477 7 127905851.813 7
C29  24225099.656 4 126146260.70814
E02  26156816.305 7  26156818.664 8 137454987.273 7 103983815.780 8
E04  25814441.797 7  25814443.652 8 135655804.195 7 102622745.259 8
E06  25294736.711 7  25294739.984 8 132924751.288 7 100556720.992 8
E11  25737077.469 6  25737078.934 7 135249252.065 6 102315180.598 7
E30  26411375.336 5  26411379.660 5 138792657.413 5 104995837.354 5
E34  25454431.531 7  25454434.387 8 133763942.433 7 101191570.626 8
E36  23423107.625 8  23423110.320 9 123089262.571 8  93116236.096 9
G02  21105357.844 7  21105360.648 6                 110909409.627 7  86422922.337 6
G08  20526494.914 8                  20526500.914 7 107867495.099 8                  84052648.381 7
G10  21770098.523 7                  21770105.512 7 114402642.898 7                  89144916.884 7
G27  22147550.773 7                  22147557.703 7 116386157.602 7                  90690416.435 7
G32  22205356.055 7                  22205366.270 7 116689948.557 7                  90927235.544 7
R01  20170773.805 7                 107824348.063 7
R02  20107471.500 8  20107476.484 7 107297320.081 8  83453503.330 7
R17  19293521.117 8  19293526.566 8 103243537.990 8  80300734.975 8
R24  21060440.492 6  21060447.180 6 112619642.497 6  87592997.338 6
> 2025 06 15 10 57 20.0000000  0 20
C19  22314663.813 8 116198312.861 8
C20  23685224.586 7 123335177.907 7
C22  24558306.109 7 127881557.319 7
C29  24226429.609 4 126153171.168 4
E02  26157878.258 7  26157881.109 8 137460569.486 7 103988038.684 8
E04  25813321.539 7  25813323.039 8 135649915.219 7 102618290.271 8
E06  25292283.031 7  25292286.727 8 132911859.316 7 100546968.310 8
E11  25737655.508 7  25737655.898 7 135252284.074 7 102317474.277 7
E30  26410199.242 5  26410203.992 5 138786477.230 5 104991162.12715
E34  25451058.633 7  25451061.594 8 133746218.853 7 101178162.865 8
E36  23421769.492 8  23421772.379 8 123082231.419 8  93110917.074 8
G02  21102742.266 8  21102744.160 6                 110895661.797 8  86412209.741 6
G08  20526144.023 8                  20526150.277 7 107865651.989 8                  84051212.193 7
G10  21770709.625 8                  21770716.207 7 114405853.720 8                  89147418.822 7
G27  22149195.594 7                  22149202.492 7 116394801.568 7                  90697151.990 7
G32  22202531.820 7                  22202541.809 7 116675105.385 7                  90915669.479 7
R01  20171008.453 7                 107825595.886 7
R02  20103722.125 8  20103726.691 7 107277311.777 8  83437941.315 7
R17  19291343.242 8  19291347.977 7 103231883.023 8  80291670.005 7
R24  21061595.898 6  21061599.000 6 112625808.119 6  87597792.776 6
> 2025 06 15 10 57 25.0000000  0 20
C19  22312327.648 7 116186147.537 7
C20  23685759.273 7 123337958.447 7
C22  24553641.672 7 127857266.885 7
C29  24227751.125 4 126160085.97314
E02  26158941.664 7  26158944.266 8 137466157.034 7 103992265.600 8
E04  25812202.836 7  25812204.633 8 135644037.896 7 102613844.110 8
E06  25289832.375 7  25289835.555 8 132898978.145 7 100537223.789 8
E11  25738233.289 7  25738233.273 7 135255318.398 7 102319769.718 7
E30  26409023.227 5  26409030.355 5 138780308.611 5 104986495.597 5
E34  25447686.539 7  25447689.344 8 133728497.464 7 101164756.771 8
E36  23420432.609 8  23420435.336 8 123075205.366 8  93105601.913 8
G02  21100127.477 8  21100129.125 6                 110881921.000 8  86401502.630 6
G08  20525796.211 8                  20525802.180 8 107863823.274 8                  84049787.211 8
G10  21771322.297 7                  21771328.902 7 114409072.833 7                  89149927.212 7
G27  22150842.125 7                  22150849.316 7 116403453.441 7                  90703893.695 7
G32  22199709.617 7                  22199719.383 7 116660275.716 7                  90904113.881 7
R01  20171243.063 7                 107826863.400 7
R02  20099976.000 8  20099980.695 7 107257321.594 8  83422393.383 7
R17  19289167.539 8  19289172.516 7 103220240.468 8  80282614.689 7
R24  21062748.633 6  21062754.348 6 112631982.778 6  87602595.247 6
> 2025 06 15 10 57 30.0000000  0 20
C19  22309994.758 7 116173997.127 7
C20  23686295.492 7 123340750.777 7
C22  24548978.453 7 127832982.280 7
C29  24229079.430 4 126167007.30414
E02  26160005.797 7  26160008.832 8 137471751.681 7 103996497.900 8
E04  25811087.266 7  25811088.891 8 135638174.071 7 102609408.158 8
E06  25287383.852 7  25287386.719 7 132886109.567 7 100527488.785 7
E11  25738810.766 6  25738811.480 7 135258356.926 6 102322068.319 7
E30  26407852.438 5  26407859.102 5 138774153.498 5 104981839.307 5
E34  25444315.258 7  25444317.813 8 133710780.130 7 101151353.715 8
E36  23419096.922 8  23419099.637 8 123068186.256 8  93100292.002 8
G02  21097513.703 8  21097516.285 6                 110868189.062 8  86390802.431 6
G08  20525450.883 8                  20525457.648 8 107862010.771 8                  84048374.873 8
G10  21771936.430 7                  21771944.211 7 114412302.045 7                  89152443.474 7
G27  22152489.789 7                  22152497.602 7 116412114.991 7                  90710642.943 7
G32  22196890.664 7                  22196900.879 6 116645461.381 7                  90892570.268 6
R01  20171484.961 7                 107828152.433 7
R02  20096233.766 8  20096238.180 7 107237351.580 8  83406861.156 7
R17  19286994.445 8  19286998.883 7 103208612.456 8  80273570.673 7
R24  21063907.211 6  21063910.777 6 112638168.380 6  87607406.285 6
> 2025 06 15 10 57 35.0000000  0 19
C19  22307664.789 7 116161862.937 7
C20  23686833.875 7 123343556.206 7
C22  24544315.500 7 127808704.852 7
E02  26161072.141 7  26161075.246 8 137477354.796 7 104000736.597 8
E04  25809974.000 7  25809975.949 8 135632325.065 7 102604983.417 8
E06  25284937.242 7  25284940.543 7 132873254.928 7 100517764.349 7
E11  25739390.258 6  25739390.738 7 135261400.951 6 102324371.091 7
E30  26406685.141 5  26406690.637 5 138768013.204 5 104977194.237 5
E34  25440944.727 7  25440947.301 8 133693068.183 7 101137954.750 8
E36  23417762.648 8  23417765.508 8 123061175.438 8  93094988.356 8
G02  21094902.563 8  21094904.852 6                 110854467.309 8  86380110.169 6
G08  20525109.656 8                  20525115.855 8 107860215.853 8                  84046976.229 8
G10  21772553.688 7                  21772560.656 7 114415542.710 7                  89154968.642 7
G27  22154139.828 7                  22154148.047 7 116420787.560 7                  90717400.776 7
G32  22194074.633 7                  22194084.859 6 116630663.751 7                  90881039.640 6
R01  20171731.133 7                 107829464.234 7
R02  20092495.813 8  20092499.758 7 107217402.681 8  83391345.358 7
R17  19284824.617 8  19284829.023 7 103197000.204 8  80264538.917 7
R24  21065064.797 6  21065069.188 6 112644366.435 6  87612227.040 6
> 2025 06 15 10 57 40.0000000  0 19
C19  22305336.977 7 116149743.435 7
C20  23687374.750 7 123346373.208 7
C22  24539653.797 7 127784433.055 7
E02  26162140.453 7  26162142.762 8 137482964.753 7 104004980.481 8
E04  25808863.156 7  25808865.484 8 135626489.283 7 102600568.702 8
E06  25282493.375 7  25282496.719 7 132860412.666 7 100508049.271 7
E11  25739970.359 6  25739970.727 7 135264448.934 6 102326676.867 7
E30  26405520.922 5  26405524.473 4 138761886.134 5 104972559.15814
E34  25437574.352 7  25437577.598 8 133675360.006 7 101124558.654 8
E36  23416430.414 8  23416432.660 9 123054171.285 8  93089689.760 9
G02  21092292.750 8  21092295.152 6                 110840754.213 8  86369424.655 6
G08  20524771.117 8                  20524777.496 7 107858436.930 8                  84045590.050 7
G10  21773172.234 7                  21773179.066 7 114418793.158 7                  89157501.466 7
G27  22155791.828 7                  22155800.410 7 116429469.552 7                  90724165.956 7
G32  22191262.203 7                  22191271.520 6 116615881.265 7                  90869520.796 6
R01  20171979.781 7                 107830797.203 7
R02  20088761.578 8  20088764.883 7 107197473.668 8  83375845.035 7
R17  19282657.398 8  19282661.563 7 103185402.081 8  80255518.149 7
R24  21066226.523 6  21066231.254 6 112650575.156 6  87617056.072 6
> 2025 06 15 10 57 45.0000000  0 19
C19  22303012.953 8 116137638.155 8
C20  23687918.430 7 123349201.302 7
C22  24534993.211 7 127760166.465 7
E02  26163208.477 7  26163211.676 8 137488581.096 7 104009229.217 8
E04  25807754.867 7  25807757.496 8 135620666.300 7 102596163.661 8
E06  25280051.555 7  25280055.172 8 132847582.357 7 100498343.236 8
E11  25740551.414 6  25740551.453 7 135267500.389 6 102328985.253 7
E30  26404358.125 5  26404360.699 4 138755771.783 5 104967933.619 4
E34  25434204.922 7  25434208.652 8 133657655.229 7 101111165.111 8
E36  23415098.695 8  23415101.004 9 123047173.385 8  93084395.896 9
G02  21089685.461 8  21089687.523 6                 110827049.298 8  86358745.498 6
G08  20524435.711 8                  20524441.453 8 107856673.505 8                  84044215.948 8
G10  21773792.602 7                  21773799.008 7 114422053.002 7                  89160041.596 7
G27  22157445.500 7                  22157454.137 7 116438160.532 7                  90730938.139 7
G32  22188452.469 7                  22188460.770 6 116601113.398 7                  90858013.385 6
R01  20172232.625 7                 107832150.958 7
R02  20085029.867 8  20085033.949 7 107177564.048 8  83360359.793 7
R17  19280492.008 8  19280496.902 7 103173817.857 8  80246508.186 7
R24  21067386.344 6  21067394.656 6 112656794.228 6  87621893.112 6
> 2025 06 15 10 57 50.0000000  0 20
C19  22300690.164 7 116125548.830 7
C20  23688463.102 7 123352042.209 7
C22  24530334.258 6 127735906.770 6
E02  26164279.031 7  26164281.922 8 137494205.595 7 104013484.118 8
E04  25806649.094 7  25806652.242 8 135614857.813 7 102591769.594 8
E06  25277612.469 7  25277616.199 8 132834765.688 7 100488647.520 8
E11  25741132.805 6  25741133.141 7 135270557.106 6 102331297.627 7
E30  26403197.320 5  26403199.664 4 138749671.89715 104963319.05714
E34  25430836.797 7  25430840.590 8 133639955.528 7 101097775.386 8
E36  23413768.453 8  23413770.879 8 123040183.446 8  93079108.054 8
G01  22563506.164 5                                 118572084.80415                
G02  21087079.836 8  21087081.156 6                 110813354.329 8  86348074.096 6
G08  20524103.102 8                  20524109.426 7 107854927.327 8                  84042855.295 7
G10  21774415.117 7                  21774422.109 8 114425323.982 7                  89162590.401 8
G27  22159101.797 7                  22159110.027 7 116446862.207 7                  90737718.643 7
G32  22185644.961 7                  22185653.785 6 116586361.890 7                  90846518.737 6
R01  20172489.680 7                 107833527.193 7
R02  20081303.102 8  20081307.164 7 107157675.536 8  83344890.941 7
R17  19278330.914 8  19278334.859 7 103162249.050 8  80237510.227 7
R24  21068550.430 6  21068559.398 6 112663025.258 6  87626739.408 6
> 2025 06 15 10 57 55.0000000  0 20
C19  22298371.617 7 116113475.688 7
C20  23689010.609 7 123354896.118 7
C22  24525676.313 6 127711654.269 6
E02  26165350.141 7  26165353.953 8 137499838.463 7 104017745.326 8
E04  25805546.336 7  25805549.789 8 135609064.136 7 102587386.725 8
E06  25275176.047 7  25275179.871 8 132821962.959 7 100478962.353 8
E11  25741715.102 6  25741715.871 7 135273619.265 6 102333614.121 7
E30  26402038.430 5  26402041.551 4 138743586.75115 104958715.70214
E34  25427469.539 7  25427473.602 8 133622261.167 7 101084389.737 8
E36  23412439.820 8  23412442.297 8 123033201.741 8  93073826.447 8
G01  22559413.172 4                  22559449.766 5 118550593.77414                  92377171.09315
G02  21084475.297 8  21084476.879 6                 110799669.531 8  86337410.629 6
G08  20523774.164 8                  20523780.555 7 107853198.659 8                  84041508.283 7
G10  21775040.633 8                  21775046.520 7 114428606.268 8                  89165148.032 7
G27  22160760.117 7                  22160768.035 7 116455574.801 7                  90744507.642 7
G32  22182841.156 7                  22182849.691 6 116571627.117 7                  90835037.080 6
R01  20172751.320 7                 107834926.375 7
R02  20077578.828 8  20077583.871 7 107137808.342 8  83329438.696 7
R17  19276171.961 8  19276175.809 7 103150696.142 8  80228524.615 7
R24  21069721.641 5  21069727.813 6 112669268.749 5  87631595.380 6
> 2025 06 15 10 58  0.0000000  0 19
C19  22296055.586 7 116101415.737 7
C20  23689560.586 7 123357760.038 7
C22  24521020.219 6 127687405.942 6
E02  26166422.539 7  26166426.910 8 137505476.630 7 104022010.560 8
E04  25804446.719 7  25804449.570 8 135603282.180 7 102583012.711 8
E06  25272742.563 7  25272745.648 7 132809171.148 7 100469285.438 7
E11  25742299.031 6  25742299.059 7 135276683.877 6 102335932.478 7
E30  26400880.781 5  26400885.648 3 138737513.326 5 104954121.365 3
E34  25424103.188 7  25424107.004 8 133604569.084 7 101071005.788 8
E36  23411112.125 8  23411114.730 8 123026225.234 8  93068548.765 8
G02  21081873.094 8  21081874.238 6                 110785991.827 8  86326752.678 6
G08  20523448.250 8                  20523454.375 7 107851484.474 8                  84040172.560 7
G10  21775666.414 8                  21775672.578 7 114431896.869 8                  89167712.152 7
G27  22162419.539 7                  22162427.418 7 116464295.289 7                  90751302.834 7
G32  22180039.430 7                  22180048.336 6 116556905.905 7                  90823566.090 6
R01  20173017.805 7                 107836344.986 7
R02  20073859.398 8  20073864.086 7 107117959.427 8  83314000.673 7
R17  19274014.813 8  19274019.035 7 103139155.947 8  80219548.923 7
R24  21070890.484 5  21070896.859 6 112675521.209 5  87636458.425 6
> 2025 06 15 10 58  5.0000000  0 19
C19  22293742.500 7 116089370.311 7
C20  23690113.273 7 123360635.285 7
C22  24516364.641 6 127663163.096 6
E02  26167496.648 7  26167501.109 8 137511121.462 7 104026280.833 8
E04  25803348.594 7  25803351.805 8 135597513.305 7 102578648.603 8
E06  25270309.867 7  25270313.820 7 132796391.553 7 100459617.758 7
E11  25742882.477 6  25742882.953 7 135279752.253 6 102338253.679 7
E30  26399728.078 5  26399726.402 4 138731452.876 5 104949537.16214
E34  25420737.313 7  25420741.004 8 133586880.694 7 101057624.646 8
E36  23409785.805 8  23409788.383 8 123019255.261 8  93063276.029 8
G02  21079272.273 8  21079272.566 6                 110772322.631 8  86316101.355 6
G08  20523125.141 8                  20523131.344 7 107849786.100 8                  84038849.159 7
G10  21776294.188 7                  21776300.813 7 114435197.117 7                  89170283.767 7
G27  22164080.648 7                  22164088.711 7 116473024.999 7                  90758105.186 7
G32  22177240.805 7                  22177249.078 6 116542199.783 7                  90812106.707 6
R01  20173286.703 7                 107837784.706 7
R02  20070143.180 8  20070148.305 7 107098130.371 8  83298578.104 7
R17  19271860.805 8  19271865.375 7 103127629.728 8  80210584.074 7
R24  21072060.523 4  21072068.328 6 112681784.423 4  87641329.730 6
> 2025 06 15 10 58 10.0000000  0 19
C19  22291432.414 7 116077340.041 7
C20  23690667.836 7 123363522.524 7
C22  24511711.375 6 127638926.460 6
C29  24239736.508 5 126222630.28015
E02  26168572.664 7  26168576.629 8 137516773.586 7 104030556.609 8
E04  25802253.039 7  25802256.645 8 135591758.170 7 102574294.877 8
E06  25267881.055 7  25267884.316 7 132783624.851 7 100449959.827 7
E11  25743467.180 6  25743467.680 7 135282825.054 6 102340578.225 7
E30  26398577.195 5  26398581.277 5 138725406.077 5 104944962.33815
E34  25417372.414 7  25417375.695 8 133569196.591 7 101044246.680 8
E36  23408460.773 8  23408463.422 8 123012292.458 8  93058008.718 8
G02  21076672.813 8  21076672.797 6                 110758662.568 8  86305457.119 6
G08  20522804.406 8                  20522810.980 7 107848104.139 8                  84037538.551 7
G10  21776924.539 7                  21776930.828 8 114438507.611 7                  89172863.354 8
G27  22165743.734 7                  22165751.961 7 116481764.577 7                  90764915.226 7
G32  22174445.625 7                  22174453.773 6 116527509.294 7                  90800659.550 6
R01  20173559.469 7                 107839245.974 7
R02  20066431.648 8  20066436.434 7 107078321.535 8  83283171.235 7
R17  19269710.438 8  19269714.828 7 103116118.240 8  80201630.715 7
> 2025 06 15 10 58 15.0000000  0 19
C19  22289125.313 7 116065325.222 7
C20  23691224.914 7 123366422.009 7
C22  24507057.648 6 127614696.241 6
C29  24241074.063 4 126229609.273 4
E02  26169650.016 7  26169653.590 8 137522433.307 7 104034838.137 8
E04  25801160.492 7  25801164.090 8 135586017.021 7 102569951.749 8
E06  25265453.703 7  25265457.344 7 132770871.338 7 100440311.886 7
E11  25744052.164 6  25744053.344 7 135285902.572 6 102342906.338 7
E30  26397427.539 4                                
E34  25414007.625 7  25414011.367 8 133551517.086 7 101030872.234 8
E36  23407136.859 8  23407139.863 8 123005337.141 8  93052747.063 8
G02  21074074.688 8  21074074.965 6                 110745011.908 8  86294820.259 6
G08  20522487.883 8                  20522494.250 7 107846438.919 8                  84036240.959 7
G10  21777556.328 7                  21777562.680 8 114441828.661 7                  89175451.195 8
G27  22167408.938 7                  22167416.566 7 116490514.252 7                  90771733.140 7
G32  22171654.016 7                  22171660.723 6 116512834.755 7                  90789224.840 6
R01  20173836.969 7                 107840729.154 7
R02  20062723.063 8  20062727.422 7 107058533.458 8  83267780.518 7
R17  19267562.273 8  19267566.402 7 103104621.853 8  80192689.067 7
> 2025 06 15 10 58 20.0000000  0 19
C19  22286820.391 8 116053324.276 8
C20  23691783.727 7 123369332.141 7
C22  24502405.102 6 127590470.901 6
C29  24242415.352 4 126236593.25914
E02  26170727.516 7  26170731.813 8 137528098.913 7 104039124.131 8
E04  25800070.180 7  25800073.953 8 135580288.258 7 102565617.995 8
E06  25263028.938 7  25263032.688 7 132758129.378 7 100430672.679 7
E11  25744639.023 6  25744639.578 7 135288983.129 6 102345236.770 7
E30  26396283.203 5  26396286.969 5 138713352.95415 104935844.27715
E34  25410643.852 7  25410647.703 8 133533840.589 7 101017500.079 8
E36  23405814.859 8  23405817.438 8 122998387.684 8  93047489.840 8
G02  21071478.711 8  21071479.172 6                 110731369.124 8  86284189.522 6
G08  20522173.672 8                  20522180.477 7 107844788.811 8                  84034955.154 7
G10  21778190.547 7                  21778196.320 7 114445158.651 7                  89178045.988 7
G27  22169075.852 7                  22169083.813 7 116499272.472 7                  90778557.721 7
G32  22168863.633 7                  22168870.566 6 116498174.488 7                  90777801.254 6
R01  20174119.344 7                 107842232.629 7
R02  20059018.289 8  20059022.492 7 107038764.431 8  83252404.619 7
R17  19265415.859 8  19265420.414 7 103093138.886 8  80183757.891 7
> 2025 06 15 10 58 25.0000000  0 19
C19  22284518.875 7 116041339.701 7
C20  23692346.023 7 123372255.426 7
C22  24497754.133 6 127566252.977 6
C29  24243756.875 5 126243585.029 5
E02  26171807.359 6  26171811.578 8 137533773.098 6 104043416.598 8
E04  25798984.430 7  25798986.699 8 135574574.438 7 102561295.522 8
E06  25260607.336 7  25260610.672 7 132745401.555 7 100421044.159 7
E11  25745226.719 6  25745226.863 7 135292069.396 6 102347571.510 7
E30  26395139.523 4  26395144.180 5 138707347.577 4 104931301.271 5
E34  25407280.922 7  25407284.875 8 133516169.563 7 101004132.104 8
E36  23404494.008 8  23404496.605 8 122991446.624 8  93042238.981 8
G02  21068884.992 8  21068885.051 6                 110717736.703 8  86273566.854 6
G08  20521862.914 8                  20521869.785 7 107843156.396 8                  84033683.141 7
G10  21778825.719 7                  21778832.031 7 114448500.130 7                  89180649.728 7
G27  22170744.859 7                  22170752.313 7 116508041.726 7                  90785390.885 7
G32  22166077.953 7                  22166083.570 6 116483531.151 7                  90766390.869 6
R01  20174405.898 7                 107843758.954 7
R02  20055317.078 8  20055322.340 7 107019016.854 8  83237045.418 7
R17  19263272.094 8  19263277.785 8 103081671.920 8  80174839.139 8
> 2025 06 15 10 58 30.0000000  0 20
C19  22282220.477 7 116029370.072 7
C20  23692909.258 7 123375190.408 7
C22  24493104.938 6 127542040.989 6
C29  24245101.438 4 126250582.959 4
E02  26172889.797 6  26172892.707 8 137539454.313 6 104047714.371 8
E04  25797899.445 7  25797901.910 8 135568874.133 7 102556983.286 8
E06  25258187.344 7  25258191.043 7 132732686.412 7 100411425.237 7
E11  25745814.719 6  25745814.898 7 135295159.809 6 102349909.398 7
E30  26393998.805 5  26394003.867 4 138701355.542 5 104926768.305 4
E34  25403919.125 7  25403923.000 8 133498502.625 7 100990767.191 8
E36  23403174.156 8  23403177.031 8 122984512.508 8  93036993.364 8
G02  21066292.375 8  21066292.969 6                 110704113.187 8  86262951.117 6
G08  20521555.477 8                  20521562.051 7 107841540.126 8                  84032423.710 7
G10  21779464.125 8                  21779470.188 7 114451851.611 8                  89183261.265 7
G27  22172415.930 7                  22172422.852 7 116516820.564 7                  90792231.533 7
G32  22163293.398 7                  22163300.875 6 116468903.254 7                  90754992.515 6
R01  20174695.086 7                 107845306.610 7
R02  20051619.883 8  20051625.129 7 106999289.653 8  83221702.019 7
R17  19261132.305 8  19261137.344 8 103070219.526 8  80165931.720 8
R24  21077950.711 5  21077955.715 6 112713269.47715
> 2025 06 15 10 58 35.0000000  0 20
C19  22279923.961 7 116017414.132 7
C20  23693475.219 7 123378135.837 7
C22  24488456.313 6 127517833.778 6
C29  24246446.148 4 126257586.03014
E02  26173971.750 6  26173974.922 8 137545141.260 6 104052016.496 8
E04  25796816.742 7  25796819.504 8 135563185.993 7 102552680.237 8
E06  25255770.086 7  25255773.688 7 132719982.683 7 100401814.946 7
E11  25746403.258 6  25746403.543 7 135298253.188 6 102352249.499 7
E30  26392859.281 4  26392865.988 5 138695375.667 4 104922244.530 5
E34  25400558.305 7  25400561.813 8 133480838.501 7 100977404.412 8
E36  23401856.063 8  23401858.625 8 122977584.119 8  93031752.072 8
G02  21063701.430 8  21063701.973 6                 110690497.389 8  86252341.421 6
G08  20521251.289 8                  20521257.523 7 107839938.788 8                  84031175.919 7
G10  21780102.750 7                  21780109.629 7 114455211.821 7                  89185879.616 7
G27  22174087.445 7                  22174094.680 7 116525607.731 7                  90799078.669 7
G32  22160512.109 7                  22160519.563 6 116454289.552 7                  90743605.268 6
R01  20174987.875 7                 107846874.279 7
R02  20047927.070 8  20047931.617 7 106979581.328 8  83206373.329 7
R17  19258994.773 8  19258999.988 7 103058780.356 8  80157034.582 7
R24  21079134.922 6  21079139.160 6 112719598.324 6  87670822.92316
> 2025 06 15 10 58 40.0000000  0 20
C19  22277631.375 7 116005475.292 7
C20  23694043.336 7 123381095.135 7
C22  24483810.211 7 127493634.654 7
C29  24247794.844 4 126264597.404 4
E02  26175056.477 7  26175058.789 8 137550837.369 7 104056325.566 8
E04  25795737.031 7  25795740.035 8 135557513.548 7 102548389.058 8
E06  25253356.250 7  25253359.066 7 132707293.838 7 100392215.908 7
E11  25746993.266 6  25746993.414 7 135301352.930 6 102354594.429 7
E30  26391728.102 5  26391731.141 5 138689411.50715 104917732.57415
E34  25397198.188 7  25397201.633 8 133463180.663 7 100964046.368 8
E36  23400538.969 8  23400541.934 8 122970664.822 8  93026517.683 8
G02  21061112.008 8  21061113.570 6                 110676892.690 8  86241740.354 6
G08  20520949.766 8                  20520956.043 7 107838355.854 8                  84029942.454 7
G10  21780744.875 8                  21780751.500 7 114458584.211 8                  89188507.438 7
G27  22175761.633 7                  22175768.602 7 116534406.608 7                  90805934.938 7
G32  22157734.977 7                  22157742.426 6 116439693.465 7                  90732231.740 6
R01  20175285.375 7                 107848465.472 7
R02  20044238.422 8  20044242.953 7 106959895.369 8  83191062.064 7
R17  19256860.055 8  19256864.813 7 103047357.956 8  80148150.522 7
R24  21080318.648 5  21080324.555 6 112725940.307 5  87675755.644 6
> 2025 06 15 10 58 45.0000000  0 19
C19  22275341.258 7 115993550.889 7
C20  23694613.219 7 123384065.560 7
C22  24479163.227 6 127469441.001 6
E02  26176140.914 7  26176143.988 8 137556539.980 7 104060639.537 8
E04  25794659.742 7  25794662.918 8 135551854.031 7 102544107.691 8
E06  25250943.984 7  25250946.715 7 132694617.113 7 100382626.062 7
E11  25747584.500 6  25747583.949 7 135304456.320 6 102356942.114 7
E30  26390595.164 6  26390598.551 5 138683460.178 6 104913230.516 5
E34  25393838.313 7  25393841.965 8 133445526.334 7 100950690.972 8
E36  23399223.195 8  23399226.438 9 122963751.940 8  93021288.136 9
G02  21058525.094 8  21058526.453 6                 110663296.397 8  86231145.849 6
G08  20520651.625 8                  20520657.953 7 107836788.534 8                  84028721.172 7
G10  21781388.383 8                  21781394.539 7 114461966.013 8                  89191142.597 7
G27  22177437.516 7                  22177444.730 7 116543214.510 7                  90812798.228 7
G32  22154960.594 7                  22154967.805 6 116425112.327 7                  90720869.786 6
R01  20175586.008 7                 107850077.502 7
R02  20040552.906 8  20040557.426 7 106940229.175 8  83175766.155 7
R17  19254728.023 8  19254733.207 7 103035949.597 8  80139277.338 7
R24  21081505.391 6  21081512.340 6 112732292.631 6  87680696.427 6
> 2025 06 15 10 58 50.0000000  0 19
C19  22273054.500 7 115981641.450 7
C20  23695185.813 7 123387047.724 7
C22  24474518.086 6 127445253.415 6
E02  26177227.133 7  26177230.367 8 137562249.604 7 104064958.814 8
E04  25793585.766 7  25793588.363 8 135546208.033 7 102539836.519 8
E06  25248533.352 7  25248536.723 7 132681953.137 7 100373045.858 7
E11  25748176.102 6  25748175.309 7 135307563.917 6 102359292.996 7
E30  26389464.508 5  26389468.703 5 138677522.380 5 104908738.568 5
E34  25390479.969 7  25390483.320 8 133427876.146 7 100937338.712 8
E36  23397909.695 8  23397912.293 8 122956846.067 8  93016063.884 8
G02  21055939.563 8  21055940.820 6                 110649709.068 8  86220558.326 6
G08  20520356.398 8                  20520362.805 7 107835237.495 8                  84027512.555 7
G10  21782034.148 8                  21782040.180 7 114465357.843 8                  89193785.579 7
G27  22179115.711 7                  22179122.871 7 116552032.044 7                  90819669.010 7
G32  22152188.508 7                  22152195.355 6 116410546.664 7                  90709519.918 6
R01  20175890.781 7                 107851710.870 7
R02  20036871.242 8  20036875.820 7 106920583.203 8  83160485.939 7
R17  19252599.414 8  19252604.102 7 103024555.870 8  80130415.556 7
R24  21082695.578 6  21082702.730 6 112738655.998 6  87685645.622 6
> 2025 06 15 10 58 55.0000000  0 20
C19  22270770.227 7 115969747.464 7
C20  23695760.953 7 123390041.998 7
C22  24469875.227 6 127421072.336 6
E02  26178315.133 7  26178318.414 8 137567966.704 7 104069283.743 8
E04  25792514.328 7  25792516.492 8 135540576.043 7 102535575.947 8
E06  25246126.211 7  25246129.273 7 132669302.336 7 100363475.621 7
E11  25748767.539 6  25748767.574 7 135310676.165 6 102361647.380 7
E30  26388336.719 5  26388341.387 5 138671598.507 5 104904257.281 5
E34  25387121.914 7  25387125.523 8 133410230.521 7 100923989.938 8
E36  23396596.906 8  23396599.539 8 122949947.625 8  93010845.264 8
G01  22510416.313 4                                 118293123.49914                
G02  21053355.281 8  21053357.023 6                 110636131.149 8  86209978.113 6
G08  20520064.117 8                  20520070.953 8 107833703.101 8                  84026316.916 8
G10  21782681.305 8                  21782687.551 7 114468760.136 8                  89196436.723 7
G27  22180795.297 7                  22180803.082 7 116560859.557 7                  90826547.572 7
G32  22149418.711 7                  22149426.672 6 116395997.028 7                  90698182.515 6
R01  20176201.461 7                 107853366.067 7
R02  20033192.695 8  20033197.988 7 106900957.912 8  83145221.837 7
R17  19250472.305 8  19250477.102 7 103013177.156 8  80121565.454 7
R24  21083889.023 6  21083894.898 6 112745030.787 6  87690603.766 6
> 2025 06 15 10 59  0.0000000  0 20
C19  22268488.852 7 115957869.178 7
C20  23696338.148 7 123393048.677 7
C22  24465232.492 6 127396897.946 6
E02  26179404.484 7  26179407.645 8 137573691.468 7 104073614.494 8
E04  25791445.133 7  25791447.375 8 135534958.244 7 102531326.115 8
E06  25243721.156 7  25243724.387 7 132656664.968 7 100353915.539 7
E11  25749360.703 7  25749360.742 7 135313793.359 7 102364005.516 7
E30  26387213.016 5  26387217.070 5 138665688.877 5 104899786.564 5
E34  25383764.180 7  25383768.691 8 133392589.700 7 100910644.796 8
E36  23395285.828 8  23395288.281 8 122943056.879 8  93005632.461 8
G01  22506350.453 4                                                                
G02  21050773.047 8  21050775.406 6                 110622562.916 8  86199405.469 6
G08  20519775.695 8                  20519782.172 7 107832185.619 8                  84025134.459 7
G10  21783330.938 7                  21783336.918 7 114472173.109 7                  89199096.191 7
G27  22182477.469 7                  22182484.691 7 116569697.390 7                  90833434.187 7
G32  22146653.813 7                  22146661.469 6 116381463.578 7                  90686857.729 6
R01  20176515.102 7                 107855043.231 7
R02  20029519.914 8  20029524.273 7 106881353.850 8  83129974.224 7
R17  19248350.320 8  19248353.762 7 103001813.812 8  80112727.272 7
R24  21085083.898 6  21085089.051 6 112751417.189 6  87695570.886 6
> 2025 06 15 10 59  5.0000000  0 20
C19  22266210.570 7 115946005.125 7
C20  23696917.891 7 123396066.269 7
C22  24460590.727 7 127372728.992 7
E02  26180495.039 7  26180498.293 8 137579422.567 7 104077950.019 8
E04  25790378.227 7  25790380.672 8 135529353.212 7 102527085.949 8
E06  25241318.258 7  25241321.773 7 132644039.637 7 100344364.563 7
E11  25749954.438 7  25749954.602 7 135316913.999 7 102366366.254 7
E30  26386091.281 6  26386095.504 5 138659791.956 6 104895325.623 5
E34  25380407.664 7  25380412.281 8 133374952.262 7 100897302.222 8
E36  23393975.930 8  23393978.223 8 122936172.414 8  93000424.404 8
G01  22502282.047 4                                                                
G02  21048192.406 8  21048194.453 6                 110609002.916 8  86188839.248 6
G08  20519489.719 8                  20519496.277 7 107830683.597 8                  84023964.070 7
G10  21783981.102 7                  21783988.273 7 114475595.349 7                  89201762.863 7
G27  22184160.781 7                  22184168.512 7 116578543.980 7                  90840327.616 7
G32  22143891.156 7                  22143898.445 6 116366944.952 7                  90675544.498 6
R01  20176832.305 7                 107856740.927 7
R02  20025849.297 8  20025854.277 7 106861769.128 8  83114741.673 7
R17  19246229.313 8  19246232.762 7 102990464.393 8  80103899.953 7
R24  21086280.320 6  21086285.484 6 112757813.869 6  87700546.107 6
> 2025 06 15 10 59 10.0000000  0 19
C19  22263935.289 7 115934155.488 7
C20  23697499.656 7 123399094.972 7
C22  24455950.953 7 127348565.440 7
E02  26181587.078 7  26181589.902 8 137585160.041 7 104082290.357 8
E04  25789314.188 7  25789316.438 8 135523761.088 7 102522855.529 8
E06  25238918.852 7  25238921.477 7 132631426.432 7 100334822.749 7
E11  25750548.641 6  25750549.152 7 135320038.294 6 102368729.762 7
E30  26384971.500 5  26384976.477 5 138653907.822 5 104890874.286 5
E34  25377052.625 7  25377056.625 8 133357318.388 7 100883962.318 8
E36  23392666.781 8  23392669.363 8 122929294.300 8  92995221.155 8
G02  21045614.219 8  21045615.867 6                 110595451.289 8  86178279.553 6
G08  20519206.578 8                  20519213.473 7 107829197.206 8                  84022805.864 7
G10  21784634.336 7                  21784641.363 7 114479026.987 7                  89204436.855 7
G27  22185846.094 7                  22185853.770 7 116587399.534 7                  90847228.066 7
G32  22141131.008 6                  22141138.934 6 116352441.216 6                  90664242.959 6
R01  20177154.070 7                 107858459.352 7
R02  20022182.273 8  20022188.082 7 106842204.017 8  83099524.399 7
R17  19244109.633 8  19244114.941 7 102979128.907 8  80095083.492 7
R24  21087477.227 6  21087484.234 6 112764220.984 6  87705529.402 6
> 2025 06 15 10 59 15.0000000  0 20
C19  22261662.570 7 115922321.452 7
C20  23698083.820 7 123402135.946 7
C22  24451311.969 7 127324408.628 7
E02  26182678.398 6  26182683.145 8 137590905.094 6 104086636.459 8
E04  25788253.477 7  25788255.055 8 135518183.065 7 102518635.806 8
E06  25236521.070 7  25236523.820 7 132618826.582 7 100325291.055 7
E11  25751144.852 7  25751144.574 7 135323167.411 7 102371096.915 7
E30  26383852.813 5  26383859.813 5 138648037.845 5 104886433.656 5
E34  25373698.289 7  25373701.973 8 133339689.237 7 100870625.966 8
E36  23391359.000 8  23391361.934 9 122922423.794 8  92990023.665 9
G01  22494125.500 5                                                                
G02  21043036.734 8  21043038.633 6                 110581909.281 8  86167727.347 6
G08  20518927.344 8                  20518933.859 7 107827727.609 8                  84021660.719 7
G10  21785290.453 7                  21785296.332 7 114482469.154 7                  89207119.053 7
G27  22187532.242 7                  22187540.926 7 116596265.252 7                  90854136.401 7
G32  22138373.992 7                  22138381.871 5 116337953.674 7                  90652953.986 5
R01  20177480.195 7                 107860199.599 7
R02  20018520.125 8  20018525.418 7 106822659.878 8  83084323.404 7
R17  19241994.688 8  19241999.035 7 102967808.779 8  80086278.951 7
R24  21088677.609 6  21088683.945 6 112770639.604 6  87710521.676 6
> 2025 06 15 10 59 20.0000000  0 20
C19  22259393.102 7 115910501.890 7
C20  23698669.539 7 123405188.045 7
C22  24446673.148 7 127300257.368 7
E02  26183773.930 7  26183777.664 8 137596656.578 7 104090987.409 8
E04  25787193.922 7  25787196.195 8 135512618.045 7 102514425.891 8
E06  25234125.586 7  25234128.531 7 132606238.969 7 100315768.613 7
E11  25751740.711 7  25751740.680 7 135326300.193 7 102373466.840 7
E30  26382739.734 5  26382745.281 5 138642180.815 5 104882002.889 5
E34  25370344.734 7  25370347.797 8 133322063.659 7 100857292.375 8
E36  23390053.273 8  23390055.707 8 122915559.754 8  92984831.066 8
G01  22490055.039 5                  22490057.297 5 118186060.09015                  92093020.90215
G02  21040461.445 8  21040463.262 6                 110568375.730 8  86157181.733 6
G08  20518650.086 8                  20518657.375 8 107826273.688 8                  84020527.777 8
G10  21785946.328 7                  21785952.875 7 114485920.761 7                  89209808.608 7
G27  22189221.359 7                  22189229.574 7 116605139.956 7                  90861051.740 7
G32  22135619.484 6                  22135628.391 5 116323481.153 6                  90641676.695 5
R01  20177810.219 7                 107861960.512 7
R02  20014860.867 8  20014866.582 7 106803135.737 8  83069137.979 7
R17  19239882.078 8  19239886.625 7 102956502.763 8  80077485.360 7
R24  21089879.961 6  21089885.926 6 112777068.602 6  87715521.923 6
> 2025 06 15 10 59 25.0000000  0 20
C19  22257125.922 7 115898696.893 7
C20  23699257.766 7 123408251.338 7
C22  24442037.242 7 127276111.750 7
E02  26184869.211 7  26184873.457 8 137602414.582 7 104095343.290 8
E04  25786137.219 7  25786139.719 8 135507066.063 7 102510225.859 8
E06  25231732.352 7  25231735.566 7 132593663.645 7 100306255.458 7
E11  25752337.953 7  25752337.512 7 135329436.694 7 102375839.570 7
E30  26381629.320 5  26381632.852 5 138636336.878 5 104877581.974 5
E34  25366992.086 7  25366994.258 8 133304441.818 7 100843961.559 8
E36  23388748.094 8  23388750.758 9 122908702.260 8  92979643.424 9
G01  22485986.313 5                                 118164671.28115                
G02  21037887.523 8  21037889.730 6                 110554850.717 8  86146642.780 6
G08  20518376.516 8                  20518383.398 7 107824835.511 8                  84019407.115 7
G10  21786605.133 7                  21786611.355 7 114489381.866 7                  89212505.578 7
G27  22190911.742 7                  22190920.387 7 116614023.704 7                  90867974.144 7
G32  22132868.875 7                  22132876.707 5 116309023.744 7                  90630411.194 5
R01  20178143.719 8                 107863742.214 8
R02  20011206.344 8  20011211.422 7 106783631.320 8  83053967.890 7
R17  19237771.875 8  19237776.383 7 102945210.912 8  80068702.807 7
R24  21091084.281 6  21091090.402 6 112783508.138 6  87720530.483 6
> 2025 06 15 10 59 30.0000000  0 20
C19  22254862.055 7 115886907.534 7
C20  23699847.992 7 123411326.901 7
C22  24437401.188 6 127251972.925 6
C29  24261324.156 5 126335044.22815
E02  26185966.992 7  26185970.629 8 137608180.222 7 104099704.958 8
E04  25785084.211 7  25785085.938 8 135501528.234 7 102506036.530 8
E06  25229342.570 7  25229345.176 7 132581101.738 7 100296752.460 7
E11  25752935.664 7  25752935.258 7 135332578.091 7 102378216.008 7
E30  26380520.797 5  26380523.070 5 138630506.959 5 104873171.67215
E34  25363638.953 7  25363641.758 8 133286824.747 7 100830634.348 8
E36  23387444.484 8  23387447.309 9 122901852.405 8  92974461.545 9
G02  21035315.484 8  21035317.477 6                 110541335.361 8  86136111.317 6
G08  20518106.445 8                  20518112.746 7 107823414.171 8                  84018299.572 7
G10  21787265.602 7                  21787272.336 7 114492853.563 7                  89215210.807 7
G27  22192604.703 7                  22192613.090 7 116622917.642 7                  90874904.459 7
G32  22130121.328 7                  22130128.723 5 116294582.545 7                  90619158.350 5
R01  20178481.234 7                 107865545.917 7
R02  20007555.281 8  20007560.352 7 106764148.104 8  83038814.271 7
R17  19235663.938 8  19235669.535 7 102933934.343 8  80059932.134 7
R24  21092289.680 6  21092296.680 6 112789959.206 6  87725547.979 6
> 2025 06 15 10 59 35.0000000  0 20
C19  22252600.398 7 115875133.438 7
C20  23700441.563 7 123414414.338 7
C22  24432766.250 6 127227840.407 6
C29  24262680.453 5 126342124.140 5
E02  26187066.305 7  26187069.055 8 137613953.061 7 104104072.032 8
E04  25784032.633 7  25784034.738 8 135496004.150 7 102501857.595 8
E06  25226954.609 7  25226957.215 7 132568552.832 7 100287259.300 7
E11  25753534.203 7  25753533.848 7 135335723.935 7 102380595.832 7
E30  26379413.664 5  26379416.191 5 138624690.740 5 104868771.738 5
E34  25360287.211 7  25360290.156 8 133269212.064 7 100817310.465 8
E36  23386142.492 8  23386145.172 8 122895009.797 8  92969285.153 8
G02  21032745.789 8  21032746.996 6                 110527829.302 8  86125587.109 6
G08  20517838.766 8                  20517845.566 7 107822009.275 8                  84017204.846 7
G10  21787927.906 7                  21787934.539 7 114496335.446 7                  89217923.963 7
G27  22194296.758 7                  22194306.918 7 116631821.290 7                  90881842.337 7
G32  22127376.398 7                  22127383.551 6 116280157.174 7                  90607917.771 6
R01  20178823.320 8                 107867371.079 8
R02  20003908.359 8  20003913.387 7 106744685.246 8  83023676.467 7
R17  19233560.250 8  19233564.348 7 102922672.735 8  80051173.112 7
R24  21093500.813 6  21093505.191 6 112796421.589 6  87730574.228 6
> 2025 06 15 10 59 40.0000000  0 20
C19  22250342.242 7 115863374.607 7
C20  23701036.773 7 123417513.691 7
C22  24428132.883 6 127203714.353 6
C29  24264042.648 5 126349210.497 5
E02  26188166.188 7  26188169.004 8 137619733.094 7 104108444.569 8
E04  25782984.438 7  25782986.285 8 135490493.865 7 102497689.098 8
E06  25224569.031 7  25224571.770 7 132556017.030 7 100277776.048 7
E11  25754134.133 7  25754133.320 7 135338874.300 7 102382979.057 7
E30  26378310.047 5  26378311.938 5 138618888.315 5 104864382.234 5
E34  25356935.773 7  25356939.246 8 133251603.769 7 100803989.893 8
E36  23384841.727 8  23384844.453 8 122888174.461 8  92964114.265 8
G02  21030178.023 8  21030178.844 6                 110514332.512 8  86115070.144 6
G08  20517574.680 8                  20517581.238 7 107820620.859 8                  84016122.970 7
G10  21788592.609 7                  21788599.223 7 114499827.519 7                  89220645.062 7
G27  22195993.883 7                  22196003.129 7 116640734.713 7                  90888787.855 7
G32  22124634.781 7                  22124642.125 6 116265747.729 7                  90596689.610 6
R01  20179168.344 8                 107869217.676 8
R02  20000264.469 8  20000270.094 7 106725243.217 8  83008554.916 7
R17  19231458.125 8  19231463.078 7 102911426.111 8  80042425.754 7
R24  21094712.719 7  21094715.820 6 112802895.099 7  87735609.097 6
> 2025 06 15 10 59 45.0000000  0 20
C19  22248087.039 8 115851629.463 8
C20  23701634.484 7 123420623.290 7
C22  24423500.359 6 127179593.097 6
C29  24265404.148 5 126356301.738 5
E02  26189266.594 7  26189270.008 8 137625518.742 7 104112821.371 8
E04  25781937.086 7  25781940.094 8 135484995.753 7 102493529.804 8
E06  25222184.906 7  25222188.426 7 132543492.580 7 100268301.401 7
E11  25754733.195 7  25754733.266 7 135342027.533 7 102385364.440 7
E30  26377208.656 5  26377210.219 5 138613098.013 5 104860001.892 5
E34  25353585.180 7  25353588.910 8 133233998.280 7 100790671.459 8
E36  23383541.891 8  23383544.797 8 122881344.775 8  92958947.648 8
G02  21027610.516 8  21027611.723 6                 110500843.353 8  86104559.109 6
G08  20517313.180 8                  20517319.629 7 107819247.241 8                  84015052.613 7
G10  21789257.922 7                  21789265.508 7 114503328.194 7                  89223372.840 7
G27  22197691.625 6                  22197700.637 7 116649656.247 6                  90895739.690 7
G32  22121895.695 7                  22121902.949 6 116251352.510 7                  90585472.531 6
R01  20179517.102 8                 107871083.978 8
R02  19996625.070 8  19996630.098 7 106705820.256 8  82993448.186 7
R17  19229358.023 8  19229363.559 8 102900192.787 8  80033688.720 8
R24  21095922.477 6  21095928.344 5 112809378.271 6  87740651.490 5
> 2025 06 15 10 59 50.0000000  0 20
C19  22245833.938 7 115839897.571 7
C20  23702234.000 7 123423742.768 7
C22  24418869.563 6 127155476.227 6
C29  24266767.797 5 126363397.490 5
E02  26190368.805 7  26190371.965 8 137631309.534 7 104117202.052 8
E04  25780893.531 7  25780895.992 8 135479509.361 7 102489379.390 8
E06  25219804.313 7  25219807.258 7 132530979.215 7 100258835.138 7
E11  25755334.031 7  25755333.664 7 135345183.206 7 102387751.682 7
E30  26376108.586 5  26376111.055 5 138607319.450 5 104855630.42915
E34  25350235.891 7  25350239.191 8 133216395.152 7 100777354.829 8
E36  23382243.508 8  23382246.148 8 122874520.325 8  92953784.997 8
G02  21025045.625 8  21025046.145 6                 110487361.441 8  86094053.723 6
G08  20517054.680 8                  20517061.156 7 107817888.069 8                  84013993.529 7
G10  21789925.914 7                  21789932.969 7 114506836.979 7                  89226106.959 7
G27  22199391.070 6                  22199400.082 7 116658585.531 6                  90902697.554 7
G32  22119158.906 7                  22119166.184 6 116236971.089 7                  90574266.262 6
R01  20179869.047 7                 107872969.815 7
R02  19992988.000 8  19992993.449 7 106686415.794 8  82978355.855 7
R17  19227261.898 8  19227267.012 7 102888972.426 8  80024961.768 7
R24  21097139.500 7  21097142.371 6 112815870.465 7  87745700.963 6
> 2025 06 15 10 59 55.0000000  0 20
C19  22243583.602 7 115828179.365 7
C20  23702834.984 7 123426872.467 7
C22  24414239.336 7 127131364.130 7
C29  24268130.625 5 126370497.998 5
E02  26191471.586 7  26191474.879 8 137637105.868 7 104121586.939 8
E04  25779851.898 7  25779854.277 8 135474035.093 7 102485238.144 8
E06  25217424.984 7  25217428.258 7 132518477.247 7 100249377.472 7
E11  25755935.617 7  25755934.695 7 135348341.695 7 102390141.048 7
E30  26375010.883 5  26375014.055 5 138601552.972 5 104851268.06915
E34  25346886.656 7  25346889.875 8 133198794.798 7 100764040.271 8
E36  23380945.828 8  23380948.559 8 122867701.509 8  92948626.605 8
G02  21022481.273 8  21022481.609 6                 110473887.189 8  86083554.303 6
G08  20516798.711 8                  20516805.637 7 107816543.709 8                  84012945.965 7
G10  21790595.398 7                  21790602.199 7 114510354.328 7                  89228847.717 7
G27  22201091.727 7                  22201101.012 7 116667522.862 7                  90909661.723 7
G32  22116424.531 7                  22116431.871 5 116222603.955 7                  90563071.111 5
R01  20180225.727 7                 107874875.331 7
R02  19989354.617 8  19989360.305 7 106667030.355 8  82963278.297 7
R17  19225168.055 8  19225171.969 7 102877765.329 8  80016245.145 7
R24  21098353.227 6  21098357.941 6 112822372.151 6  87750757.915 6
> 2025 06 15 11 00  0.0000000  0 20
C19  22241336.133 7 115816475.985 7
C20  23703437.203 7 123430013.615 7
C22  24409609.984 7 127107258.048 7
C29  24269495.211 5 126377604.612 5
E02  26192576.023 7  26192579.344 8 137642908.928 7 104125976.914 8
E04  25778813.289 7  25778815.211 8 135468574.164 7 102481106.984 8
E06  25215048.398 7  25215051.637 7 132505987.867 7 100239929.367 7
E11  25756537.039 7  25756536.555 7 135351504.261 7 102392533.504 7
E30  26373917.141 4  26373919.430 5 138595799.69014 104846915.73215
E34  25343537.680 7  25343541.430 8 133181198.438 7 100750728.768 8
E36  23379649.680 8  23379652.277 8 122860889.506 8  92943473.380 8
G02  21019918.414 8  21019919.656 6                 110460421.752 8  86073061.753 6
G08  20516546.281 8                  20516552.488 8 107815215.360 8                  84011910.887 8
G10  21791266.656 7                  21791273.684 7 114513881.389 7                  89231596.068 7
G27  22202794.898 7                  22202803.305 7 116676469.502 7                  90916633.097 7
G32  22113692.844 7                  22113700.434 5 116208252.241 7                  90551887.941 5
R01  20180586.680 7                 107876801.790 7
R02  19985726.078 8  19985730.438 7 106647665.134 8  82948216.454 7
R17  19223075.750 8  19223080.547 7 102866572.769 8  80007539.836 7
R24  21099569.500 6  21099576.441 6 112828884.737 6  87755823.197 6
> 2025 06 15 11 00  5.0000000  0 19
C19  22239091.609 7 115804789.507 7
C20  23704044.664 7 123433168.181 7
C22  24404981.453 7 127083160.019 7
C29  24270864.070 5 126384719.298 5
E02  26193681.945 7  26193685.316 8 137648720.830 7 104130373.555 8
E04  25777776.766 7  25777778.887 8 135463128.591 7 102476987.457 8
E06  25212674.055 7  25212677.961 8 132493513.221 7 100230492.369 8
E11  25757139.930 7  25757139.500 7 135354672.907 7 102394930.560 7
E34  25340190.234 7  25340194.078 8 133163608.137 7 100737421.812 8
E36  23378354.586 8  23378357.711 8 122854086.394 8  92938326.882 8
G02  21017358.414 8  21017359.691 6                 110446967.229 8  86062577.711 6
G08  20516296.617 8                  20516302.785 7 107813905.057 8                  84010889.860 7
G10  21791940.703 7                  21791946.773 7 114517420.241 7                  89234353.610 7
G27  22204499.234 7                  22204507.805 7 116685427.463 7                  90923613.300 7
G32  22110964.289 7                  22110972.629 5 116193918.019 7                  90540718.468 5
R01  20180952.258 8                 107878751.361 8
R02  19982101.445 8  19982106.160 7 106628322.461 8  82933172.160 7
R17  19220987.891 8  19220992.316 7 102855396.913 8  79998847.485 7
R24  21100791.336 6  21100796.859 6 112835410.139 6  87760898.500 6
> 2025 06 15 11 00 10.0000000  0 20
C19  22236850.313 7 115793120.855 7
C20  23704652.945 7 123436337.138 7
C22  24400355.547 7 127059070.995 7
C29  24272230.070 5 126391842.985 5
E02  26194789.734 7  26194793.250 8 137654542.417 7 104134777.547 8
E04  25776743.430 7  25776745.793 8 135457699.372 7 102472880.291 8
E06  25210303.328 7  25210307.156 8 132481054.168 7 100221067.181 8
E09  25674656.203 7  25674659.641 8 134921223.93817 102067045.74318
E11  25757744.398 7  25757743.816 7 135357848.578 7 102397332.925 7
E34  25336843.969 6  25336848.141 8 133146024.771 6 100724120.137 8
E36  23377061.969 8  23377065.008 8 122847293.128 8  92933187.810 8
G02  21014800.063 7  21014801.484 6                 110433524.552 7  86052102.900 6
G08  20516051.133 8                  20516057.242 7 107812613.745 8                  84009883.640 7
G10  21792615.281 7                  21792622.379 7 114520971.788 7                  89237121.055 7
G27  22206206.484 7                  22206214.133 7 116694397.688 7                  90930603.053 7
G32  22108240.516 7                  22108248.496 5 116179602.255 7                  90529563.330 5
R01  20181320.656 7                 107880724.962 7
R02  19978481.633 8  19978485.449 7 106609003.081 8  82918145.974 7
R17  19218902.438 8  19218907.043 7 102844238.675 8  79990168.873 7
R24  21102017.391 6  21102018.594 6 112841949.346 6  87765984.486 6
> 2025 06 15 11 00 15.0000000  0 21
C19  22234612.656 7 115781468.040 7
C20  23705264.156 7 123439518.478 7
C22  24395730.516 7 127034989.007 7
C29  24273597.172 5 126398973.77715
E02  26195898.156 7  26195902.605 8 137660371.679 7 104139187.346 8
E04  25775713.203 7  25775715.281 8 135452284.473 7 102468783.951 8
E06  25207934.516 7  25207938.949 7 132468608.759 7 100211652.320 7
E09  25671161.688 7  25671165.301 8 134902861.505 7 102053154.706 8
E11  25758350.148 7  25758349.121 7 135361029.303 7 102399739.128 7
E34  25333499.492 7  25333503.051 8 133128446.399 7 100710822.214 8
E36  23375770.914 8  23375773.750 8 122840507.677 8  92928054.663 8
G01  22445348.203 4                                                                
G02  21012244.141 8  21012245.832 6                 110420091.740 8  86041635.779 6
G08  20515808.430 8                  20515815.129 7 107811339.443 8                  84008890.694 7
G10  21793294.016 7                  21793300.262 7 114524534.042 7                  89239896.821 7
G27  22207916.008 7                  22207922.645 7 116703378.153 7                  90937600.787 7
G32  22105518.844 6                  22105527.270 5 116165303.075 6                  90518421.085 5
R01  20181693.922 7                 107882720.524 7
R02  19974864.523 8  19974868.746 7 106589704.901 8  82903136.295 7
R17  19216819.813 8  19216825.098 7 102833095.994 8  79981502.353 7
R24  21103240.742 6  21103244.215 6 112848500.290 6  87771079.714 6
> 2025 06 15 11 00 20.0000000  0 21
C19  22232378.320 7 115769830.246 7
C20  23705876.969 7 123442711.366 7
C22  24391107.219 6 127010913.185 6
C29  24274970.578 5 126406110.668 5
E02  26197009.445 7  26197013.371 8 137666207.885 7 104143602.369 8
E04  25774685.398 7  25774687.391 8 135446883.074 7 102464697.833 8
E06  25205568.586 7  25205573.184 8 132456176.144 7 100202247.124 8
E09  25667669.367 7  25667672.848 8 134884508.878 7 102039271.075 8
E11  25758956.266 7  25758955.254 7 135364214.208 7 102402148.459 7
E34  25330155.477 7  25330158.922 8 133110872.177 7 100697527.469 8
E36  23374481.164 8  23374483.902 8 122833729.221 8  92922926.800 8
G01  22441284.602 5                  22441290.270 6 117929607.81315                  91893334.41816
G02  21009689.406 7  21009691.566 6                 110406667.966 7  86031175.714 6
G08  20515569.617 8                  20515575.770 7 107810081.249 8                  84007910.273 7
G10  21793973.156 7                  21793980.219 7 114528106.125 7                  89242680.278 7
G27  22209626.180 7                  22209633.617 7 116712367.981 7                  90944605.896 7
G32  22102801.211 6                  22102809.023 6 116151019.414 6                  90507291.008 6
R01  20182070.313 7                 107884737.030 7
R02  19971251.336 8  19971256.270 7 106570427.308 8  82888142.627 7
R17  19214740.734 8  19214745.445 7 102821968.081 8  79972847.305 7
R24  21104465.773 5  21104471.750 6 112855062.139 5  87776183.352 6
> 2025 06 15 11 00 25.0000000  0 21
C19  22230145.984 7 115758207.338 7
C20  23706491.258 7 123445915.646 7
C22  24386484.797 7 126986843.438 7
C29  24276341.563 5 126413253.577 5
E02  26198120.883 6  26198125.309 8 137672050.784 6 104148022.438 8
E04  25773660.008 7  25773662.012 8 135441494.982 7 102460621.771 8
E06  25203205.344 7  25203209.695 8 132443756.188 7 100192851.506 8
E09  25664178.984 7  25664182.320 8 134866165.944 7 102025394.757 8
E11  25759562.453 7  25759562.152 7 135367403.186 7 102404560.891 7
E34  25326812.016 7  25326815.461 8 133093301.955 7 100684235.693 8
E36  23373192.477 8  23373195.293 8 122826957.637 8  92917804.146 8
G01  22437227.359 6                  22437232.652 6 117908291.274 6                  91876724.103 6
G02  21007137.336 8  21007139.031 6                 110393253.072 8  86020722.541 6
G08  20515332.555 8                  20515339.168 7 107808839.096 8                  84006942.355 7
G10  21794655.398 7                  21794661.816 7 114531687.952 7                  89245471.304 7
G27  22211338.922 7                  22211345.703 7 116721367.044 7                  90951618.128 7
G32  22100087.539 6                  22100094.262 6 116136751.332 6                  90496172.989 6
R01  20182451.828 7                 107886774.563 7
R02  19967642.555 8  19967647.602 7 106551170.049 8  82873164.763 7
R17  19212664.641 8  19212669.102 7 102810854.781 8  79964203.624 7
R24  21105702.758 6  21105700.922 6 112861634.740 6  87781295.275 6
> 2025 06 15 11 00 30.0000000  0 20
C19  22227916.656 7 115746599.498 7
C20  23707108.906 7 123449131.497 7
C22  24381862.828 7 126962779.976 7
C29  24277714.164 5 126420402.732 5
E02  26199234.125 6  26199238.469 8 137677900.522 6 104152447.757 8
E04  25772637.133 7  25772639.254 8 135436120.469 7 102456555.980 8
E06  25200845.320 7  25200848.691 8 132431349.105 7 100183465.639 8
E09  25660690.367 7  25660693.566 8 134847832.913 7 102011525.959 8
E11  25760169.977 7  25760169.891 7 135370596.394 7 102406976.525 7
E34  25323468.930 7  25323472.824 8 133075735.966 7 100670947.122 8
E36  23371905.570 8  23371908.066 8 122820193.067 8  92912686.790 8
G01  22433172.164 6                  22433177.535 6 117886980.643 6                  91860118.395 6
G02  21004585.484 8  21004587.715 6                 110379847.226 8  86010276.445 6
G08  20515099.281 8                  20515105.945 7 107807613.117 8                  84005987.036 7
G10  21795338.484 7                  21795345.180 7 114535279.630 7                  89248270.034 7
G27  22213053.789 7                  22213060.230 7 116730375.597 7                  90958637.785 7
G32  22097374.063 6                  22097382.355 5 116122498.926 6                  90485067.212 5
R01  20182837.492 7                 107888833.276 7
R02  19964038.164 8  19964042.762 7 106531933.254 8  82858202.781 7
R17  19210590.125 8  19210595.043 7 102799756.236 8  79955571.435 7
> 2025 06 15 11 00 35.0000000  0 20
C19  22225690.617 7 115735006.592 7
C20  23707727.648 7 123452358.792 7
C22  24377242.953 7 126938722.609 7
C29  24279090.297 5 126427557.983 5
E02  26200348.008 6  26200353.039 8 137683757.047 6 104156878.158 8
E04  25771616.813 7  25771618.949 8 135430759.335 7 102452500.313 8
E06  25198485.875 7  25198490.105 8 132418954.727 7 100174089.388 8
E09  25657203.570 7  25657206.766 8 134829509.637 7 101997664.527 8
E11  25760778.445 7  25760778.324 7 135373793.710 7 102409395.264 7
E34  25320127.000 7  25320130.793 8 133058174.024 7 100657661.639 8
E36  23370619.820 8  23370622.078 8 122813435.434 8  92907574.682 8
G01  22429118.078 6                  22429122.727 6 117865675.797 6                  91843517.221 6
G02  21002036.875 8  21002037.980 6                 110366450.370 8  85999837.331 6
G08  20514869.563 8                  20514875.809 7 107806403.188 8                  84005044.256 7
G10  21796024.055 7                  21796030.547 7 114538881.039 7                  89251076.328 7
G27  22214769.047 7                  22214776.301 7 116739393.432 7                  90965664.687 7
G32  22094663.875 6                  22094672.852 5 116108262.102 6                  90473973.607 5
R01  20183226.430 7                 107890912.830 7
R02  19960437.586 8  19960442.012 7 106512716.994 8  82843256.820 7
R17  19208518.523 8  19208523.559 7 102788672.396 8  79946950.673 7
> 2025 06 15 11 00 40.0000000  0 20
C19  22223467.688 7 115723428.690 7
C20  23708350.703 7 123455597.561 7
C22  24372623.672 7 126914671.452 7
C29  24280466.633 6 126434719.384 6
E02  26201464.375 6  26201468.938 8 137689620.419 6 104161313.708 8
E04  25770599.984 7  25770601.359 8 135425411.657 7 102448454.820 8
E06  25196129.836 7  25196133.938 8 132406573.145 7 100164722.805 8
E09  25653717.883 7  25653721.805 8 134811196.223 7 101983810.563 8
E11  25761387.891 7  25761387.590 7 135376995.212 7 102411817.182 7
E34  25316785.633 6  25316789.586 8 133040616.210 6 100644379.275 8
E36  23369335.133 8  23369337.457 8 122806684.764 8  92902467.846 8
G01  22425065.531 6                  22425069.734 6 117844376.834 6                  91826920.661 6
G02  20999488.250 8  20999490.227 6                 110353062.560 8  85989405.280 6
G08  20514641.523 8                  20514648.523 7 107805209.397 8                  84004114.037 7
G10  21796711.547 7                  21796717.992 7 114542492.261 7                  89253890.272 7
G27  22216486.141 7                  22216493.953 7 116748420.589 7                  90972698.795 7
G32  22091958.109 6                  22091967.230 5 116094040.929 6                  90462892.235 5
R01  20183620.164 7                 107893013.462 7
R02  19956839.414 8  19956844.699 7 106493521.239 8  82828326.788 7
R17  19206450.781 8  19206455.074 7 102777603.186 8  79938341.275 7
> 2025 06 15 11 00 45.0000000  0 21
C19  22221246.758 7 115711864.791 7
C20  23708974.789 7 123458846.794 7
C22  24368006.234 7 126890625.521 7
C29  24281842.227 6 126441885.904 6
E02  26202581.227 6  26202585.793 8 137695489.585 6 104165753.667 8
E04  25769584.266 7  25769586.160 8 135420076.428 7 102444418.738 8
E06  25193775.586 7  25193780.086 8 132394203.367 7 100155365.173 8
E09  25650235.055 7  25650238.629 8 134792891.630 7 101969963.272 8
E11  25761997.750 7  25761997.395 7 135380199.915 7 102414241.510 7
E34  25313445.781 7  25313449.172 8 133023061.543 7 100631099.287 8
E36  23368051.180 8  23368053.984 8 122799940.062 8  92897365.522 8
G01  22421012.219 6                  22421018.043 6 117823082.729 6                  91810327.854 6
G02  20996942.961 8  20996944.004 6                 110339682.781 8  85978979.473 6
G08  20514417.844 8                  20514424.285 7 107804030.716 8                  84003195.583 7
G10  21797400.984 8                  21797406.555 7 114546112.264 8                  89256711.056 7
G27  22218205.711 7                  22218213.828 7 116757456.118 7                  90979739.465 7
G32  22089256.094 6                  22089263.465 6 116079834.415 6                  90451822.238 6
R01  20184016.750 7                 107895134.061 7
R02  19953246.133 8  19953251.004 7 106474344.989 8  82813411.978 7
R17  19204384.188 8  19204388.867 7 102766547.726 8  79929742.564 7
R24  21110634.172 5                                
> 2025 06 15 11 00 50.0000000  0 20
C19  22219028.758 7 115700316.077 7
C20  23709600.938 7 123462107.698 7
C22  24363390.125 7 126866586.024 7
C29  24283218.859 6 126449058.817 6
E02  26203699.914 6  26203703.863 8 137701365.707 6 104170198.902 8
E04  25768571.227 7  25768573.469 8 135414754.812 7 102440392.981 8
E06  25191424.398 7  25191428.691 8 132381846.536 7 100146017.299 8
E09  25646753.375 7  25646757.293 8 134774597.060 7 101956123.559 8
E11  25762608.586 7  25762608.047 7 135383408.914 7 102416669.092 7
E34  25310105.859 7  25310109.512 8 133005511.172 7 100617822.558 8
E36  23366769.156 8  23366771.871 8 122793202.504 8  92892268.605 8
G01  22416961.000 5                  22416967.484 6 117801794.669 5                  91793739.761 6
G02  20994398.352 8  20994400.277 6                 110326312.197 8  85968560.832 6
G08  20514196.648 8                  20514203.039 7 107802868.292 8                  84002289.773 7
G10  21798091.289 7                  21798097.434 7 114549742.231 7                  89259539.583 7
G27  22219927.469 7                  22219934.477 7 116766501.114 7                  90986787.500 7
G32  22086555.750 6                  22086562.816 6 116065643.752 6                  90440764.543 6
R01  20184416.914 8                 107897275.908 8
R02  19949655.422 8  19949660.504 7 106455189.477 8  82798513.270 7
R17  19202321.102 8  19202326.035 7 102755507.244 8  79921155.530 7
> 2025 06 15 11 00 55.0000000  0 21
C19  22216814.211 7 115688781.408 7
C20  23710229.375 7 123465379.082 7
C22  24358773.297 7 126842551.761 7
C29  24284597.297 5 126456236.808 5
E02  26204819.586 7  26204823.113 8 137707247.568 7 104174648.493 8
E04  25767560.898 7  25767563.238 8 135409445.685 7 102436376.663 8
E06  25189075.148 7  25189079.461 8 132369501.574 7 100136678.422 8
E09  25643274.289 7  25643277.625 8 134756311.380 7 101942290.567 8
E11  25763220.164 7  25763219.289 7 135386621.117 7 102419099.088 7
E30  26362048.766 5  26362059.656 5 138533517.36415 104799735.28015
E34  25306766.305 7  25306770.441 8 132987963.916 7 100604548.180 8
E36  23365488.148 8  23365490.898 8 122786470.942 8  92887176.222 8
G01  22412909.891 6                  22412917.035 6 117780511.559 6                  91777155.533 6
G02  20991855.367 8  20991856.902 6                 110312949.638 8  85958148.459 6
G08  20513978.680 8                  20513984.980 8 107801720.999 8                  84001395.786 8
G10  21798783.953 7                  21798789.301 7 114553380.971 7                  89262374.949 7
G27  22221649.625 6                  22221656.969 7 116775554.398 6                  90993841.994 7
G32  22083857.734 6                  22083865.434 6 116051467.721 6                  90429718.304 6
R01  20184821.383 7                 107899437.686 7
R02  19946069.797 8  19946074.660 7 106436053.405 8  82783629.645 7
R17  19200260.203 8  19200265.387 8 102744480.480 8  79912579.182 8
> 2025 06 15 11 01  0.0000000  0 21
C19  22214601.516 7 115677259.038 7
C20  23710859.984 7 123468659.217 7
C22  24354159.563 7 126818521.049 7
C29  24285975.211 5 126463418.243 5
E02  26205940.102 7  26205943.316 8 137713133.535 7 104179101.163 8
E04  25766552.523 7  25766555.047 8 135404147.252 7 102432368.424 8
E06  25186728.516 7  25186732.199 8 132357166.678 7 100127347.147 8
E09  25639795.563 7  25639799.348 8 134738032.798 7 101928462.957 8
E11  25763831.414 7  25763830.867 7 135389834.766 7 102421530.192 7
E30  26360984.930 5  26360995.836 4 138527926.202 5 104795505.762 4
E34  25303427.461 7  25303431.465 8 132970418.110 7 100591274.917 8
E36  23364208.102 8  23364210.691 8 122779743.625 8  92882087.056 8
G01  22408860.953 6                  22408867.426 6 117759231.488 6                  91760573.701 6
G02  20989313.836 8  20989314.977 6                 110299593.396 8  85947741.010 6
G08  20513762.070 8                  20513768.977 8 107800587.073 8                  84000512.193 8
G10  21799477.656 8                  21799483.832 7 114557026.777 8                  89265215.827 7
G27  22223373.633 7                  22223381.180 7 116784614.279 7                  91000901.609 7
G32  22081161.969 6                  22081169.883 6 116037304.696 6                  90418682.158 6
R01  20185227.453 7                 107901617.590 7
R02  19942486.375 8  19942492.395 7 106416935.188 8  82768759.926 7
R17  19198201.188 8  19198207.023 7 102733465.801 8  79904012.209 7
> 2025 06 15 11 01  5.0000000  0 21
C19  22212390.813 7 115665751.101 7
C20  23711492.055 7 123471950.181 7
C22  24349545.992 7 126794496.001 7
C29  24287354.969 5 126470605.247 5
E02  26207060.797 7  26207064.543 8 137719025.641 7 104183558.509 8
E04  25765547.086 7  25765549.156 8 135398861.704 7 102428369.964 8
E06  25184382.633 7  25184387.168 8 132344843.983 7 100118025.135 8
E09  25636318.258 7  25636322.844 8 134719763.545 7 101914642.389 8
E11  25764443.531 7  25764443.066 7 135393051.971 7 102423963.992 7
E30  26359922.547 5  26359933.926 4 138522347.92515 104791285.85114
E34  25300089.969 7  25300093.578 8 132952875.839 7 100578004.289 8
E36  23362929.555 8  23362931.746 8 122773022.696 8  92877002.713 8
G01  22404811.102 5                  22404818.512 6 117737956.899 5                  91743996.059 6
G02  20986773.641 8  20986775.141 6                 110286245.559 8  85937340.109 6
G08  20513549.219 8                  20513556.004 7 107799468.659 8                  83999640.693 7
G10  21800172.797 7                  21800179.277 7 114560681.740 7                  89268063.844 7
G27  22225099.867 7                  22225106.617 7 116793682.871 7                  91007968.022 7
G32  22078469.852 6                  22078478.438 6 116023156.753 6                  90407657.792 6
R01  20185640.328 7                 107903817.857 7
R02  19938908.891 8  19938912.613 7 106397837.006 8  82753905.777 7
R17  19196146.313 8  19196150.992 7 102722465.227 8  79895456.214 7
> 2025 06 15 11 01 10.0000000  0 21
C19  22210183.563 7 115654258.117 7
C20  23712125.570 7 123475252.573 7
C22  24344934.078 7 126770477.136 7
C29  24288736.906 5 126477798.241 5
E02  26208182.898 7  26208186.898 8 137724924.495 7 104188020.934 8
E04  25764543.977 7  25764546.055 8 135393589.538 7 102424381.596 8
E06  25182040.266 7  25182044.625 8 132332534.086 7 100108712.770 8
E09  25632843.984 7  25632848.215 8 134701504.116 7 101900829.256 8
E11  25765056.328 7  25765056.086 7 135396273.323 7 102426400.915 7
E30  26358863.945 4  26358874.078 5 138516783.02814 104787076.10915
E34  25296752.961 7  25296756.176 8 132935337.659 7 100564736.803 8
E36  23361651.414 8  23361654.117 8 122766308.690 8  92871923.613 8
G01  22400765.742 5                  22400771.371 6 117716688.15715                  91727422.99216
G02  20984235.578 8  20984236.867 6                 110272906.721 8  85926946.221 6
G08  20513339.672 8                  20513346.621 8 107798366.257 8                  83998781.680 8
G10  21800870.836 8                  21800876.395 7 114564346.388 8                  89270919.422 7
G27  22226827.125 7                  22226834.449 7 116802760.669 7                  91015041.634 7
G32  22075782.609 6                  22075789.531 6 116009024.422 6                  90396645.563 6
R01  20186054.859 7                 107906039.099 7
R02  19935333.898 8  19935337.727 7 106378759.238 8  82739067.538 7
R17  19194093.477 8  19194097.883 7 102711479.418 8  79886911.704 7
> 2025 06 15 11 01 15.0000000  0 21
C19  22207979.047 7 115642780.017 7
C20  23712762.016 7 123478566.228 7
C22  24340322.344 7 126746464.487 7
C29  24290119.477 5 126484997.322 5
E02  26209306.758 6  26209310.781 8 137730829.912 6 104192488.308 8
E04  25763542.500 7  25763545.461 8 135388330.704 7 102420403.314 8
E06  25179700.227 7  25179704.531 8 132320236.853 7 100099410.001 8
E09  25629371.703 7  25629375.441 8 134683254.443 7 101887023.509 8
E11  25765670.188 7  25765669.848 7 135399498.659 7 102428840.849 7
E30  26357810.172 4                                
E34  25293416.242 7  25293419.535 8 132917803.506 7 100551472.374 8
E36  23360375.344 8  23360377.824 8 122759601.536 8  92866849.699 8
G01  22396719.906 5                                                                
G02  20981698.688 8  20981699.965 6                 110259576.795 8  85916559.260 6
G08  20513133.188 8                  20513139.613 8 107797279.844 8                  83997935.109 8
G10  21801570.031 8                  21801575.926 7 114568020.627 8                  89273782.466 7
G27  22228556.500 7                  22228563.688 7 116811847.638 7                  91022122.365 7
G32  22073094.672 6                  22073103.613 6 115994907.654 6                  90385645.489 6
R01  20186473.844 7                 107908281.022 7
R02  19931762.406 8  19931766.313 7 106359701.969 8  82724245.212 7
R17  19192043.750 8  19192047.922 7 102700508.301 8  79878378.611 7
> 2025 06 15 11 01 20.0000000  0 21
C19  22205777.844 7 115631317.729 7
C20  23713401.234 7 123481892.061 7
C22  24335711.625 7 126722458.875 7
C29  24291504.406 5 126492203.244 5
E02  26210432.750 7  26210436.066 8 137736742.889 7 104196961.430 8
E04  25762544.648 7  25762547.512 8 135383086.098 7 102416435.802 8
E06  25177362.344 7  25177366.996 8 132307953.254 7 100090117.539 8
E09  25625900.617 7  25625904.656 8 134665015.483 7 101873225.853 8
E11  25766284.391 7  25766284.523 7 135402728.980 7 102431284.550 7
E30  26356753.953 4                                
E34  25290081.063 7  25290083.801 8 132900274.248 7 100538211.592 8
E36  23359100.492 8  23359102.945 8 122752902.134 8  92861781.646 8
G01  22392671.641 5                  22392680.508 6 117674168.57415                  91694290.96716
G02  20979164.492 8  20979165.199 6                 110246256.696 8  85906179.975 6
G08  20512929.523 8                  20512936.504 8 107796210.268 8                  83997101.688 8
G10  21802271.313 8                  21802276.930 7 114571705.435 8                  89276653.729 7
G27  22230287.477 7                  22230294.500 7 116820944.622 7                  91029210.932 7
G32  22070411.766 6                  22070419.965 6 115980807.381 6                  90374658.288 6
R01  20186897.578 7                 107910544.644 7
R02  19928195.273 8  19928199.023 7 106340666.118 8  82709439.560 7
R17  19189997.086 8  19190000.324 7 102689552.778 8  79869857.640 7
> 2025 06 15 11 01 25.0000000  0 22
C19  22203579.719 7 115619872.522 7
C20  23714041.383 7 123485231.386 7
C22  24331103.727 7 126698461.581 7
C29  24292889.625 5 126499417.377 5
E02  26211557.883 6  26211562.813 8 137742664.648 6 104201441.201 8
E04  25761549.953 7  25761552.500 8 135377857.019 7 102412480.045 8
E06  25175028.055 7  25175032.410 8 132295684.530 7 100080836.323 8
E09  25622432.164 7  25622436.172 8 134646788.469 7 101859437.244 8
E11  25766900.570 7  25766900.457 7 135405965.560 7 102433732.981 7
E30  26355707.547 4  26355711.508 6 138500172.10914 104774510.12416
E34  25286746.406 7  25286749.348 8 132882751.264 7 100524955.571 8
E36  23357827.453 8  23357829.816 8 122746211.784 8  92856720.442 8
G01  22388631.516 5                  22388638.070 6 117652920.161 5                  91677733.771 6
G02  20976632.008 8  20976632.766 6                 110232947.683 8  85895809.323 6
G08  20512729.227 8                  20512736.195 7 107795158.836 8                  83996282.402 7
G10  21802974.492 8                  21802980.406 7 114575401.993 8                  89279534.151 7
G27  22232021.195 7                  22232027.895 7 116830052.986 7                  91036308.330 7
G32  22067732.094 6                  22067739.445 6 115966724.945 6                  90363684.925 6
R01  20187325.766 7                 107912831.302 7
R02  19924632.195 8  19924636.301 7 106321652.902 8  82694651.516 7
R17  19187952.813 8  19187956.039 7 102678614.166 8  79861349.848 7
R24  21120597.781 5  21120603.973 7 112941331.21215  87843278.64217
> 2025 06 15 11 01 30.0000000  0 22
C19  22201384.867 7 115608441.508 7
C20  23714684.688 7 123488581.329 7
C22  24326495.836 7 126674469.813 7
C29  24294278.508 5 126506636.792 5
E02  26212686.430 6  26212690.926 8 137748592.317 6 104205925.424 8
E04  25760557.336 7  25760559.719 8 135372640.549 7 102408533.815 8
E06  25172695.016 7  25172700.066 8 132283427.865 7 100071564.231 8
E09  25618965.336 7  25618969.453 8 134628570.598 7 101845655.558 8
E11  25767517.234 7  25767517.066 7 135409205.495 7 102436183.951 7
E34  25283412.391 7  25283415.336 8 132865231.621 7 100511702.080 8
E36  23356555.203 8  23356557.891 8 122739527.641 8  92851663.933 8
G01  22384591.977 5                                                                
G02  20974100.875 8  20974101.902 6                 110219646.970 8  85885445.140 6
G08  20512531.945 8                  20512539.137 7 107794122.729 8                  83995475.044 7
G10  21803679.852 8                  21803685.879 7 114579107.464 8                  89282421.522 7
G27  22233755.781 7                  22233762.527 7 116839169.730 7                  91043412.257 7
G32  22065054.016 6                  22065062.688 6 115952657.368 6                  90352723.241 6
R01  20187757.359 7                 107915137.933 7
R02  19921072.406 8  19921077.035 7 106302659.564 8  82679878.922 7
R03  23479344.633 7  23479355.520 7 125686796.22417  97756425.99217
R17  19185911.148 8  19185915.105 7 102667689.516 8  79852852.893 7
R24  21121853.828 6  21121858.645 7 112948041.446 6  87848497.778 7
> 2025 06 15 11 01 35.0000000  0 22
C19  22199192.586 7 115597024.808 7
C20  23715329.813 7 123491941.918 7
C22  24321889.125 7 126650483.622 7
C29  24295668.117 5 126513861.494 5
E02  26213816.367 7  26213820.285 8 137754526.026 7 104210414.199 8
E04  25759567.375 7  25759569.480 8 135367436.807 7 102404597.226 8
E06  25170365.133 6  25170370.074 8 132271183.308 6 100062301.323 8
E09  25615500.375 7  25615504.418 8 134610361.920 7 101831880.815 8
E11  25768134.516 7  25768134.332 7 135412448.853 7 102438637.532 7
E34  25280078.258 7  25280081.996 8 132847715.382 7 100498451.172 8
E36  23355284.547 8  23355287.094 8 122732849.728 8  92846612.129 8
G01  22380549.938 4                                                                
G02  20971571.945 8  20971572.621 6                 110206354.558 8  85875087.424 6
G08  20512338.266 8                  20512345.254 7 107793101.932 8                  83994679.621 7
G10  21804386.766 8                  21804392.605 7 114582821.922 8                  89285315.913 7
G27  22235492.945 7                  22235498.770 7 116848294.995 7                  91050522.828 7
G32  22062382.313 7                  22062388.914 6 115938604.755 7                  90341773.192 6
R01  20188192.570 7                 107917464.770 7
R02  19917517.258 8  19917521.207 7 106283686.156 8  82665121.832 7
R03  23473648.266 7  23473657.805 7 125656299.715 7  97732706.529 7
R17  19183871.547 8  19183875.910 7 102656779.001 8  79844366.920 7
R24  21123109.070 6  21123115.359 7 112954761.809 6  87853724.664 7
> 2025 06 15 11 01 40.0000000  0 22
C19  22197002.789 7 115585623.843 7
C20  23715978.117 7 123495314.600 7
C22  24317284.945 7 126626504.455 7
C29  24297059.555 5 126521093.048 5
E02  26214946.125 6  26214950.844 8 137760467.097 6 104214908.558 8
E04  25758579.609 7  25758581.922 8 135362247.214 7 102400671.340 8
E06  25168038.820 6  25168042.625 8 132258952.325 6 100053048.645 8
E09  25612037.961 7  25612041.398 8 134592163.865 7 101818114.111 8
E11  25768752.875 7  25768752.473 7 135415697.096 7 102441094.784 7
E34  25276745.961 6  25276749.691 8 132830204.060 6 100485203.966 8
E36  23354015.148 8  23354017.793 8 122726179.504 8  92841566.147 8
G01  22376504.852 4                                                                
G02  20969043.977 8  20969044.824 6                 110193071.927 8  85864737.307 6
G08  20512146.727 8                  20512153.785 8 107792097.930 8                  83993897.267 8
G10  21805095.188 7                  21805101.063 7 114586546.763 7                  89288218.392 7
G27  22237230.688 7                  22237237.172 7 116857430.218 7                  91057641.191 7
G32  22059711.273 7                  22059717.859 6 115924568.636 7                  90330835.983 6
R01  20188632.109 7                 107919813.148 7
R02  19913964.289 8  19913970.184 7 106264733.978 8  82650381.292 7
R03  23467953.453 8  23467962.215 7 125625807.779 8  97708990.653 7
R17  19181835.336 8  19181840.160 7 102645883.972 8  79835893.017 7
R24  21124368.227 6  21124373.773 7 112961493.699 6  87858960.584 7
> 2025 06 15 11 01 45.0000000  0 21
C19  22194816.250 7 115574238.268 7
C20  23716628.266 7 123498699.017 7
C22  24312680.398 7 126602531.971 7
E02  26216078.867 6  26216082.770 8 137766415.266 6 104219408.279 8
E04  25757594.656 7  25757596.961 8 135357071.441 7 102396755.903 8
E06  25165713.703 6  25165717.660 8 132246734.495 6 100043805.976 8
E09  25608576.656 7  25608580.352 8 134573976.151 7 101804355.241 8
E11  25769371.703 7  25769371.465 7 135418949.880 7 102443555.480 7
E34  25273415.195 6  25273418.305 8 132812697.272 6 100471960.165 8
E36  23352747.141 8  23352749.867 8 122719516.651 8  92836525.743 8
G01  22372469.469 5                                                                
G02  20966518.328 8  20966519.148 6                 110179798.744 8  85854394.573 6
G08  20511959.000 8                  20511966.102 8 107791110.370 8                  83993127.728 8
G10  21805806.352 8                  21805811.852 7 114590281.708 8                  89291128.731 7
G27  22238972.117 7                  22238977.754 7 116866574.991 7                  91064767.006 7
G32  22057042.273 7                  22057049.156 6 115910548.711 7                  90319911.379 6
R01  20189075.938 7                 107922182.738 7
R02  19910417.047 8  19910422.449 7 106245802.986 8  82635657.187 7
R03  23462257.633 8  23462266.504 7 125595319.948 8  97685277.971 7
R17  19179802.008 8  19179806.730 7 102635004.188 8  79827430.984 7
R24  21125627.391 4  21125634.559 6 112968236.691 4  87864205.153 6
> 2025 06 15 11 01 50.0000000  0 21
C19  22192632.695 7 115562867.158 7
C20  23717280.117 7 123502094.251 7
C22  24308077.242 6 126578565.277 6
E02  26217212.125 6  26217215.844 8 137772369.583 6 104223912.641 8
E04  25756612.016 7  25756614.410 8 135351908.555 7 102392850.205 8
E06  25163390.352 6  25163395.016 8 132234528.968 6 100034572.587 8
E09  25605117.484 7  25605121.121 8 134555797.795 7 101790603.438 8
E11  25769991.648 7  25769991.148 7 135422206.226 7 102446018.868 7
E34  25270083.758 6  25270087.605 8 132795194.017 6 100458719.082 8
E36  23351480.750 8  23351483.195 9 122712860.212 8  92831490.185 9
G01  22368431.297 5                  22368434.023 6 117546762.50615                  91595013.47216
G02  20963994.203 8  20963994.957 6                 110166534.025 8  85844058.426 6
G08  20511774.023 8                  20511780.828 7 107790138.301 8                  83992370.266 7
G10  21806518.633 8                  21806523.992 7 114594025.758 8                  89294046.165 7
G27  22240712.766 7                  22240720.117 7 116875728.389 7                  91071899.545 7
G32  22054377.219 6                  22054384.328 6 115896543.945 6                  90308998.527 6
R01  20189522.563 7                 107924572.578 7
R02  19906874.336 8  19906878.629 7 106226892.015 8  82620948.661 7
R03  23456561.125 7  23456571.980 7 125564835.433 7  97661567.884 7
R17  19177771.617 8  19177776.039 7 102624138.715 8  79818980.063 7
R24  21126889.563 5  21126898.059 6 112974989.982 5  87869457.741 6
