     3.04           OBSERVATION DATA    Mixed(MIXED)        RINEX VERSION / TYPE
cnvtToRINEX 3.14.0  convertToRINEX OPR  20250615 162934 UTC PGM / RUN BY / DATE 
----------------------------------------------------------- COMMENT             
33                                                          MARKER NAME         
33                                                          MARKER NUMBER       
GEODETIC                                                    MARKER TYPE         
GNSS Observer       Trimble                                 OBSERVER / AGENCY   
5849S10870          Geo Explorer 3      5.51                REC # / TYPE / VERS 
49S10870            UNKNOWN EXT     NONE                    ANT # / TYPE        
  3914288.4931  1190560.2971  4877465.3313                  APPROX POSITION XYZ 
        1.3290        0.0000        0.0000                  ANTENNA: DELTA H/E/N
G    6 C1C C2W C2X L1C L2W L2X                              SYS / # / OBS TYPES 
C    4 C2I C7I L2I L7I                                      SYS / # / OBS TYPES 
R    4 C1C C2C L1C L2C                                      SYS / # / OBS TYPES 
E    4 C1X C8X L1X L8X                                      SYS / # / OBS TYPES 
     5.000                                                  INTERVAL            
  2025     6    15    14    39   35.0000000     GPS         TIME OF FIRST OBS   
  2025     6    15    15    19   40.0000000     GPS         TIME OF LAST OBS    
     0                                                      RCV CLOCK OFFS APPL 
  6 R03  5 R04  6 R05  1 R18 -3 R19  3 R20  2               GLONASS SLOT / FRQ #
G L2X -0.25000                                              SYS / PHASE SHIFT   
R L2C -0.25000                                              SYS / PHASE SHIFT   
    18                                                      LEAP SECONDS        
    26                                                      # OF SATELLITES     
   C06   482   482   482   482                              PRN / # OF OBS      
   C11   449   446   449   446                              PRN / # OF OBS      
   C12   482   482   482   482                              PRN / # OF OBS      
   C16   482   482   482   482                              PRN / # OF OBS      
   C21   482     0   482     0                              PRN / # OF OBS      
   C22   482     0   482     0                              PRN / # OF OBS      
   E03   482   482   482   482                              PRN / # OF OBS      
   E05   482   482   482   482                              PRN / # OF OBS      
   E13   349   349   349   349                              PRN / # OF OBS      
   E15   482   482   482   482                              PRN / # OF OBS      
   E34   482   482   482   482                              PRN / # OF OBS      
   G01   482     0   482   482     0   482                  PRN / # OF OBS      
   G02   195   195     0   195   195     0                  PRN / # OF OBS      
   G03   482     0   482   482     0   482                  PRN / # OF OBS      
   G04   482     0   482   482     0   482                  PRN / # OF OBS      
   G06   482     0   482   482     0   482                  PRN / # OF OBS      
   G09   482     0   482   482     0   482                  PRN / # OF OBS      
   G17   300     5   234   287     5   234                  PRN / # OF OBS      
   G19   469   440     0   460   440     0                  PRN / # OF OBS      
   G31   482     0   482   482     0   482                  PRN / # OF OBS      
   R03   482   482   482   482                              PRN / # OF OBS      
   R04   482   482   482   482                              PRN / # OF OBS      
   R05   450   444   448   440                              PRN / # OF OBS      
   R18   409   409   409   409                              PRN / # OF OBS      
   R19   482   482   482   482                              PRN / # OF OBS      
   R20   482   482   482   482                              PRN / # OF OBS      
DBHZ                                                        SIGNAL STRENGTH UNIT
                                                            END OF HEADER       
>                              2  1
              *** Start of Kinematic Data ***               COMMENT             
> 2025 06 15 14 39 35.0000000  0 23
C06  38258491.391 6  38258488.234 7 199222011.13616 154051091.77517
C11  23351663.102 5  23351660.582 7 121598229.48915  94027458.42417
C12  22807085.555 6  22807082.258 7 118762482.58216  91834618.42817
C16  38842109.805 6  38842111.387 6 202261060.17416 156401074.89616
C21  22229833.922 8                 115756578.02318
C22  22215713.617 7                 115683052.05717
E03  24484681.375 8  24484683.969 8 128667867.17618  97336416.34018
E05  22092185.922 8  22092187.027 8 116095217.51318  87825283.35818
E15  24066962.938 8  24066965.363 8 126472741.13518  95675818.65718
E34  23792653.734 8  23792655.473 8 125031237.18218  94585326.61718
G01  21548847.141 7                  21548851.332 7 113239950.05417                  88238942.77417
G03  20034143.258 8                  20034149.266 7 105280133.68018                  82036492.63917
G04  20569035.781 7                  20569040.488 8 108091009.31317                  84227149.63818
G06  23473855.992 6                  23473864.859 7 123355934.16616                  96121909.57717
G09  22768389.977 6                  22768396.207 6 119648681.76616                  93233160.09616
G17  22890327.227 5                  22890331.285 5 120289477.69015                  93732105.17115
G19  22159506.617 5  22159506.285 2                 116448982.65715  90739463.53812
G31  22195178.977 7                  22195183.516 7 116636451.92517                  90885562.45317
R03  20360950.219 8  20360956.227 7 108993768.32718  84772867.88517
R04  19302579.508 8  19302582.469 7 103364434.71418  80394744.12617
R18  21818319.438 8  21818323.996 7 116467656.92318  90585731.71717
R19  19393109.016 8  19393110.246 7 103740053.98118  80686774.78917
R20  21503430.102 5  21503435.773 7 114988536.51015  89435537.18817
> 2025 06 15 14 39 40.0000000  0 23
C06  38256795.844 6  38256792.281 6 199213180.468 6 154044263.354 6
C11  23349100.117 6  23349097.898 7 121584886.787 6  94017140.985 7
C12  22807643.758 7  22807640.473 7 118765389.503 7  91836866.228 7
C16  38840564.383 6  38840565.621 6 202253010.922 6 156394850.708 6
C21  22227272.023 8                 115743237.115 8
C22  22215920.570 7                 115684127.868 7
E03  24481279.805 8  24481282.500 8 128649992.314 8  97322894.133 8
E05  22091390.031 8  22091391.000 8 116091034.974 8  87822119.299 8
E15  24064211.063 8  24064214.039 8 126458282.937 8  95664881.134 8
E34  23792631.438 8  23792633.098 8 125031119.915 8  94585237.904 8
G01  21550043.938 7                  21550048.742 7 113246241.925 7                  88243845.512 7
G03  20033595.000 8                  20033600.191 8 105277249.334 8                  82034245.108 8
G04  20565989.367 7                  20565994.789 8 108075003.193 7                  84214677.344 8
G06  23469392.148 6                  23469400.965 7 123332475.971 6                  96103630.483 7
G09  22763768.625 6                  22763775.445 6 119624402.135 6                  93214240.952 6
G17  22890689.836 5                  22890693.633 5 120291382.448 5                  93733589.388 5
G19  22158349.984 5  22158350.461 2                 116442908.711 5  90734730.546 2
G31  22193785.914 6                  22193790.574 7 116629132.536 6                  90879859.033 7
R03  20361934.781 8  20361940.703 7 108999036.984 8  84776965.705 7
R04  19300427.391 8  19300430.574 7 103352910.046 8  80385780.509 7
R18  21820819.977 8  21820825.031 7 116481005.957 8  90596114.274 7
R19  19392464.156 8  19392465.863 7 103736606.340 8  80684093.293 7
R20  21498843.953 5  21498850.477 7 114964017.022 5  89416466.478 7
>                              3  5
              *** Start of Occupation ***                   COMMENT             
33                                                          MARKER NAME         
33                                                          MARKER NUMBER       
  3914288.4931  1190560.2971  4877465.3313                  APPROX POSITION XYZ 
        1.3290        0.0000        0.0000                  ANTENNA: DELTA H/E/N
> 2025 06 15 14 39 45.0000000  0 23
C06  38255101.648 6  38255097.398 7 199204355.806 6 154037439.559 7
C11  23346542.438 6  23346538.301 7 121571558.893 6  94006835.004 7
C12  22808203.984 7  22808201.266 7 118768309.573 7  91839124.206 7
C16  38839019.328 6  38839021.168 6 202244967.548 6 156388631.063 6
C21  22224712.227 8                 115729906.197 8
C22  22216128.727 7                 115685211.863 7
E03  24477879.984 8  24477882.832 8 128632126.721 8  97309378.944 8
E05  22090596.531 8  22090597.258 8 116086863.551 8  87818963.644 8
E15  24061461.789 8  24061464.613 8 126443834.570 8  95653951.043 8
E34  23792610.945 8  23792612.867 8 125031013.520 8  94585157.414 8
G01  21551244.180 7                  21551248.387 7 113252545.616 7                  88248757.459 7
G03  20033048.430 8                  20033053.879 7 105274377.139 8                  82032007.024 7
G04  20562946.305 7                  20562951.699 8 108059011.476 7                  84202216.271 8
G06  23464929.703 6                  23464938.910 7 123309025.615 6                  96085357.500 7
G09  22759150.242 6                  22759156.816 6 119600130.314 6                  93195327.907 6
G17  22891054.352 5                  22891059.359 6 120293300.393 5                  93735083.862 6
G19  22157194.742 5                                                                
G31  22192396.766 6                  22192401.055 7 116621832.865 6                  90874170.984 7
R03  20362921.469 8  20362926.695 7 109004315.857 8  84781071.499 7
R04  19298278.453 8  19298281.840 7 103341401.730 8  80376829.579 7
R18  21823322.984 8  21823327.941 7 116494365.585 8  90606505.078 7
R19  19391823.617 8  19391825.809 7 103733182.591 8  80681430.386 7
R20  21494260.508 5  21494267.973 7 114939512.134 5  89397407.131 7
> 2025 06 15 14 39 50.0000000  0 24
C06  38253407.164 6  38253403.520 7 199195535.771 6 154030619.354 7
C11  23343984.945 6  23343980.938 7 121558244.504 6  93996539.467 7
C12  22808767.656 7  22808764.340 7 118771241.384 7  91841391.263 7
C16  38837474.781 6  38837477.344 6 202236928.674 6 156382414.885 6
C21  22222153.672 8                 115716583.887 8
C22  22216338.977 7                 115686302.681 7
E03  24474481.820 8  24474484.621 8 128614268.954 8  97295869.665 8
E05  22089804.117 8  22089805.324 8 116082701.799 8  87815815.306 8
E15  24058713.969 8  24058716.742 8 126429394.633 8  95643027.329 8
E34  23792592.898 8  23792594.445 8 125030916.566 8  94585084.064 8
G01  21552445.461 7                  21552449.500 7 113258859.745 7                  88253677.527 7
G03  20032504.102 8                  20032509.219 7 105271515.582 8                  82029777.233 7
G04  20559905.844 7                  20559910.852 7 108043032.743 7                  84189765.316 7
G06  23460468.344 6                  23460477.207 7 123285581.592 6                  96067089.433 7
G09  22754532.648 6                  22754539.719 6 119575864.845 6                  93176419.788 6
G17  22891423.898 6                  22891427.496 6 120295230.190 6                  93736587.585 6
G19  22156045.609 5  22156049.238 3                 116430817.47115  90725308.82313
G31  22191011.758 6                  22191015.723 7 116614551.590 6                  90868497.250 7
R03  20363909.914 8  20363914.391 7 109009603.685 8  84785184.250 7
R04  19296131.648 8  19296135.039 7 103329908.267 8  80367890.225 7
R05  22288206.070 5  22288208.637 4 119143270.01115  92666983.94714
R18  21825827.750 8  21825832.344 7 116507734.290 8  90616902.947 7
R19  19391188.414 8  19391190.258 7 103729781.403 8  80678785.025 7
R20  21489679.070 5  21489687.887 7 114915020.351 5  89378357.991 7
> 2025 06 15 14 39 55.0000000  0 24
C06  38251714.695 6  38251710.297 7 199186718.924 6 154023801.616 7
C11  23341430.727 6  23341426.309 7 121544942.028 6  93986253.138 7
C12  22809332.078 7  22809329.582 7 118774183.480 7  91843666.274 7
C16  38835932.141 6  38835933.625 6 202228892.751 6 156376201.015 6
C21  22219596.406 8                 115703268.702 8
C22  22216549.141 7                 115687398.813 7
E03  24471085.055 8  24471087.598 8 128596417.554 8  97282365.197 8
E05  22089013.430 8  22089014.938 8 116078548.252 8  87812673.175 8
E15  24055967.641 8  24055970.250 8 126414961.658 8  95632108.879 8
E34  23792575.984 8  23792577.543 8 125030827.574 8  94585016.743 8
G01  21553648.563 7                  21553652.344 7 113265182.777 7                  88258604.546 7
G03  20031960.953 8                  20031966.363 7 105268663.250 8                  82027554.632 7
G04  20556867.727 7                  20556872.449 8 108027065.538 7                  84177323.324 8
G06  23456008.953 6                  23456016.398 7 123262142.437 6                  96048825.155 7
G09  22749915.727 6                  22749923.105 6 119551604.361 6                  93157515.562 6
G17  22891793.578 5                  22891796.664 6 120297170.209 5                  93738099.287 6
G19  22154900.281 5  22154903.832 3                 116424797.267 5  90720617.785 3
G31  22189628.813 6                  22189633.445 7 116607287.180 6                  90862836.679 7
R03  20364899.344 8  20364904.328 7 109014898.993 8  84789302.813 7
R04  19293986.930 8  19293991.258 7 103318428.206 8  80358961.298 7
R05  22283581.531 5  22283580.828 5 119118527.047 5  92647739.507 5
R18  21828333.406 8  21828338.184 7 116521110.571 8  90627306.695 7
R19  19390555.500 8  19390557.840 7 103726401.191 8  80676155.949 7
R20  21485104.688 5  21485109.809 7 114890540.231 5  89359317.907 7
> 2025 06 15 14 40  0.0000000  0 24
C06  38250021.953 6  38250017.637 7 199177907.039 6 154016987.707 7
C11  23338877.633 6  23338874.672 7 121531653.419 6  93975977.521 7
C12  22809900.133 7  22809897.086 7 118777137.646 7  91845950.614 7
C16  38834389.430 6  38834391.695 6 202220861.687 6 156369990.871 6
C21  22217041.414 8                 115689962.466 8
C22  22216760.719 7                 115688502.089 7
E03  24467689.484 8  24467692.109 8 128578574.347 8  97268866.931 8
E05  22088225.172 8  22088226.484 8 116074404.731 8  87809538.635 8
E15  24053222.477 8  24053225.449 8 126400537.471 8  95621197.082 8
E34  23792560.516 8  23792562.520 8 125030748.364 8  94584956.825 8
G01  21554853.555 7                  21554858.160 7 113271516.577 7                  88263539.950 7
G03  20031420.555 8                  20031425.891 7 105265821.935 8                  82025340.619 7
G04  20553831.922 7                  20553836.402 7 108011111.684 7                  84164891.756 7
G06  23451549.789 6                  23451557.672 7 123238710.085 6                  96030566.182 7
G09  22745300.234 6                  22745307.375 6 119527350.606 6                  93138616.567 6
G17  22892164.500 6                  22892168.172 6 120299122.345 6                  93739620.463 6
G19  22153759.461 5  22153761.699 3                 116418795.382 5  90715940.953 3
G31  22188249.773 6                  22188254.598 7 116600041.488 6                  90857190.668 7
R03  20365888.875 8  20365895.016 7 109020203.502 8  84793428.552 7
R04  19291846.805 8  19291850.637 7 103306963.245 8  80350044.114 7
R05  22278957.305 5  22278952.910 4 119093791.774 5  92628500.964 4
R18  21830840.859 8  21830845.789 7 116534496.301 8  90637717.791 7
R19  19389927.805 8  19389930.813 7 103723043.879 8  80673544.709 7
R20  21480527.797 5  21480534.543 7 114866073.584 5  89340288.314 7
> 2025 06 15 14 40  5.0000000  0 24
C06  38248330.922 6  38248326.910 6 199169101.324 6 154010178.582 6
C11  23336329.695 6  23336325.848 7 121518379.770 6  93965713.503 7
C12  22810470.336 7  22810467.773 7 118780105.124 7  91848245.270 7
C16  38832848.266 6  38832850.438 6 202212836.647 6 156363785.420 6
C21  22214487.906 8                 115676666.420 8
C22  22216974.516 7                 115689613.741 7
E03  24464295.789 8  24464298.395 8 128560740.578 8  97255375.814 8
E05  22087438.805 8  22087440.160 8 116070272.490 8  87806412.619 8
E15  24050479.883 8  24050482.520 8 126386123.374 8  95610292.916 8
E34  23792547.805 8  23792549.566 8 125030680.221 8  94584905.271 8
G01  21556061.063 7                  21556065.922 7 113277862.353 7                  88268484.723 7
G03  20030882.063 8                  20030887.770 7 105262992.910 8                  82023136.177 7
G04  20550798.570 7                  20550803.203 7 107995172.440 7                  84152471.572 7
G06  23447092.086 6                  23447100.168 7 123215285.734 6                  96012313.438 7
G09  22740687.680 7                  22740693.926 6 119503104.942 7                  93119723.862 6
G17  22892537.711 6                  22892542.063 6 120301087.748 6                  93741151.934 6
G19  22152621.164 5  22152623.582 3                 116412813.054 5  90711279.405 3
G31  22186875.688 6                  22186879.852 7 116592815.718 6                  90851560.181 7
R03  20366881.867 7  20366887.902 7 109025518.601 7  84797562.522 7
R04  19289709.148 8  19289712.391 7 103295514.881 8  80341139.813 7
R05  22274329.094 5  22274327.438 4 119069065.245 5  92609269.188 4
R18  21833350.758 8  21833355.426 7 116547892.732 8  90648137.217 7
R19  19389305.406 8  19389307.496 7 103719710.780 8  80670952.284 7
R20  21475956.000 5  21475961.805 7 114841621.721 5  89321270.216 7
> 2025 06 15 14 40 10.0000000  0 25
C06  38246641.852 6  38246637.070 7 199160302.279 6 154003374.600 7
C11  23333783.289 6  23333780.148 7 121505121.571 6  93955461.418 7
C12  22811043.563 7  22811040.355 7 118783086.321 7  91850550.513 7
C16  38831308.648 6  38831310.230 6 202204818.069 6 156357584.939 6
C21  22211936.563 7                 115663380.963 7
C22  22217189.164 7                 115690734.188 7
E03  24460904.398 8  24460906.617 8 128542916.682 8  97241892.160 8
E05  22086654.828 8  22086656.066 8 116066151.938 8  87803295.451 8
E15  24047739.094 8  24047741.563 9 126371719.726 8  95599396.650 9
E34  23792537.164 8  23792538.746 8 125030623.505 8  94584862.367 8
G01  21557271.266 7                  21557275.445 7 113284220.560 7                  88273439.174 7
G02  24182363.641 6  24182369.258 4                 127079182.75816  99022749.04714
G03  20030345.789 8                  20030351.445 7 105260176.572 8                  82020941.627 7
G04  20547768.188 7                  20547773.000 7 107979248.225 7                  84140063.093 7
G06  23442636.125 6                  23442644.625 7 123191869.793 6                  95994067.250 7
G09  22736075.711 7                  22736082.289 7 119478867.700 7                  93100837.698 7
G17  22892915.688 6                  22892918.711 5 120303066.868 6                  93742694.070 5
G19  22151487.477 5  22151489.316 3                 116406850.653 5  90706633.346 3
G31  22185503.469 6                  22185508.867 7 116585610.336 6                  90845945.607 7
R03  20367876.805 8  20367883.066 7 109030844.680 8  84801705.032 7
R04  19287573.938 8  19287577.469 7 103284083.389 8  80332248.639 7
R05  22269706.297 5  22269700.457 3 119044348.395 5  92590044.981 3
R18  21835862.078 8  21835866.941 7 116561300.217 8  90658565.231 7
R19  19388686.719 8  19388689.227 7 103716402.193 8  80668378.931 7
R20  21471386.859 5  21471392.539 7 114817184.929 5  89302263.823 7
> 2025 06 15 14 40 15.0000000  0 25
C06  38244951.867 6  38244948.801 7 199151510.107 6 153996575.956 7
C11  23331239.398 6  23331236.867 7 121491879.089 6  93945221.473 7
C12  22811618.391 7  22811615.488 8 118786081.481 7  91852866.537 8
C16  38829770.188 6  38829771.707 6 202196806.293 6 156351389.726 6
C21  22209387.805 8                 115650106.369 8
C22  22217406.063 7                 115691863.667 7
E03  24457514.391 8  24457516.813 8 128525102.926 8  97228416.173 8
E05  22085873.047 8  22085874.219 8 116062043.338 8  87800187.323 8
E15  24045000.281 8  24045002.664 8 126357326.835 8  95588508.524 8
E34  23792528.031 8  23792530.219 8 125030578.540 8  94584828.351 8
G01  21558483.344 7                  21558487.754 7 113290591.422 7                  88278403.461 7
G02  24184188.000 6  24184193.441 4                 127088768.998 6  99030218.770 4
G03  20029812.273 8                  20029818.133 7 105257373.177 8                  82018757.167 7
G04  20544741.219 7                  20544745.773 7 107963339.299 7                  84127666.535 7
G06  23438181.242 6                  23438190.281 7 123168462.523 6                  95975827.857 7
G09  22731463.758 7                  22731471.160 7 119454639.195 7                  93081958.363 7
G17  22893293.219 6                  22893298.305 5 120305059.968 6                  93744247.130 5
G19  22150356.398 5  22150358.867 3                 116400908.496 5  90702003.102 3
G31  22184137.398 6                  22184141.625 7 116578425.578 6                  90840347.077 7
R03  20368873.828 8  20368880.379 7 109036182.077 8  84805856.342 7
R04  19285442.695 8  19285446.363 7 103272669.151 8  80323370.904 7
R05  22265091.836 5  22265079.391 4 119019640.836 5  92570828.205 4
R18  21838375.602 7  21838381.000 7 116574719.067 7  90669002.115 7
R19  19388072.758 8  19388075.629 7 103713118.476 8  80665824.925 7
R20  21466819.664 5  21466825.172 7 114792763.653 5  89283269.493 7
> 2025 06 15 14 40 20.0000000  0 25
C06  38243266.297 6  38243262.137 6 199142725.449 6 153989783.097 6
C11  23328700.914 6  23328696.293 7 121478652.972 6  93934994.216 7
C12  22812195.164 7  22812192.941 7 118789091.217 7  91855193.839 7
C16  38828233.234 6  38828234.688 6 202188801.797 6 156345200.160 6
C21  22206840.523 8                 115636843.265 8
C22  22217624.859 7                 115693002.799 7
E03  24454126.680 8  24454129.051 8 128507299.933 8  97214948.329 8
E05  22085093.555 8  22085094.766 8 116057947.291 8  87797088.694 8
E15  24042263.617 8  24042265.973 8 126342945.337 8  95577629.012 8
E34  23792521.984 8  23792524.023 8 125030545.901 8  94584803.653 8
G01  21559697.805 7                  21559702.949 7 113296975.592 7                  88283378.117 7
G02  24186013.422 6  24186019.039 4                 127098361.922 6  99037693.724 4
G03  20029281.430 8                  20029287.109 7 105254583.362 8                  82016583.285 7
G04  20541716.008 7                  20541721.289 8 107947446.309 7                  84115282.404 8
G06  23433728.328 6                  23433737.820 7 123145064.689 6                  95957595.799 7
G09  22726855.141 6                  22726862.414 6 119430420.051 6                  93063086.306 6
G17  22893674.609 6                  22893679.473 5 120307067.630 6                  93745811.564 5
G19  22149229.984 5  22149232.270 3                 116394987.168 5  90697389.070 3
G31  22182773.664 6                  22182778.680 7 116571262.093 6                  90834765.140 7
R03  20369873.594 7  20369879.523 7 109041531.187 7  84810016.748 7
R04  19283314.523 8  19283317.438 7 103261272.590 8  80314506.914 7
R05  22260471.070 5                 118994943.496 5
R18  21840890.461 7  21840896.656 7 116588149.831 7  90679448.270 7
R19  19387463.883 8  19387466.531 7 103709860.298 8  80663290.798 7
R20  21462255.031 5  21462261.676 7 114768358.621 5  89264287.837 7
> 2025 06 15 14 40 25.0000000  0 25
C06  38241580.391 6  38241576.117 6 199133945.744 6 153982994.096 6
C11  23326162.641 6  23326159.754 7 121465440.615 6  93924777.604 7
C12  22812776.508 6  22812773.914 8 118792112.983 6  91857530.479 8
C16  38826697.367 6  38826698.332 6 202180802.099 6 156339014.274 6
C21  22204294.805 8                 115623589.080 8
C22  22217844.945 7                 115694148.994 7
E03  24450740.445 8  24450742.777 8 128489505.108 8  97201486.673 8
E05  22084315.711 8  22084317.195 8 116053861.198 8  87793997.599 8
E15  24039528.547 8  24039530.965 9 126328572.628 8  95566756.148 9
E34  23792517.695 8  23792519.680 8 125030523.016 8  94584786.337 8
G01  21560915.180 7                  21560920.059 7 113303370.423 7                  88288361.104 7
G02  24187839.734 6  24187845.379 4                 127107958.826 6  99045171.832 4
G03  20028752.859 8                  20028758.656 7 105251804.531 8                  82014417.957 7
G04  20538694.188 7                  20538699.570 7 107931566.647 7                  84102908.652 7
G06  23429277.211 6                  23429287.195 7 123121673.578 6                  95939368.958 7
G09  22722248.422 7                  22722254.535 6 119406207.654 7                  93044219.504 6
G17  22894059.438 6                  22894064.160 5 120309087.317 6                  93747385.364 5
G19  22148106.984 6  22148108.934 3                 116389084.120 6  90692789.280 3
G31  22181413.336 7                  22181419.219 7 116564117.292 7                  90829197.768 7
R03  20370875.141 8  20370880.500 7 109046889.431 8  84814184.262 7
R04  19281188.836 8  19281192.680 7 103249891.259 8  80305654.765 7
R05  22255849.945 5  22255837.090 4 118970253.891 5  92532377.17014
R18  21843409.156 7  21843414.629 7 116601590.018 7  90689901.698 7
R19  19386859.250 8  19386862.254 7 103706624.986 8  80660774.433 7
R20  21457692.797 5  21457700.316 7 114743967.162 5  89245316.723 7
> 2025 06 15 14 40 30.0000000  0 25
C06  38239894.875 6  38239891.484 6 199125172.111 6 153976209.766 6
C11  23323628.266 6  23323625.574 7 121452243.275 6  93914572.564 7
C12  22813358.820 7  22813356.770 8 118795147.907 7  91859877.276 8
C16  38825161.727 6  38825163.145 6 202172808.382 6 156332833.009 6
C21  22201750.555 8                 115610344.981 8
C22  22218066.227 7                 115695303.465 7
E03  24447356.039 8  24447358.305 8 128471719.661 8  97188032.104 8
E05  22083540.570 8  22083541.773 8 116049786.297 8  87790914.952 8
E15  24036795.273 8  24036797.785 9 126314209.890 8  95555890.840 9
E34  23792515.422 8  23792517.375 8 125030511.063 8  94584777.293 8
G01  21562133.914 7                  21562139.402 7 113309777.111 7                  88293353.339 7
G02  24189666.891 6  24189672.945 4                 127117561.039 6  99052654.063 4
G03  20028226.047 8                  20028232.043 7 105249037.895 8                  82012262.113 7
G04  20535675.328 7                  20535680.410 7 107915701.537 7                  84090546.240 7
G06  23424827.625 6                  23424837.145 7 123098290.481 6                  95921148.374 7
G09  22717642.055 6                  22717648.328 6 119382003.222 6                  93025358.928 6
G17  22894446.328 6                  22894451.234 5 120311120.230 6                  93748969.455 5
G19  22146987.031 6  22146989.191 3                 116383200.405 6  90688204.565 3
G31  22180057.844 7                  22180062.930 7 116556992.326 7                  90823645.876 7
R03  20371879.359 8  20371883.547 7 109052258.164 8  84818359.919 7
R04  19279066.430 8  19279070.516 7 103238526.287 8  80296815.362 7
R05  22251240.695 4  22251222.254 5 118945573.147 4  92513181.082 5
R18  21845928.641 7  21845934.688 7 116615040.641 7  90700363.283 7
R19  19386258.961 8  19386261.012 7 103703413.518 8  80658276.626 7
R20  21453134.977 5  21453141.621 7 114719590.479 5  89226357.083 7
> 2025 06 15 14 40 35.0000000  0 24
C06  38238211.336 6  38238207.602 6 199116404.222 6 153969429.877 6
C11  23321097.258 6  23321094.047 7 121439060.495 6  93904378.828 7
C12  22813944.148 6  22813942.121 8 118798195.653 6  91862233.986 8
C16  38823628.133 6  38823629.141 6 202164820.217 6 156326656.071 6
C21  22199209.242 7                 115597110.613 7
C22  22218289.711 7                 115696465.796 7
E03  24443973.313 8  24443975.629 8 128453943.218 8  97174584.342 8
E05  22082766.898 8  22082768.391 8 116045722.153 8  87787840.463 8
E15  24034064.141 8  24034066.473 9 126299856.794 8  95545032.815 9
E34  23792515.359 8  23792517.168 8 125030509.683 8  94584776.241 8
G01  21563355.727 7                  21563360.813 7 113316195.276 7                  88298354.498 7
G02  24191495.133 6  24191501.707 4                 127127168.018 6  99060139.982 4
G03  20027701.945 8                  20027707.672 7 105246283.034 8                  82010115.472 7
G04  20532658.859 7                  20532664.156 8 107899850.576 7                  84078194.833 8
G06  23420379.656 6                  23420388.703 7 123074914.948 6                  95902933.690 7
G09  22713037.938 7                  22713044.457 6 119357806.414 7                  93006504.271 6
G17  22894836.352 6                  22894839.688 5 120313165.880 6                  93750563.468 5
G19  22145871.734 6  22145873.180 3                 116377335.827 6  90683634.776 3
G31  22178705.266 6                  22178710.727 7 116549886.855 6                  90818109.169 7
R03  20372883.555 8  20372888.320 7 109057636.875 8  84822543.377 7
R04  19276947.055 8  19276951.051 7 103227177.245 8  80287988.340 7
R18  21848450.313 7  21848455.848 7 116628501.311 7  90710832.689 7
R19  19385663.328 8  19385665.934 7 103700225.770 8  80655797.269 7
R20  21448579.898 5  21448586.012 7 114695228.372 5  89207408.792 7
> 2025 06 15 14 40 40.0000000  0 24
C06  38236528.188 6  38236524.590 6 199107641.279 6 153962653.817 6
C11  23318569.063 6  23318565.125 7 121425891.521 6  93894195.758 7
C12  22814531.234 6  22814529.695 8 118801255.397 6  91864599.944 8
C16  38822094.492 6  38822095.480 6 202156836.844 6 156320482.809 6
C21  22196669.602 7                 115583885.097 7
C22  22218514.289 7                 115697635.181 7
E03  24440592.078 8  24440594.410 8 128436174.944 8  97161142.770 8
E05  22081995.508 8  22081996.938 8 116041667.968 8  87784773.487 8
E15  24031334.164 8  24031336.844 9 126285512.474 8  95534181.438 9
E34  23792516.961 8  23792518.805 8 125030518.031 8  94584782.556 8
G01  21564579.508 7                  21564584.477 7 113322624.108 7                  88303363.953 7
G02  24193324.195 6  24193331.020 4                 127136779.062 6  99067629.068 4
G03  20027179.531 8                  20027185.680 7 105243539.112 8                  82007977.365 7
G04  20529645.297 7                  20529650.648 8 107884012.943 7                  84065853.834 8
G06  23415931.563 6                  23415941.840 7 123051546.171 6                  95884724.260 7
G09  22708434.977 7                  22708441.281 6 119333616.340 7                  92987654.872 6
G17  22895227.539 6                  22895231.211 5 120315223.502 6                  93752166.777 5
G19  22144759.766 6  22144760.781 3                 116371489.483 6  90679079.188 3
G31  22177357.352 6                  22177362.480 7 116542800.079 6                  90812587.019 7
R03  20373888.555 8  20373894.965 7 109063024.802 8  84826734.002 7
R04  19274830.664 8  19274834.680 7 103215843.416 8  80279173.155 7
R18  21850972.930 7  21850979.414 7 116641971.272 7  90721309.327 7
R19  19385071.797 8  19385073.230 7 103697060.831 8  80653335.646 7
R20  21444025.219 5  21444033.070 7 114670879.906 5  89188471.120 7
> 2025 06 15 14 40 45.0000000  0 24
C06  38234846.320 6  38234842.824 7 199098883.674 6 153955881.879 7
C11  23316043.227 6  23316038.742 7 121412736.762 6  93884023.673 7
C12  22815121.625 7  22815119.758 8 118804327.489 7  91866975.461 8
C16  38820562.234 6  38820563.234 6 202148858.617 6 156314313.530 6
C21  22194132.297 7                 115570668.924 7
C22  22218740.266 7                 115698812.011 7
E03  24437212.430 8  24437214.824 8 128418415.258 8  97147707.693 8
E05  22081226.172 8  22081227.449 8 116037624.150 8  87781714.367 8
E15  24028606.141 8  24028608.922 8 126271177.382 8  95523337.041 8
E34  23792520.703 8  23792522.348 8 125030536.549 8  94584796.547 8
G01  21565804.219 7                  21565809.844 7 113329064.003 7                  88308382.032 7
G02  24195154.633 6  24195160.668 4                 127146394.453 6  99075121.583 4
G03  20026659.469 8                  20026665.625 7 105240806.608 8                  82005848.136 7
G04  20526634.320 7                  20526639.180 8 107868189.072 7                  84053523.542 8
G06  23411485.734 6                  23411496.219 7 123028184.641 6                  95866520.507 7
G09  22703832.117 7                  22703839.883 7 119309433.479 7                  92968811.109 7
G17  22895621.242 6                  22895625.879 5 120317293.498 6                  93753779.770 5
G19  22143651.711 6  22143652.098 3                 116365661.762 6  90674538.106 3
G31  22176012.758 7                  22176017.801 7 116535732.396 7                  90807079.717 7
R03  20374896.523 8  20374903.000 7 109068421.996 8  84830931.824 7
R04  19272716.969 8  19272720.504 7 103204525.122 8  80270370.023 7
R18  21853497.891 7  21853504.387 7 116655450.912 7  90731793.480 7
R19  19384484.070 8  19384486.152 7 103693919.152 8  80650892.104 7
R20  21439475.531 6  21439482.488 7 114646545.421 6  89169544.296 7
> 2025 06 15 14 40 50.0000000  0 25
C06  38233165.969 6  38233161.930 7 199090131.359 6 153949114.038 7
C11  23313519.523 6  23313515.430 7 121399596.185 6  93873862.556 7
C12  22815714.445 7  22815712.203 8 118807411.970 7  91869360.574 8
C16  38819031.242 6  38819032.395 6 202140885.585 6 156308148.275 6
C21  22191595.680 7                 115557462.065 7
C22  22218968.438 7                 115699996.295 7
E03  24433834.828 8  24433836.934 8 128400664.149 8  97134279.099 8
E05  22080458.516 8  22080459.906 8 116033590.645 8  87778663.043 8
E15  24025880.195 8  24025882.809 8 126256851.495 8  95512499.598 8
E34  23792526.055 8  23792527.809 8 125030565.184 8  94584818.207 8
G01  21567031.945 7                  21567037.313 7 113335514.879 7                  88313408.688 7
G02  24196984.109 6  24196991.316 4                 127156014.266 6  99082617.510 4
G03  20026141.813 8                  20026147.992 7 105238085.459 8                  82003727.757 7
G04  20523625.758 7                  20523630.820 8 107852378.934 7                  84041203.955 8
G06  23407042.367 6                  23407052.293 7 123004830.334 6                  95848322.350 7
G09  22699232.016 7                  22699239.367 7 119285257.834 7                  92949972.964 7
G17  22896017.508 6                  22896020.133 5 120319375.827 6                  93755402.397 5
G19  22142544.539 6  22142546.574 3                 116359852.660 6  90670011.518 3
G31  22174671.148 7                  22174676.324 7 116528683.739 7                  90801587.238 7
R03  20375907.031 8  20375913.031 7 109073829.026 8  84835137.276 7
R04  19270606.227 8  19270610.070 7 103193222.449 8  80261579.051 7
R05  22232777.125 6  22232774.141 4 118846931.12116
R18  21856024.883 7  21856031.082 7 116668940.135 7  90742285.119 7
R19  19383901.211 8  19383903.273 7 103690800.688 8  80648466.629 7
R20  21434928.305 6  21434933.891 7 114622224.938 6  89150628.377 7
> 2025 06 15 14 40 55.0000000  0 25
C06  38231486.313 6  38231482.055 7 199081383.532 6 153942349.667 7
C11  23310999.219 6  23310994.379 7 121386468.896 6  93863711.723 7
C12  22816308.883 7  22816306.590 8 118810507.879 7  91871754.532 8
C16  38817501.359 6  38817501.969 6 202132916.784 6 156301986.300 6
C21  22189060.445 7                 115544263.583 7
C22  22219197.148 7                 115701187.091 7
E03  24430457.930 8  24430460.438 8 128382920.705 8  97120856.317 8
E05  22079692.930 8  22079694.180 8 116029566.588 8  87775618.866 8
E15  24023155.633 8  24023158.289 9 126242533.934 8  95501668.461 9
E34  23792533.148 8  23792535.012 8 125030603.033 8  94584846.832 8
G01  21568261.172 7                  21568267.297 7 113341975.903 7                  88318443.257 7
G02  24198816.109 6  24198822.355 4                 127165637.564 6  99090116.172 4
G03  20025626.117 8                  20025632.266 7 105235374.755 8                  82001615.527 7
G04  20520619.359 7                  20520624.504 8 107836581.661 7                  84028894.391 8
G06  23402599.836 6                  23402609.516 7 122981482.318 6                  95830129.104 7
G09  22694633.375 7                  22694640.090 7 119261088.491 7                  92931139.719 7
G17  22896415.125 6                  22896418.121 5 120321469.565 6                  93757033.891 5
G19  22141441.414 6  22141444.602 3                 116354061.192 6  90665498.724 3
G31  22173334.094 7                  22173338.449 7 116521653.232 7                  90796108.918 7
R03  20376919.570 8  20376924.609 7 109079244.631 8  84839349.411 7
R04  19268498.289 8  19268502.305 7 103181934.280 8  80252799.377 7
R05  22228165.438 6  22228163.809 4 118822289.631 6  92417326.82414
R18  21858553.883 8  21858559.707 7 116682438.107 8  90752783.504 7
R19  19383322.680 8  19383324.711 7 103687704.511 8  80646058.473 7
R20  21430382.508 5  21430388.270 7 114597917.585 5  89131722.666 7
> 2025 06 15 14 41  0.0000000  0 25
C06  38229807.922 6  38229802.969 7 199072641.685 6 153935589.918 7
C11  23308480.945 6  23308476.219 7 121373356.636 6  93853572.507 7
C12  22816905.422 7  22816903.379 8 118813616.879 7  91874158.598 8
C16  38815972.000 6  38815972.590 6 202124953.943 6 156295828.928 6
C21  22186527.742 7                 115531075.186 7
C22  22219426.664 7                 115702386.126 7
E03  24427083.328 8  24427085.754 8 128365186.642 8  97107440.614 8
E05  22078929.188 8  22078930.520 8 116025553.615 8  87772583.074 8
E15  24020432.984 8  24020435.688 9 126228226.360 8  95490844.872 9
E34  23792542.531 8  23792544.250 8 125030651.818 8  94584883.730 8
G01  21569493.102 7                  21569498.691 7 113348448.722 7                  88323487.004 7
G02  24200648.289 6  24200653.969 4                 127175266.020 6  99097618.842 4
G03  20025112.352 8                  20025118.680 7 105232676.218 8                  81999512.777 7
G04  20517615.945 7                  20517621.262 8 107820798.896 7                  84016596.143 8
G06  23398157.594 6                  23398168.145 7 122958142.299 6                  95811942.113 7
G09  22690034.867 6                  22690041.957 7 119236927.114 6                  92912312.686 7
G17  22896816.297 6                  22896819.883 5 120323576.389 6                  93758675.599 5
G19  22140344.914 6  22140346.074 3                 116348289.182 6  90661001.038 3
G31  22171999.414 7                  22172004.477 7 116514642.610 7                  90790646.093 7
R03  20377934.016 8  20377938.121 7 109084670.489 8  84843569.511 7
R04  19266394.273 8  19266397.309 7 103170662.538 8  80244032.478 7
R05  22223560.320 5  22223554.242 4 118797656.905 5  92398167.959 4
R18  21861083.938 7  21861090.992 7 116695946.411 7  90763289.904 7
R19  19382749.031 8  19382750.250 7 103684632.413 8  80643669.045 7
R20  21425839.352 5  21425845.672 7 114573625.035 5  89112828.480 7
> 2025 06 15 14 41  5.0000000  0 25
C06  38228130.484 6  38228125.336 7 199063905.193 6 153928834.326 7
C11  23305964.047 6  23305960.441 7 121360258.532 6  93843444.229 7
C12  22817505.313 7  22817502.625 8 118816738.170 7  91876572.185 8
C16  38814443.344 6  38814444.457 6 202116996.222 6 156289675.513 6
C21  22183996.164 7                 115517896.058 7
C22  22219659.219 7                 115703592.520 7
E03  24423710.289 8  24423712.715 8 128347461.131 8  97094031.382 8
E05  22078167.516 8  22078168.852 8 116021550.947 8  87769555.086 8
E15  24017712.141 8  24017714.879 9 126213927.985 8  95480028.253 9
E34  23792553.516 8  23792555.430 8 125030710.646 8  94584928.234 8
G01  21570727.297 7                  21570732.391 7 113354932.514 7                  88328539.320 7
G02  24202481.461 6  24202486.262 4                 127184898.886 6  99105124.937 4
G03  20024601.125 8                  20024607.715 7 105229988.976 8                  81997418.825 7
G04  20514615.492 7                  20514620.723 8 107805029.860 7                  84004308.564 8
G06  23393717.563 6                  23393727.688 7 122934809.535 6                  95793760.768 7
G09  22685438.164 6                  22685445.297 7 119212772.924 6                  92893491.285 7
G17  22897219.008 6                  22897223.086 5 120325695.520 6                  93760326.857 5
G19  22139248.313 6  22139250.691 3                 116342535.692 6  90656517.845 3
G31  22170668.922 7                  22170673.750 7 116507651.025 7                  90785198.102 7
R03  20378948.922 8  20378953.648 7 109090105.540 8  84847796.756 7
R04  19264291.391 8  19264295.008 7 103159406.290 8  80235277.620 7
R05  22218946.555 4  22218946.555 4 118773032.213 4  92379015.452 4
R18  21863615.711 7  21863623.828 7 116709464.239 7  90773803.778 7
R19  19382178.141 8  19382180.590 7 103681583.405 8  80641297.601 7
R20  21421297.992 5  21421305.496 7 114549346.602 5  89093945.253 7
> 2025 06 15 14 41 10.0000000  0 24
C06  38226453.953 6  38226448.594 7 199055173.598 6 153922082.503 7
C11  23303451.453 6  23303447.797 7 121347174.279 6  93833326.696 7
C12  22818106.719 7  22818103.980 7 118819871.429 7  91878995.008 7
C16  38812916.125 6  38812917.363 6 202109043.261 6 156283525.755 6
C21  22181467.906 7                 115504725.834 7
C22  22219892.234 7                 115704805.954 7
E03  24420338.570 8  24420341.141 8 128329743.822 8  97080628.355 8
E05  22077407.875 8  22077409.066 8 116017558.213 8  87766534.606 8
E15  24014992.555 8  24014995.723 9 126199638.461 8  95469218.324 9
E34  23792566.414 8  23792568.516 8 125030779.249 8  94584980.132 8
G01  21571963.766 8                  21571968.402 7 113361426.938 8                  88333599.904 7
G02  24204315.141 6  24204319.668 3                 127194535.583 6  99112634.047 3
G03  20024091.305 8                  20024097.949 7 105227312.716 8                  81995333.434 7
G04  20511617.086 7                  20511622.590 8 107789274.178 7                  83992031.425 8
G06  23389279.820 6                  23389289.629 7 122911483.597 6                  95775584.757 7
G09  22680842.586 6                  22680851.031 7 119188625.568 6                  92874675.179 7
G17  22897624.648 6                  22897629.258 5 120327826.473 6                  93761987.402 5
G19  22138157.109 6  22138159.238 4                 116336800.475 6  90652048.860 4
G31  22169341.156 7                  22169346.777 7 116500678.058 7                  90779764.624 7
R03  20379965.281 8  20379970.254 7 109095549.786 8  84852031.153 7
R04  19262192.031 8  19262195.906 7 103148165.123 8  80226534.501 7
R18  21866151.031 8  21866157.707 7 116722991.275 8  90784324.761 7
R19  19381613.172 8  19381615.113 7 103678557.257 8  80638943.931 7
R20  21416760.500 5  21416768.160 7 114525081.854 5  89075072.693 7
> 2025 06 15 14 41 15.0000000  0 25
C06  38224778.063 6  38224773.031 7 199046447.163 6 153915334.674 7
C11  23300941.438 6  23300937.621 7 121334104.075 6  93823219.979 7
C12  22818711.023 7  22818708.711 8 118823016.830 7  91881427.236 8
C16  38811389.492 6  38811391.043 6 202101095.270 6 156277379.887 6
C21  22178941.289 7                 115491564.703 7
C22  22220127.414 7                 115706026.629 7
E03  24416968.883 8  24416971.254 8 128312034.915 8  97067231.692 8
E05  22076649.484 8  22076651.195 9 116013575.602 8  87763521.787 9
E15  24012275.313 8  24012278.258 8 126185358.003 8  95458415.247 8
E34  23792581.656 8  23792583.559 8 125030857.776 8  94585039.537 8
G01  21573200.969 8                  21573206.520 7 113367932.146 8                  88338668.875 7
G02  24206148.602 6  24206153.852 3                 127204176.482 6  99120146.403 3
G03  20023584.461 8                  20023591.063 8 105224647.608 8                  81993256.729 8
G04  20508621.320 7                  20508627.094 8 107773532.076 7                  83979764.864 8
G06  23384841.680 6                  23384851.707 7 122888164.816 6                  95757414.285 7
G09  22676250.375 7                  22676256.711 7 119164485.311 7                  92855864.601 7
G17  22898032.844 6                  22898037.625 4 120329969.552 6                  93763657.374 4
G19  22137069.383 6  22137071.500 4                 116331083.624 6  90647594.157 4
G31  22168018.375 7                  22168023.441 7 116493724.083 7                  90774345.946 7
R03  20380983.875 8  20380989.031 7 109101003.419 8  84856272.853 7
R04  19260095.703 8  19260099.449 7 103136939.457 8  80217803.428 7
R05  22209742.172 5  22209737.191 4 118723806.09815  92340728.42314
R18  21868687.680 8  21868693.207 7 116736527.671 8  90794853.059 7
R19  19381051.039 8  19381053.371 7 103675554.073 8  80636608.130 7
R20  21412225.516 5  21412233.059 7 114500831.074 5  89056210.986 7
> 2025 06 15 14 41 20.0000000  0 25
C06  38223104.094 6  38223098.426 7 199037725.841 6 153908590.802 7
C11  23298434.852 6  23298430.758 7 121321047.956 6  93813124.181 7
C12  22819317.133 6  22819314.867 8 118826174.333 6  91883868.818 8
C16  38809864.555 6  38809865.469 6 202093152.284 6 156271237.871 6
C21  22176415.328 7                 115478412.752 7
C22  22220363.008 7                 115707254.533 7
E03  24413600.961 8  24413602.988 8 128294334.441 8  97053841.414 8
E05  22075893.813 8  22075895.234 8 116009603.123 8  87760516.635 8
E15  24009559.297 8  24009562.516 8 126171086.596 8  95447619.021 8
E34  23792598.398 8  23792600.359 8 125030946.254 8  94585106.472 8
G01  21574440.859 8                  21574446.938 8 113374448.183 8                  88343746.313 8
G02  24207985.266 6  24207989.055 3                 127213821.646 6  99127662.097 3
G03  20023079.828 8                  20023086.223 7 105221993.694 8                  81991188.751 7
G04  20505628.805 7                  20505634.129 8 107757803.581 7                  83967508.899 8
G06  23380405.969 6                  23380415.219 7 122864853.064 6                  95739249.310 7
G09  22671657.734 7                  22671664.430 7 119140352.079 7                  92837059.499 7
G17  22898443.461 6                  22898446.266 4 120332124.785 6                  93765336.587 4
G19  22135984.109 6  22135987.035 4                 116325385.265 6  90643153.843 4
G31  22166699.406 7                  22166703.598 7 116486788.990 7                  90768941.973 7
R03  20382004.141 7  20382009.020 7 109106466.201 7  84860521.674 7
R04  19258002.328 8  19258005.891 7 103125729.054 8  80209084.212 7
R05  22205143.758 6  22205134.125 5 118699204.836 6  92321594.103 5
R18  21871225.461 8  21871230.512 7 116750073.420 8  90805388.642 7
R19  19380494.164 8  19380496.441 7 103672573.916 8  80634290.241 7
R20  21407693.531 6  21407700.563 7 114476594.379 6  89037360.251 7
> 2025 06 15 14 41 25.0000000  0 25
C06  38221429.781 6  38221424.473 7 199029009.704 6 153901850.938 7
C11  23295929.094 6  23295925.949 7 121308005.893 6  93803039.242 7
C12  22819925.711 7  22819923.438 7 118829344.006 7  91886319.779 7
C16  38808340.102 6  38808341.109 6 202085214.255 6 156265099.707 6
C21  22173890.852 7                 115465269.946 7
C22  22220600.609 7                 115708489.712 7
E03  24410234.172 8  24410236.332 8 128276642.437 8  97040457.528 8
E05  22075139.578 8  22075141.207 8 116005640.809 8  87757519.171 8
E15  24006845.320 8  24006848.492 8 126156824.329 8  95436829.708 8
E34  23792617.211 8  23792619.113 8 125031044.719 8  94585180.952 8
G01  21575683.211 8                  21575688.574 7 113380975.033 8                  88348832.148 7
G02  24209821.484 6  24209825.258 3                 127223470.942 6  99135180.983 3
G03  20022576.539 8                  20022583.199 7 105219350.969 8                  81989129.473 7
G04  20502638.422 7                  20502643.727 8 107742088.690 7                  83955263.536 8
G06  23375971.656 6                  23375980.289 7 122841548.501 6                  95721089.902 7
G09  22667067.109 7                  22667074.102 7 119116225.947 7                  92818259.954 7
G17  22898855.008 6                  22898856.945 4 120334292.121 6                  93767025.437 4
G19  22134904.445 6  22134906.492 4                 116319705.305 6  90638727.911 4
G31  22165382.547 6                  22165387.563 7 116479872.747 6                  90763552.694 7
R03  20383026.672 8  20383031.195 7 109111938.424 8  84864777.842 7
R04  19255912.016 8  19255915.469 7 103114534.077 8  80200376.991 7
R05  22200545.547 6  22200534.590 5 118674611.612 6  92302466.104 5
R18  21873765.188 8  21873770.023 7 116763628.501 8  90815931.462 7
R19  19379941.313 8  19379943.480 7 103669616.748 8  80631990.209 7
R20  21403164.359 6  21403170.820 7 114452371.747 6  89018520.411 7
> 2025 06 15 14 41 30.0000000  0 25
C06  38219756.961 6  38219751.594 7 199020299.536 6 153895115.680 7
C11  23293427.555 6  23293423.914 7 121294978.699 6  93792965.792 7
C12  22820537.289 7  22820533.949 8 118832526.652 7  91888780.787 8
C16  38806816.695 6  38806818.109 6 202077282.096 6 156258966.027 6
C21  22171368.773 7                 115452137.074 7
C22  22220838.680 7                 115709732.929 7
E03  24406869.305 8  24406871.484 8 128258959.665 8  97027080.624 8
E05  22074387.875 8  22074389.270 8 116001689.445 8  87754529.990 8
E15  24004133.445 8  24004136.262 8 126142571.924 8  95426047.868 8
E34  23792638.258 8  23792639.922 8 125031153.932 8  94585263.563 8
G01  21576927.609 8                  21576932.313 7 113387513.512 8                  88353927.059 7
G02  24211659.656 6  24211662.164 3                 127233125.191 6  99142703.762 3
G03  20022075.805 8                  20022082.852 7 105216720.239 8                  81987079.554 7
G04  20499650.938 7                  20499655.758 8 107726388.237 7                  83943029.438 8
G06  23371537.859 6                  23371546.816 7 122818251.861 6                  95702936.697 7
G09  22662477.602 7                  22662483.980 6 119092107.704 7                  92799466.550 6
G17  22899269.992 6                  22899271.563 4 120336472.376 6                  93768724.264 4
G19  22133827.211 6  22133829.898 4                 116314044.593 6  90634316.946 4
G31  22164070.094 6                  22164075.316 7 116472976.197 6                  90758178.743 7
R03  20384051.023 8  20384055.898 7 109117420.683 8  84869041.811 7
R04  19253824.859 8  19253827.883 7 103103355.242 8  80191682.339 7
R05  22195943.570 6  22195934.070 5 118650027.053 6  92283344.804 5
R18  21876306.281 8  21876311.367 7 116777193.729 8  90826482.172 7
R19  19379392.883 8  19379395.051 7 103666683.445 8  80629708.746 7
R20  21398637.516 5  21398643.965 7 114428163.881 5  88999692.089 7
> 2025 06 15 14 41 35.0000000  0 25
C06  38218085.445 6  38218079.898 7 199011594.091 6 153888384.087 7
C11  23290929.992 6  23290924.277 6 121281965.211 6  93782902.947 6
C12  22821151.078 7  22821147.688 7 118835720.979 7  91891250.817 7
C16  38805294.625 6  38805295.480 7 202069354.489 6 156252835.888 7
C21  22168847.891 7                 115439012.933 7
C22  22221078.625 7                 115710982.988 7
E03  24403505.617 8  24403508.016 8 128241284.927 8  97013709.808 8
E05  22073637.688 8  22073639.203 8 115997747.835 8  87751548.187 8
E15  24001422.570 8  24001425.816 8 126128328.247 8  95415272.615 8
E34  23792660.719 8  23792662.570 8 125031272.714 8  94585353.410 8
G01  21578173.672 8                  21578178.910 7 113394062.356 8                  88359030.061 7
G02  24213496.070 6  24213500.281 3                 127242783.180 6  99150229.432 3
G03  20021577.172 8                  20021584.102 8 105214100.291 8                  81985038.040 8
G04  20496664.805 7                  20496670.551 8 107710700.996 7                  83930805.606 8
G06  23367106.016 6                  23367115.223 6 122794961.999 6                  95684788.754 6
G09  22657888.438 6                  22657895.953 6 119067996.166 6                  92780678.363 6
G17  22899687.359 6                  22899690.031 5 120338664.326 6                  93770432.154 5
G19  22132753.578 6  22132756.305 4                 116308401.968 6  90629920.080 4
G31  22162761.820 7                  22162766.297 7 116466098.130 7                  90752819.200 7
R03  20385077.414 8  20385081.039 7 109122911.821 8  84873312.679 7
R04  19251740.172 8  19251742.777 7 103092191.331 8  80182999.311 7
R05  22191344.516 5  22191338.078 4 118625450.052 5  92264229.283 4
R18  21878849.023 8  21878853.555 7 116790767.879 8  90837039.830 7
R19  19378849.258 8  19378850.754 7 103663772.792 8  80627444.903 7
R20  21394113.273 5  21394119.766 7 114403969.566 5  88980874.294 7
> 2025 06 15 14 41 40.0000000  0 25
C06  38216414.375 6  38216409.176 7 199002894.405 6 153881656.949 7
C11  23288432.406 6  23288427.863 6 121268966.483 6  93772851.484 6
C12  22821767.125 7  22821763.320 7 118838928.098 7  91893730.771 7
C16  38803772.922 6  38803773.945 6 202061432.530 6 156246710.144 6
C21  22166330.211 7                 115425898.556 7
C22  22221319.898 7                 115712240.897 7
E03  24400143.891 8  24400146.477 8 128223619.273 8  97000345.859 8
E05  22072889.641 8  22072891.199 8 115993816.970 8  87748574.505 8
E15  23998714.031 8  23998717.148 9 126114094.301 8  95404504.730 9
E34  23792685.031 8  23792687.172 8 125031402.080 8  94585451.280 8
G01  21579422.242 8                  21579427.453 8 113400622.658 8                  88364141.973 8
G02  24215335.047 6  24215339.320 3                 127252445.894 6  99157758.782 3
G03  20021080.703 8                  20021087.813 7 105211492.175 8                  81983005.742 7
G04  20493682.492 7                  20493688.055 8 107695028.000 7                  83918592.878 8
G06  23362675.531 6                  23362684.844 6 122771679.949 6                  95666646.894 6
G09  22653300.516 6                  22653308.332 6 119043892.374 6                  92761896.223 6
G17  22900106.727 6                  22900110.199 5 120340868.949 6                  93772150.033 5
G19  22131682.656 6  22131685.910 4                 116302778.333 6  90625538.040 4
G31  22161455.859 7                  22161461.328 7 116459239.604 7                  90747474.892 7
R03  20386104.641 8  20386109.348 7 109128412.886 8  84877591.273 7
R04  19249658.703 8  19249660.910 7 103081043.511 8  80174328.784 7
R05  22186750.383 5  22186741.926 4 118600881.613 5  92245120.490 4
R18  21881393.492 8  21881399.098 7 116804351.965 8  90847605.232 7
R19  19378308.828 8  19378311.402 7 103660885.748 8  80625199.404 7
R20  21389591.063 5  21389597.672 7 114379789.908 5  88962067.921 7
> 2025 06 15 14 41 45.0000000  0 25
C06  38214744.016 6  38214739.336 7 198994199.696 6 153874933.646 7
C11  23285937.453 6  23285934.645 6 121255981.570 6  93762810.741 6
C12  22822384.789 7  22822381.285 7 118842147.086 7  91896219.894 7
C16  38802253.398 6  38802253.891 6 202053515.251 6 156240588.028 6
C21  22163813.297 7                 115412793.082 7
C22  22221562.852 7                 115713505.762 7
E03  24396783.938 8  24396786.367 8 128205961.839 8  96986988.137 8
E05  22072143.664 8  22072145.063 8 115989896.006 8  87745608.319 8
E15  23996007.109 8  23996010.172 9 126099869.234 8  95393743.559 9
E34  23792711.359 8  23792713.688 8 125031541.142 8  94585556.482 8
G01  21580672.391 8                  21580678.277 8 113407193.490 8                  88369262.112 8
G02  24217175.172 6  24217178.711 3                 127262112.540 6  99165291.229 3
G03  20020586.859 8                  20020593.434 8 105208894.973 8                  81980981.944 8
G04  20490702.813 7                  20490708.129 8 107679368.377 7                  83906390.579 8
G06  23358246.344 6                  23358255.773 7 122748404.825 6                  95648510.444 7
G09  22648715.117 6                  22648722.770 6 119019795.456 6                  92743119.408 6
G17  22900528.750 6                  22900532.773 5 120343085.478 6                  93773877.158 5
G19  22130616.117 6  22130619.527 4                 116297172.875 6  90621170.158 4
G31  22160154.719 7                  22160159.977 7 116452399.739 7                  90742145.128 7
R03  20387133.547 8  20387138.762 7 109133922.896 8  84881876.870 7
R04  19247579.469 8  19247581.836 7 103069910.783 8  80165670.002 7
R05  22182156.906 5  22182145.641 3 118576320.660 5  92226017.773 3
R18  21883940.438 7  21883945.801 7 116817945.135 7  90858177.642 7
R19  19377773.688 8  19377775.691 7 103658021.459 8  80622971.626 7
R20  21385071.617 5  21385078.250 7 114355624.247 5  88943272.424 7
> 2025 06 15 14 41 50.0000000  0 24
C06  38213074.836 6  38213070.465 7 198985508.645 6 153868213.191 7
C11  23283446.164 6  23283443.512 6 121243009.370 6  93752779.789 6
C12  22823004.555 7  22823001.402 7 118845376.723 7  91898717.247 7
C16  38800732.633 6  38800734.043 6 202045601.606 6 156234468.677 6
C21  22161298.070 7                 115399695.322 7
C22  22221807.078 7                 115714776.430 7
E03  24393425.531 8  24393427.613 8 128188311.400 8  96973635.704 8
E05  22071399.258 8  22071400.563 8 115985983.693 8  87742648.684 8
E15  23993301.656 8  23993304.695 8 126085651.843 8  95382988.206 8
E34  23792739.633 8  23792741.793 8 125031688.726 8  94585668.123 8
G01  21581924.727 8                  21581930.766 8 113413773.665 8                  88374389.501 8
G02  24219014.445 6  24219019.156 3                 127271781.856 6  99172825.724 3
G03  20020094.563 8                  20020101.191 8 105206307.521 8                  81978965.746 8
G04  20487724.719 7                  20487730.664 8 107663720.929 7                  83894197.765 8
G06  23353818.445 6                  23353828.137 7 122725135.414 6                  95630378.467 7
G09  22644131.094 6                  22644138.273 6 118995704.209 6                  92724347.015 6
G17  22900952.039 6                  22900957.199 5 120345312.520 6                  93775612.501 5
G19  22129553.195 6  22129555.934 4                 116291584.359 6  90616815.499 4
G31  22158856.047 7                  22158861.551 7 116445577.305 7                  90736828.947 7
R03  20388165.156 8  20388169.781 7 109139440.649 8  84886168.450 7
R04  19245503.266 8  19245505.434 7 103058791.983 8  80157022.036 7
R18  21886487.773 7  21886493.836 7 116831546.095 7  90868756.125 7
R19  19377242.734 8  19377244.426 7 103655178.693 8  80620760.584 7
R20  21380553.992 6  21380561.902 7 114331471.210 6  88924486.757 7
> 2025 06 15 14 41 55.0000000  0 24
C06  38211406.086 6  38211402.238 7 198976822.735 6 153861496.679 7
C11  23280957.656 6  23280954.949 7 121230051.285 6  93742759.790 7
C12  22823626.977 7  22823623.855 7 118848618.432 7  91901223.934 7
C16  38799213.898 6  38799215.512 6 202037692.916 6 156228353.185 6
C21  22158783.594 7                 115386606.701 7
C22  22222051.992 7                 115716054.338 7
E03  24390068.133 8  24390070.449 8 128170669.407 8  96960289.664 8
E05  22070656.375 8  22070657.965 8 115982081.525 8  87739696.719 8
E15  23990597.664 8  23990600.906 8 126071443.576 8  95372239.741 8
E34  23792769.883 8  23792771.777 8 125031846.248 8  94585787.286 8
G01  21583178.711 8                  21583184.766 8 113420364.601 8                  88379525.297 8
G02  24220854.969 6  24220859.883 3                 127281455.303 6  99180363.443 3
G03  20019604.188 8                  20019610.664 7 105203731.243 8                  81976958.251 7
G04  20484750.313 7                  20484755.691 8 107648087.108 7                  83882015.583 8
G06  23349392.133 6                  23349401.305 7 122701873.184 6                  95612252.070 7
G09  22639547.484 6                  22639556.227 6 118971620.089 6                  92705580.178 6
G17  22901378.781 6                  22901383.637 5 120347551.609 6                  93777357.232 5
G19  22128492.547 6  22128495.746 4                 116286014.355 6  90612475.235 4
G31  22157561.664 7                  22157566.973 7 116438773.735 7                  90731527.474 7
R03  20389197.195 8  20389202.059 7 109144967.648 8  84890467.206 7
R04  19243430.195 8  19243431.867 7 103047688.478 8  80148385.993 7
R18  21889037.961 8  21889043.566 7 116845156.217 8  90879341.760 7
R19  19376715.773 8  19376717.723 7 103652359.038 8  80618567.533 7
R20  21376041.047 6  21376047.375 7 114307332.228 6  88905712.002 7
> 2025 06 15 14 42  0.0000000  0 24
C06  38209739.875 6  38209735.129 7 198968142.236 6 153854784.361 7
C11  23278472.914 6  23278469.547 7 121217107.460 6  93732750.790 7
C12  22824251.289 6  22824248.188 7 118851872.431 6  91903740.116 7
C16  38797696.156 6  38797697.867 6 202029789.405 6 156222241.709 6
C21  22156271.539 7                 115373527.434 7
C22  22222298.805 7                 115717339.624 7
E03  24386712.523 8  24386714.934 8 128153036.078 8  96946950.176 8
E05  22069915.875 8  22069917.340 8 115978189.670 8  87736752.556 8
E15  23987895.867 8  23987898.879 8 126057244.635 8  95361498.340 8
E34  23792801.758 8  23792803.691 8 125032013.940 8  94585914.142 8
G01  21584434.492 8                  21584441.316 8 113426966.501 8                  88384669.622 8
G02  24222697.266 6  24222701.488 3                 127291133.084 6  99187904.523 3
G03  20019116.211 8                  20019122.441 7 105201166.339 8                  81974959.622 7
G04  20481777.102 7                  20481783.258 8 107632467.137 7                  83869844.188 8
G06  23344967.531 6                  23344976.285 7 122678618.416 6                  95594131.478 7
G09  22634966.109 6                  22634973.770 6 118947543.296 6                  92686819.050 6
G17  22901806.531 6                  22901812.652 5 120349802.887 6                  93779111.448 5
G19  22127436.891 6  22127439.168 4                 116280462.912 6  90608149.439 4
G31  22156270.477 7                  22156275.723 7 116431989.321 7                  90726240.938 7
R03  20390231.523 8  20390236.785 7 109150504.043 8  84894773.286 7
R04  19241358.172 8  19241361.301 7 103036600.543 8  80139762.046 7
R18  21891589.234 7  21891595.094 7 116858775.826 7  90889934.746 7
R19  19376192.805 8  19376194.551 7 103649562.653 8  80616392.566 7
R20  21371528.250 6  21371536.023 7 114283207.615 6  88886948.403 7
> 2025 06 15 14 42  5.0000000  0 24
C06  38208073.602 6  38208069.133 7 198959467.157 6 153848076.249 7
C11  23275989.797 6  23275986.754 7 121204178.142 6  93722753.026 7
C12  22824877.898 6  22824875.887 7 118855138.876 6  91906265.941 7
C16  38796178.656 6  38796181.148 6 202021891.236 6 156216134.330 6
C21  22153761.906 7                 115360457.610 7
C22  22222546.781 7                 115718632.456 7
E03  24383358.797 8  24383361.070 8 128135411.549 8  96933617.346 8
E05  22069177.211 8  22069178.719 8 115974308.232 8  87733816.276 8
E15  23985195.656 8  23985198.684 9 126043055.180 8  95350764.112 9
E34  23792835.570 8  23792837.527 8 125032191.888 8  94586048.753 8
G01  21585694.352 8                  21585699.480 8 113433579.488 8                  88389822.596 8
G02  24224539.383 6  24224543.324 3                 127300815.287 6  99195449.078 3
G03  20018630.328 8                  20018636.680 7 105198612.931 8                  81972969.969 7
G04  20478807.508 7                  20478813.422 8 107616861.092 7                  83857683.658 8
G06  23340542.953 6                  23340552.484 7 122655371.171 6                  95576016.733 7
G09  22630385.469 6                  22630393.504 6 118923474.016 6                  92668063.808 6
G17  22902237.930 6                  22902243.098 5 120352066.563 6                  93780875.404 5
G19  22126382.633 6  22126386.641 4                 116274930.234 6  90603838.268 4
G31  22154983.078 7                  22154988.598 7 116425224.133 7                  90720969.343 7
R03  20391266.555 8  20391272.293 7 109156049.898 8  84899086.733 7
R04  19239291.305 8  19239293.844 7 103025528.248 8  80131150.259 7
R18  21894141.766 7  21894148.773 7 116872404.946 7  90900535.165 7
R19  19375674.523 8  19375676.461 7 103646789.528 8  80614235.703 7
R20  21367021.172 6  21367027.570 7 114259097.501 6  88868196.130 7
> 2025 06 15 14 42 10.0000000  0 24
C06  38206408.805 6  38206403.813 7 198950796.148 6 153841371.254 7
C11  23273509.719 6  23273506.688 7 121191261.851 6  93712765.333 7
C12  22825507.695 6  22825504.930 7 118858416.234 6  91908800.203 7
C16  38794663.047 6  38794665.004 6 202013996.904 6 156210029.947 6
C21  22151254.242 7                 115347395.802 7
C22  22222796.844 7                 115719931.358 7
E03  24380006.211 8  24380008.609 8 128117794.344 8  96920290.044 8
E05  22068440.359 8  22068441.820 8 115970435.794 8  87730886.799 8
E15  23982497.266 8  23982500.047 9 126028873.734 8  95340035.933 9
E34  23792870.938 8  23792873.051 8 125032378.652 8  94586190.035 8
G01  21586953.945 8                  21586959.637 8 113440202.058 8                  88394983.034 8
G02  24226382.203 6  24226385.941 3                 127310500.467 6  99202995.938 3
G03  20018146.117 8                  20018152.613 7 105196069.580 8                  81970988.125 7
G04  20475840.297 7                  20475845.871 8 107601267.578 7                  83845532.872 8
G06  23336119.484 6                  23336129.398 7 122632130.004 6                  95557906.765 7
G09  22625806.109 6                  22625814.426 7 118899410.723 6                  92649313.177 7
G17  22902671.148 6                  22902675.504 5 120354341.095 6                  93782647.688 5
G19  22125334.641 6  22125337.227 4                 116269414.746 6  90599540.478 4
G31  22153699.219 7                  22153704.492 7 116418476.688 7                  90715711.611 7
R03  20392303.906 7  20392310.230 7 109161603.891 7  84903406.500 7
R04  19237225.734 8  19237228.785 7 103014470.146 8  80122549.519 7
R18  21896695.570 7  21896702.945 7 116886042.107 7  90911141.830 7
R19  19375160.273 8  19375162.273 7 103644038.212 8  80612095.786 7
R20  21362514.531 6  21362520.867 7 114235000.469 6  88849454.010 7
> 2025 06 15 14 42 15.0000000  0 24
C06  38204743.945 6  38204739.348 7 198942129.857 6 153834669.941 7
C11  23271032.352 6  23271029.320 7 121178359.238 6  93702788.226 7
C12  22826139.328 6  22826136.891 7 118861705.250 6  91911343.465 7
C16  38793147.453 6  38793149.992 6 202006107.169 6 156203929.110 6
C21  22148747.352 8                 115334342.754 8
C22  22223047.172 7                 115721237.078 7
E03  24376655.180 8  24376657.711 8 128100185.211 8  96906968.858 8
E05  22067705.305 8  22067706.734 8 115966573.048 8  87727964.661 8
E15  23979800.219 8  23979802.992 8 126014701.031 8  95329314.379 8
E34  23792908.547 8  23792910.379 8 125032574.962 8  94586338.546 8
G01  21588215.930 8                  21588221.676 8 113446834.988 8                  88400151.549 8
G02  24228226.477 6  24228229.254 3                 127320189.322 6  99210545.682 3
G03  20017664.734 8                  20017670.477 7 105193536.969 8                  81969014.664 7
G04  20472875.773 7                  20472881.109 8 107585687.305 7                  83833392.392 8
G06  23331698.547 6                  23331708.664 7 122608895.689 6                  95539802.097 7
G09  22621228.844 6                  22621236.293 6 118875354.180 6                  92630567.813 6
G17  22903105.953 6                  22903111.617 6 120356627.221 6                  93784429.066 6
G19  22124287.961 6  22124291.379 4                 116263917.291 6  90595256.755 4
G31  22152418.898 7                  22152424.000 7 116411747.729 7                  90710468.271 7
R03  20393343.836 7  20393349.660 7 109167166.511 7  84907732.972 7
R04  19235163.898 8  19235166.680 7 103003427.218 8  80113960.569 7
R18  21899252.391 7  21899259.422 7 116899688.062 7  90921755.317 7
R19  19374649.508 8  19374651.563 7 103641309.538 8  80609973.480 7
R20  21358010.375 6  21358017.340 7 114210917.258 6  88830722.642 7
> 2025 06 15 14 42 20.0000000  0 25
C06  38203081.953 6  38203076.180 7 198933469.078 6 153827972.880 7
C11  23268557.422 6  23268554.582 7 121165471.128 6  93692822.351 7
C12  22826774.094 6  22826770.852 7 118865006.703 6  91913896.375 7
C16  38791633.594 6  38791635.992 6 201998222.798 6 156197832.424 6
C21  22146241.945 7                 115321299.227 7
C22  22223299.836 7                 115722550.300 7
E03  24373306.055 8  24373308.434 8 128082584.948 8  96893654.375 8
E05  22066971.938 8  22066973.625 8 115962720.794 8  87725050.457 8
E15  23977105.305 8  23977107.793 9 126000537.869 8  95318600.046 9
E34  23792947.836 8  23792949.723 8 125032781.609 8  94586494.863 8
G01  21589480.688 8                  21589485.727 8 113453479.034 8                  88405328.707 8
G02  24230070.203 6  24230073.805 3                 127329882.523 6  99218098.773 3
G03  20017184.836 8                  20017191.215 7 105191015.919 8                  81967050.211 7
G04  20469913.805 7                  20469918.836 8 107570121.045 7                  83821262.854 8
G06  23327279.078 6                  23327288.516 6 122585669.015 6                  95521703.420 6
G09  22616651.133 6                  22616659.715 6 118851305.227 6                  92611828.348 6
G17  22903542.266 6                  22903549.723 6 120358925.728 6                  93786220.126 6
G19  22123245.469 7  22123249.320 4                 116258438.657 7  90590987.694 4
G31  22151142.141 7                  22151146.957 7 116405038.066 7                  90705239.953 7
R03  20394384.781 7  20394390.797 8 109172738.795 7  84912066.998 8
R04  19233104.594 8  19233107.699 7 102992399.801 8  80105383.688 7
R05  22150035.945 5  22150057.734 4 118404575.30515
R18  21901810.766 7  21901817.020 7 116913343.589 7  90932376.256 7
R19  19374144.070 8  19374145.875 7 103638604.254 8  80607869.363 7
R20  21353510.430 6  21353517.039 7 114186848.704 6  88812002.674 7
> 2025 06 15 14 42 25.0000000  0 25
C06  38201418.313 6  38201413.578 7 198924812.366 6 153821278.956 7
C11  23266086.055 6  23266082.090 7 121152596.124 6  93682866.578 7
C12  22827410.641 6  22827407.359 7 118868319.144 6  91916457.772 7
C16  38790120.617 6  38790122.652 7 201990342.309 6 156191738.739 7
C21  22143738.281 7                 115308263.747 7
C22  22223552.969 7                 115723869.676 7
E03  24369958.383 8  24369960.688 8 128064992.043 8  96880345.461 8
E05  22066240.680 8  22066242.273 8 115958877.518 8  87722143.040 8
E15  23974411.461 8  23974414.168 9 125986382.772 8  95307891.803 9
E34  23792988.711 8  23792990.734 8 125032997.075 8  94586657.866 8
G01  21590746.359 8                  21590752.133 8 113460132.671 8                  88410513.360 8
G02  24231916.469 6  24231919.191 3                 127339578.797 6  99225654.291 3
G03  20016707.211 8                  20016713.313 8 105188504.957 8                  81965093.604 8
G04  20466954.273 7                  20466959.301 8 107554567.333 7                  83809143.102 8
G06  23322860.414 7                  23322869.320 6 122562448.494 7                  95503609.511 6
G09  22612077.703 5                  22612084.457 6 118827262.344 5                  92593093.622 6
G17  22903982.023 6                  22903988.906 6 120361235.158 6                  93788019.681 6
G19  22122206.398 6  22122210.141 4                 116252977.295 6  90586732.078 4
G31  22149869.313 7                  22149873.754 7 116398346.264 7                  90700025.547 7
R03  20395427.883 8  20395433.215 7 109178318.932 8  84916407.104 7
R04  19231047.289 8  19231050.777 7 102981386.633 8  80096817.887 7
R05  22145450.508 5  22145475.008 4 118380074.963 5  92073528.18514
R18  21904369.984 7  21904376.141 7 116927007.158 7  90943003.476 7
R19  19373642.273 8  19373644.063 7 103635920.842 8  80605782.264 7
R20  21349011.805 6  21349018.387 7 114162793.141 6  88793292.822 7
> 2025 06 15 14 42 30.0000000  0 25
C06  38199757.883 6  38199751.789 7 198916159.864 6 153814588.288 7
C11  23263616.094 6  23263612.617 7 121139734.313 6  93672921.018 7
C12  22828049.805 6  22828045.434 7 118871642.668 6  91919027.717 7
C16  38788608.281 6  38788610.328 6 201982465.881 6 156185648.177 6
C21  22141237.195 7                 115295236.463 7
C22  22223807.344 7                 115725195.267 7
E03  24366612.219 8  24366614.277 8 128047406.667 8  96867042.243 8
E05  22065511.391 8  22065512.664 8 115955043.368 8  87719242.531 8
E15  23971719.469 8  23971722.109 9 125972235.894 8  95297189.777 9
E34  23793031.695 8  23793033.465 8 125033221.521 8  94586827.658 8
G01  21592013.781 8                  21592020.266 7 113466796.113 8                  88415705.658 7
G02  24233760.977 6  24233765.613 3                 127349278.112 6  99233212.240 3
G03  20016231.219 8                  20016237.234 7 105186004.188 8                  81963144.944 7
G04  20463996.391 7                  20464001.836 8 107539026.331 7                  83797033.234 8
G06  23318443.359 6                  23318451.473 6 122539234.277 6                  95485520.516 6
G09  22607504.477 5                  22607511.121 6 118803225.672 5                  92574363.749 6
G17  22904424.258 6                  22904430.375 6 120363555.576 6                  93789827.786 6
G19  22121169.922 6  22121173.934 4                 116247533.373 6  90582490.061 4
G31  22148598.688 7                  22148603.539 7 116391672.379 7                  90694825.117 7
R03  20396470.797 8  20396477.590 7 109183907.427 8  84920753.714 7
R04  19228993.430 8  19228997.066 7 102970387.842 8  80088263.277 7
R05  22140868.523 5                 118355581.539 5
R18  21906931.570 7  21906937.379 7 116940678.847 7  90953637.004 7
R19  19373144.992 8  19373146.395 7 103633259.433 8  80603712.263 7
R20  21344514.633 6  21344522.434 7 114138750.976 6  88774593.357 7
> 2025 06 15 14 42 35.0000000  0 25
C06  38198096.570 6  38198091.027 7 198907512.280 6 153807901.428 7
C11  23261147.867 6  23261145.340 7 121126886.454 6  93662986.241 7
C12  22828690.414 6  22828685.836 7 118874977.975 6  91921606.779 7
C16  38787096.055 6  38787098.754 6 201974594.229 6 156179561.311 6
C21  22138737.320 7                 115282218.093 7
C22  22224063.172 7                 115726527.817 7
E03  24363267.766 8  24363269.438 8 128029829.564 8  96853745.280 8
E05  22064783.477 8  22064784.945 8 115951219.113 8  87716349.503 8
E15  23969029.266 8  23969031.738 9 125958097.958 8  95286494.524 9
E34  23793075.773 8  23793078.023 8 125033455.709 8  94587004.815 8
G01  21593283.938 8                  21593289.883 8 113473470.021 8                  88420906.091 8
G02  24235607.297 6  24235612.949 3                 127358981.297 6  99240773.127 3
G03  20015757.250 8                  20015763.637 7 105183514.363 8                  81961204.817 7
G04  20461041.750 7                  20461047.469 8 107523498.763 7                  83784933.836 8
G06  23314027.555 7                  23314035.148 6 122516027.148 7                  95467437.063 6
G09  22602930.914 6                  22602938.414 6 118779195.941 6                  92555639.331 6
G17  22904868.086 6                  22904874.008 6 120365887.744 6                  93791645.049 6
G19  22120137.156 6  22120141.102 4                 116242107.647 6  90578262.242 4
G31  22147332.859 7                  22147337.766 7 116385017.204 7                  90689639.282 7
R03  20397516.055 8  20397523.152 7 109189504.662 8  84925107.127 7
R04  19226942.992 8  19226945.715 7 102959404.119 8  80079720.384 7
R05  22136289.891 5  22136273.684 3 118331096.037 5
R18  21909494.063 7  21909500.516 7 116954359.449 7  90964277.458 7
R19  19372651.625 8  19372653.570 7 103630620.784 8  80601659.977 7
R20  21340022.195 6  21340028.680 7 114114722.895 6  88755904.886 7
> 2025 06 15 14 42 40.0000000  0 25
C06  38196436.664 6  38196431.922 7 198898869.347 6 153801218.182 7
C11  23258683.656 6  23258680.453 7 121114052.302 6  93653062.044 7
C12  22829332.680 6  22829328.941 7 118878324.876 6  91924194.812 7
C16  38785585.883 6  38785588.016 6 201966727.075 6 156173477.938 6
C21  22136238.469 7                 115269208.417 7
C22  22224319.836 7                 115727867.069 7
E03  24359924.313 8  24359926.148 8 128012260.464 8  96840454.370 8
E05  22064057.742 8  22064059.012 8 115947404.422 8  87713463.722 8
E15  23966340.242 8  23966343.012 9 125943968.749 8  95275805.869 9
E34  23793122.438 8  23793124.383 8 125033699.338 8  94587189.126 8
G01  21594556.070 8                  21594562.098 8 113480154.151 8                  88426114.494 8
G02  24237454.508 6  24237460.340 3                 127368688.063 6  99248336.849 3
G03  20015285.641 8                  20015291.645 7 105181035.232 8                  81959273.028 7
G04  20458089.125 7                  20458094.805 8 107507984.383 7                  83772844.712 8
G06  23309612.688 7                  23309620.453 6 122492826.807 7                  95449358.918 6
G09  22598360.469 6                  22598366.965 6 118755172.927 6                  92536920.110 6
G17  22905314.406 7                  22905319.793 6 120368231.340 7                  93793471.219 6
G19  22119110.086 7  22119112.375 4                 116236699.712 7  90574048.254 4
G31  22146069.063 7                  22146074.605 7 116378380.487 7                  90684467.796 7
R03  20398564.992 8  20398570.215 7 109195110.646 8  84929467.335 7
R04  19224894.711 8  19224897.539 7 102948435.385 8  80071189.139 7
R05  22131710.703 5  22131694.328 3 118306618.004 5  92016238.18713
R18  21912058.453 7  21912064.691 7 116968048.656 7  90974924.612 7
R19  19372162.953 8  19372164.418 7 103628004.722 8  80599625.263 7
R20  21335530.906 6  21335538.086 7 114090708.682 6  88737227.183 7
> 2025 06 15 14 42 45.0000000  0 25
C06  38194777.328 6  38194772.934 7 198890231.143 6 153794538.570 7
C11  23256221.305 6  23256218.043 7 121101231.845 6  93643148.454 7
C12  22829976.438 6  22829973.910 7 118881683.324 6  91926791.745 7
C16  38784075.055 6  38784077.836 7 201958864.401 6 156167398.016 7
C21  22133741.875 7                 115256207.386 7
C22  22224578.055 7                 115729213.031 7
E03  24356582.453 8  24356584.426 8 127994699.369 8  96827169.521 8
E05  22063333.531 8  22063334.918 8 115943599.346 8  87710585.200 8
E15  23963653.164 8  23963655.906 9 125929848.245 8  95265123.804 9
E34  23793170.313 8  23793172.563 8 125033952.429 8  94587380.581 8
G01  21595830.141 8                  21595836.156 8 113486848.486 8                  88431330.873 8
G02  24239303.086 6  24239308.203 3                 127378398.388 6  99255903.274 3
G03  20014816.039 8                  20014822.266 7 105178566.753 8                  81957349.545 7
G04  20455139.531 7                  20455145.051 8 107492483.188 7                  83760765.854 8
G06  23305198.336 7                  23305207.406 6 122469633.324 7                  95431286.090 6
G09  22593789.313 6                  22593796.652 6 118731156.684 6                  92518206.156 6
G17  22905762.727 7                  22905768.020 6 120370586.429 7                  93795306.371 6
G19  22118083.320 7  22118086.734 4                 116231309.729 7  90569848.260 4
G31  22144810.422 7                  22144815.426 7 116371762.171 7                  90679310.679 7
R03  20399614.047 8  20399618.453 7 109200725.337 8  84933834.278 7
R04  19222848.727 8  19222851.621 7 102937481.397 8  80062669.366 7
R05  22127115.695 3                                
R18  21914624.477 7  21914630.875 7 116981746.457 7  90985578.447 7
R19  19371677.313 8  19371679.523 7 103625411.064 8  80597607.974 7
R20  21331041.742 6  21331049.691 7 114066708.269 6  88718560.187 7
> 2025 06 15 14 42 50.0000000  0 24
C06  38193118.859 6  38193114.531 7 198881597.417 6 153787862.417 7
C11  23253761.242 6  23253758.945 7 121088424.946 6  93633245.328 7
C12  22830624.609 7  22830620.867 7 118885053.167 7  91929397.476 7
C16  38782565.508 6  38782568.789 6 201951006.114 6 156161321.497 6
C21  22131246.664 7                 115243214.924 7
C22  22224838.102 7                 115730565.527 7
E03  24353242.297 8  24353244.109 8 127977146.146 8  96813890.622 8
E05  22062611.211 8  22062612.645 8 115939803.751 8  87707713.859 8
E15  23960967.813 8  23960970.535 9 125915736.316 8  95254448.213 9
E34  23793220.492 8  23793222.520 8 125034214.847 8  94587579.096 8
G01  21597105.883 8                  21597111.418 8 113493552.891 8                  88436555.073 8
G02  24241150.672 6  24241156.594 3                 127388112.133 6  99263472.419 3
G03  20014348.555 8                  20014354.566 8 105176108.846 8                  81955434.294 8
G04  20452192.211 7                  20452197.883 8 107476995.034 7                  83748697.167 8
G06  23300787.273 7                  23300795.316 6 122446446.539 7                  95413218.482 6
G09  22589220.492 6                  22589228.133 6 118707146.976 6                  92499497.329 6
G17  22906213.031 7                  22906218.285 6 120372952.814 7                  93797150.306 6
G19  22117061.539 7  22117064.641 4                 116225937.468 7  90565662.109 4
G31  22143554.313 7                  22143559.219 7 116365162.144 7                  90674167.819 7
R03  20400664.352 8  20400668.730 7 109206348.329 8  84938207.718 7
R04  19220806.141 8  19220808.957 7 102926542.207 8  80054161.095 7
R18  21917191.359 7  21917198.824 7 116995452.634 7  90996238.778 7
R19  19371196.906 8  19371198.691 7 103622839.695 8  80595608.027 7
R20  21326557.523 6  21326564.336 7 114042721.544 6  88699903.840 7
> 2025 06 15 14 42 55.0000000  0 24
C06  38191462.516 6  38191457.391 7 198872968.376 6 153781189.913 7
C11  23251303.773 6  23251301.348 7 121075631.767 6  93623352.836 7
C12  22831274.148 7  22831270.641 7 118888434.527 7  91932012.169 7
C16  38781057.414 6  38781060.715 7 201943152.336 6 156155248.480 7
C21  22128752.594 7                 115230231.118 7
C22  22225098.547 7                 115731924.715 7
E03  24349903.094 8  24349905.379 8 127959600.950 8  96800617.811 8
E05  22061890.945 8  22061892.195 8 115936017.742 8  87704849.762 8
E15  23958283.977 8  23958286.813 9 125901633.112 8  95243779.242 9
E34  23793271.961 8  23793274.246 8 125034486.719 8  94587784.759 8
G01  21598383.602 7                  21598389.117 7 113500267.518 7                  88441787.232 7
G02  24242999.016 6  24243005.809 3                 127397829.471 6  99271044.363 3
G03  20013882.453 8                  20013888.613 8 105173661.603 8                  81953527.345 8
G04  20449247.570 7                  20449252.625 8 107461520.074 7                  83736638.776 8
G06  23296376.156 7                  23296384.461 6 122423266.639 7                  95395156.245 6
G09  22584652.906 6                  22584660.602 6 118683144.038 6                  92480793.762 6
G17  22906665.953 7                  22906670.625 6 120375330.629 7                  93799003.143 6
G19  22116042.469 7  22116045.734 4                 116220583.174 7  90561489.928 4
G31  22142300.453 7                  22142306.828 7 116358580.581 7                  90669039.339 7
R03  20401716.914 8  20401720.809 7 109211980.083 8  84942587.952 7
R04  19218766.297 8  19218769.102 7 102915617.808 8  80045664.367 7
R18  21919761.109 7  21919768.082 7 117009167.389 7  91006905.775 7
R19  19370720.633 8  19370722.734 7 103620290.854 8  80593625.569 7
R20  21322073.438 5  21322080.520 7 114018748.769 5  88681258.364 7
> 2025 06 15 14 43  0.0000000  0 24
C06  38189806.227 6  38189801.422 7 198864344.367 6 153774521.277 7
C11  23248850.336 6  23248847.793 7 121062852.628 6  93613471.217 7
C12  22831925.906 7  22831922.047 7 118891827.795 7  91934636.039 7
C16  38779550.516 6  38779553.656 6 201935303.423 6 156149179.205 6
C21  22126262.242 7                 115217256.336 7
C22  22225361.266 7                 115733290.940 7
E03  24346565.938 8  24346568.230 8 127942064.137 8  96787351.339 8
E05  22061172.172 8  22061173.656 8 115932241.697 8  87701993.202 8
E15  23955601.820 8  23955604.789 8 125887539.021 8  95233117.148 8
E34  23793325.883 8  23793327.906 8 125034768.428 8  94587997.869 8
G01  21599663.180 7                  21599668.785 7 113506992.715 7                  88447027.630 7
G02  24244850.133 6  24244855.895 3                 127407550.617 6  99278619.257 3
G03  20013418.984 8                  20013425.172 8 105171225.414 8                  81951629.007 8
G04  20446304.852 7                  20446310.527 8 107446058.690 7                  83724590.951 8
G06  23291966.688 7                  23291974.730 6 122400093.971 7                  95377099.619 6
G09  22580086.422 6                  22580094.672 6 118659148.268 6                  92462095.783 6
G17  22907119.930 7                  22907125.359 5 120377720.273 7                  93800865.207 5
G19  22115026.914 7  22115030.230 4                 116215247.166 7  90557331.990 4
G31  22141052.375 7                  22141058.035 7 116352017.790 7                  90663925.484 7
R03  20402770.297 8  20402774.727 7 109217620.681 8  84946975.080 7
R04  19216728.969 8  19216731.645 7 102904708.556 8  80037179.397 7
R18  21922330.586 7  21922338.887 7 117022891.067 7  91017579.739 7
R19  19370248.250 8  19370250.129 7 103617765.010 8  80591661.018 7
R20  21317593.992 5  21317599.973 7 113994790.292 5  88662623.970 7
> 2025 06 15 14 43  5.0000000  0 25
C06  38188151.531 6  38188146.129 7 198855725.235 6 153767856.432 7
C11  23246398.602 6  23246396.727 7 121050087.431 6  93603600.381 7
C12  22832579.898 7  22832575.813 7 118895232.784 7  91937268.983 7
C16  38778044.445 6  38778046.914 6 201927459.203 6 156143113.543 6
C21  22123772.813 7                 115204290.417 7
C22  22225624.914 7                 115734664.037 7
E03  24343230.211 8  24343232.590 8 127924535.530 8  96774091.077 8
E05  22060455.633 8  22060456.945 8 115928475.403 8  87699144.029 8
E15  23952921.648 8  23952924.523 9 125873453.855 8  95222461.816 9
E34  23793380.930 8  23793383.336 8 125035059.791 8  94588218.281 8
G01  21600945.305 8                  21600950.695 7 113513728.271 8                  88452276.104 7
G02  24246699.852 6  24246706.445 3                 127417275.551 6  99286197.141 3
G03  20012957.055 8                  20012963.570 7 105168800.075 8                  81949739.141 7
G04  20443365.938 7                  20443371.066 8 107430610.664 7                  83712553.556 8
G06  23287557.516 7                  23287565.910 6 122376928.376 7                  95359048.491 6
G09  22575522.109 6                  22575530.082 7 118635159.434 6                  92443403.228 7
G17  22907577.023 7                  22907582.367 5 120380121.510 7                  93802736.283 5
G19  22114015.055 7  22114018.617 4                 116209929.223 7  90553188.144 4
G31  22139807.898 7                  22139812.684 7 116345473.643 7                  90658826.139 7
R03  20403825.305 8  20403830.031 7 109223270.278 8  84951369.217 7
R04  19214694.320 8  19214697.863 7 102893814.449 8  80028706.221 7
R05  22108816.805 5                 118184354.77715
R18  21924903.930 7  21924911.023 7 117036623.545 7  91028260.529 7
R19  19369780.297 8  19369782.273 7 103615261.758 8  80589714.067 7
R20  21313116.219 5  21313122.289 7 113970845.881 5  88644000.542 7
> 2025 06 15 14 43 10.0000000  0 25
C06  38186497.203 6  38186491.676 7 198847110.600 6 153761195.047 7
C11  23243949.484 6  23243948.109 7 121037335.795 6  93593740.015 7
C12  22833235.500 7  22833232.078 7 118898649.095 7  91939910.702 7
C16  38776539.195 6  38776541.477 6 201919619.364 6 156137051.300 6
C21  22121285.586 7                 115191332.998 7
C22  22225890.359 7                 115736043.642 7
E03  24339896.086 8  24339898.395 8 127907014.807 8  96760836.779 8
E05  22059740.508 8  22059742.012 8 115924718.552 8  87696301.998 8
E15  23950242.813 8  23950245.848 9 125859377.254 8  95211812.970 9
E34  23793438.320 8  23793440.535 8 125035360.424 8  94588445.704 8
G01  21602228.992 7                  21602234.414 8 113520473.849 7                  88457532.388 8
G02  24248551.242 6  24248557.316 3                 127427003.824 6  99293777.600 3
G03  20012497.711 8                  20012504.227 8 105166385.264 8                  81947857.472 8
G04  20440428.352 7                  20440433.719 8 107415175.707 7                  83700526.324 8
G06  23283150.773 7                  23283158.355 6 122353769.487 7                  95341002.624 6
G09  22570957.023 6                  22570966.461 7 118611177.166 6                  92424715.764 7
G17  22908036.180 7                  22908037.664 5 120382533.979 7                  93804616.125 5
G19  22113006.414 7  22113010.418 4                 116204629.031 7  90549058.124 4
G31  22138565.117 7                  22138570.844 7 116338947.696 7                  90653740.992 7
R03  20404881.828 8  20404887.113 7 109228928.043 8  84955769.694 7
R04  19212662.555 8  19212665.719 7 102882934.919 8  80020244.384 7
R05  22104249.000 5  22104255.355 5 118159922.180 5  91902155.81315
R18  21927478.094 7  21927484.953 7 117050364.354 7  91038947.779 7
R19  19369316.742 8  19369318.684 7 103612780.842 8  80587784.466 7
R20  21308640.977 5  21308647.488 7 113946915.166 5  88625387.785 7
> 2025 06 15 14 43 15.0000000  0 25
C06  38184843.781 6  38184838.129 7 198838500.044 6 153754536.818 7
C11  23241504.250 6  23241502.148 7 121024597.266 6  93583889.802 7
C12  22833894.859 7  22833890.113 7 118902076.305 7  91942560.838 7
C16  38775033.984 6  38775036.641 6 201911783.415 6 156130992.038 6
C21  22118797.883 7                 115178383.699 7
C22  22226156.031 7                 115737429.315 7
E03  24336563.359 8  24336565.773 8 127889501.485 8  96747588.077 8
E05  22059027.266 8  22059028.848 8 115920970.647 8  87693466.733 8
E15  23947565.922 8  23947568.719 9 125845308.804 8  95201170.280 9
E34  23793497.047 8  23793499.398 8 125035669.890 8  94588679.806 8
G01  21603513.867 7                  21603519.957 8 113527228.991 7                  88462796.114 8
G02  24250404.055 6  24250409.055 3                 127436735.052 6  99301360.349 3
G03  20012040.039 8                  20012046.367 7 105163980.503 8                  81945983.639 7
G04  20437493.625 7                  20437499.125 8 107399753.355 7                  83688508.904 8
G06  23278745.172 7                  23278752.652 6 122330616.898 7                  95322961.639 6
G09  22566394.859 6                  22566403.418 6 118587201.082 6                  92406033.120 6
G17  22908497.797 7                  22908498.063 5 120384957.253 7                  93806504.384 5
G19  22112001.797 7  22112005.520 4                 116199346.145 7  90544941.580 4
G31  22137326.055 6                  22137332.590 7 116332439.623 6                  90648669.750 7
R03  20405940.563 8  20405944.617 7 109234593.839 8  84960176.402 7
R04  19210633.148 8  19210637.066 7 102872069.635 8  80011793.591 7
R05  22099677.055 5  22099685.367 5 118135496.473 5  91883158.103 5
R18  21930054.688 7  21930060.578 7 117064113.021 7  91049641.175 7
R19  19368856.039 8  19368859.039 7 103610321.746 8  80585871.844 7
R20  21304167.000 5  21304174.496 7 113922997.731 5  88606785.335 7
> 2025 06 15 14 43 20.0000000  0 25
C06  38183190.531 6  38183185.367 7 198829893.848 6 153747881.979 7
C11  23239061.406 6  23239058.113 7 121011872.148 6  93574049.938 7
C12  22834554.703 7  22834550.402 7 118905514.699 7  91945219.616 7
C16  38773530.734 6  38773532.336 6 201903951.675 6 156124936.038 6
C21  22116312.109 7                 115165442.773 7
C22  22226424.500 7                 115738821.329 7
E03  24333232.055 8  24333234.625 8 127871995.908 8  96734345.238 8
E05  22058315.836 8  22058317.395 8 115917232.002 8  87690638.473 8
E15  23944890.508 8  23944893.219 9 125831248.795 8  95190533.980 9
E34  23793557.766 8  23793560.066 8 125035988.521 8  94588920.849 8
G01  21604801.500 7                  21604807.402 8 113533993.999 7                  88468067.522 8
G02  24252256.008 6  24252261.238 3                 127446469.438 6  99308945.550 3
G03  20011584.430 8                  20011590.617 7 105161586.120 8                  81944117.891 7
G04  20434561.016 7                  20434566.652 8 107384343.901 7                  83676501.550 8
G06  23274340.563 7                  23274347.922 6 122307470.929 7                  95304925.828 6
G09  22561833.828 6                  22561841.656 6 118563231.471 6                  92387355.517 6
G17  22908961.094 7                  22908963.070 5 120387391.675 7                  93808401.388 5
G19  22110999.922 7  22111003.480 4                 116194080.783 7  90540838.684 4
G31  22136092.391 7                  22136097.215 7 116325949.658 7                  90643612.620 7
R03  20407000.305 8  20407004.422 7 109240267.867 8  84964589.530 7
R04  19208606.953 8  19208610.563 7 102861218.860 8  80003354.099 7
R05  22095107.750 5  22095117.523 5 118111078.011 5  91864165.945 5
R18  21932632.031 7  21932637.852 7 117077869.842 7  91060340.934 7
R19  19368401.500 8  19368403.082 7 103607884.793 8  80583976.438 7
R20  21299697.898 5  21299703.703 7 113899093.912 5  88588193.489 7
> 2025 06 15 14 43 25.0000000  0 25
C06  38181538.328 6  38181533.602 7 198821291.914 6 153741230.414 7
C11  23236619.148 6  23236616.191 6 120999160.433 6  93564220.398 6
C12  22835217.258 7  22835213.035 7 118908964.229 7  91947887.008 7
C16  38772027.227 6  38772029.395 6 201896124.026 6 156118883.206 6
C21  22113827.758 7                 115152510.140 7
C22  22226693.102 7                 115740219.611 7
E03  24329902.617 8  24329904.883 8 127854498.002 8  96721108.186 8
E05  22057605.898 8  22057607.676 8 115913502.563 8  87687817.171 8
E15  23942216.336 8  23942219.348 9 125817197.168 8  95179904.017 9
E34  23793620.008 8  23793622.406 8 125036316.203 8  94589168.733 8
G01  21606091.156 8                  21606096.535 8 113540768.754 8                  88473346.546 8
G02  24254109.133 6  24254114.313 3                 127456206.914 6  99316533.194 3
G03  20011130.688 8                  20011137.125 7 105159202.026 8                  81942260.159 7
G04  20431631.219 7                  20431636.840 8 107368947.285 7                  83664504.180 8
G06  23269936.867 7                  23269944.293 6 122284331.515 7                  95286895.119 6
G09  22557273.477 6                  22557281.820 6 118539268.287 6                  92368682.906 6
G17  22909427.328 7                  22909429.383 5 120389837.132 7                  93810306.962 5
G19  22110000.617 7  22110004.688 4                 116188832.922 7  90536749.422 4
G31  22134860.031 7                  22134865.727 7 116319477.740 7                  90638569.556 7
R03  20408061.313 8  20408065.832 7 109245949.904 8  84969008.889 7
R04  19206583.445 8  19206586.898 7 102850382.512 8  79994925.832 7
R05  22090541.945 5  22090550.203 4 118086666.894 5  91845179.575 4
R18  21935210.422 7  21935216.477 7 117091634.715 7  91071046.935 7
R19  19367949.086 8  19367951.992 7 103605469.927 8  80582098.206 7
R20  21295231.055 6  21295236.492 7 113875203.658 6  88569612.177 7
> 2025 06 15 14 43 30.0000000  0 25
C06  38179887.883 6  38179882.969 7 198812695.530 6 153734583.154 7
C11  23234180.430 6  23234177.465 6 120986463.308 6  93554402.167 6
C12  22835881.820 7  22835878.395 7 118912426.013 7  91950563.894 7
C16  38770524.703 6  38770527.047 6 201888301.741 6 156112834.509 6
C21  22111346.234 7                 115139587.025 7
C22  22226963.477 7                 115741625.437 7
E03  24326574.625 8  24326576.859 8 127837008.962 8  96707877.849 8
E05  22056898.508 8  22056899.980 8 115909783.531 8  87685003.757 8
E15  23939544.547 8  23939547.258 9 125803155.179 8  95169281.344 9
E34  23793684.266 8  23793686.762 8 125036654.182 8  94589424.406 8
G01  21607382.070 8                  21607387.672 8 113547554.502 8                  88478634.149 8
G02  24255962.617 6  24255968.055 3                 127465948.725 6  99324124.194 3
G03  20010679.156 8                  20010685.559 7 105156829.452 8                  81940411.391 7
G04  20428704.672 7                  20428709.641 8 107353564.735 7                  83652517.784 8
G06  23265534.758 7                  23265542.332 6 122261199.865 7                  95268870.476 6
G09  22552714.758 6                  22552723.680 7 118515312.689 6                  92350016.249 7
G17  22909893.992 7                  22909898.188 5 120392294.749 7                  93812222.006 5
G19  22109004.359 6  22109008.809 4                 116183603.744 6  90532674.747 4
G31  22133632.625 7                  22133637.672 7 116313025.089 7                  90633541.517 7
R03  20409124.898 8  20409128.992 7 109251641.554 8  84973435.704 7
R04  19204563.297 8  19204566.520 7 102839561.892 8  79986509.803 7
R05  22085975.680 5  22085983.863 5 118062264.099 5  91826199.655 5
R18  21937791.555 8  21937796.566 7 117105408.977 8  91081760.231 7
R19  19367501.563 8  19367504.914 7 103603078.379 8  80580238.103 7
R20  21290764.672 5  21290772.055 7 113851328.316 5  88551042.472 7
> 2025 06 15 14 43 35.0000000  0 25
C06  38178238.570 6  38178232.957 7 198804104.378 6 153727939.932 7
C11  23231744.578 6  23231741.719 6 120973780.529 6  93544595.029 6
C12  22836548.758 7  22836545.477 7 118915899.895 7  91953250.122 7
C16  38769024.180 6  38769025.750 6 201880484.545 6 156106789.760 6
C21  22108866.547 7                 115126673.128 7
C22  22227234.313 7                 115743038.474 7
E03  24323248.227 8  24323250.438 8 127819528.568 8  96694654.054 8
E05  22056192.930 8  22056194.207 8 115906074.656 8  87682198.014 8
E15  23936874.297 8  23936876.961 9 125789122.543 8  95158665.749 9
E34  23793750.453 8  23793753.000 8 125037002.212 8  94589687.685 8
G01  21608675.195 8                  21608680.750 8 113554350.998 8                  88483930.129 8
G02  24257816.984 6  24257822.344 3                 127475694.626 6  99331718.410 3
G03  20010230.313 8                  20010236.008 7 105154468.128 8                  81938571.391 7
G04  20425779.547 7                  20425784.871 8 107338195.977 7                  83640542.147 8
G06  23261134.844 7                  23261142.035 6 122238075.759 7                  95250851.683 6
G09  22548157.289 6                  22548166.406 7 118491364.553 6                  92331355.382 7
G17  22910364.602 7                  22910366.605 5 120394764.301 7                  93814146.313 5
G19  22108013.117 6  22108016.793 4                 116178393.075 6  90528614.498 4
G31  22132408.211 7                  22132413.352 7 116306591.466 7                  90628528.297 7
R03  20410189.484 8  20410194.457 7 109257342.158 8  84977869.509 7
R04  19202545.242 8  19202548.504 7 102828756.657 8  79978105.730 7
R05  22081414.703 6  22081421.539 5 118037869.442 6  91807226.037 5
R18  21940373.633 7  21940379.613 7 117119192.270 7  91092480.538 7
R19  19367059.430 8  19367062.109 7 103600709.889 8  80578395.939 7
R20  21286301.719 5  21286310.125 7 113827467.708 5  88532484.233 7
> 2025 06 15 14 43 40.0000000  0 25
C06  38176589.273 6  38176584.035 7 198795517.575 6 153721300.076 7
C11  23229311.305 6  23229308.082 6 120961111.204 6  93534798.304 6
C12  22837217.148 7  22837214.020 7 118919384.950 7  91955944.954 7
C16  38767523.555 6  38767525.238 6 201872671.521 6 156100748.237 6
C21  22106388.477 7                 115113767.630 7
C22  22227507.109 7                 115744457.837 7
E03  24319923.031 8  24319925.512 8 127802055.890 8  96681436.101 8
E05  22055488.742 8  22055490.180 8 115902375.019 8  87679399.270 8
E15  23934205.453 8  23934208.297 8 125775098.368 8  95148056.562 8
E34  23793818.711 8  23793820.969 8 125037359.364 8  94589957.863 8
G01  21609970.344 7                  21609976.137 8 113561157.317 7                  88489233.736 8
G02  24259673.719 6  24259677.320 3                 127485443.671 6  99339315.032 3
G03  20009782.719 8                  20009788.574 7 105152117.161 8                  81936739.462 7
G04  20422857.570 7                  20422862.793 8 107322840.145 7                  83628576.577 8
G06  23256735.188 7                  23256743.016 6 122214958.318 7                  95232838.133 6
G09  22543601.141 6                  22543609.738 6 118467422.916 6                  92312699.531 6
G17  22910836.461 7                  22910840.180 5 120397244.867 7                  93816079.190 5
G19  22107024.742 6  22107028.207 3                 116173199.970 6  90524567.922 3
G31  22131188.508 7                  22131192.613 7 116300175.952 7                  90623529.191 7
R03  20411255.586 8  20411261.004 7 109263051.056 8  84982309.766 7
R04  19200530.336 8  19200533.523 7 102817965.975 8  79969712.968 7
R05  22076855.195 6  22076860.855 4 118013482.102 6  91788258.129 4
R18  21942958.211 8  21942963.344 7 117132983.649 8  91103207.118 7
R19  19366621.305 8  19366623.398 7 103598363.542 8  80576571.001 7
R20  21281843.086 5  21281850.789 7 113803620.934 5  88513936.753 7
> 2025 06 15 14 43 45.0000000  0 25
C06  38174940.063 6  38174935.789 7 198786934.930 6 153714663.426 7
C11  23226881.305 6  23226877.438 6 120948455.097 6  93525011.813 6
C12  22837889.023 7  22837885.488 7 118922880.884 7  91958648.210 7
C16  38766025.195 6  38766025.461 6 201864862.498 6 156094709.800 6
C21  22103911.734 7                 115100870.262 7
C22  22227780.523 7                 115745883.303 7
E03  24316599.508 8  24316601.984 8 127784590.725 8  96668223.828 8
E05  22054786.453 8  22054787.871 8 115898684.382 8  87676607.324 8
E15  23931538.070 8  23931541.160 9 125761082.438 8  95137453.604 9
E34  23793888.180 8  23793890.633 8 125037725.425 8  94590234.780 8
G01  21611267.219 7                  21611273.242 8 113567973.205 7                  88494544.813 8
G02  24261530.125 6  24261533.113 3                 127495195.642 6  99346913.956 3
G03  20009337.148 8                  20009343.035 7 105149776.319 8                  81934915.429 7
G04  20419937.234 7                  20419943.172 8 107307497.008 7                  83616620.878 8
G06  23252337.734 7                  23252344.941 6 122191847.274 7                  95214829.537 6
G09  22539046.438 6                  22539054.938 6 118443487.513 6                  92294048.588 6
G17  22911310.172 7                  22911314.348 5 120399736.205 7                  93818020.476 5
G19  22106038.945 6  22106043.758 3                 116168024.208 6  90520534.854 3
G31  22129970.563 7                  22129974.711 7 116293778.322 7                  90618544.010 7
R03  20412323.156 8  20412328.414 7 109268767.717 8  84986756.050 7
R04  19198517.961 8  19198521.027 8 102807189.620 8  79961331.362 8
R05  22072295.289 6  22072298.887 4 117989101.898 6  91769295.819 4
R18  21945542.672 8  21945548.363 7 117146782.907 8  91113939.837 7
R19  19366186.289 8  19366188.773 7 103596039.163 8  80574763.156 7
R20  21277386.031 5  21277394.305 7 113779787.646 5  88495399.785 7
> 2025 06 15 14 43 50.0000000  0 25
C06  38173293.328 6  38173288.688 7 198778357.398 6 153708030.732 7
C11  23224453.969 6  23224449.262 6 120935813.207 6  93515236.307 6
C12  22838562.023 7  22838559.625 7 118926388.766 7  91961360.727 7
C16  38764526.008 6  38764526.402 6 201857058.415 6 156088675.198 6
C21  22101436.570 7                 115087982.037 7
C22  22228055.617 7                 115747315.868 7
E03  24313277.336 8  24313280.109 8 127767134.069 8  96655017.985 8
E05  22054086.086 8  22054087.484 8 115895003.759 8  87673822.961 8
E15  23928872.867 8  23928875.789 9 125747075.763 8  95126857.648 9
E34  23793959.922 8  23793962.199 8 125038101.379 8  94590519.182 8
G01  21612566.258 7                  21612572.273 8 113574799.649 7                  88499864.119 8
G02  24263387.391 7  24263389.770 3                 127504951.521 7  99354515.879 3
G03  20008893.922 8                  20008899.660 7 105147446.592 8                  81933100.062 7
G04  20417021.039 7                  20417026.219 8 107292167.560 7                  83604675.863 8
G06  23247941.531 7                  23247948.348 6 122168743.709 7                  95196826.775 6
G09  22534493.328 6                  22534501.434 6 118419559.422 6                  92275403.334 6
G17  22911785.813 7                  22911790.004 5 120402239.379 7                  93819970.976 5
G19  22105058.320 6  22105062.512 3                 116162866.658 6  90516515.976 3
G31  22128756.664 7                  22128761.297 7 116287399.630 7                  90613573.594 7
R03  20413393.195 8  20413398.805 7 109274493.467 8  84991209.404 7
R04  19196508.742 8  19196511.527 7 102796428.514 8  79952961.621 7
R05  22067736.031 6  22067739.102 4 117964729.561 6  91750339.734 4
R18  21948129.336 8  21948135.070 7 117160590.959 8  91124679.414 7
R19  19365756.422 8  19365758.633 7 103593737.592 8  80572973.037 7
R20  21272932.789 6  21272939.359 7 113755968.976 6  88476874.150 7
> 2025 06 15 14 43 55.0000000  0 25
C06  38171645.969 6  38171642.059 7 198769784.058 6 153701401.291 7
C11  23222029.461 6  23222024.383 6 120923184.673 6  93505471.114 6
C12  22839237.953 7  22839235.668 7 118929907.577 7  91964081.688 7
C16  38763028.422 6  38763028.309 6 201849258.362 6 156082643.697 6
C21  22098962.523 7                 115075102.030 7
C22  22228332.258 7                 115748754.599 7
E03  24309956.703 8  24309959.660 8 127749685.027 8  96641817.913 8
E05  22053387.391 8  22053388.813 8 115891332.211 8  87671045.462 8
E15  23926209.164 8  23926212.012 9 125733077.431 8  95116268.004 9
E34  23794033.258 8  23794035.453 8 125038486.318 8  94590810.381 8
G01  21613867.680 8                  21613873.164 8 113581635.759 8                  88505190.951 8
G02  24265243.844 6  24265247.070 3                 127514710.413 6  99362120.208 3
G03  20008452.516 8                  20008458.598 7 105145127.051 8                  81931292.621 7
G04  20414105.609 7                  20414111.215 8 107276850.901 7                  83592740.810 8
G06  23243545.914 7                  23243553.285 6 122145646.652 7                  95178829.084 6
G09  22529940.992 6                  22529949.098 6 118395637.689 6                  92256763.017 6
G17  22912264.727 7                  22912268.297 6 120404753.400 7                  93821929.979 6
G19  22104080.891 6  22104084.488 3                 116157726.519 6  90512510.713 3
G31  22127546.773 7                  22127551.012 7 116281038.908 7                  90608617.192 7
R03  20414464.070 8  20414469.930 7 109280227.196 8  84995668.974 7
R04  19194502.500 8  19194505.047 8 102785681.630 8  79944602.938 8
R05  22063183.828 6  22063179.859 3 117940364.596 6  91731389.281 3
R18  21950718.516 8  21950723.914 7 117174406.951 8  91135425.158 7
R19  19365330.836 8  19365332.441 7 103591458.069 8  80571200.095 7
R20  21268481.516 6  21268487.320 6 113732163.733 6  88458358.955 6
> 2025 06 15 14 44  0.0000000  0 25
C06  38170000.813 6  38169996.738 7 198761215.604 6 153694775.614 7
C11  23219607.367 6  23219602.133 6 120910570.086 6  93495716.720 6
C12  22839915.648 7  22839913.801 8 118933438.051 7  91966811.661 8
C16  38761531.703 6  38761531.313 6 201841463.004 6 156076615.839 6
C21  22096490.961 7                 115062230.890 7
C22  22228609.992 7                 115750200.113 7
E03  24306637.867 8  24306640.762 8 127732244.226 8  96628624.065 8
E05  22052690.602 8  22052692.000 8 115887670.425 8  87668275.345 8
E15  23923546.883 8  23923549.918 9 125719088.102 8  95105685.161 9
E34  23794108.430 8  23794110.547 8 125038880.895 8  94591108.871 8
G01  21615170.234 7                  21615176.195 8 113588482.166 7                  88510525.816 8
G02  24267102.555 6  24267105.309 3                 127524472.910 6  99369727.311 3
G03  20008013.422 8                  20008019.246 7 105142818.395 8                  81929493.667 7
G04  20411193.945 7                  20411199.000 8 107261547.671 7                  83580816.217 8
G06  23239152.195 6                  23239160.082 6 122122556.827 6                  95160837.050 6
G09  22525391.180 6                  22525398.289 6 118371723.034 6                  92238128.222 6
G17  22912744.453 6                  22912749.164 6 120407278.910 6                  93823897.932 6
G19  22103106.445 6  22103109.766 3                 116152604.476 6  90508519.494 3
G31  22126339.633 7                  22126344.102 7 116274696.792 7                  90603675.300 7
R03  20415536.438 8  20415542.160 7 109285969.599 8  85000135.284 7
R04  19192497.945 8  19192500.543 7 102774949.850 8  79936256.001 7
R05  22058628.984 6                 117916007.281 6
R18  21953307.914 8  21953313.832 7 117188231.496 8  91146177.560 7
R19  19364908.516 8  19364910.711 7 103589201.165 8  80569444.708 7
R20  21264033.008 6  21264038.348 7 113708372.715 6  88439854.833 7
> 2025 06 15 14 44  5.0000000  0 25
C06  38168356.328 6  38168351.887 7 198752651.871 6 153688153.598 7
C11  23217186.906 6  23217182.680 6 120897969.357 6  93485973.031 6
C12  22840596.500 7  22840593.879 8 118936979.986 7  91969550.506 8
C16  38760035.352 6  38760035.078 7 201833672.234 6 156070591.527 7
C21  22094020.922 7                 115049368.515 7
C22  22228888.719 7                 115751652.367 7
E03  24303320.609 8  24303323.434 8 127714811.572 8  96615436.384 8
E05  22051995.852 8  22051997.012 8 115884018.223 8  87665512.477 8
E15  23920886.773 8  23920889.508 9 125705107.658 8  95095109.056 9
E34  23794185.195 8  23794187.465 8 125039284.987 8  94591414.566 8
G01  21616474.813 8                  21616480.645 7 113595338.738 8                  88515868.592 7
G02  24268961.453 6  24268964.094 3                 127534238.852 6  99377337.111 3
G03  20007575.578 8                  20007582.109 8 105140520.446 8                  81927703.052 8
G04  20408284.281 7                  20408289.992 8 107246257.770 7                  83568902.003 8
G06  23234759.422 6                  23234768.230 6 122099474.062 6                  95142850.486 6
G09  22520840.781 6                  22520848.707 6 118347815.263 6                  92219498.815 6
G17  22913227.477 7                  22913231.844 6 120409815.813 7                  93825874.713 6
G19  22102136.133 6  22102137.957 3                 116147500.331 6  90504542.256 3
G31  22125136.586 7                  22125140.605 7 116268373.165 7                  90598747.805 7
R03  20416611.227 7  20416616.664 7 109291720.548 7  85004608.234 7
R04  19190497.297 8  19190499.180 7 102764232.992 8  79927920.680 7
R05  22054074.039 5  22054084.082 4 117891657.747 5  91693556.93914
R18  21955898.977 7  21955904.855 7 117202064.428 7  91156936.490 7
R19  19364491.211 8  19364493.469 7 103586966.826 8  80567706.856 7
R20  21259584.781 6  21259591.441 7 113684595.899 6  88421361.763 7
> 2025 06 15 14 44 10.0000000  0 25
C06  38166712.617 6  38166708.438 7 198744093.254 6 153681535.535 7
C11  23214768.977 6  23214765.383 6 120885382.890 6  93476240.398 6
C12  22841279.313 7  22841276.492 8 118940533.831 7  91972298.562 8
C16  38758540.266 6  38758540.008 6 201825886.428 6 156064571.045 6
C21  22091552.844 7                 115036515.254 7
C22  22229168.727 7                 115753111.689 7
E03  24300004.766 8  24300007.734 8 127697387.452 8  96602255.150 8
E05  22051302.563 8  22051303.941 8 115880376.023 8  87662757.179 8
E15  23918227.914 8  23918230.891 9 125691136.498 8  95084539.963 9
E34  23794263.961 8  23794266.258 8 125039698.950 8  94591727.724 8
G01  21617781.898 8                  21617787.379 7 113602205.887 8                  88521219.601 7
G02  24270819.883 6  24270823.379 3                 127544008.711 6  99384949.978 3
G03  20007141.289 8                  20007147.055 8 105138233.613 8                  81925921.100 8
G04  20405377.750 7                  20405382.664 8 107230981.547 7                  83556998.473 8
G06  23230368.453 6                  23230375.789 6 122076398.817 6                  95124869.790 6
G09  22516293.367 6                  22516300.430 6 118323914.833 6                  92200875.108 6
G17  22913711.938 6                  22913717.395 6 120412364.449 6                  93827860.671 6
G19  22101167.289 6  22101169.723 3                 116142414.451 6  90500579.222 3
G31  22123936.750 7                  22123940.723 7 116262068.457 7                  90593835.043 7
R03  20417687.070 8  20417692.984 7 109297480.407 8  85009088.136 7
R04  19188498.031 8  19188500.469 7 102753531.453 8  79919597.252 7
R05  22049524.039 5  22049531.609 4 117867316.438 5  91674624.901 4
R18  21958490.867 7  21958497.820 7 117215906.178 7  91167702.261 7
R19  19364077.570 8  19364079.465 7 103584755.393 8  80565986.859 7
R20  21255141.977 6  21255148.082 6 113660833.771 6  88402880.115 6
> 2025 06 15 14 44 15.0000000  0 24
C06  38165069.563 6  38165065.730 7 198735539.886 6 153674921.544 7
C11  23212354.633 6  23212351.289 6 120872810.807 6  93466518.894 6
C12  22841964.492 7  22841961.363 8 118944099.681 7  91975055.906 8
C16  38757046.328 6  38757045.531 6 201818105.717 6 156058554.512 6
C21  22089086.492 7                 115023671.301 7
C22  22229450.109 7                 115754578.217 7
E03  24296690.789 8  24296693.688 8 127679972.002 8  96589080.478 8
E05  22050611.266 8  22050612.777 8 115876743.949 8  87660009.541 8
E15  23915571.219 8  23915574.039 9 125677174.747 8  95073977.993 9
E34  23794344.813 8  23794346.945 8 125040122.968 8  94592048.490 8
G01  21619090.758 7                  21619096.039 7 113609083.697 7                  88526578.926 7
G02  24272679.484 6  24272683.105 3                 127553782.598 6  99392565.973 3
G03  20006707.422 8                  20006713.961 7 105135958.022 8                  81924147.910 7
G04  20402473.234 7                  20402478.621 8 107215719.175 7                  83545105.717 8
G06  23225978.883 6                  23225985.520 5 122053331.189 6                  95106894.985 5
G09  22511747.508 7                  22511753.891 6 118300021.867 7                  92182257.216 6
G17  22914198.266 6                  22914204.500 6 120414924.947 6                  93829855.846 6
G19  22100203.008 6  22100204.703 3                 116137347.097 6  90496630.645 3
G31  22122740.289 7                  22122744.688 7 116255782.758 7                  90588937.106 7
R03  20418764.508 8  20418770.770 7 109303249.139 8  85013574.936 7
R04  19186502.484 8  19186504.707 7 102742845.239 8  79911285.751 7
R18  21961085.727 7  21961092.965 7 117229756.875 7  91178474.999 7
R19  19363668.313 8  19363670.449 7 103582566.832 8  80564284.655 7
R20  21250701.672 6  21250707.168 7 113637086.510 6  88384410.032 7
> 2025 06 15 14 44 20.0000000  0 24
C06  38163428.227 6  38163424.055 6 198726991.355 6 153668311.267 6
C11  23209943.492 6  23209939.910 6 120860252.673 6  93456808.161 6
C12  22842651.352 7  22842648.238 8 118947677.065 7  91977822.159 8
C16  38755553.031 6  38755551.836 6 201810329.626 6 156052541.532 6
C21  22086621.297 7                 115010836.136 7
C22  22229732.914 7                 115756051.463 7
E03  24293378.664 8  24293381.195 8 127662564.732 8  96575911.996 8
E05  22049921.711 8  22049923.477 8 115873121.544 8  87657269.212 8
E15  23912915.953 8  23912918.891 9 125663221.972 8  95063422.815 9
E34  23794427.156 8  23794429.465 8 125040556.549 8  94592376.486 8
G01  21620401.555 8                  21620407.117 7 113615971.697 8                  88531946.192 7
G02  24274539.703 6  24274544.051 3                 127563560.018 6  99400184.679 3
G03  20006276.477 8                  20006283.176 8 105133693.222 8                  81922383.125 8
G04  20399571.500 7                  20399576.801 8 107200470.199 7                  83533223.384 8
G06  23221590.148 6                  23221597.117 5 122030270.790 6                  95088925.830 5
G09  22507201.461 7                  22507208.598 6 118276135.890 7                  92163644.763 6
G17  22914687.938 6                  22914693.781 6 120417496.835 6                  93831859.915 6
G19  22099242.250 6  22099243.488 2                 116132297.728 6  90492695.969 2
G31  22121547.961 7                  22121552.145 7 116249515.642 7                  90584053.652 7
R03  20419843.922 8  20419850.309 7 109309026.634 8  85018068.538 7
R04  19184509.016 8  19184511.836 7 102732173.969 8  79902985.877 7
R18  21963682.430 7  21963689.023 7 117243615.922 7  91189254.229 7
R19  19363263.508 8  19363265.727 7 103580400.902 8  80562600.036 7
R20  21246261.969 6  21246269.133 7 113613353.641 6  88365951.126 7
> 2025 06 15 14 44 25.0000000  0 25
C06  38161787.891 6  38161783.258 7 198718447.573 6 153661704.657 7
C11  23207535.039 6  23207530.977 6 120847708.446 6  93447108.173 6
C12  22843340.055 7  22843337.258 8 118951265.915 7  91980597.288 8
C16  38754059.922 6  38754059.629 6 201802558.079 6 156046532.085 6
C21  22084158.102 7                 114998009.722 7
C22  22230016.992 7                 115757531.400 7
E03  24290067.906 8  24290070.273 8 127645165.636 8  96562749.701 8
E05  22049234.570 8  22049235.984 8 115869508.721 8  87654536.132 8
E15  23910262.750 8  23910265.410 9 125649278.116 8  95052874.376 9
E34  23794511.547 8  23794513.797 8 125040999.632 8  94592711.670 8
G01  21621714.336 7                  21621719.730 7 113622869.841 7                  88537321.343 7
G02  24276399.352 6  24276405.289 3                 127573341.003 6  99407806.189 3
G03  20005847.492 8                  20005854.082 8 105131439.147 8                  81920626.706 8
G04  20396672.125 7                  20396677.371 8 107185234.561 7                  83521351.467 8
G06  23217202.930 6                  23217210.125 6 122007217.512 6                  95070962.244 6
G09  22502657.750 7                  22502664.359 6 118252256.904 7                  92145037.774 6
G17  22915178.820 6                  22915186.066 6 120420080.080 6                  93833872.829 6
G19  22098284.695 6  22098286.125 2                 116127266.203 6  90488775.411 2
G31  22120358.430 7                  22120363.195 7 116243267.018 7                  90579184.590 7
R03  20420926.094 8  20420930.793 7 109314812.577 8  85022568.705 7
R04  19182518.781 8  19182522.109 7 102721517.530 8  79894697.550 7
R05  22035887.211 5  22035866.887 5 117794340.11515  91617865.83615
R18  21966279.727 7  21966286.344 7 117257483.274 7  91200039.948 7
R19  19362862.797 8  19362864.832 7 103578257.518 8  80560932.946 7
R20  21241827.570 6  21241833.355 7 113589635.024 6  88347503.328 7
> 2025 06 15 14 44 30.0000000  0 25
C06  38160146.867 6  38160142.898 7 198709907.686 6 153655101.077 7
C11  23205127.789 6  23205124.496 7 120835177.310 6  93437418.318 7
C12  22844032.102 7  22844028.508 8 118954865.372 7  91983380.613 8
C16  38752568.727 6  38752568.012 6 201794790.317 6 156040525.564 6
C21  22081696.805 7                 114985191.251 7
C22  22230302.477 7                 115759017.202 7
E03  24286757.977 8  24286760.723 8 127627773.859 8  96549592.947 8
E05  22048548.703 8  22048550.176 8 115865904.669 8  87651809.691 8
E15  23907610.492 8  23907613.477 9 125635342.347 8  95042332.059 9
E34  23794597.539 8  23794599.781 8 125041451.415 8  94593053.437 8
G01  21623028.195 7                  21623034.164 7 113629777.319 7                  88542703.779 7
G02  24278262.047 6  24278266.715 3                 127583124.648 6  99415429.783 3
G03  20005420.539 8                  20005427.145 8 105129194.976 8                  81918878.013 8
G04  20393775.594 7                  20393780.465 8 107170011.424 7                  83509489.295 8
G06  23212817.695 6                  23212825.195 6 121984170.559 6                  95053003.593 6
G09  22498114.531 6                  22498122.063 6 118228384.007 6                  92126435.531 6
G17  22915672.969 6                  22915679.648 6 120422673.823 6                  93835893.942 6
G19  22097328.508 6  22097331.707 2                 116122251.768 6  90484868.033 2
G31  22119171.758 7                  22119177.137 7 116237036.071 7                  90574329.317 7
R03  20422008.703 8  20422013.051 7 109320606.299 8  85027074.930 7
R04  19180531.875 8  19180534.293 7 102710875.313 8  79886420.278 7
R05  22031331.516 5  22031317.207 6 117770029.284 5  91598957.461 6
R18  21968880.195 7  21968886.227 7 117271358.162 7  91210831.521 7
R19  19362465.805 8  19362468.219 7 103576135.833 8  80559282.760 7
R20  21237394.531 6  21237401.012 7 113565929.947 6  88329066.065 7
> 2025 06 15 14 44 35.0000000  0 25
C06  38158507.617 6  38158503.473 6 198701371.493 6 153648500.359 6
C11  23202723.531 6  23202720.828 6 120822659.010 6  93427738.397 6
C12  22844725.734 7  22844722.230 8 118958475.297 7  91986172.039 8
C16  38751078.195 6  38751076.941 6 201787026.072 6 156034521.765 6
C21  22079236.859 7                 114972380.511 7
C22  22230588.813 7                 115760508.616 7
E03  24283449.617 8  24283452.527 8 127610389.184 8  96536441.572 8
E05  22047864.547 8  22047865.992 8 115862309.133 8  87649089.695 8
E15  23904960.305 8  23904963.047 9 125621414.459 8  95031795.707 9
E34  23794685.148 8  23794687.367 8 125041911.646 8  94593401.600 8
G01  21624344.828 8                  21624350.266 7 113636693.856 8                  88548093.271 7
G02  24280123.461 6  24280128.793 3                 127592910.671 6  99423055.198 3
G03  20004995.289 8                  20005002.086 8 105126960.490 8                  81917136.860 8
G04  20390880.680 7                  20390886.066 8 107154800.594 7                  83497636.704 8
G06  23208432.469 6                  23208440.969 6 121961129.746 6                  95035049.706 6
G09  22493572.430 6                  22493580.133 6 118204517.069 6                  92107837.916 6
G17  22916169.164 6                  22916175.137 6 120425277.805 6                  93837923.020 6
G19  22096376.148 5  22096380.648 2                 116117254.185 5  90480973.878 2
G31  22117989.977 7                  22117994.352 7 116230822.618 7                  90569487.635 7
R03  20423092.125 8  20423096.668 7 109326407.314 8  85031586.830 7
R04  19178547.156 8  19178549.547 7 102700246.782 8  79878153.638 7
R05  22026781.953 5  22026769.297 6 117745725.022 5  91580054.230 6
R18  21971480.859 7  21971486.496 7 117285240.346 7  91221628.756 7
R19  19362073.227 8  19362075.477 7 103574035.495 8  80557649.160 7
R20  21232964.320 6  21232970.406 7 113542238.011 6  88310639.002 7
> 2025 06 15 14 44 40.0000000  0 25
C06  38156869.109 6  38156865.094 7 198692839.641 6 153641902.996 7
C11  23200321.836 6  23200319.168 6 120810154.232 6  93418068.909 6
C12  22845420.719 7  22845417.719 7 118962096.257 7  91988971.994 7
C16  38749587.914 6  38749586.465 6 201779266.053 6 156028521.228 6
C21  22076777.828 7                 114959578.148 7
C22  22230876.438 7                 115762006.332 7
E03  24280143.008 8  24280145.828 8 127593012.301 8  96523296.079 8
E05  22047182.148 8  22047183.547 8 115858722.826 8  87646376.686 8
E15  23902311.555 8  23902314.262 9 125607495.144 8  95021265.831 9
E34  23794774.828 8  23794776.695 8 125042381.006 8  94593756.661 8
G01  21625662.852 8                  21625668.168 7 113643620.112 8                  88553490.356 7
G02  24281987.094 6  24281991.645 3                 127602699.828 6  99430683.078 3
G03  20004572.516 8                  20004578.926 8 105124736.345 8                  81915403.755 8
G04  20387988.813 7                  20387993.941 8 107139602.736 7                  83485794.224 8
G06  23204049.203 6                  23204057.680 5 121938095.737 6                  95017101.148 5
G09  22489032.805 6                  22489039.867 6 118180656.738 6                  92089245.449 6
G17  22916666.563 6                  22916673.156 6 120427892.710 6                  93839960.608 6
G19  22095428.219 5                                                                
G31  22116811.641 7                  22116815.516 7 116224627.309 7                  90564660.107 7
R03  20424177.094 8  20424181.844 7 109332216.243 8  85036104.879 7
R04  19176564.992 8  19176567.789 7 102689632.822 8  79869898.322 7
R05  22022238.031 5  22022224.211 6 117721428.283 5  91561156.743 6
R18  21974081.984 7  21974088.867 7 117299130.369 7  91232432.101 7
R19  19361684.844 8  19361686.727 7 103571957.304 8  80556032.764 7
R20  21228537.391 6  21228542.734 7 113518559.966 6  88292222.751 7
> 2025 06 15 14 44 45.0000000  0 25
C06  38155231.773 6  38155227.961 6 198684312.685 6 153635309.419 6
C11  23197923.180 6  23197920.492 6 120797663.536 6  93408410.317 6
C12  22846118.031 7  22846115.566 7 118965728.780 7  91991780.896 7
C16  38748098.172 6  38748097.309 6 201771510.682 6 156022524.282 6
C21  22074321.016 7                 114946784.682 7
C22  22231165.234 7                 115763510.836 7
E03  24276837.633 8  24276840.676 8 127575643.711 8  96510156.859 8
E05  22046501.445 8  22046502.938 8 115855146.212 8  87643670.994 8
E15  23899664.477 8  23899667.176 8 125593584.874 8  95010742.803 8
E34  23794865.672 8  23794867.852 8 125042859.985 8  94594119.008 8
G01  21626982.859 8                  21626988.188 7 113650556.629 8                  88558895.426 7
G02  24283850.813 6  24283855.438 3                 127612492.554 6  99438313.691 3
G03  20004150.953 8                  20004157.820 8 105122523.028 8                  81913679.100 8
G04  20385099.375 7                  20385104.551 8 107124418.344 7                  83473962.229 8
G06  23199666.508 5                  23199675.168 6 121915069.029 5                  94999158.252 6
G09  22484493.703 6                  22484500.809 6 118156803.500 6                  92070658.521 6
G17  22917166.695 6                  22917173.547 6 120430519.043 6                  93842007.097 6
G19  22094481.578 5  22094490.004 2                 116107312.16615  90473226.82912
G31  22115635.633 7                  22115639.852 7 116218450.599 7                  90559847.090 7
R03  20425264.961 8  20425268.793 7 109338033.927 8  85040629.722 7
R04  19174585.703 8  19174588.398 7 102679033.812 8  79861654.649 7
R05  22017691.125 4                                
R18  21976685.492 7  21976692.957 7 117313028.864 7  91243242.021 7
R19  19361300.484 8  19361302.676 7 103569901.777 8  80554434.029 7
R20  21224110.789 6  21224117.402 7 113494896.439 6  88273817.785 7
> 2025 06 15 14 44 50.0000000  0 24
C06  38153594.789 6  38153591.426 6 198675791.334 6 153628720.168 6
C11  23195526.352 6  23195524.945 6 120785187.565 6  93398763.109 6
C12  22846817.805 7  22846815.406 8 118969373.549 7  91994599.259 8
C16  38746610.141 6  38746608.930 6 201763760.733 6 156016531.541 6
C21  22071865.883 7                 114934000.795 7
C22  22231455.117 7                 115765022.834 7
E03  24273534.438 8  24273537.254 8 127558284.125 8  96497024.453 8
E05  22045822.648 8  22045824.320 8 115851580.015 8  87640973.192 8
E15  23897019.320 8  23897021.969 9 125579684.386 8  95000227.180 9
E34  23794958.836 8  23794960.980 8 125043349.319 8  94594489.177 8
G01  21628304.602 7                  21628310.551 7 113657504.057 7                  88564309.005 7
G02  24285715.250 6  24285719.891 3                 127622289.497 6  99445947.644 3
G03  20003732.320 8                  20003738.434 8 105120321.267 8                  81911963.442 8
G04  20382212.453 7                  20382217.664 8 107109248.144 7                  83462141.296 8
G06  23195286.094 5                  23195294.770 5 121892050.272 5                  94981221.600 5
G09  22479956.422 7                  22479963.539 7 118132958.099 7                  92052077.704 7
G17  22917669.531 7                  22917674.352 6 120433157.494 7                  93844063.028 6
G19  22093544.500 5                                                                
G31  22114464.070 7                  22114468.348 7 116212293.256 7                  90555049.160 7
R03  20426353.445 8  20426357.020 7 109343861.064 8  85045161.904 7
R04  19172609.039 8  19172612.230 7 102668450.440 8  79853423.137 7
R18  21979290.539 7  21979298.016 7 117326936.448 7  91254059.029 7
R19  19360920.211 8  19360922.953 7 103567869.577 8  80552853.434 7
R20  21219688.648 6  21219695.176 7 113471248.180 6  88255424.705 7
> 2025 06 15 14 44 55.0000000  0 25
C06  38151960.406 6  38151955.934 6 198667274.864 6 153622134.694 6
C11  23193134.289 6  23193131.156 6 120772725.702 6  93389126.817 6
C12  22847520.375 7  22847517.375 7 118973029.973 7  91997426.629 7
C16  38745122.695 6  38745121.820 6 201756015.585 6 156010542.505 6
C21  22069412.742 7                 114921225.867 7
C22  22231746.406 7                 115766541.678 7
E03  24270232.813 8  24270235.430 8 127540932.921 8  96483898.388 8
E05  22045145.766 8  22045147.563 8 115848023.596 8  87638282.783 8
E15  23894376.109 8  23894378.500 9 125565793.054 8  94989718.482 9
E34  23795053.898 8  23795055.953 8 125043848.333 8  94594866.676 8
G01  21629629.008 7                  21629634.055 7 113664461.804 7                  88569730.610 7
G02  24287580.109 6  24287584.770 3                 127632090.126 6  99453584.458 3
G03  20003315.016 8                  20003321.805 8 105118130.446 8                  81910256.309 8
G04  20379328.375 7                  20379333.758 8 107094091.495 7                  83450330.927 8
G06  23190905.688 5                  23190916.090 5 121869038.968 5                  94963290.721 5
G09  22475420.289 7                  22475427.340 7 118109119.915 7                  92033502.518 7
G17  22918173.898 7                  22918178.590 6 120435807.434 7                  93846127.934 6
G19  22092607.656 5  22092612.605 3                 116097443.68115  90465537.13113
G31  22113295.422 7                  22113300.090 7 116206154.615 7                  90550265.780 7
R03  20427443.172 8  20427447.367 7 109349696.718 8  85049700.738 7
R04  19170635.648 8  19170638.441 7 102657882.183 8  79845203.402 7
R05  22008610.641 5  22008596.230 6 117648586.84515  91504502.09716
R18  21981897.953 7  21981905.473 7 117340852.487 7  91264882.603 7
R19  19360545.055 8  19360547.152 7 103565860.054 8  80551290.479 7
R20  21215268.367 6  21215275.297 7 113447614.589 6  88237043.045 7
> 2025 06 15 14 45  0.0000000  0 25
C06  38150325.797 6  38150321.188 6 198658761.921 6 153615551.949 6
C11  23190743.320 6  23190740.027 6 120760276.563 6  93379500.355 6
C12  22848224.375 7  22848221.258 7 118976696.581 7  92000261.869 7
C16  38743635.227 6  38743635.066 6 201748273.736 6 156004556.027 6
C21  22066960.953 7                 114908458.477 7
C22  22232039.430 7                 115768065.930 7
E03  24266932.477 8  24266934.910 8 127523588.653 8  96470777.571 8
E05  22044470.898 8  22044472.363 8 115844475.510 8  87635598.684 8
E15  23891733.852 8  23891736.512 9 125551909.457 8  94979215.630 9
E34  23795150.492 8  23795152.477 8 125044355.638 8  94595250.443 8
G01  21630954.648 7                  21630959.793 7 113671428.400 7                  88575159.126 7
G02  24289445.367 6  24289450.039 3                 127641892.925 6  99461222.955 3
G03  20002899.883 8                  20002906.832 8 105115949.094 8                  81908556.554 8
G04  20376446.344 7                  20376451.793 8 107078946.978 7                  83438530.015 8
G06  23186529.016 5                  23186538.059 5 121846033.663 5                  94945364.537 5
G09  22470884.734 7                  22470891.992 7 118085287.502 7                  92014931.822 7
G17  22918679.898 7                  22918685.340 6 120438467.367 7                  93848200.616 6
G19  22091675.758 6  22091679.000 3                 116092535.158 6  90461712.317 3
G31  22112130.898 7                  22112135.418 7 116200033.220 7                  90545495.859 7
R03  20428535.453 8  20428538.875 7 109355539.525 8  85054245.103 7
R04  19168664.492 8  19168667.414 7 102647327.530 8  79836994.219 7
R05  22004074.242 6  22004056.867 6 117624320.953 6  91485628.609 6
R18  21984505.117 7  21984513.469 7 117354775.536 7  91275711.619 7
R19  19360173.742 8  19360175.344 7 103563871.717 8  80549743.988 7
R20  21210851.047 6  21210858.703 7 113423994.097 6  88218671.577 7
> 2025 06 15 14 45  5.0000000  0 25
C06  38148691.219 6  38148687.148 6 198650254.036 6 153608973.115 6
C11  23188355.828 6  23188351.949 6 120747841.647 6  93369884.892 6
C12  22848930.125 7  22848927.703 7 118980374.942 7  92003106.191 7
C16  38742149.734 6  38742149.496 6 201740536.806 6 155998573.343 6
C21  22064511.219 7                 114895700.146 7
C22  22232333.797 7                 115769597.128 7
E03  24263633.461 8  24263636.020 8 127506252.913 8  96457663.191 8
E05  22043797.805 8  22043799.059 8 115840937.303 8  87632922.048 8
E15  23889093.922 8  23889096.301 8 125538035.128 8  94968719.796 8
E34  23795248.914 8  23795250.902 8 125044872.754 8  94595641.628 8
G01  21632281.984 7                  21632287.746 7 113678405.394 7                  88580595.735 7
G02  24291311.367 6  24291316.281 3                 127651699.463 6  99468864.386 3
G03  20002487.391 8                  20002493.609 8 105113778.766 8                  81906865.395 8
G04  20373567.578 7                  20373572.441 8 107063816.123 7                  83426739.741 8
G06  23182154.531 6                  23182161.730 6 121823035.897 6                  94927444.194 6
G09  22466350.914 7                  22466358.461 7 118061462.380 7                  91996366.804 7
G17  22919188.797 7                  22919193.754 6 120441138.892 7                  93850282.319 6
G19  22090745.063 6  22090748.582 3                 116087644.830 6  90457901.620 3
G31  22110969.758 7                  22110974.547 7 116193930.676 7                  90540740.639 7
R03  20429627.586 8  20429631.645 7 109361391.107 8  85058796.328 7
R04  19166696.273 8  19166699.227 7 102636788.192 8  79828796.966 7
R05  21999538.086 5  21999518.656 6 117600063.175 5  91466761.506 6
R18  21987114.867 7  21987123.340 7 117368707.154 7  91286547.300 7
R19  19359806.484 8  19359808.133 7 103561906.206 8  80548215.256 7
R20  21206437.141 6  21206444.285 7 113400388.351 6  88200311.556 7
> 2025 06 15 14 45 10.0000000  0 24
C06  38147059.453 6  38147054.742 6 198641750.986 6 153602398.021 6
C11  23185970.102 6  23185966.230 7 120735420.781 6  93360280.276 7
C12  22849638.453 7  22849636.313 7 118984064.744 7  92005959.370 7
C16  38740665.242 6  38740664.695 6 201732804.516 6 155992594.256 6
C21  22062062.688 7                 114882950.681 7
C22  22232629.063 7                 115771135.069 7
E03  24260336.219 8  24260338.703 8 127488925.409 8  96444555.049 8
E05  22043125.875 8  22043127.594 8 115837408.726 8  87630252.707 8
E15  23886455.594 8  23886457.820 8 125524169.853 8  94958230.809 8
E34  23795349.180 8  23795351.145 8 125045399.438 8  94596040.057 8
G01  21633611.398 7                  21633616.934 7 113685392.533 7                  88586040.258 7
G02  24293177.531 5  24293182.797 3                 127661509.493 5  99476508.531 3
G03  20002076.133 8                  20002082.766 8 105111619.276 8                  81905182.669 8
G04  20370690.625 7                  20370695.520 8 107048698.718 7                  83414959.951 8
G06  23177779.734 6                  23177787.379 6 121800045.520 6                  94909529.626 6
G09  22461818.266 7                  22461825.574 7 118037644.398 7                  91977807.371 7
G17  22919698.883 6                  22919704.266 6 120443821.708 6                  93852372.797 6
G19  22089816.977 6  22089822.027 3                 116082772.470 6  90454104.957 3
G31  22109811.945 7                  22109816.715 7 116187846.698 7                  90535999.874 7
R03  20430722.133 8  20430726.258 7 109367251.021 8  85063354.065 7
R04  19164730.680 8  19164733.902 7 102626263.696 8  79820611.244 7
R18  21989726.648 7  21989734.559 7 117382647.093 7  91297389.443 7
R19  19359443.258 8  19359445.004 7 103559963.256 8  80546704.069 7
R20  21202024.688 6  21202032.531 7 113376797.170 6  88181962.872 7
> 2025 06 15 14 45 15.0000000  0 24
C06  38145427.109 6  38145422.438 6 198633252.393 6 153595826.385 6
C11  23183587.430 6  23183583.320 6 120723013.601 6  93350686.244 6
C12  22850350.234 7  22850346.867 7 118987765.688 7  92008821.160 7
C16  38739180.531 6  38739180.254 6 201725076.563 6 155986618.515 6
C21  22059615.492 7                 114870209.732 7
C22  22232925.625 7                 115772679.388 7
E03  24257040.320 8  24257042.883 8 127471605.840 8  96431452.918 8
E05  22042456.359 8  22042457.902 8 115833889.459 8  87627590.408 8
E15  23883818.633 8  23883820.988 8 125510313.324 8  94947748.438 8
E34  23795450.914 8  23795453.125 8 125045935.363 8  94596445.475 8
G01  21634942.836 7                  21634948.469 7 113692389.484 7                  88591492.424 7
G02  24295045.750 6  24295050.141 3                 127671322.634 6  99484155.099 3
G03  20001667.102 8                  20001673.637 7 105109470.198 8                  81903508.065 7
G04  20367816.289 7                  20367821.008 8 107033594.433 7                  83403190.391 8
G06  23173407.063 6                  23173413.617 6 121777062.131 6                  94891620.521 6
G09  22457287.273 7                  22457294.285 7 118013833.177 7                  91959253.191 7
G17  22920211.344 7                  22920217.668 6 120446515.537 7                  93854471.854 6
G19  22088894.430 6  22088898.297 3                 116077917.745 6  90450322.010 3
G31  22108657.766 7                  22108662.004 7 116181780.984 7                  90531273.354 7
R03  20431817.266 8  20431822.652 7 109373119.219 8  85067918.240 7
R04  19162768.695 8  19162771.094 7 102615753.855 8  79812436.916 7
R18  21992340.336 7  21992346.852 7 117396594.899 7  91308237.717 7
R19  19359083.813 8  19359085.566 7 103558042.384 8  80545210.065 7
R20  21197614.961 5  21197623.574 7 113353220.332 5  88163625.343 7
> 2025 06 15 14 45 20.0000000  0 25
C06  38143795.594 6  38143791.328 6 198624758.618 6 153589258.458 6
C11  23181207.070 6  23181203.172 7 120710620.445 6  93341103.059 7
C12  22851062.984 7  22851059.551 7 118991478.091 7  92011691.825 7
C16  38737697.406 6  38737697.199 6 201717353.214 6 155980646.327 6
C21  22057169.867 7                 114857477.609 7
C22  22233223.461 7                 115774230.414 7
E03  24253746.281 8  24253748.645 8 127454294.516 8  96418357.020 8
E05  22041788.445 8  22041790.023 8 115830379.805 8  87624935.373 8
E15  23881183.414 8  23881185.902 9 125496465.824 8  94937272.902 9
E34  23795554.797 8  23795556.938 8 125046480.859 8  94596858.139 8
G01  21636276.500 7                  21636282.023 7 113699396.567 7                  88596952.472 7
G02  24296914.859 5  24296918.570 3                 127681139.249 5  99491804.379 3
G03  20001260.367 8                  20001266.645 7 105107331.922 8                  81901841.866 7
G04  20364944.359 7                  20364949.465 8 107018503.582 7                  83391431.298 8
G06  23169035.352 6                  23169041.238 6 121754086.071 6                  94873717.103 6
G09  22452757.766 7                  22452764.352 7 117990029.103 7                  91940704.569 7
G17  22920726.148 6                  22920732.113 6 120449220.676 6                  93856579.728 6
G19  22087976.422 6  22087977.277 3                 116073080.988 6  90446553.055 3
G31  22107507.586 7                  22107511.504 7 116175733.856 7                  90526561.302 7
R03  20432915.352 8  20432920.320 7 109378995.709 8  85072488.845 7
R04  19160808.391 8  19160811.648 7 102605258.938 8  79804274.207 7
R05  21985905.891 5  21985915.164 6 117527331.80315
R18  21994954.547 7  21994961.777 7 117410550.963 7  91319092.424 7
R19  19358729.234 8  19358731.152 7 103556144.128 8  80543733.649 7
R20  21193209.750 6  21193216.961 7 113329657.964 6  88145299.050 7
> 2025 06 15 14 45 25.0000000  0 25
C06  38142165.648 6  38142160.867 6 198616269.209 6 153582693.912 6
C11  23178829.539 6  23178825.816 6 120698240.880 6  93331530.397 6
C12  22851777.859 7  22851774.719 7 118995201.478 7  92014570.972 7
C16  38736214.328 6  38736214.801 6 201709634.053 6 155974677.381 6
C21  22054726.516 7                 114844753.863 7
C22  22233522.148 7                 115775787.653 7
E03  24250453.484 8  24250455.879 8 127436990.987 8  96405267.026 8
E05  22041122.539 8  22041123.895 8 115826879.322 8  87622287.276 8
E15  23878549.734 8  23878552.434 8 125482626.915 8  94926803.856 8
E34  23795660.492 8  23795662.477 8 125047035.444 8  94597277.675 8
G01  21637611.680 7                  21637617.438 7 113706413.302 7                  88602420.062 7
G02  24298782.859 5  24298787.238 3                 127690958.780 5  99499455.898 3
G03  20000855.617 8                  20000861.945 8 105105203.935 8                  81900183.691 8
G04  20362074.609 7                  20362080.344 8 107003425.700 7                  83379682.308 8
G06  23164663.570 6                  23164670.621 6 121731116.922 6                  94855819.099 6
G09  22448229.227 7                  22448236.070 7 117966231.665 7                  91922161.118 7
G17  22921243.602 6                  22921248.027 6 120451936.582 6                  93858695.986 6
G19  22087058.820 6  22087059.801 3                 116068261.674 6  90442797.751 3
G31  22106360.719 7                  22106364.355 7 116169704.807 7                  90521863.370 7
R03  20434014.445 8  20434019.637 7 109384880.238 8  85077065.692 7
R04  19158851.078 8  19158854.023 7 102594778.413 8  79796122.692 7
R05  21981376.672 6  21981381.957 6 117503104.642 6  91391289.97816
R18  21997571.344 8  21997577.488 7 117424514.768 8  91329953.132 7
R19  19358377.930 8  19358380.188 7 103554267.913 8  80542274.364 7
R20  21188806.516 6  21188812.875 7 113306109.624 6  88126983.694 7
> 2025 06 15 14 45 30.0000000  0 25
C06  38140536.141 6  38140531.879 6 198607785.068 6 153576133.443 6
C11  23176453.797 6  23176451.535 6 120685875.818 6  93321968.939 6
C12  22852494.891 7  22852491.789 7 118998936.771 7  92017459.330 7
C16  38734733.305 6  38734733.395 6 201701919.995 6 155968712.376 6
C21  22052284.781 7                 114832039.421 7
C22  22233823.461 7                 115777352.064 7
E03  24247162.516 8  24247164.801 8 127419696.214 8  96392183.642 8
E05  22040458.320 8  22040459.688 8 115823388.912 8  87619646.805 8
E15  23875918.250 8  23875920.777 8 125468797.562 8  94916342.042 8
E34  23795768.047 8  23795769.926 8 125047600.084 8  94597704.813 8
G01  21638948.828 7                  21638954.559 8 113713440.636 7                  88607895.897 8
G02  24300651.000 5  24300656.430 3                 127700782.270 5  99507110.559 3
G03  20000452.945 8                  20000458.883 7 105103087.244 8                  81898534.323 7
G04  20359208.656 7                  20359213.879 8 106988361.769 7                  83367944.181 8
G06  23160294.922 6                  23160301.684 6 121708155.591 6                  94837927.170 6
G09  22443702.352 7                  22443709.129 7 117942441.849 7                  91903623.607 7
G17  22921762.602 7                  22921767.039 6 120454664.210 7                  93860821.397 6
G19  22086144.570 6  22086146.152 3                 116063460.772 6  90439056.751 3
G31  22105216.211 7                  22105220.957 7 116163694.843 7                  90517180.292 7
R03  20435115.602 8  20435120.824 7 109390773.776 8  85081649.566 7
R04  19156896.438 8  19156900.203 7 102584313.226 8  79787983.104 7
R05  21976844.844 7  21976851.609 6 117478886.011 7  91372453.288 6
R18  22000188.539 7  22000194.633 7 117438487.340 7  91340820.645 7
R19  19358031.695 8  19358033.594 7 103552414.757 8  80540833.022 7
R20  21184405.492 6  21184412.805 7 113282576.311 6  88108680.004 7
> 2025 06 15 14 45 35.0000000  0 25
C06  38138908.148 6  38138903.281 6 198599306.582 6 153569577.333 6
C11  23174081.891 6  23174080.082 6 120673525.587 6  93312418.955 6
C12  22853214.352 7  22853211.402 7 119002684.375 7  92020357.197 7
C16  38733252.859 6  38733252.898 6 201694211.436 6 155962751.640 6
C21  22049845.063 7                 114819334.652 7
C22  22234125.758 7                 115778923.989 7
E03  24243873.023 8  24243875.441 8 127402410.538 8  96379107.155 8
E05  22039796.000 8  22039797.488 8 115819908.979 8  87617014.249 8
E15  23873288.477 8  23873291.020 9 125454978.136 8  94905887.740 9
E34  23795877.031 8  23795879.363 8 125048175.118 8  94598139.820 8
G01  21640288.078 7                  21640293.965 7 113720478.917 7                  88613380.266 7
G02  24302518.852 5  24302526.695 3                 127710609.937 5  99514768.474 3
G03  20000052.148 8                  20000058.305 8 105100982.129 8                  81896893.977 8
G04  20356344.539 7                  20356349.898 8 106973312.126 7                  83356217.200 8
G06  23155926.594 6                  23155933.895 6 121685202.453 6                  94820041.616 6
G09  22439176.898 7                  22439183.273 7 117918659.987 7                  91885092.306 7
G17  22922283.984 6                  22922288.328 6 120457403.971 6                  93862956.251 6
G19  22085235.195 6  22085236.141 3                 116058678.600 6  90435330.352 3
G31  22104075.945 7                  22104081.008 7 116157704.290 7                  90512512.342 7
R03  20436218.820 8  20436223.418 7 109396676.410 8  85086240.496 7
R04  19154945.047 8  19154948.891 7 102573863.958 8  79779855.915 7
R05  21972317.141 7  21972322.141 6 117454675.903 7  91353623.223 6
R18  22002807.367 7  22002813.645 7 117452468.912 7  91351695.180 7
R19  19357689.141 8  19357691.805 7 103550584.951 8  80539409.826 7
R20  21180007.336 6  21180014.832 7 113259058.356 6  88090388.252 7
> 2025 06 15 14 45 40.0000000  0 25
C06  38137280.930 6  38137276.133 6 198590832.649 6 153563024.755 6
C11  23171712.875 6  23171710.688 6 120661189.160 6  93302879.633 6
C12  22853936.680 7  22853933.418 8 119006443.112 7  92023263.697 8
C16  38731773.563 6  38731773.508 6 201686507.213 6 155956794.242 6
C21  22047407.148 7                 114806638.440 7
C22  22234429.344 7                 115780502.333 7
E03  24240584.922 8  24240587.594 8 127385132.897 8  96366036.734 8
E05  22039135.727 8  22039137.055 8 115816438.357 8  87614388.748 8
E15  23870660.203 8  23870662.930 9 125441167.524 8  94895440.104 9
E34  23795988.414 8  23795990.570 8 125048759.454 8  94598581.869 8
G01  21641629.625 7                  21641635.379 8 113727527.023 7                  88618872.284 8
G02  24304391.813 5  24304397.441 3                 127720440.884 5  99522428.975 3
G03  19999653.625 8                  19999659.762 8 105098887.529 8                  81895261.805 8
G04  20353483.398 7                  20353488.508 8 106958275.671 7                  83344500.494 8
G06  23151560.359 6                  23151567.141 6 121662256.485 6                  94802161.663 6
G09  22434652.820 7                  22434659.160 7 117894885.021 7                  91866566.373 7
G17  22922807.188 6                  22922812.145 6 120460154.734 6                  93865099.680 6
G19  22084326.039 5  22084329.262 3                 116053914.121 5  90431617.773 3
G31  22102939.453 7                  22102944.453 7 116151732.048 7                  90507858.658 7
R03  20437323.391 8  20437327.824 7 109402587.330 8  85090837.855 7
R04  19152996.859 8  19153000.383 7 102563429.329 8  79771740.084 7
R05  21967788.391 6  21967794.676 6 117430473.578 6  91334799.207 6
R18  22005429.328 8  22005434.477 7 117466458.384 8  91362575.866 7
R19  19357351.430 8  19357353.742 7 103548777.490 8  80538004.015 7
R20  21175612.406 6  21175619.563 7 113235554.862 6  88072107.750 7
> 2025 06 15 14 45 45.0000000  0 25
C06  38135654.664 6  38135649.910 6 198582363.321 6 153556475.731 6
C11  23169347.773 6  23169344.211 7 120648866.624 6  93293351.058 7
C12  22854660.641 7  22854657.750 8 119010213.120 7  92026178.896 8
C16  38730294.938 6  38730295.055 6 201678807.482 6 155950840.323 6
C21  22044970.695 7                 114793950.916 7
C22  22234733.680 7                 115782087.221 7
E03  24237299.133 8  24237301.301 8 127367863.359 8  96352972.449 8
E05  22038477.258 8  22038478.402 8 115812977.216 8  87611770.409 8
E15  23868033.648 8  23868036.535 8 125427365.854 8  94884999.229 8
E34  23796101.586 8  23796103.563 8 125049353.199 8  94599031.024 8
G01  21642973.531 7                  21642978.645 7 113734585.077 7                  88624372.067 7
G02  24306263.930 5  24306268.863 3                 127730275.047 5  99530091.928 3
G03  19999257.484 8                  19999262.922 8 105096803.575 8                  81893637.938 8
G04  20350624.344 7                  20350629.762 8 106943252.530 7                  83332794.145 8
G06  23147194.961 6                  23147201.801 6 121639317.787 6                  94784287.346 6
G09  22430129.203 7                  22430136.242 7 117871117.060 7                  91848045.893 7
G17  22923332.695 6                  22923337.430 5 120462916.534 6                  93867251.754 5
G19  22083422.539 5  22083426.273 3                 116049167.432 5  90427919.073 3
G31  22101805.945 7                  22101811.684 7 116145778.251 7                  90503219.335 7
R03  20438428.945 8  20438433.266 7 109408506.430 8  85095441.593 7
R04  19151050.672 8  19151053.793 7 102553009.446 8  79763635.728 7
R05  21963260.617 6  21963268.504 6 117406278.813 6  91315981.054 6
R18  22008051.281 8  22008056.203 7 117480455.859 8  91373462.786 7
R19  19357018.539 8  19357020.223 7 103546992.366 8  80536615.584 7
R20  21171219.469 6  21171227.211 7 113212065.963 6  88053838.625 7
> 2025 06 15 14 45 50.0000000  0 25
C06  38134029.320 6  38134024.320 6 198573898.882 6 153549930.500 6
C11  23166983.406 6  23166980.414 7 120636558.162 6  93283833.378 7
C12  22855386.680 7  22855383.918 8 119013994.569 7  92029102.929 8
C16  38728816.789 6  38728817.375 6 201671112.424 6 155944890.026 6
C21  22042535.961 7                 114781272.257 7
C22  22235039.094 7                 115783678.813 7
E03  24234014.094 8  24234016.594 8 127350602.151 8  96339914.460 8
E05  22037820.578 8  22037821.609 8 115809525.681 8  87609159.340 8
E15  23865409.297 8  23865411.855 9 125413573.297 8  94874565.246 9
E34  23796216.570 8  23796218.367 8 125049956.527 8  94599487.431 8
G01  21644317.844 8                  21644323.570 7 113741653.225 8                  88629879.709 7
G02  24308136.016 5  24308141.098 3                 127740112.635 5  99537757.570 3
G03  19998862.492 8                  19998868.547 7 105094730.402 8                  81892022.479 7
G04  20347768.266 7                  20347773.477 8 106928242.884 7                  83321098.322 8
G06  23142831.352 6                  23142838.609 6 121616386.509 6                  94766418.812 6
G09  22425608.188 7                  22425614.859 7 117847356.276 7                  91829530.997 7
G17  22923860.953 6                  22923863.934 5 120465689.583 6                  93869412.573 5
G19  22082522.148 5  22082526.086 3                 116044438.627 5  90424234.330 3
G31  22100676.766 7                  22100682.188 7 116139843.064 7                  90498594.523 7
R03  20439536.734 8  20439540.941 7 109414433.883 8  85100051.819 7
R04  19149108.688 8  19149111.383 7 102542604.512 8  79755543.010 7
R05  21958736.125 7  21958743.496 6 117382092.032 7  91297169.106 6
R18  22010674.961 8  22010680.332 7 117494461.482 8  91384356.048 7
R19  19356688.680 8  19356690.926 7 103545229.813 8  80535244.709 7
R20  21166830.953 6  21166837.145 7 113188591.786 6  88035580.965 7
> 2025 06 15 14 45 55.0000000  0 25
C06  38132404.570 6  38132400.168 6 198565440.609 6 153543390.021 6
C11  23164623.266 6  23164619.852 7 120624265.164 6  93274327.659 7
C12  22856115.945 7  22856112.656 8 119017788.796 7  92032036.864 8
C16  38727340.297 6  38727341.230 6 201663423.422 6 155938944.407 6
C21  22040103.172 7                 114768603.860 7
C22  22235346.461 7                 115785278.467 7
E03  24230730.953 8  24230733.723 8 127333350.633 8  96326863.805 8
E05  22037165.922 8  22037166.902 8 115806085.175 8  87606556.616 8
E15  23862787.016 8  23862789.184 8 125399791.255 8  94864139.231 8
E34  23796333.242 8  23796335.277 8 125050570.830 8  94599952.140 8
G01  21645665.344 8                  21645670.410 7 113748732.880 8                  88635396.323 7
G02  24310007.828 5  24310014.059 3                 127749955.026 5  99545426.954 3
G03  19998470.313 8                  19998476.297 7 105092669.427 8                  81890416.518 7
G04  20344914.719 7                  20344920.012 8 106913248.145 7                  83309414.116 8
G06  23138469.742 6                  23138476.547 6 121593464.111 6                  94748557.193 6
G09  22421087.938 7                  22421095.031 7 117823604.066 7                  91811022.808 7
G17  22924390.508 6                  22924394.496 5 120468475.318 6                  93871583.252 5
G19  22081624.391 5  22081629.527 3                 116039729.215 5  90420564.668 3
G31  22099551.148 7                  22099556.543 7 116133927.895 7                  90493985.290 7
R03  20440646.047 8  20440649.363 7 109420371.304 8  85104669.802 7
R04  19147168.531 8  19147171.488 7 102532215.885 8  79747462.956 7
R05  21954214.352 7  21954220.578 6 117357914.571 7  91278364.425 6
R18  22013300.258 8  22013305.934 7 117508476.754 8  91395256.786 7
R19  19356364.031 8  19356365.883 7 103543491.230 8  80533892.467 7
R20  21162442.516 6  21162450.559 7 113165133.880 6  88017335.941 7
> 2025 06 15 14 46  0.0000000  0 25
C06  38130781.500 6  38130776.625 6 198556987.113 6 153536853.244 6
C11  23162265.008 6  23162262.188 7 120611986.192 6  93264832.771 7
C12  22856846.469 7  22856843.945 8 119021594.368 7  92034979.577 8
C16  38725864.289 6  38725865.641 6 201655738.951 6 155933002.291 6
C21  22037671.852 7                 114755944.227 7
C22  22235654.688 7                 115786884.754 7
E03  24227449.711 8  24227452.418 8 127316107.343 8  96313819.368 8
E05  22036512.672 8  22036514.117 8 115802654.178 8  87603961.091 8
E15  23860165.797 8  23860168.258 8 125386018.261 8  94853720.045 8
E34  23796451.898 8  23796453.984 8 125051194.628 8  94600424.031 8
G01  21647014.008 7                  21647019.637 7 113755822.554 7                  88640920.723 7
G02  24311882.094 6  24311887.520 3                 127759800.860 6  99553098.995 3
G03  19998080.234 8                  19998085.777 7 105090619.136 8                  81888818.886 7
G04  20342064.188 7                  20342069.145 8 106898266.809 7                  83297740.348 8
G06  23134109.234 6                  23134115.863 6 121570549.007 6                  94730701.276 6
G09  22416568.938 7                  22416576.297 7 117799859.006 7                  91792520.166 7
G17  22924921.953 6                  22924926.926 5 120471272.172 6                  93873762.610 5
G19  22080732.328 5                                                                
G31  22098429.750 7                  22098434.320 7 116128031.229 7                  90489390.490 7
R03  20441756.445 8  20441760.664 7 109426316.787 8  85109294.043 7
R04  19145231.734 8  19145234.082 7 102521842.166 8  79739394.505 7
R05  21949693.797 7  21949699.320 6 117333745.053 7  91259565.926 6
R18  22015927.742 8  22015932.973 7 117522499.977 8  91406163.724 7
R19  19356042.938 8  19356044.926 7 103541775.003 8  80532557.646 7
R20  21158059.703 6  21158066.355 7 113141690.639 6  87999102.326 7
> 2025 06 15 14 46  5.0000000  0 25
C06  38129158.297 6  38129153.891 6 198548537.304 6 153530319.321 6
C11  23159909.719 6  23159906.648 7 120599720.123 6  93255347.894 7
C12  22857578.531 7  22857576.723 8 119025410.234 7  92037930.234 8
C16  38724389.023 6  38724390.609 6 201648058.056 6 155927062.945 6
C21  22035241.773 7                 114743292.335 7
C22  22235964.727 7                 115788496.543 7
E03  24224169.469 7  24224172.438 8 127298871.209 7  96300780.362 8
E05  22035861.453 8  22035862.742 8 115799231.657 8  87601371.973 8
E15  23857546.563 8  23857548.828 8 125372253.247 8  94843306.908 8
E34  23796572.102 8  23796574.293 8 125051826.840 8  94600902.296 8
G01  21648364.016 7                  21648370.684 7 113762921.139 7                  88646452.088 7
G02  24313755.992 6  24313761.285 3                 127769648.907 6  99560772.766 3
G03  19997691.961 8                  19997697.945 7 105088578.506 8                  81887228.787 7
G04  20339214.875 7                  20339220.570 8 106883297.818 7                  83286076.197 8
G06  23129748.539 6                  23129756.406 6 121547640.188 6                  94712850.296 6
G09  22412051.555 7                  22412058.930 7 117776119.976 7                  91774022.260 7
G17  22925456.211 6                  22925461.723 5 120474079.101 6                  93875949.849 5
G19  22079845.141 6  22079846.867 4                 116030362.84016  90413266.24214
G31  22097311.047 7                  22097315.371 7 116122151.988 7                  90484809.259 7
R03  20442868.969 8  20442872.246 7 109432269.586 8  85113923.991 7
R04  19143296.547 8  19143299.480 7 102511482.229 8  79731336.784 7
R05  21945173.133 7  21945178.840 6 117309582.212 7  91240772.631 6
R18  22018556.359 8  22018561.262 7 117536530.197 8  91417076.077 7
R19  19355725.844 8  19355728.094 7 103540080.097 8  80531239.367 7
R20  21153677.625 6  21153684.602 7 113118260.936 6  87980879.224 7
> 2025 06 15 14 46 10.0000000  0 25
C06  38127537.516 6  38127531.742 7 198540091.752 6 153523788.688 7
C11  23157556.063 6  23157554.000 7 120587467.619 6  93245873.483 7
C12  22858313.563 7  22858311.098 8 119029236.911 7  92040889.249 8
C16  38722914.484 6  38722916.348 6 201640381.221 6 155921126.737 6
C21  22032813.703 7                 114730648.710 7
C22  22236275.539 7                 115790114.459 7
E03  24220891.258 8  24220893.961 8 127281642.813 8  96287747.198 8
E05  22035211.945 8  22035213.176 8 115795818.146 8  87598789.664 8
E15  23854928.609 8  23854931.027 8 125358496.807 8  94832900.255 8
E34  23796694.188 8  23796696.293 8 125052468.054 8  94601387.364 8
G01  21649717.289 7                  21649722.957 7 113770029.236 7                  88651990.858 7
G02  24315630.148 6  24315635.898 3                 127779499.791 6  99568448.747 3
G03  19997305.422 8                  19997311.477 7 105086548.070 8                  81885646.631 7
G04  20336369.586 7                  20336374.738 8 106868341.749 7                  83274422.128 8
G06  23125389.500 6                  23125398.559 6 121524738.364 6                  94695004.738 6
G09  22407535.891 7                  22407542.660 7 117752387.587 7                  91755529.501 7
G17  22925992.844 6                  22925997.977 5 120476896.639 6                  93878145.337 5
G19  22078959.094 6  22078960.324 4                 116025705.381 6  90409637.063 4
G31  22096195.266 7                  22096200.008 7 116116290.780 7                  90480242.072 7
R03  20443981.539 7  20443985.875 7 109438230.380 7  85118560.161 7
R04  19141364.938 8  19141367.711 7 102501136.559 8  79723290.157 7
R05  21940654.719 7  21940659.605 6 117285426.772 7  91221985.106 6
R18  22021185.578 8  22021191.035 7 117550567.953 8  91427994.317 7
R19  19355412.766 8  19355415.699 7 103538407.164 8  80529938.199 7
R20  21149299.867 6  21149305.418 7 113094845.300 6  87962667.073 7
> 2025 06 15 14 46 15.0000000  0 25
C06  38125916.547 6  38125910.934 6 198531651.353 6 153517262.050 6
C11  23155206.508 6  23155203.895 7 120575229.604 6  93236410.270 7
C12  22859050.531 7  22859048.223 7 119033075.345 7  92043857.348 7
C16  38721442.219 6  38721443.168 6 201632709.386 6 155915194.388 6
C21  22030387.539 7                 114718014.305 7
C22  22236587.555 7                 115791739.403 7
E03  24217614.656 8  24217617.152 8 127264423.086 8  96274720.591 8
E05  22034564.461 8  22034565.516 8 115792414.594 8  87596214.910 8
E15  23852312.789 7  23852315.051 8 125344749.853 7  94822500.779 8
E34  23796818.273 8  23796820.238 8 125053119.185 8  94601879.938 8
G01  21651072.828 7                  21651077.859 7 113777147.737 7                  88657537.736 7
G02  24317505.781 6  24317511.051 4                 127789354.465 6  99576127.672 4
G03  19996921.117 8                  19996927.148 7 105084528.788 8                  81884073.176 7
G04  20333526.242 7                  20333531.117 8 106853399.544 7                  83262778.854 8
G06  23121033.148 6                  23121042.043 6 121501844.385 6                  94677165.302 6
G09  22403020.180 7                  22403027.996 7 117728662.779 7                  91737042.646 7
G17  22926531.813 6                  22926536.484 5 120479725.725 6                  93880349.811 5
G19  22078075.055 6  22078077.484 4                 116021066.206 6  90406022.117 4
G31  22095083.547 7                  22095088.484 7 116110448.495 7                  90475689.653 7
R03  20445096.406 8  20445101.059 7 109444199.675 8  85123202.977 7
R04  19139435.172 8  19139438.266 7 102490806.237 8  79715255.463 7
R05  21936137.648 7  21936142.324 6 117261279.495 7  91203203.909 6
R18  22023817.227 7  22023821.977 7 117564614.167 7  91438919.140 7
R19  19355105.109 8  19355107.066 7 103536757.199 8  80528654.876 7
R20  21144923.320 6  21144929.777 7 113071444.881 6  87944466.745 7
> 2025 06 15 14 46 20.0000000  0 25
C06  38424089.266 6  38424083.922 6 200084315.999 6 154717880.840 6
C11  23452652.688 6  23452649.707 7 122124106.697 6  94434100.298 7
C12  23159582.156 7  23159580.230 8 120598022.933 7  93253974.087 8
C16  39019761.484 6  39019763.547 6 203186142.298 6 157116407.255 6
C21  22327755.688 7                 116266489.802 7
C22  22536692.922 7                 117354469.223 7
E03  24514132.477 8  24514135.117 8 128822635.667 8  97453498.295 8
E05  22333711.133 8  22333712.367 8 117364441.859 8  88785443.327 8
E15  24149491.133 8  24149493.906 8 126906435.361 8  96003905.720 8
E34  24096736.656 8  24096738.492 8 126629200.307 8  95794175.074 8
G01  21952221.344 7                  21952226.434 7 115359695.418 7                  89890691.757 7
G02  24619175.000 6  24619179.293 4                 129374631.049 6 100811408.087 4
G03  20296331.328 8                  20296337.465 7 106657941.229 8                  83110108.840 7
G04  20630478.039 7                  20630483.301 8 108413894.376 7                  84478748.853 8
G06  23416472.563 6                  23416480.656 6 123054382.982 6                  95886935.657 6
G09  22698299.992 7                  22698307.957 7 119280370.457 7                  92946165.538 7
G17  23226864.047 6                  23226869.625 5 122057986.007 6                  95110163.000 5
G19  22376990.102 6  22376990.684 4                 117591866.346 6  91630022.254 4
G31  22393767.844 7                  22393772.906 7 117680046.501 7                  91698753.058 7
R03  20746004.977 8  20746010.242 7 111054989.243 8  86376039.313 7
R04  19437302.188 8  19437305.090 7 104085868.419 8  80955859.397 7
R05  22231417.453 7  22231420.418 6 118839708.303 7  92430870.767 6
R18  22326240.977 7  22326247.629 6 119178978.683 7  92694535.962 6
R19  19654593.336 8  19654595.527 7 105138818.016 8  81774702.176 7
R20  21440343.656 6  21440349.930 7 114651189.395 6  89173156.902 7
> 2025 06 15 14 46 25.0000000  0 25
C06  38422471.117 6  38422465.027 6 200075885.770 6 154711362.056 6
C11  23450307.422 6  23450305.230 7 122111897.345 6  94424659.267 7
C12  23160323.945 7  23160321.980 8 120601884.615 7  93256960.177 8
C16  39018290.844 6  39018292.102 6 203178480.230 6 157110482.460 6
C21  22325333.219 7                 116253873.558 7
C22  22537007.164 7                 117356107.989 7
E03  24510858.828 8  24510861.559 8 128805433.041 8  97440484.639 8
E05  22333067.164 8  22333068.426 8 117361057.963 8  88782883.422 8
E15  24146879.047 7  24146881.500 8 126892707.193 7  95993520.458 8
E34  24096864.273 8  24096866.145 8 126629871.067 8  95794682.488 8
G01  21953579.852 7                  21953585.105 7 115366834.488 7                  89896254.646 7
G02  24621049.547 6  24621055.805 3                 129384492.922 6 100819092.668 3
G03  20295951.453 8                  20295957.379 7 106655943.970 8                  83108552.543 7
G04  20627640.500 7                  20627645.043 8 108398979.631 7                  84467126.982 8
G06  23412118.258 6                  23412126.410 6 123031504.529 6                  95869108.297 6
G09  22693789.055 7                  22693796.141 7 119256660.560 7                  92927690.313 7
G17  23227405.859 6                  23227412.113 6 122060837.946 6                  95112385.272 6
G19  22376113.383 6  22376114.504 4                 117587263.472 6  91626435.586 4
G31  22392663.539 7                  22392668.410 7 117674241.857 7                  91694229.987 7
R03  20747123.445 8  20747128.406 7 111060975.918 8  86380695.598 7
R04  19435379.070 8  19435380.848 7 104075568.392 8  80947848.245 7
R05  22226901.172 7  22226906.504 6 118815577.643 7  92412102.479 6
R18  22328876.492 7  22328882.160 6 119193041.467 7  92705473.637 6
R19  19654293.383 8  19654295.465 7 105137213.475 8  81773454.193 7
R20  21435974.000 6  21435978.926 7 114627818.992 6  89154979.916 7
> 2025 06 15 14 46 30.0000000  0 25
C06  38420852.320 6  38420847.160 6 200067460.131 6 154704846.812 6
C11  23447964.664 6  23447963.789 7 122099701.948 6  94415229.019 7
C12  23161067.500 7  23161065.777 8 120605757.451 7  93259954.886 8
C16  39016820.375 6  39016821.395 6 203170822.609 6 157104561.106 6
C21  22322912.477 7                 116241266.008 7
C22  22537322.547 7                 117357753.204 7
E03  24507586.820 8  24507589.570 8 128788238.536 8  97427477.122 8
E05  22332424.797 8  22332426.301 8 117357683.459 8  88780330.631 8
E15  24144268.219 8  24144270.805 8 126878987.987 8  95983141.977 8
E34  24096993.430 8  24096995.574 8 126630551.182 8  95795196.992 8
G01  21954940.789 7                  21954945.457 7 115373983.415 7                  89901825.229 7
G02  24622928.148 6  24622933.090 3                 129394357.985 6 100826779.690 3
G03  20295573.211 8                  20295579.441 7 106653957.296 8                  83107004.493 7
G04  20624804.961 7                  20624809.488 8 108384078.216 7                  84455515.499 8
G06  23407766.180 6                  23407774.598 6 123008633.366 6                  95851286.624 6
G09  22689278.328 7                  22689285.379 7 119232957.740 7                  92909220.570 7
G17  23227950.805 6                  23227956.762 6 122063700.845 6                  95114616.064 6
G19  22375241.289 6  22375241.879 4                 117582678.289 6  91622862.720 4
G31  22391562.086 7                  22391567.438 7 117668455.662 7                  91689721.281 7
R03  20748243.797 8  20748248.195 7 111066970.692 8  86385358.193 7
R04  19433457.961 8  19433460.770 7 104065283.034 8  80939848.521 7
R05  22222388.797 6  22222393.184 6 118791454.622 6  92393340.138 6
R18  22331511.641 7  22331517.988 7 119207112.134 7  92716417.456 7
R19  19653997.695 8  19653999.520 7 105135631.346 8  81772223.638 7
R20  21431606.117 6  21431611.656 7 114604463.354 6  89136814.434 7
> 2025 06 15 14 46 35.0000000  0 25
C06  38419235.672 6  38419229.871 6 200059038.835 6 154698334.942 6
C11  23445625.836 6  23445624.402 7 122087520.185 6  94405809.300 7
C12  23161813.859 7  23161811.449 8 120609641.148 7  93262958.009 8
C16  39015351.102 6  39015351.695 6 203163169.177 6 157098642.995 6
C21  22320493.281 7                 116228666.830 7
C22  22537639.844 7                 117359404.582 7
E03  24504316.352 8  24504319.059 8 128771051.898 8  97414475.555 8
E05  22331784.508 8  22331785.883 8 117354318.049 8  88777784.718 8
E15  24141659.250 8  24141661.797 8 126865277.499 8  95972770.085 8
E34  24097124.375 8  24097126.727 8 126631240.387 8  95795718.368 8
G01  21956302.828 8                  21956307.781 7 115381141.879 8                  89907403.256 7
G02  24624805.883 6  24624811.125 3                 129404225.911 6 100834468.938 3
G03  20295197.047 8                  20295203.219 7 106651980.934 8                  83105464.461 7
G04  20621971.703 7                  20621976.656 8 108369189.831 7                  84443914.163 8
G06  23403415.430 6                  23403423.785 6 122985769.255 6                  95833470.432 6
G09  22684769.930 7                  22684776.020 7 119209261.664 7                  92890756.094 7
G17  23228497.828 6                  23228504.316 6 122066574.438 6                  95116855.209 6
G19  22374371.539 6  22374373.172 4                 117578110.549 6  91619303.428 4
G31  22390464.734 7                  22390469.559 7 117662687.594 7                  91685226.674 7
R03  20749365.078 8  20749370.102 7 111072973.126 8  86390026.734 7
R04  19431539.867 8  19431542.477 7 104055012.129 8  80931860.047 7
R05  22217878.391 6  22217881.488 6 118767339.069 6  92374583.646 6
R18  22334149.016 7  22334155.480 7 119221190.295 7  92727367.091 7
R19  19653706.688 8  19653707.766 7 105134071.104 8  81771010.114 7
R20  21427239.344 6  21427247.043 7 114581122.190 6  89118660.203 7
> 2025 06 15 14 46 40.0000000  0 25
C06  38417619.250 6  38417613.730 6 200050622.955 6 154691827.252 6
C11  23443289.375 6  23443287.410 7 122075353.071 6  94396400.923 7
C12  23162562.063 7  23162559.551 7 120613536.783 7  93265970.351 7
C16  39013882.813 6  39013883.293 6 203155520.959 6 157092728.914 6
C21  22318075.266 7                 116216077.115 7
C22  22537958.289 7                 117361063.201 7
E03  24501047.094 8  24501050.230 8 128753874.191 8  97401480.729 8
E05  22331145.891 8  22331147.391 8 117350962.805 8  88775246.493 8
E15  24139052.000 7  24139054.641 8 126851576.749 7  95962405.555 8
E34  24097257.750 8  24097259.793 8 126631939.746 8  95796247.427 8
G01  21957666.773 7                  21957671.945 7 115388310.975 7                  89912989.568 7
G02  24626684.453 6  24626689.844 3                 129414097.805 6 100842161.319 3
G03  20294823.281 8                  20294829.391 7 106650015.926 8                  83103933.278 7
G04  20619141.211 7                  20619145.984 8 108354315.558 7                  84432323.839 8
G06  23399065.961 6                  23399074.203 7 122962913.318 6                  95815660.625 7
G09  22680261.438 7                  22680268.105 7 119185573.426 7                  92872297.755 7
G17  23229046.609 6                  23229053.254 5 122069459.737 6                  95119103.518 5
G19  22373505.727 6  22373507.715 4                 117573561.328 6  91615758.560 4
G31  22389371.031 7                  22389375.641 7 117656938.697 7                  91680747.005 7
R03  20750488.453 8  20750493.313 7 111078984.507 8  86394702.249 7
R04  19429624.406 8  19429626.816 7 104044756.758 8  80923883.645 7
R05  22213368.797 6  22213372.137 6 118743232.188 6  92355833.875 6
R18  22336787.922 7  22336794.551 7 119235277.063 7  92738323.438 7
R19  19653418.359 8  19653420.352 7 105132533.957 8  81769814.553 7
R20  21422878.039 6  21422884.766 7 114557796.435 6  89100517.988 7
> 2025 06 15 14 46 45.0000000  0 25
C06  38416003.992 6  38415998.484 6 200042212.165 6 154685323.504 6
C11  23440956.219 6  23440954.012 7 122063200.422 6  94387003.735 7
C12  23163311.117 7  23163309.977 7 120617444.046 7  93268991.685 7
C16  39012414.023 6  39012415.180 7 203147877.696 6 157086818.671 7
C21  22315659.102 7                 116203496.531 7
C22  22538278.391 7                 117362728.737 7
E03  24497780.258 8  24497783.055 8 128736705.067 8  97388492.417 8
E05  22330509.336 8  22330510.809 8 117347617.396 8  88772715.719 8
E15  24136446.695 7  24136449.309 8 126837885.472 7  95952048.197 8
E34  24097392.180 8  24097394.766 8 126632648.937 8  95796783.928 8
G01  21959032.242 7                  21959037.859 7 115395490.368 7                  89918583.877 7
G02  24628563.078 6  24628569.344 4                 129423973.300 6 100849856.480 4
G03  20294451.227 8                  20294457.586 7 106648061.976 8                  83102410.718 7
G04  20616313.023 7                  20616318.352 8 108339455.091 7                  84420744.244 8
G06  23394718.156 5                  23394726.195 7 122940065.227 5                  95797856.920 7
G09  22675755.438 7                  22675762.289 7 119161892.729 7                  92853845.287 7
G17  23229598.266 6                  23229603.609 5 122072356.450 6                  95121360.732 5
G19  22372642.961 6  22372645.594 4                 117569030.262 6  91612227.836 4
G31  22388281.305 7                  22388285.297 7 117651208.659 7                  91676282.041 7
R03  20751612.117 7  20751617.313 7 111085004.620 7  86399384.573 7
R04  19427711.797 8  19427714.738 7 104034516.516 8  80915919.021 7
R05  22208861.195 6  22208864.473 6 118719133.572 6  92337090.545 6
R18  22339428.141 7  22339434.949 7 119249372.085 7  92749286.200 7
R19  19653135.344 8  19653137.457 7 105131019.517 8  81768636.665 7
R20  21418518.938 6  21418526.191 7 114534485.891 6  89082387.574 7
> 2025 06 15 14 46 50.0000000  0 25
C06  38414389.492 6  38414384.199 6 200033805.645 6 154678823.050 6
C11  23438627.000 6  23438622.996 7 122051061.381 6  94377617.083 7
C12  23164063.758 7  23164061.984 7 120621362.126 7  93272021.363 7
C16  39010947.422 6  39010948.500 6 203140238.553 6 157080911.601 6
C21  22313244.914 7                 116190924.251 7
C22  22538599.719 7                 117364400.366 7
E03  24494514.469 8  24494517.320 8 128719543.755 8  97375510.004 8
E05  22329874.219 8  22329875.914 8 117344281.033 8  88770191.783 8
E15  24133843.063 7  24133845.613 8 126824202.838 7  95941697.368 8
E34  24097528.758 8  24097531.422 8 126633367.154 8  95797327.243 8
G01  21960400.602 7                  21960405.613 7 115402679.203 7                  89924185.557 7
G02  24630443.344 6  24630449.105 4                 129433851.633 6 100857553.850 4
G03  20294082.008 8                  20294087.758 7 106646118.247 8                  83100896.121 7
G04  20613487.422 7                  20613492.859 8 108324607.581 7                  84409174.768 8
G06  23390371.578 5                  23390379.699 7 122917224.147 5                  95780058.716 7
G09  22671250.070 7                  22671257.184 7 119138218.789 7                  92835398.057 7
G17  23230151.586 6                  23230157.109 6 122075263.795 6                  95123626.186 6
G19  22371783.914 6  22371786.777 4                 117564516.581 6  91608710.653 4
G31  22387193.914 7                  22387198.074 7 117645496.652 7                  91671831.122 7
R03  20752738.852 8  20752743.395 7 111091032.273 8  86404072.746 7
R04  19425802.672 8  19425805.469 7 104024290.554 8  80907965.506 7
R05  22204351.930 6  22204357.234 6 118695042.320 6  92318352.896 6
R18  22342069.648 7  22342076.555 7 119263474.534 7  92760254.729 7
R19  19652856.125 8  19652858.801 7 105129527.042 8  81767475.834 7
R20  21414162.242 6  21414169.461 7 114511189.737 6  89064268.325 7
> 2025 06 15 14 46 55.0000000  0 25
C06  38412776.000 6  38412770.672 6 200025403.415 6 154672325.910 6
C11  23436297.664 6  23436294.500 7 122038935.874 6  94368240.866 7
C12  23164818.602 7  23164816.324 7 120625290.953 7  93275059.376 7
C16  39009480.945 6  39009482.297 6 203132603.418 6 157075007.623 6
C21  22310832.375 7                 116178360.258 7
C22  22538921.977 7                 117366078.042 7
E03  24491249.977 8  24491253.078 8 128702390.184 8  97362533.448 8
E05  22329241.422 8  22329242.746 8 117340953.609 8  88767674.613 8
E15  24131240.883 7  24131243.551 8 126810528.809 7  95931353.058 8
E34  24097667.289 8  24097669.801 8 126634094.337 8  95797877.353 8
G01  21961770.930 7                  21961775.668 7 115409877.461 7                  89929794.578 7
G02  24632323.680 6  24632329.703 4                 129443732.624 6 100865253.281 4
G03  20293713.656 8                  20293719.898 7 106644184.703 8                  83099389.467 7
G04  20610664.594 7                  20610669.969 8 108309773.020 7                  84397615.386 8
G06  23386026.547 5                  23386034.773 7 122894390.059 5                  95762265.914 7
G09  22666746.688 7                  22666753.570 7 119114551.517 7                  92816956.029 7
G17  23230706.195 6                  23230712.512 6 122078181.623 6                  95125899.829 6
G19  22370927.797 5  22370931.227 4                 117560020.141 5  91605206.936 4
G31  22386110.422 7                  22386114.816 7 117639802.635 7                  91667394.225 7
R03  20753865.734 8  20753870.320 7 111097067.608 8  86408766.865 7
R04  19423895.523 8  19423898.801 7 104014079.048 8  80900023.228 7
R05  22199845.641 6  22199852.371 6 118670958.563 6  92299621.130 6
R18  22344713.820 7  22344720.113 7 119277584.381 7  92771229.032 7
R19  19652581.531 8  19652583.539 7 105128056.504 8  81766332.076 7
R20  21409808.164 6  21409815.309 7 114487907.855 6  89046160.219 7
> 2025 06 15 14 47  0.0000000  0 25
C06  38411162.898 6  38411157.691 6 200017005.461 6 154665832.085 6
C11  23433972.055 6  23433968.281 7 122026824.061 6  94358875.254 7
C12  23165574.375 7  23165572.992 7 120629230.590 7  93278105.758 7
C16  39008015.594 6  39008017.035 6 203124972.472 6 157069106.901 6
C21  22308421.164 7                 116165804.648 7
C22  22539245.609 7                 117367761.858 7
E03  24487987.508 8  24487990.363 8 128685244.462 8  97349562.827 8
E05  22328609.781 8  22328611.277 8 117337635.259 8  88765164.301 8
E15  24128640.742 7  24128643.148 8 126796863.456 7  95921015.313 8
E34  24097807.156 8  24097809.910 8 126634830.573 8  95798434.313 8
G01  21963142.836 7                  21963147.281 7 115417085.221 7                  89935411.001 7
G02  24634205.016 6  24634210.348 4                 129453616.478 6 100872954.947 4
G03  20293347.984 8                  20293354.430 8 106642261.426 8                  83097890.807 8
G04  20607844.422 7                  20607849.617 8 108294951.489 7                  84386066.151 8
G06  23381682.648 5                  23381690.754 7 122871563.034 5                  95744478.624 7
G09  22662244.328 7                  22662250.973 7 119090891.057 7                  92798519.310 7
G17  23231264.789 5                  23231269.840 6 122081110.018 5                  95128181.708 6
G19  22370076.094 6  22370079.121 3                 117555541.044 6  91601716.736 3
G31  22385030.680 7                  22385034.828 7 117634126.718 7                  91662971.426 7
R03  20754995.313 8  20754999.523 7 111103110.879 8  86413467.176 7
R04  19421991.727 8  19421994.355 7 104003881.925 8  80892092.122 7
R05  22195342.750 6  22195348.234 6 118646882.254 6  92280895.172 6
R18  22347357.180 7  22347364.852 7 119291701.640 7  92782209.093 7
R19  19652310.453 8  19652312.898 7 105126607.904 8  81765205.389 7
R20  21405457.531 6  21405463.969 7 114464640.417 6  89028063.313 7
> 2025 06 15 14 47  5.0000000  0 25
C06  38409550.898 6  38409546.160 6 200008612.665 6 154659342.248 6
C11  23431648.625 6  23431644.809 7 122014726.726 6  94349520.797 7
C12  23166333.281 7  23166332.395 7 120633181.832 7  93281161.121 7
C16  39006551.570 6  39006552.504 6 203117346.463 6 157063209.993 6
C21  22306011.266 7                 116153258.187 7
C22  22539570.352 7                 117369452.598 7
E03  24484726.492 8  24484729.262 8 128668107.371 8  97336598.735 8
E05  22327979.977 8  22327981.691 8 117334326.771 8  88762661.464 8
E15  24126041.734 7  24126044.555 8 126783207.629 7  95910684.777 8
E34  24097949.742 8  24097951.883 8 126635576.652 8  95798998.710 8
G01  21964515.727 7                  21964520.879 7 115424303.264 7                  89941035.441 7
G02  24636086.508 6  24636091.777 4                 129463503.932 6 100880659.426 4
G03  20292983.648 8                  20292990.414 8 106640349.199 8                  83096400.761 8
G04  20605026.266 7                  20605031.941 8 108280143.803 7                  84374527.699 8
G06  23377340.000 5                  23377348.547 7 122848743.985 5                  95726697.551 7
G09  22657743.633 7                  22657750.309 7 119067238.177 7                  92780088.501 7
G17  23231823.141 5                  23231829.176 5 122084049.805 5                  95130472.497 5
G19  22369226.125 6  22369230.250 4                 117551080.222 6  91598240.799 4
G31  22383953.695 7                  22383958.055 7 117628469.668 7                  91658563.325 7
R03  20756125.336 8  20756129.855 7 111109162.567 8  86418174.050 7
R04  19420089.438 8  19420093.461 7 103993700.005 8  80884172.874 7
R05  22190839.898 6  22190845.016 6 118622814.256 6  92262175.582 6
R18  22350005.047 7  22350010.859 7 119305827.111 7  92793195.545 7
R19  19652043.445 8  19652045.859 7 105125181.908 8  81764096.278 7
R20  21401109.563 6  21401115.625 7 114441388.301 6  89009978.332 7
> 2025 06 15 14 47 10.0000000  0 25
C06  38407940.055 6  38407936.297 6 200000225.418 6 154652856.694 6
C11  23429327.992 6  23429324.461 7 122002644.242 6  94340177.847 7
C12  23167095.586 7  23167093.609 8 120637145.079 7  93284225.757 8
C16  39005088.250 6  39005089.004 7 203109725.856 6 157057317.251 7
C21  22303603.406 7                 116140721.318 7
C22  22539896.836 7                 117371150.676 7
E03  24481467.391 8  24481469.898 8 128650979.374 8  97323641.521 8
E05  22327352.195 8  22327354.063 8 117331028.554 8  88760166.384 8
E15  24123444.969 7  24123447.832 8 126769561.738 7  95900361.756 8
E34  24098093.961 8  24098095.824 8 126636333.024 8  95799570.903 8
G01  21965891.961 7                  21965896.504 7 115431532.033 7                  89946668.236 7
G02  24637968.031 6  24637973.945 3                 129473395.402 6 100888367.044 3
G03  20292622.445 8                  20292628.953 8 106638448.499 8                  83094919.677 8
G04  20602211.656 7                  20602216.668 8 108265350.368 7                  84363000.348 8
G06  23372998.531 5                  23373007.867 6 122825933.272 5                  95708922.955 6
G09  22653242.953 7                  22653250.578 7 119043593.320 7                  92761663.965 7
G17  23232385.367 5                  23232390.879 5 122087001.477 5                  95132772.457 5
G19  22368381.227 6  22368384.672 4                 117546637.927 6  91594779.312 4
G31  22382880.797 7                  22382884.922 7 117622831.938 7                  91654170.285 7
R03  20757258.180 8  20757262.012 7 111115223.339 8  86422887.979 7
R04  19418191.125 8  19418194.957 7 103983533.764 8  80876265.802 7
R05  22186338.688 6  22186344.930 6 118598754.993 6  92243462.823 6
R18  22352652.289 7  22352658.953 7 119319961.213 7  92804188.717 7
R19  19651781.383 8  19651784.000 7 105123779.278 8  81763005.333 7
R20  21396764.500 6  21396770.207 7 114418151.934 6  88991905.605 7
> 2025 06 15 14 47 15.0000000  0 25
C06  38406330.438 6  38406326.535 6 199991843.715 6 154646375.432 6
C11  23427009.578 6  23427007.035 7 121990576.659 6  94330846.417 7
C12  23167858.023 6  23167856.609 7 120641120.334 6  93287299.673 7
C16  39003625.289 6  39003626.727 7 203102110.549 6 157051428.606 7
C21  22301198.281 7                 116128194.016 7
C22  22540224.461 7                 117372856.114 7
E03  24478209.633 8  24478212.285 8 128633860.452 8  97310691.180 8
E05  22326726.664 8  22326728.398 8 117327740.643 8  88757679.092 8
E15  24120850.078 7  24120853.016 8 126755925.808 7  95890046.267 8
E34  24098239.766 8  24098241.734 8 126637099.692 8  95800150.875 8
G01  21967269.203 7                  21967273.902 7 115438771.488 7                  89952309.351 7
G02  24639850.977 6  24639856.922 4                 129483290.893 6 100896077.787 4
G03  20292263.055 8                  20292269.355 8 106636559.277 8                  83093447.556 8
G04  20599398.781 7                  20599404.227 8 108250571.202 7                  84351484.120 8
G06  23368659.609 5                  23368668.355 6 122803130.868 5                  95691154.867 6
G09  22648745.383 7                  22648753.008 7 119019956.493 7                  92743245.678 7
G17  23232949.805 6                  23232954.770 5 122089964.963 6                  95135081.641 5
G19  22367540.031 6  22367542.625 4                 117542214.300 6  91591332.327 4
G31  22381811.375 7                  22381816.344 7 117617213.526 7                  91649792.304 7
R03  20758391.984 8  20758395.883 7 111121293.028 8  86427608.846 7
R04  19416296.078 8  19416299.629 7 103973383.132 8  80868370.854 7
R05  22181842.203 6  22181845.016 6 118574704.520 6  92224756.859 6
R18  22355301.305 7  22355307.992 7 119334103.945 7  92815188.623 7
R19  19651524.500 8  19651525.992 7 105122399.767 8  81761932.379 7
R20  21392422.523 6  21392427.309 7 114394931.253 6  88973845.079 7
> 2025 06 15 14 47 20.0000000  0 25
C06  38404721.813 6  38404717.895 6 199983466.266 6 154639897.463 6
C11  23424695.273 6  23424691.805 7 121978522.712 6  94321525.542 7
C12  23168623.977 6  23168621.813 8 120645106.381 6  93290381.934 8
C16  39002163.172 6  39002164.988 7 203094499.436 6 157045543.195 7
C21  22298794.883 7                 116115675.054 7
C22  22540553.055 7                 117374567.631 7
E03  24474953.414 8  24474956.125 8 128616749.342 8  97297746.743 8
E05  22326102.844 8  22326104.461 8 117324461.710 8  88755198.603 8
E15  24118256.828 8  24118259.836 8 126742298.554 8  95879737.345 8
E34  24098387.367 8  24098389.348 8 126637875.345 8  95800737.649 8
G01  21968648.234 7                  21968653.398 7 115446020.355 7                  89957957.801 7
G02  24641735.484 6  24641740.480 3                 129493189.190 6 100903790.712 3
G03  20291905.547 8                  20291911.609 8 106634680.272 8                  83091983.399 8
G04  20596588.898 7                  20596594.418 8 108235805.045 7                  84339978.032 8
G06  23364320.375 5                  23364330.625 6 122780335.49615                  95673392.28616
G09  22644248.172 7                  22644256.098 7 118996326.452 7                  92724832.663 7
G17  23233516.523 6                  23233521.664 5 122092938.976 6                  95137399.017 5
G19  22366701.461 6  22366703.371 3                 117537807.984 6  91587898.859 3
G31  22380745.969 7                  22380750.297 7 117611613.148 7                  91645428.385 7
R03  20759527.164 8  20759531.191 7 111127370.467 8  86432335.732 7
R04  19414403.664 8  19414406.676 7 103963246.823 8  80860487.054 7
R05  22177344.734 6  22177347.094 6 118550661.447 6  92206056.687 6
R18  22357952.852 7  22357959.117 7 119348254.041 7  92826194.247 7
R19  19651269.828 8  19651272.457 7 105121042.188 8  81760876.495 7
R20  21388081.516 6  21388088.066 7 114371725.202 6  88955795.936 7
> 2025 06 15 14 47 25.0000000  0 25
C06  38403113.945 6  38403109.680 6 199975093.891 6 154633423.405 6
C11  23422382.977 6  23422379.973 7 121966483.179 6  94312215.821 7
C12  23169390.992 6  23169389.465 8 120649103.965 6  93293473.104 8
C16  39000702.625 6  39000704.422 7 203086893.186 6 157039661.583 7
C21  22296392.125 7                 116103165.204 7
C22  22540882.828 7                 117376286.006 7
E03  24471698.836 8  24471701.617 8 128599646.863 8  97284808.833 8
E05  22325480.961 8  22325482.359 8 117321192.580 8  88752725.532 8
E15  24115665.273 8  24115668.492 8 126728680.788 8  95869435.606 8
E34  24098536.734 8  24098538.813 8 126638660.826 8  95801331.859 8
G01  21970030.063 7                  21970034.859 7 115453279.439 7                  89963614.206 7
G02  24643618.672 6  24643624.680 4                 129503091.014 6 100911506.399 4
G03  20291549.953 8                  20291555.902 7 106632812.280 8                  83090527.819 7
G04  20593781.906 7                  20593786.895 8 108221052.686 7                  84328482.682 8
G06  23359983.844 5                  23359994.074 6 122757548.14615                  95655635.96716
G09  22639753.188 7                  22639761.328 7 118972703.950 7                  92706425.540 7
G17  23234083.898 6                  23234088.875 5 122095924.269 6                  95139725.194 5
G19  22365865.773 6  22365867.801 3                 117533419.776 6  91584479.459 3
G31  22379683.430 7                  22379688.457 7 117606031.627 7                  91641079.151 7
R03  20760663.484 8  20760668.137 7 111133456.242 8  86437069.116 7
R04  19412513.047 8  19412516.691 7 103953125.671 8  80852615.042 7
R05  22172845.859 5  22172851.176 6 118526626.719 5  92187363.083 6
R18  22360605.125 7  22360610.414 7 119362412.262 7  92837206.168 7
R19  19651020.734 8  19651022.598 7 105119707.329 8  81759838.261 7
R20  21383745.445 6  21383751.145 7 114348534.564 6  88937758.775 7
> 2025 06 15 14 47 30.0000000  0 25
C06  38401507.258 6  38401502.758 6 199966725.464 6 154626952.417 6
C11  23420073.758 6  23420070.242 7 121954456.947 6  94302916.371 7
C12  23170161.703 7  23170159.063 8 120653111.861 7  93296572.277 8
C16  38999242.641 6  38999244.418 7 203079290.671 6 157033782.827 7
C21  22293991.297 7                 116090663.338 7
C22  22541213.992 7                 117378010.104 7
E03  24468445.617 8  24468448.535 8 128582551.831 8  97271876.563 8
E05  22324860.469 8  22324861.910 8 117317932.087 8  88750258.991 8
E15  24113075.875 8  24113078.723 8 126715071.366 8  95859140.166 8
E34  24098687.391 8  24098689.973 8 126639454.946 8  95801932.603 8
G01  21971412.797 7                  21971417.953 7 115460547.577 7                  89969277.665 7
G02  24645503.750 6  24645509.113 3                 129512995.271 6 100919223.949 3
G03  20291195.844 8                  20291202.363 7 106630954.150 8                  83089079.928 7
G04  20590977.133 7                  20590982.379 8 108206312.993 7                  84316997.194 8
G06  23355650.656 5                  23355659.090 6 122734767.521 5                  95637884.872 6
G09  22635259.211 7                  22635267.527 7 118949087.898 7                  92688023.438 7
G17  23234653.641 6                  23234658.770 5 122098919.690 6                  95142059.225 5
G19  22365034.852 6  22365035.309 3                 117529048.616 6  91581073.346 3
G31  22378624.906 7                  22378629.730 7 117600467.802 7                  91636743.726 7
R03  20761801.758 8  20761806.980 7 111139549.379 8  86441808.236 7
R04  19410625.602 8  19410628.969 7 103943018.513 8  80844753.935 7
R05  22168350.445 6  22168356.492 6 118502599.071 6  92168674.961 6
R18  22363257.656 7  22363263.930 7 119376577.408 7  92848223.473 7
R19  19650775.203 8  19650777.488 7 105118394.066 8  81758816.819 7
R20  21379411.922 6  21379416.535 7 114325358.052 6  88919732.605 7
> 2025 06 15 14 47 35.0000000  0 25
C06  38399900.516 6  38399896.391 6 199958361.419 6 154620484.797 6
C11  23417766.969 6  23417763.160 7 121942444.514 6  94293627.575 7
C12  23170933.945 7  23170930.598 8 120657130.670 7  93299679.856 8
C16  38997783.430 6  38997785.094 7 203071692.379 6 157027907.347 7
C21  22291592.086 7                 116078169.920 7
C22  22541545.813 7                 117379740.378 7
E03  24465193.961 8  24465196.973 8 128565464.745 8  97258950.295 8
E05  22324242.023 8  22324243.199 8 117314680.682 8  88747799.325 8
E15  24110487.617 8  24110490.598 8 126701470.764 8  95848851.402 8
E34  24098840.430 8  24098842.824 8 126640258.189 8  95802540.242 8
G01  21972797.688 7                  21972803.105 7 115467825.217 7                  89974948.553 7
G02  24647389.016 6  24647394.316 3                 129522902.360 6 100926943.705 3
G03  20290844.273 8                  20290850.664 8 106629106.342 8                  83087640.076 8
G04  20588174.258 7                  20588179.941 8 108191586.406 7                  84305521.938 8
G06  23351318.172 5                  23351325.484 6 122711994.190 5                  95620139.423 6
G09  22630766.922 7                  22630775.098 7 118925478.743 7                  92669626.737 7
G17  23235226.352 6                  23235231.020 5 122101925.729 6                  95144401.527 5
G19  22364206.641 6  22364206.699 3                 117524694.772 6  91577680.725 3
G31  22377569.609 7                  22377574.738 7 117594922.109 7                  91632422.415 7
R03  20762941.148 8  20762946.313 7 111145650.354 8  86446553.458 7
R04  19408741.297 8  19408744.285 7 103932925.792 8  80836904.044 7
R05  22163857.102 5  22163863.359 6 118478579.237 5  92149992.886 6
R18  22365913.008 7  22365918.457 6 119390749.989 7  92859246.584 6
R19  19650534.656 8  19650536.129 7 105117102.778 8  81757812.502 7
R20  21375080.000 6  21375085.723 7 114302196.178 6  88901717.831 7
> 2025 06 15 14 47 40.0000000  0 25
C06  38398294.914 6  38398291.289 6 199950002.305 6 154614021.021 6
C11  23415462.219 6  23415459.316 7 121930446.314 6  94284349.810 7
C12  23171708.016 7  23171704.883 8 120661160.812 7  93302796.207 8
C16  38996325.609 6  38996326.840 7 203064098.856 6 157022035.556 7
C21  22289194.430 7                 116065685.451 7
C22  22541878.586 7                 117381477.351 7
E03  24461944.250 8  24461946.984 8 128548386.131 8  97246030.449 8
E05  22323625.047 8  22323626.324 8 117311438.906 8  88745346.945 8
E15  24107901.531 8  24107904.234 8 126687879.503 8  95838569.697 8
E34  24098995.125 8  24098997.512 8 126641071.076 8  95803155.176 8
G01  21974185.031 7                  21974189.676 7 115475112.894 7                  89980627.262 7
G02  24649275.602 6  24649280.340 4                 129532812.783 6 100934666.088 4
G03  20290495.047 8                  20290501.277 8 106627269.401 8                  83086208.693 8
G04  20585374.969 7                  20585379.770 8 108176873.468 7                  84294057.306 8
G06  23346985.789 5                  23346993.246 6 122689228.729 5                  95602400.077 6
G09  22626275.555 7                  22626283.270 7 118901877.070 7                  92651235.824 7
G17  23235801.078 6                  23235805.359 5 122104942.858 6                  95146752.529 5
G19  22363382.398 6  22363382.047 3                 117520358.901 6  91574302.110 3
G31  22376518.477 7                  22376522.137 7 117589395.086 7                  91628115.639 7
R03  20764082.883 8  20764087.844 7 111151759.531 8  86451305.028 7
R04  19406858.766 8  19406862.551 7 103922848.034 8  80829065.794 7
R05  22159366.906 6  22159371.664 6 118454567.253 6  92131316.902 6
R18  22368569.000 7  22368575.434 6 119404930.435 7  92870275.801 6
R19  19650296.430 8  19650298.828 7 105115834.018 8  81756825.683 7
R20  21370751.836 6  21370757.723 7 114279049.529 6  88883714.888 7
> 2025 06 15 14 47 45.0000000  0 25
C06  38396690.453 6  38396686.750 6 199941646.962 6 154607560.135 6
C11  23413159.063 6  23413157.582 7 121918461.304 6  94275082.232 7
C12  23172484.164 7  23172480.750 7 120665201.163 7  93305920.445 7
C16  38994867.281 6  38994869.613 7 203056508.864 6 157016166.484 7
C21  22286798.813 7                 116053208.792 7
C22  22542213.484 7                 117383219.844 7
E03  24458695.586 8  24458698.500 8 128531314.799 8  97233116.109 8
E05  22323010.023 8  22323011.039 8 117308205.574 8  88742900.950 8
E15  24105316.688 8  24105319.406 9 126674296.424 8  95828294.196 9
E34  24099151.453 8  24099153.797 8 126641892.429 8  95803776.518 8
G01  21975573.109 7                  21975577.988 7 115482409.412 7                  89986312.866 7
G02  24651161.711 6  24651166.898 4                 129542725.387 6 100942390.188 4
G03  20290147.305 8                  20290153.449 8 106625442.110 8                  83084784.831 8
G04  20582577.586 7                  20582582.520 8 108162173.032 7                  84282602.426 8
G06  23342654.336 5                  23342662.723 6 122666469.813 5                  95584665.861 6
G09  22621785.891 7                  22621793.426 7 118878281.670 7                  92632849.813 7
G17  23236376.750 6                  23236381.949 5 122107969.834 6                  95149111.267 5
G19  22362560.727 6  22362561.070 3                 117516039.832 6  91570936.564 3
G31  22375468.945 7                  22375473.645 7 117583885.565 7                  91623822.516 7
R03  20765225.844 8  20765230.203 7 111157875.868 8  86456062.172 7
R04  19404979.438 8  19404983.016 7 103912783.985 8  80821238.188 7
R05  22154874.719 6  22154881.695 6 118430562.338 6  92112646.465 6
R18  22371228.430 7  22371232.738 6 119419117.589 7  92881310.244 6
R19  19650063.609 8  19650065.855 7 105114586.591 8  81755855.466 7
R20  21366425.242 6  21366431.578 7 114255916.889 6  88865722.844 7
> 2025 06 15 14 47 50.0000000  0 25
C06  38395086.586 6  38395083.027 6 199933295.926 6 154601102.573 6
C11  23410860.633 6  23410858.543 7 121906490.006 6  94265825.254 7
C12  23173262.281 7  23173258.855 7 120669252.228 7  93309052.978 7
C16  38993410.531 6  38993412.363 6 203048923.066 6 157010300.675 6
C21  22284404.500 8                 116040740.505 8
C22  22542548.938 7                 117384968.419 7
E03  24455448.828 8  24455451.367 8 128514251.347 8  97220207.727 8
E05  22322396.148 8  22322397.480 8 117304981.279 8  88740461.798 8
E15  24102733.414 8  24102736.348 9 126660722.114 8  95818025.321 9
E34  24099309.625 8  24099311.824 8 126642722.810 8  95804404.694 8
G01  21976963.359 7                  21976968.082 7 115489715.341 7                  89992005.798 7
G02  24653049.227 6  24653054.066 4                 129552640.705 6 100950116.356 4
G03  20289801.258 8                  20289807.801 8 106623625.101 8                  83083368.969 8
G04  20579782.570 7                  20579787.152 8 108147485.665 7                  84271157.724 8
G06  23338325.203 5                  23338333.125 6 122643718.135 5                  95566937.288 6
G09  22617296.859 7                  22617304.230 7 118854693.135 7                  92614469.116 7
G17  23236954.398 6                  23236959.141 5 122111007.372 6                  95151478.202 5
G19  22361743.133 6  22361743.023 4                 117511738.059 6  91567584.514 4
G31  22374424.703 7                  22374428.355 7 117578394.119 7                  91619543.461 7
R03  20766370.008 8  20766374.262 7 111163999.843 8  86460825.261 7
R04  19403103.125 8  19403106.383 7 103902734.346 8  80813421.808 7
R05  22150389.984 6  22150391.566 6 118406564.954 6  92093981.858 6
R18  22373886.805 7  22373892.215 6 119433311.981 7  92892350.329 6
R19  19649834.523 8  19649836.711 7 105113361.081 8  81754902.287 7
R20  21362102.586 6  21362108.180 7 114232798.789 6  88847742.100 7
> 2025 06 15 14 47 55.0000000  0 25
C06  38393484.328 6  38393480.016 6 199924949.934 6 154594648.931 6
C11  23408562.906 5  23408562.613 7 121894533.103 5  94256579.448 7
C12  23174042.211 7  23174038.895 8 120673314.752 7  93312194.378 8
C16  38991954.836 6  38991956.891 7 203041342.076 6 157004438.576 7
C21  22282011.563 7                 116028281.319 7
C22  22542886.133 7                 117386723.799 7
E03  24452203.398 8  24452205.910 8 128497196.504 8  97207305.866 8
E05  22321784.766 8  22321785.781 8 117301766.709 8  88738029.989 8
E15  24100152.477 8  24100155.008 8 126647157.304 8  95807763.637 8
E34  24099469.250 8  24099471.730 8 126643562.960 8  95805040.259 8
G01  21978354.945 7                  21978360.238 7 115497031.433 7                  89997706.624 7
G02  24654936.477 6  24654941.941 4                 129562559.476 6 100957845.241 4
G03  20289457.828 8                  20289463.676 7 106621819.066 8                  83081961.676 7
G04  20576990.109 7                  20576994.941 8 108132812.059 7                  84259723.751 8
G06  23333996.711 5                  23334005.063 6 122620974.369 5                  95549214.905 6
G09  22612810.188 7                  22612816.762 6 118831112.220 7                  92596094.351 6
G17  23237534.367 6                  23237538.875 6 122114056.167 6                  95153853.853 6
G19  22360926.484 6  22360928.371 4                 117507454.352 6  91564246.604 4
G31  22373383.422 7                  22373387.164 7 117572921.479 7                  91615279.067 7
R03  20767514.984 8  20767519.477 7 111170132.021 8  86465594.720 7
R04  19401228.359 8  19401231.422 7 103892699.770 8  80805617.126 7
R05  22145899.258 6  22145903.699 7 118382575.867 6  92075323.715 7
R18  22376547.148 7  22376552.633 6 119447514.426 7  92903396.658 6
R19  19649609.391 8  19649611.922 7 105112158.208 8  81753966.723 7
R20  21357781.867 6  21357787.355 7 114209696.150 6  88829773.382 7
> 2025 06 15 14 48  0.0000000  0 25
C06  38391882.273 6  38391878.422 6 199916609.110 6 154588199.281 6
C11  23406271.414 6  23406269.680 7 121882590.769 6  94247344.885 7
C12  23174824.109 7  23174821.211 8 120677388.862 7  93315344.719 8
C16  38990499.234 6  38990501.730 7 203033766.175 6 156998580.397 7
C21  22279620.289 8                 116015831.372 8
C22  22543224.945 7                 117388486.136 7
E03  24448959.602 8  24448962.152 8 128480150.426 8  97194410.622 8
E05  22321174.727 8  22321175.980 8 117298562.034 8  88735605.676 8
E15  24097572.859 8  24097575.543 8 126633602.145 8  95797509.253 8
E34  24099631.703 8  24099633.535 8 126644413.041 8  95805683.341 8
G01  21979749.992 7                  21979754.520 7 115504357.778 7                  90003415.481 7
G02  24656825.328 6  24656830.594 4                 129572481.867 6 100965576.935 4
G03  20289116.023 8                  20289122.434 7 106620024.163 8                  83080563.040 7
G04  20574200.609 7                  20574205.453 8 108118152.423 7                  84248300.663 8
G06  23329670.008 5                  23329678.945 6 122598238.795 5                  95531498.863 6
G09  22608324.016 7                  22608330.730 6 118807539.049 7                  92577725.652 6
G17  23238117.477 6                  23238121.379 6 122117116.280 6                  95156238.341 6
G19  22360115.555 6  22360116.836 4                 117503188.825 6  91560922.831 4
G31  22372345.555 7                  22372349.195 7 117567467.835 7                  91611029.450 7
R03  20768662.609 8  20768667.145 7 111176272.968 8  86470371.011 7
R04  19399357.766 8  19399360.766 7 103882680.553 8  80797824.395 7
R05  22141408.531 4  22141417.891 6 118358595.371 4  92056672.129 6
R18  22379209.344 7  22379215.047 7 119461724.960 7  92914449.297 7
R19  19649389.063 8  19649391.063 7 105110978.142 8  81753048.867 7
R20  21353462.828 6  21353470.570 7 114186609.089 6  88811816.791 7
> 2025 06 15 14 48  5.0000000  0 25
C06  38390281.563 6  38390277.125 6 199908272.797 6 154581753.104 6
C11  23403980.891 6  23403979.027 7 121870662.403 6  94238121.120 7
C12  23175608.609 6  23175605.516 8 120681473.894 6  93318503.512 8
C16  38989044.891 6  38989047.555 7 203026194.563 6 156992725.526 7
C21  22277231.055 8                 116003389.988 8
C22  22543564.266 7                 117390254.726 7
E03  24445717.305 8  24445719.938 8 128463112.395 8  97181521.469 8
E05  22320566.188 8  22320567.895 8 117295366.547 8  88733188.314 8
E15  24094995.258 8  24094997.816 9 126620055.961 8  95787261.658 9
E34  24099794.859 8  24099797.063 8 126645272.346 8  95806333.392 8
G01  21981145.195 7                  21981150.500 7 115511693.690 7                  90009131.774 7
G02  24658713.867 6  24658719.375 4                 129582407.171 6 100973310.896 4
G03  20288776.258 8                  20288783.004 8 106618239.691 8                  83079172.555 8
G04  20571413.391 7                  20571418.426 8 108103506.041 7                  84236887.901 8
G06  23325344.281 5                  23325353.883 6 122575510.656 5                  95513788.632 6
G09  22603838.844 7                  22603846.484 6 118783972.926 7                  92559362.438 6
G17  23238703.195 6                  23238705.715 6 122120187.029 6                  95158631.088 6
G19  22359305.641 6  22359308.281 4                 117498940.776 6  91557612.700 4
G31  22371311.422 7                  22371314.590 6 117562032.421 7                  91606794.054 6
R03  20769811.336 8  20769815.539 7 111182421.678 8  86475153.337 7
R04  19397489.695 8  19397492.359 7 103872675.827 8  80790042.943 7
R05  22136926.594 5  22136932.688 7 118334622.57515  92038026.60417
R18  22381872.242 7  22381878.957 7 119475942.895 7  92925507.656 7
R19  19649172.266 8  19649174.559 7 105109820.120 8  81752148.208 7
R20  21349149.938 6  21349156.020 7 114163536.966 6  88793871.815 7
> 2025 06 15 14 48 10.0000000  0 25
C06  38388680.875 6  38388676.973 6 199899940.716 6 154575310.213 6
C11  23401692.984 6  23401690.801 7 121858747.643 6  94228907.878 7
C12  23176394.344 6  23176391.543 8 120685569.547 6  93321670.520 8
C16  38987592.094 6  38987594.086 7 203018626.990 6 156986873.800 7
C21  22274843.391 8                 115990956.883 8
C22  22543904.906 7                 117392029.315 7
E03  24442476.563 8  24442479.199 8 128446082.164 8  97168638.220 8
E05  22319960.047 8  22319961.523 8 117292179.956 8  88730777.680 8
E15  24092419.266 8  24092421.738 9 126606518.461 8  95777020.626 9
E34  24099960.375 8  24099962.320 8 126646140.562 8  95806990.191 8
G01  21982542.711 7                  21982548.586 7 115519038.899 7                  90014855.308 7
G02  24660603.391 6  24660608.363 4                 129592335.088 6 100981046.913 4
G03  20288438.711 8                  20288445.355 8 106616465.345 8                  83077789.954 8
G04  20568628.367 7                  20568633.816 8 108088872.616 7                  84225485.229 8
G06  23321019.977 5                  23321030.199 6 122552789.655 5                  95496083.940 6
G09  22599355.945 6                  22599363.320 6 118760413.583 6                  92541004.522 6
G17  23239289.258 6                  23239292.617 6 122123268.168 6                  95161031.974 6
G19  22358501.305 6  22358502.699 3                 117494709.993 6  91554315.986 3
G31  22370280.820 7                  22370284.102 7 117556614.952 7                  91602572.670 7
R03  20770961.234 8  20770965.461 7 111188577.861 8  86479941.452 7
R04  19395624.164 8  19395626.438 7 103862685.271 8  80782272.499 7
R05  22132443.109 5  22132449.855 7 118310657.053 5  92019386.833 7
R18  22384537.609 7  22384543.832 6 119490167.928 7  92936571.552 6
R19  19648959.875 8  19648962.434 7 105108683.900 8  81751264.472 7
R20  21344837.336 6  21344843.957 7 114140479.283 6  88775938.087 7
> 2025 06 15 14 48 15.0000000  0 25
C06  38387082.352 6  38387078.094 6 199891614.430 6 154568871.799 6
C11  23399409.227 6  23399405.699 7 121846848.086 6  94219706.389 7
C12  23177183.453 6  23177180.355 8 120689677.378 6  93324846.949 8
C16  38986139.875 6  38986141.578 6 203011065.021 6 156981026.416 6
C21  22272457.430 7                 115978533.592 7
C22  22544246.734 7                 117393811.429 7
E03  24439237.836 8  24439240.227 8 128429061.288 8  97155762.045 8
E05  22319355.688 8  22319357.168 8 117289003.853 8  88728374.973 8
E15  24089845.094 8  24089847.609 9 126592991.231 8  95766787.369 9
E34  24100127.438 8  24100129.547 8 126647019.309 8  95807654.954 8
G01  21983942.938 7                  21983948.281 7 115526394.966 7                  90020587.277 7
G02  24662493.656 6  24662498.395 4                 129602267.188 6 100988786.179 4
G03  20288103.648 8                  20288109.664 7 106614702.740 8                  83076416.486 7
G04  20565846.641 7                  20565851.859 8 108074253.757 7                  84214093.910 8
G06  23316697.516 5                  23316708.168 7 122530077.427 5                  95478386.129 7
G09  22594874.000 7                  22594881.902 6 118736862.622 7                  92522653.167 6
G17  23239876.266 6                  23239880.805 6 122126361.230 6                  95163442.132 6
G19  22357698.797 5  22357700.941 3                 117490498.014 5  91551033.965 3
G31  22369253.195 8                  22369256.699 7 117551217.055 8                  91598366.508 7
R03  20772113.359 8  20772116.977 7 111194743.209 8  86484736.705 7
R04  19393761.266 8  19393764.152 7 103852710.702 8  80774514.526 7
R05  22127961.492 5  22127968.027 7 118286700.714 5  92000754.144 7
R18  22387204.172 7  22387209.801 6 119504401.707 7  92947642.279 6
R19  19648751.797 8  19648754.371 7 105107571.138 8  81750398.987 7
R20  21340528.602 6  21340535.746 7 114117437.960 6  88758017.079 7
> 2025 06 15 14 48 20.0000000  0 25
C06  38385484.070 6  38385480.051 6 199883292.770 6 154562436.968 6
C11  23397125.211 6  23397123.176 7 121834962.547 6  94210515.738 7
C12  23177975.305 6  23177971.406 7 120693796.195 6  93328031.887 7
C16  38984688.156 6  38984690.129 6 203003507.498 6 156975182.452 6
C21  22270073.961 7                 115966118.974 7
C22  22544590.055 7                 117395599.907 7
E03  24436000.609 8  24436002.801 8 128412048.600 8  97142892.068 8
E05  22318753.000 8  22318754.547 8 117285837.034 8  88725979.292 8
E15  24087272.813 8  24087275.203 9 126579473.110 8  95756561.001 9
E34  24100296.266 8  24100298.551 8 126647907.377 8  95808326.770 8
G01  21985344.891 7                  21985350.359 7 115533760.710 7                  90026326.811 7
G02  24664384.984 7  24664388.672 4                 129612202.282 7 100996527.779 4
G03  20287769.773 8                  20287776.418 7 106612950.670 8                  83075051.229 7
G04  20563067.086 7                  20563072.379 8 108059648.286 7                  84202713.037 8
G06  23312377.664 5                  23312387.754 6 122507372.784 5                  95460694.224 6
G09  22590393.820 7                  22590401.309 6 118713318.836 7                  92504307.392 6
G17  23240466.719 6                  23240470.930 6 122129465.080 6                  95165860.688 6
G19  22356900.836 5  22356902.441 3                 117486303.611 5  91547765.541 3
G31  22368229.383 7                  22368233.039 6 117545837.534 7                  91594174.683 6
R03  20773267.484 8  20773270.293 7 111200916.372 8  86489538.045 7
R04  19391901.539 8  19391904.309 7 103842750.755 8  80766767.907 7
R05  22123481.445 5  22123487.797 7 118262752.324 5  91982127.641 7
R18  22389871.680 7  22389877.723 6 119518642.912 7  92958718.747 6
R19  19648547.273 8  19648550.434 7 105106480.526 8  81749550.750 7
R20  21336221.094 6  21336229.016 7 114094411.829 6  88740107.890 7
> 2025 06 15 14 48 25.0000000  0 25
C06  38383886.797 6  38383883.176 6 199874977.019 6 154556006.689 6
C11  23394846.008 5  23394843.824 7 121823092.387 5  94201336.961 7
C12  23178768.156 7  23178765.121 8 120697927.275 7  93331226.308 8
C16  38983238.273 6  38983239.453 6 202995955.684 6 156969342.915 6
C21  22267691.398 7                 115953714.310 7
C22  22544935.656 7                 117397396.009 7
E03  24432764.875 8  24432767.164 8 128395045.400 8  97130029.266 8
E05  22318152.563 8  22318153.941 8 117282680.784 8  88723591.615 8
E15  24084702.547 8  24084704.754 8 126565965.374 8  95746342.491 8
E34  24100467.023 8  24100469.578 8 126648806.065 8  95809006.612 8
G01  21986748.141 7                  21986754.223 7 115541137.394 7                  90032074.883 7
G02  24666274.898 6  24666280.125 4                 129622141.644 6 101004272.683 4
G03  20287438.813 8                  20287445.199 8 106611210.425 8                  83073695.195 8
G04  20560291.531 7                  20560296.039 8 108045057.472 7                  84191343.571 8
G06  23308059.523 5                  23308068.844 6 122484676.992 5                  95443009.190 6
G09  22585915.398 7                  22585923.336 6 118689783.626 7                  92485968.272 6
G17  23241060.906 6                  23241063.805 6 122132580.873 6                  95168288.553 6
G19  22356106.430 5  22356107.777 3                 117482128.115 5  91544511.923 3
G31  22367209.609 7                  22367213.191 6 117540477.678 7                  91589998.179 6
R03  20774422.539 8  20774424.629 7 111207098.677 8  86494346.501 7
R04  19390043.680 8  19390047.336 7 103832806.715 8  80759033.661 7
R05  22119003.695 6  22119009.785 7 118238813.162 6  91963508.305 7
R18  22392541.320 7  22392547.988 7 119532892.892 7  92969802.054 7
R19  19648348.078 8  19648350.918 7 105105413.351 8  81748720.706 7
R20  21331919.625 6  21331926.793 7 114071402.187 6  88722211.493 7
> 2025 06 15 14 48 30.0000000  0 25
C06  38382290.398 6  38382287.371 6 199866666.566 6 154549580.532 6
C11  23392567.688 5  23392567.148 7 121811236.924 5  94192169.564 7
C12  23179564.273 7  23179561.102 8 120702070.027 7  93334429.754 8
C16  38981789.141 6  38981790.297 6 202988409.040 6 156963507.378 6
C21  22265311.219 8                 115941319.035 8
C22  22545282.125 7                 117399199.180 7
E03  24429530.789 8  24429533.258 8 128378051.127 8  97117173.209 8
E05  22317553.773 8  22317555.262 8 117279534.552 8  88721211.506 8
E15  24082134.133 8  24082136.180 9 126552467.485 8  95736131.423 9
E34  24100640.102 8  24100642.527 8 126649714.805 8  95809694.063 8
G01  21988154.281 7                  21988160.004 7 115548524.442 7                  90037831.031 7
G02  24668167.078 6  24668172.379 4                 129632084.717 6 101012020.499 4
G03  20287110.016 8                  20287116.051 7 106609481.437 8                  83072347.938 7
G04  20557517.375 7                  20557522.313 8 108030480.768 7                  84179985.103 8
G06  23303742.133 5                  23303752.023 6 122461989.535 5                  95425330.637 6
G09  22581438.352 7                  22581446.250 7 118666256.330 7                  92467635.324 7
G17  23241655.367 6                  23241658.590 6 122135708.107 6                  95170725.354 6
G19  22355315.023 5  22355316.918 3                 117477970.989 5  91541272.595 3
G31  22366193.703 7                  22366197.445 7 117535136.923 7                  91585836.560 7
R03  20775578.055 8  20775582.273 7 111213289.647 8  86499161.714 7
R04  19388190.469 8  19388193.184 7 103822878.092 8  80751311.390 7
R05  22114526.273 6  22114533.660 7 118214882.571 6  91944895.612 7
R18  22395212.523 7  22395219.445 7 119547151.037 7  92980891.705 7
R19  19648153.055 8  19648155.215 7 105104369.070 8  81747908.479 7
R20  21327619.492 6  21327626.250 7 114048408.288 6  88704327.338 7
> 2025 06 15 14 48 35.0000000  0 25
C06  38380695.969 6  38380692.348 6 199858359.854 6 154543157.257 6
C11  23390293.195 5  23390292.887 7 121799394.692 5  94183012.384 7
C12  23180361.961 7  23180358.219 8 120706222.878 7  93337640.979 8
C16  38980340.516 6  38980341.738 6 202980865.972 6 156957674.604 6
C21  22262931.789 8                 115928931.563 8
C22  22545629.367 7                 117401007.834 7
E03  24426298.281 8  24426300.742 8 128361064.170 8  97104322.688 8
E05  22316956.547 8  22316958.145 8 117276396.711 8  88718837.754 8
E15  24079567.102 8  24079569.164 8 126538977.840 8  95725926.589 8
E34  24100814.867 8  24100817.059 8 126650632.001 8  95810387.908 8
G01  21989561.719 7                  21989567.246 7 115555920.256 7                  90043593.981 7
G02  24670061.359 6  24670064.871 4                 129642029.875 6 101019769.955 4
G03  20286782.672 8                  20286789.211 8 106607762.104 8                  83071008.200 8
G04  20554745.617 7                  20554750.605 8 108015916.596 7                  84168636.394 8
G06  23299425.453 5                  23299435.344 6 122439308.924 5                  95407657.390 6
G09  22576962.188 7                  22576970.250 6 118642735.368 7                  92449307.326 6
G17  23242250.758 6                  23242255.574 6 122138845.229 6                  95173169.831 6
G19  22354527.898 5  22354529.141 3                 117473830.545 5  91538046.322 3
G31  22365179.781 7                  22365184.277 6 117529813.627 7                  91581688.531 6
R03  20776735.055 8  20776740.324 7 111219487.539 8  86503982.299 7
R04  19386338.914 8  19386341.813 7 103812963.356 8  80743599.929 7
R05  22110052.250 6  22110057.836 7 118190959.104 6  91926288.462 7
R18  22397885.078 7  22397891.898 7 119561415.783 7  92991986.457 7
R19  19647962.898 8  19647964.453 7 105103346.123 8  81747112.845 7
R20  21323322.555 6  21323329.301 7 114025428.517 6  88686454.211 7
> 2025 06 15 14 48 40.0000000  0 25
C06  38379101.914 6  38379097.664 6 199850057.477 6 154536737.343 6
C11  23388021.000 5  23388021.125 7 121787566.160 5  94173865.820 7
C12  23181162.328 7  23181158.125 8 120710386.450 7  93340860.509 8
C16  38978892.820 6  38978893.809 6 202973327.024 6 156951845.021 6
C21  22260554.828 7                 115916552.468 7
C22  22545978.117 7                 117402822.553 7
E03  24423066.992 8  24423069.734 8 128344085.144 8  97091478.169 8
E05  22316361.273 8  22316362.766 8 117273267.854 8  88716470.795 8
E15  24077001.820 8  24077003.844 8 126525497.001 8  95715728.432 8
E34  24100991.086 8  24100993.320 8 126651558.219 8  95811088.583 8
G01  21990970.742 7                  21990976.223 7 115563325.447 7                  90049364.258 7
G02  24671953.414 6  24671958.027 4                 129651977.700 6 101027521.504 4
G03  20286457.594 8                  20286463.875 7 106606053.039 8                  83069676.463 7
G04  20551976.977 7                  20551981.453 8 108001365.515 7                  84157297.899 8
G06  23295111.531 5                  23295120.602 7 122416635.569 5                  95389989.854 7
G09  22572487.539 7                  22572495.395 7 118619221.389 7                  92430984.787 7
G17  23242849.758 6                  23242855.023 6 122141992.758 6                  95175622.435 6
G19  22353744.609 5  22353744.953 3                 117469707.483 5  91534833.461 3
G31  22364170.828 7                  22364174.707 7 117524508.473 7                  91577554.649 7
R03  20777894.523 8  20777900.117 7 111225693.053 8  86508808.814 7
R04  19384489.203 8  19384493.242 7 103803062.818 8  80735899.518 7
R05  22105580.125 6  22105583.871 7 118167043.249 6  91907687.234 7
R18  22400558.445 7  22400565.559 7 119575687.603 7  93003086.735 7
R19  19647775.406 8  19647777.301 7 105102345.038 8  81746334.232 7
R20  21319026.883 6  21319034.648 7 114002463.646 6  88668592.668 7
> 2025 06 15 14 48 45.0000000  0 25
C06  38377507.859 6  38377504.359 6 199841759.867 6 154530321.102 6
C11  23385752.664 5  23385751.980 7 121775751.874 5  94164730.284 7
C12  23181964.031 7  23181959.844 8 120714561.031 7  93344088.571 8
C16  38977445.867 6  38977446.898 6 202965792.630 6 156946018.955 6
C21  22258178.938 8                 115904182.160 8
C22  22546327.977 7                 117404643.731 7
E03  24419837.695 8  24419840.305 8 128327114.414 8  97078639.935 8
E05  22315767.414 8  22315769.152 8 117270148.376 8  88714110.930 8
E15  24074438.383 8  24074440.281 9 126512025.446 8  95705537.289 9
E34  24101168.891 8  24101171.391 8 126652493.896 8  95811796.411 8
G01  21992381.539 7                  21992387.402 7 115570740.360 7                  90055142.100 7
G02  24673846.805 6  24673852.250 4                 129661928.574 6 101035275.386 4
G03  20286134.414 8                  20286140.691 7 106604354.600 8                  83068352.989 7
G04  20549209.797 7                  20549215.074 8 107986827.927 7                  84145969.927 8
G06  23290798.930 6                  23290807.496 7 122393969.983 6                  95372328.377 7
G09  22568015.063 7                  22568022.715 7 118595714.769 7                  92412667.959 7
G17  23243450.875 6                  23243455.629 6 122145150.986 6                  95178083.412 6
G19  22352960.469 5  22352963.730 2                 117465602.103 5  91531634.499 2
G31  22363164.625 7                  22363168.750 7 117519221.786 7                  91573435.170 7
R03  20779055.742 8  20779060.480 7 111231906.508 8  86513641.499 7
R04  19382643.070 8  19382647.332 7 103793177.172 8  80728210.692 7
R05  22101106.859 5  22101111.285 7 118143135.284 5  91889092.184 7
R18  22403233.891 7  22403240.871 7 119589967.019 7  93014192.900 7
R19  19647592.109 8  19647594.063 7 105101366.309 8  81745572.988 7
R20  21314736.641 6  21314743.340 7 113979514.025 6  88650742.964 7
> 2025 06 15 14 48 50.0000000  0 25
C06  38375914.938 6  38375911.527 6 199833465.873 6 154523907.655 6
C11  23383484.695 5  23383485.789 7 121763950.632 5  94155604.832 7
C12  23182766.773 7  23182763.867 8 120718745.603 7  93347324.344 8
C16  38975999.586 6  38976001.051 6 202958261.706 6 156940195.562 6
C21  22255804.945 8                 115891819.539 8
C22  22546679.195 7                 117406470.237 7
E03  24416609.203 8  24416612.246 8 128310150.896 8  97065807.146 8
E05  22315175.516 8  22315177.094 8 117267037.185 8  88711757.337 8
E15  24071876.211 8  24071878.262 9 126498562.017 8  95695352.297 9
E34  24101348.797 8  24101351.035 8 126653437.881 8  95812510.526 8
G01  21993794.469 7                  21993800.219 7 115578163.900 7                  90060926.666 7
G02  24675740.086 6  24675746.621 4                 129671881.438 6 101043030.839 4
G03  20285813.250 8                  20285819.262 7 106602665.703 8                  83067036.973 7
G04  20546446.234 7                  20546451.313 8 107972302.751 7                  84134651.624 8
G06  23286487.500 6                  23286495.328 6 122371311.028 6                  95354672.066 6
G09  22563542.539 7                  22563550.695 6 118572214.380 7                  92394355.987 6
G17  23244052.633 6                  23244058.262 6 122148318.881 6                  95180551.900 6
G19  22352181.023 5  22352185.750 2                 117461513.324 5  91528448.430 2
G31  22362161.828 7                  22362166.316 7 117513952.495 7                  91569329.228 7
R03  20780217.266 8  20780222.164 7 111238126.863 8  86518479.540 7
R04  19380799.305 8  19380803.727 7 103783305.017 8  80720532.358 7
R05  22096635.844 5  22096640.109 7 118119234.434 5  91870502.617 7
R18  22405909.234 7  22405917.035 7 119604252.779 7  93025304.002 7
R19  19647412.633 8  19647415.250 7 105100408.730 8  81744828.219 7
R20  21310447.875 6  21310454.293 7 113956578.597 6  88632904.294 7
> 2025 06 15 14 48 55.0000000  0 25
C06  38374323.391 6  38374319.504 6 199825176.296 6 154517497.628 6
C11  23381222.852 5  23381222.320 7 121752163.231 5  94146490.080 7
C12  23183572.125 7  23183569.695 8 120722940.925 7  93350568.401 8
C16  38974554.477 6  38974555.309 6 202950734.993 6 156934375.440 6
C21  22253432.352 8                 115879465.385 8
C22  22547031.250 7                 117408302.885 7
E03  24413383.109 7  24413385.715 8 128293195.388 7  97052980.422 8
E05  22314585.055 8  22314586.781 8 117263935.031 8  88709410.578 8
E15  24069315.906 8  24069317.961 8 126485107.500 8  95685174.048 8
E34  24101530.102 8  24101532.398 8 126654390.955 8  95813231.522 8
G01  21995208.984 7                  21995214.156 7 115585596.822 7                  90066718.555 7
G02  24677633.609 6  24677641.336 4                 129681836.976 6 101050788.368 4
G03  20285493.359 8                  20285499.805 8 106600987.117 8                  83065728.980 8
G04  20543684.766 7                  20543689.582 8 107957790.764 7                  84123343.573 8
G06  23282177.500 6                  23282185.109 6 122348659.566 6                  95337021.565 6
G09  22559072.352 6                  22559079.387 6 118548721.025 6                  92376049.494 6
G17  23244658.586 6                  23244663.441 6 122151497.240 6                  95183028.520 6
G19  22351406.664 4  22351410.793 2                 117457441.893 4  91525275.874 2
G31  22361162.656 7                  22361166.938 7 117508701.301 7                  91565237.391 7
R03  20781380.602 8  20781385.832 7 111244354.833 8  86523323.505 7
R04  19378958.820 8  19378962.828 7 103773447.248 8  80712865.213 7
R05  22092168.438 5  22092170.813 7 118095341.232 5  91851919.029 7
R18  22408586.766 7  22408594.328 7 119618545.648 7  93036420.659 7
R19  19647237.805 8  19647240.117 7 105099473.027 8  81744100.442 7
R20  21306160.773 6  21306168.230 7 113933658.170 6  88615077.300 7
> 2025 06 15 14 49  0.0000000  0 24
C06  38372732.781 6  38372728.258 6 199816891.636 6 154511091.399 6
C11  23378963.344 5  23378961.211 7 121740390.303 5  94137386.510 7
C12  23184379.969 7  23184377.262 8 120727147.486 7  93353821.180 8
C16  38973109.078 6  38973110.566 6 202943213.040 6 156928558.992 6
C21  22251061.602 7                 115867120.233 7
C22  22547384.477 7                 117410142.179 7
E03  24410158.336 7  24410160.832 8 128276248.440 7  97040160.177 8
E05  22313996.695 8  22313998.316 8 117260842.476 8  88707071.084 8
E15  24066757.242 8  24066759.465 8 126471662.483 8  95675002.987 8
E34  24101713.156 8  24101715.625 8 126655353.704 8  95813959.832 8
G01  21996625.125 7                  21996630.570 7 115593039.724 7                  90072518.221 7
G02  24679529.414 6  24679536.246 4                 129691795.747 6 101058548.438 4
G03  20285176.242 8                  20285182.516 8 106599319.382 8                  83064429.445 8
G04  20540926.180 7                  20540931.113 8 107943292.507 7                  84112046.236 8
G06  23277869.258 6                  23277876.121 6 122326016.138 6                  95319377.321 6
G09  22554603.102 6                  22554609.738 6 118525235.279 6                  92357748.924 6
G17  23245265.656 6                  23245270.387 6 122154686.579 6                  95185513.741 6
G31  22360167.039 7                  22360171.219 7 117503468.825 7                  91561160.144 7
R03  20782545.609 8  20782550.754 7 111250590.932 8  86528173.811 7
R04  19377120.414 8  19377124.410 7 103763604.568 8  80705209.790 7
R05  22087700.992 6  22087702.086 7 118071456.309 6  91833341.914 7
R18  22411265.547 7  22411273.016 7 119632846.135 7  93047543.236 7
R19  19647066.703 8  19647069.641 7 105098559.723 8  81743390.088 7
R20  21301877.992 6  21301884.172 7 113910753.322 6  88597262.407 7
> 2025 06 15 14 49  5.0000000  0 24
C06  38371143.000 6  38371137.965 6 199808611.560 6 154504688.733 6
C11  23376706.500 5  23376702.723 7 121728631.375 5  94128293.768 7
C12  23185190.813 7  23185187.789 8 120731364.952 7  93357082.399 8
C16  38971665.938 6  38971666.781 6 202935695.505 6 156922745.940 6
C21  22248693.492 7                 115854783.715 7
C22  22547739.172 7                 117411987.761 7
E03  24406935.609 7  24406937.500 8 128259309.644 7  97027346.104 8
E05  22313409.945 8  22313411.570 8 117257759.140 8  88704738.555 8
E15  24064200.227 8  24064202.691 9 126458226.587 8  95664838.823 9
E34  24101897.969 8  24101900.613 8 126656325.721 8  95814695.148 8
G01  21998043.109 7                  21998048.961 7 115600492.135 7                  90078325.293 7
G02  24681425.547 6  24681432.000 4                 129701757.416 6 101066310.747 4
G03  20284860.438 8                  20284866.977 8 106597662.165 8                  83063138.104 8
G04  20538169.383 7                  20538174.594 8 107928807.640 7                  84100759.330 8
G06  23273561.422 6                  23273568.703 6 122303380.357 6                  95301739.038 6
G09  22550135.836 7                  22550141.559 6 118501756.780 7                  92339453.975 6
G17  23245874.109 6                  23245879.586 6 122157886.516 6                  95188007.196 6
G31  22359174.398 7                  22359179.105 7 117498254.655 7                  91557097.161 7
R03  20783712.227 8  20783716.414 7 111256834.838 8  86533030.173 7
R04  19375285.836 8  19375289.859 7 103753776.495 8  80697565.733 7
R05  22083232.875 6  22083235.648 7 118047579.219 6  91814770.876 7
R18  22413946.469 7  22413953.555 7 119647153.951 7  93058671.512 7
R19  19646900.289 8  19646902.703 7 105097668.563 8  81742696.962 7
R20  21297598.711 6  21297603.469 7 113887863.560 6  88579459.270 7
> 2025 06 15 14 49 10.0000000  0 24
C06  38369553.078 6  38369548.750 6 199800334.835 6 154498288.646 6
C11  23374451.422 5  23374446.730 7 121716885.313 5  94119210.970 7
C12  23186002.219 7  23185999.941 8 120735592.014 7  93360351.033 8
C16  38970222.711 6  38970223.691 6 202928181.108 6 156916935.342 6
C21  22246325.773 7                 115842454.588 7
C22  22548094.500 7                 117413838.386 7
E03  24403712.836 7  24403715.504 8 128242377.803 7  97014537.284 8
E05  22312824.750 8  22312826.340 8 117254683.750 8  88702412.045 8
E15  24061644.883 8  24061647.414 9 126444798.573 8  95654680.616 9
E34  24102084.602 8  24102087.094 8 126657305.777 8  95815436.548 8
G01  21999463.320 7                  21999468.645 7 115607952.891 7                  90084138.857 7
G02  24683321.391 6  24683328.352 4                 129711720.723 6 101074074.331 4
G03  20284547.266 8                  20284553.457 8 106596014.164 8                  83061853.947 8
G04  20535414.977 7                  20535420.594 8 107914334.871 7                  84089481.850 8
G06  23269255.016 6                  23269262.781 7 122280751.007 6                  95284105.780 7
G09  22545669.016 6                  22545674.613 6 118478284.286 6                  92321163.738 6
G17  23246484.594 6                  23246490.285 6 122161095.761 6                  95190507.893 6
G31  22358185.406 7                  22358190.305 7 117493057.550 7                  91553047.458 7
R03  20784879.563 8  20784884.492 7 111263085.204 8  86537891.558 7
R04  19373453.203 8  19373456.777 7 103743961.694 8  80689932.005 7
R05  22078768.164 6  22078770.648 7 118023708.822 6  91796205.080 7
R18  22416628.063 7  22416635.027 7 119661467.776 7  93069804.471 7
R19  19646737.992 8  19646740.051 7 105096798.232 8  81742020.037 7
R20  21293319.016 6  21293325.891 7 113864987.731 6  88561666.951 7
> 2025 06 15 14 49 15.0000000  0 24
C06  38367965.266 6  38367960.531 7 199792063.184 6 154491892.490 7
C11  23372197.148 5  23372194.145 6 121705153.744 5  94110139.387 6
C12  23186817.500 7  23186813.875 8 120739830.429 7  93363628.443 8
C16  38968780.375 6  38968781.773 6 202920671.605 6 156911128.512 6
C21  22243959.633 7                 115830134.607 7
C22  22548450.930 7                 117415695.782 7
E03  24400492.398 7  24400495.152 8 128225454.645 7  97001735.032 8
E05  22312241.172 8  22312242.965 8 117251618.080 8  88700092.883 8
E15  24059091.539 8  24059093.996 9 126431380.174 8  95644529.691 9
E34  24102273.328 8  24102275.457 8 126658295.605 8  95816185.346 8
G01  22000885.055 7                  22000890.043 7 115615423.660 7                  90089960.211 7
G02  24685217.867 6  24685225.156 4                 129721687.408 6 101081840.556 4
G03  20284235.602 8                  20284241.941 7 106594377.140 8                  83060578.343 7
G04  20532663.742 7                  20532668.973 8 107899875.984 7                  84078215.194 8
G06  23264950.680 6                  23264958.434 7 122258129.790 6                  95266478.867 7
G09  22541202.992 6                  22541209.953 6 118454819.521 6                  92302879.515 6
G17  23247098.086 6                  23247103.129 6 122164316.078 6                  95193017.228 6
G31  22357199.945 7                  22357204.992 7 117487879.268 7                  91549012.436 7
R03  20786048.977 8  20786053.930 7 111269343.772 8  86542759.342 7
R04  19371622.805 8  19371626.832 7 103734161.950 8  80682309.981 7
R05  22074302.820 6  22074306.711 7 117999846.841 6  91777645.767 7
R18  22419310.219 7  22419318.043 7 119675789.403 7  93080943.492 7
R19  19646579.781 8  19646582.098 7 105095950.526 8  81741360.680 7
R20  21289045.289 6  21289050.449 7 113842127.629 6  88543886.887 7
> 2025 06 15 14 49 20.0000000  0 24
C06  38366377.188 6  38366373.129 7 199783796.525 6 154485500.188 7
C11  23369945.898 5  23369943.922 6 121693436.718 5  94101079.049 6
C12  23187632.477 7  23187629.660 8 120744080.223 7  93366914.646 8
C16  38967339.406 6  38967340.680 6 202913166.982 6 156905325.467 6
C21  22241595.047 7                 115817823.720 7
C22  22548808.484 7                 117417559.919 7
E03  24397273.648 8  24397276.441 9 128208540.147 8  96988939.322 9
E05  22311659.953 8  22311661.422 8 117248562.061 8  88697781.028 8
E15  24056540.352 7  24056542.430 9 126417971.372 7  95634386.017 9
E34  24102463.242 8  24102465.680 8 126659295.156 8  95816941.490 8
G01  22002308.109 7                  22002313.730 7 115622904.406 7                  90095789.360 7
G02  24687115.133 6  24687122.441 4                 129731657.384 6 101089609.346 4
G03  20283925.844 8                  20283932.344 8 106592751.089 8                  83059311.285 8
G04  20529915.836 7                  20529920.246 8 107885430.933 7                  84066959.320 8
G06  23260646.906 6                  23260654.703 7 122235516.724 6                  95248858.298 7
G09  22536739.367 6                  22536746.488 6 118431362.458 6                  92284601.316 6
G17  23247713.414 6                  23247717.977 6 122167547.470 6                  95195535.179 6
G31  22356219.594 7                  22356222.793 7 117482719.793 7                  91544992.058 7
R03  20787220.680 8  20787224.535 7 111275610.679 8  86547633.585 7
R04  19369795.672 8  19369799.527 7 103724377.238 8  80674699.642 7
R05  22069840.258 6  22069844.207 7 117975993.403 6  91759093.069 7
R18  22421995.766 7  22422002.484 7 119690118.722 7  93092088.481 7
R19  19646426.055 8  19646427.609 7 105095125.423 8  81740718.937 7
R20  21284772.148 6  21284778.473 7 113819283.263 6  88526119.042 7
> 2025 06 15 14 49 25.0000000  0 24
C06  38364790.414 6  38364786.246 7 199775535.366 6 154479112.134 7
C11  23367699.633 5  23367696.574 6 121681734.623 5  94092030.258 6
C12  23188450.750 7  23188447.652 8 120748341.710 7  93370209.878 8
C16  38965898.945 6  38965900.480 6 202905667.605 6 156899526.468 6
C21  22239232.766 8                 115805522.360 8
C22  22549167.594 7                 117419431.192 7
E03  24394056.727 8  24394059.441 9 128191634.708 8  96976150.474 9
E05  22311080.336 8  22311081.785 8 117245516.136 8  88695476.805 8
E15  24053990.461 8  24053992.742 9 126404572.612 8  95624249.949 9
E34  24102655.570 8  24102657.813 8 126660304.866 8  95817705.327 8
G01  22003733.781 7                  22003739.285 7 115630395.584 7                  90101626.632 7
G02  24689012.297 6  24689020.340 4                 129741631.116 6 101097381.068 4
G03  20283618.484 8                  20283625.164 8 106591136.363 8                  83058053.063 8
G04  20527168.328 7                  20527174.188 8 107871000.134 7                  84055714.540 8
G06  23256345.648 6                  23256353.426 7 122212912.311 6                  95231244.475 7
G09  22532277.406 7                  22532284.586 6 118407913.565 7                  92266329.498 6
G17  23248329.484 6                  23248335.469 6 122170790.227 6                  95198062.024 6
G31  22355240.836 7                  22355244.262 7 117477579.525 7                  91540986.669 7
R03  20788392.477 8  20788396.906 7 111281886.280 8  86552514.587 7
R04  19367971.742 8  19367974.484 7 103714608.085 8  80667101.408 7
R05  22065378.180 5  22065383.746 7 117952148.661 5  91740547.166 7
R18  22424681.250 7  22424688.516 7 119704456.173 7  93103239.779 7
R19  19646275.742 8  19646277.516 7 105094323.227 8  81740095.015 7
R20  21280502.742 6  21280509.969 7 113796455.073 6  88508363.791 7
> 2025 06 15 14 49 30.0000000  0 24
C06  38363204.313 6  38363200.641 7 199767278.921 6 154472727.729 7
C11  23365455.008 5  23365451.730 6 121670046.816 5  94082992.523 6
C12  23189270.078 6  23189268.246 8 120752614.235 6  93373513.654 8
C16  38964460.688 6  38964461.383 6 202898172.810 6 156893731.029 6
C21  22236871.781 7                 115793229.804 7
C22  22549527.586 7                 117421308.911 7
E03  24390841.453 8  24390844.043 8 128174737.680 8  96963367.983 8
E05  22310502.445 8  22310503.926 8 117242479.586 8  88693179.674 8
E15  24051442.688 8  24051444.848 9 126391183.166 8  95614120.921 9
E34  24102849.383 8  24102851.754 8 126661324.049 8  95818476.328 8
G01  22005161.188 7                  22005166.488 7 115637896.491 7                  90107471.488 7
G02  24690912.156 6  24690918.895 4                 129751607.867 6 101105155.116 4
G03  20283313.086 8                  20283319.969 8 106589532.321 8                  83056803.170 8
G04  20524425.563 7                  20524430.516 8 107856582.933 7                  84044480.354 8
G06  23252045.516 6                  23252053.848 7 122190315.755 6                  95213636.755 7
G09  22527817.273 7                  22527823.762 6 118384472.118 7                  92248063.441 6
G17  23248949.570 6                  23248954.637 6 122174043.771 6                  95200597.267 6
G31  22354265.836 7                  22354269.742 7 117472457.770 7                  91536995.719 7
R03  20789567.258 8  20789570.852 7 111288169.541 8  86557401.571 7
R04  19366151.023 8  19366152.977 7 103704853.737 8  80659514.684 7
R05  22060916.766 5  22060925.105 7 117928312.012 5  91722007.552 7
R18  22427369.469 7  22427375.480 7 119718801.027 7  93114396.857 7
R19  19646129.516 8  19646132.090 7 105093543.254 8  81739488.392 7
R20  21276236.578 6  21276243.707 7 113773642.381 6  88490620.608 7
> 2025 06 15 14 49 35.0000000  0 24
C06  38361620.281 6  38361615.758 7 199759026.308 6 154466346.290 7
C11  23363213.445 5  23363210.055 6 121658372.265 5  94073965.043 6
C12  23190091.672 7  23190090.848 8 120756896.887 7  93376825.253 8
C16  38963022.125 6  38963022.727 6 202890681.672 6 156887938.408 6
C21  22234512.984 7                 115780945.174 7
C22  22549889.328 7                 117423192.165 7
E03  24387627.633 8  24387630.055 8 128157848.102 8  96950591.131 8
E05  22309926.102 8  22309927.684 8 117239451.481 8  88690888.934 8
E15  24048896.117 8  24048898.570 9 126377802.147 8  95603998.275 9
E34  24103045.031 8  24103047.309 8 126662351.749 8  95819253.774 8
G01  22006589.789 7                  22006595.770 7 115645406.144 7                  90113323.164 7
G02  24692810.422 6  24692817.836 3                 129761586.743 6 101112930.840 3
G03  20283010.172 8                  20283016.348 8 106587938.040 8                  83055560.870 8
G04  20521684.000 7                  20521689.555 8 107842178.375 7                  84033256.019 8
G06  23247747.688 6                  23247755.238 7 122167726.241 6                  95196034.519 7
G09  22523357.523 7                  22523364.102 6 118361037.235 7                  92229802.499 6
G17  23249569.711 6                  23249575.797 6 122177307.167 6                  95203140.122 6
G31  22353293.891 7                  22353298.508 7 117467353.576 7                  91533018.421 7
R03  20790740.898 8  20790745.488 7 111294459.850 8  86562294.010 7
R04  19364331.172 8  19364333.863 7 103695113.124 8  80651938.634 7
R05  22056457.625 4  22056466.715 7 117904482.553 4  91703473.531 7
R18  22430056.781 7  22430064.570 7 119733152.310 7  93125558.951 7
R19  19645987.391 8  19645990.250 7 105092784.704 8  81738898.387 7
R20  21271974.773 6  21271980.387 7 113750844.362 6  88472888.823 7
> 2025 06 15 14 49 40.0000000  0 23
C06  38360035.836 6  38360031.938 7 199750778.111 6 154459968.262 7
C11  23360976.227 5  23360970.566 6 121646711.566 5  94064948.314 6
C12  23190917.672 7  23190915.551 8 120761190.089 7  93380145.023 8
C16  38961583.438 6  38961584.773 6 202883194.715 6 156882149.035 6
C21  22232155.555 8                 115768668.924 8
C22  22550251.695 7                 117425081.460 7
E03  24384415.078 8  24384417.578 8 128140966.474 8  96937820.302 8
E05  22309351.516 8  22309353.168 8 117236432.352 8  88688604.983 8
E15  24046351.586 8  24046353.992 9 126364430.065 8  95593882.388 9
E34  24103242.086 8  24103244.590 8 126663388.481 8  95820038.056 8
G01  22008020.648 7                  22008026.301 7 115652925.081 7                  90119182.064 7
G02  24694710.125 6  24694716.906 4                 129771568.181 6 101120708.551 4
G03  20282708.727 8                  20282714.977 7 106586353.996 8                  83054326.543 7
G04  20518945.945 7                  20518950.754 8 107827786.960 7                  84022041.942 8
G06  23243449.250 6                  23243458.496 7 122145144.175 6                  95178438.114 7
G09  22518898.906 7                  22518906.145 6 118337609.425 7                  92211547.064 6
G17  23250193.320 6                  23250199.156 6 122180580.801 6                  95205690.972 6
G31  22352326.320 7                  22352330.375 7 117462267.499 7                  91529055.225 7
R03  20791917.859 8  20791922.293 7 111300757.713 8  86567192.341 7
R04  19362515.297 8  19362517.398 7 103685386.896 8  80644373.799 7
R18  22432747.828 7  22432753.930 7 119747510.488 7  93136726.403 7
R19  19645850.023 8  19645852.402 7 105092047.902 8  81738325.300 7
R20  21267713.664 6  21267719.914 7 113728061.422 6  88455168.777 7
> 2025 06 15 14 49 45.0000000  0 25
C06  38358452.469 6  38358448.777 7 199742534.430 6 154453593.729 7
C11  23358743.117 4  23358733.988 6 121635064.999 4  94055942.492 6
C12  23191743.391 7  23191742.027 8 120765494.086 7  93383473.143 8
C16  38960147.188 6  38960148.410 6 202875712.072 6 156876362.993 6
C21  22229799.523 7                 115756401.305 7
C22  22550615.414 7                 117426976.950 7
E03  24381204.164 8  24381206.668 8 128124093.019 8  96925055.656 8
E05  22308778.688 8  22308780.359 8 117233422.366 8  88686327.945 8
E15  24043808.727 8  24043811.160 9 126351067.125 8  95583773.410 9
E34  24103440.875 8  24103443.648 8 126664434.449 8  95820829.314 8
G01  22009453.594 7                  22009459.047 7 115660453.473 7                  90125048.331 7
G02  24696610.070 6  24696616.480 4                 129781552.411 6 101128488.417 4
G03  20282409.297 8                  20282415.613 7 106584780.382 8                  83053100.357 7
G04  20516209.336 7                  20516214.961 8 107813408.927 7                  84010838.282 8
G06  23239153.031 6                  23239162.785 7 122122569.834 6                  95160847.734 7
G09  22514443.266 7                  22514449.457 7 118314188.842 7                  92193297.256 7
G17  23250817.352 6                  23250824.328 7 122183864.940 6                  95208250.007 7
G19  22343857.688 5                                                                
G31  22351362.133 7                  22351365.973 7 117457199.692 7                  91525106.266 7
R03  20793095.945 8  20793100.254 7 111307063.243 8  86572096.648 7
R04  19360701.328 8  19360703.820 7 103675675.157 8  80636820.225 7
R05  22047550.945 5  22047555.492 7 117856847.09715  91666423.71917
R18  22435437.586 7  22435445.105 7 119761875.788 7  93147899.420 7
R19  19645716.117 8  19645718.969 7 105091333.182 8  81737769.416 7
R20  21263456.250 6  21263462.027 7 113705293.755 6  88437460.598 7
> 2025 06 15 14 49 50.0000000  0 25
C06  38356869.914 6  38356866.133 7 199734294.816 6 154447222.340 7
C11  23356506.711 4  23356500.711 6 121623432.00814  94046947.08316
C12  23192572.375 7  23192570.582 8 120769808.390 7  93386809.225 8
C16  38958710.625 6  38958712.109 6 202868233.334 6 156870579.946 6
C21  22227445.086 7                 115744141.812 7
C22  22550980.977 7                 117428878.165 7
E03  24377994.586 8  24377997.219 8 128107227.253 8  96912296.826 8
E05  22308207.922 8  22308209.227 8 117230421.036 8  88684057.458 8
E15  24041267.258 8  24041269.941 9 126337712.830 8  95573670.978 9
E34  24103641.969 8  24103644.352 8 126665489.168 8  95821627.197 8
G01  22010887.711 7                  22010892.969 7 115667990.854 7                  90130921.591 7
G02  24698510.891 6  24698516.488 3                 129791538.965 6 101136270.131 3
G03  20282111.727 8                  20282117.891 7 106583216.715 8                  83051881.914 7
G04  20513476.188 7                  20513481.406 8 107799043.753 7                  83999644.650 8
G06  23234858.555 6                  23234868.348 7 122100002.710 6                  95143263.010 7
G09  22509987.648 7                  22509994.414 7 118290775.086 7                  92175052.769 7
G17  23251444.148 6                  23251451.449 7 122187159.059 6                  95210816.816 7
G19  22343114.289 4                                 117413768.76714                
G31  22350400.695 7                  22350404.863 6 117452149.663 7                  91521171.185 6
R03  20794274.055 8  20794279.328 7 111313375.814 8  86577006.446 7
R04  19358890.250 8  19358892.918 7 103665977.403 8  80629277.540 7
R05  22043097.461 6  22043101.844 7 117833040.706 6  91647907.674 7
R18  22438130.375 7  22438137.637 7 119776247.766 7  93159077.618 7
R19  19645586.906 8  19645589.012 7 105090640.031 8  81737230.286 7
R20  21259199.672 6  21259207.742 7 113682540.940 6  88419763.980 7
> 2025 06 15 14 49 55.0000000  0 25
C06  38355288.578 6  38355284.625 7 199726058.377 6 154440853.396 7
C11  23354273.039 4  23354269.102 7 121611811.91114  94037961.65917
C12  23193403.414 7  23193400.762 8 120774132.131 7  93390152.617 8
C16  38957275.242 6  38957276.438 6 202860757.656 6 156864799.275 6
C21  22225091.859 7                 115731889.571 7
C22  22551347.609 7                 117430784.241 7
E03  24374786.414 8  24374789.078 8 128090368.308 8  96899543.151 8
E05  22307638.203 8  22307639.555 8 117227427.481 8  88681792.854 8
E15  24038727.563 8  24038730.223 9 126324366.326 8  95563574.435 9
E34  24103844.367 8  24103846.531 8 126666551.754 8  95822431.021 8
G01  22012323.750 7                  22012329.207 7 115675536.299 7                  90136801.128 7
G02  24700410.742 6  24700416.879 4                 129801526.896 6 101144052.869 4
G03  20281815.953 8                  20281822.297 7 106581662.130 8                  83050670.541 7
G04  20510745.125 8                  20510750.223 8 107784690.589 8                  83988460.361 8
G06  23230566.438 6                  23230575.008 7 122077441.981 6                  95125683.237 7
G09  22505533.125 7                  22505540.008 7 118267367.229 7                  92156812.898 7
G17  23252072.672 6                  23252079.781 7 122190462.297 6                  95213390.759 7
G19  22342374.555 5                                 117409905.64515                
G31  22349442.719 7                  22349447.219 6 117447116.560 7                  91517249.294 6
R03  20795454.367 8  20795459.988 7 111319694.606 8  86581921.050 7
R04  19357082.141 8  19357084.508 7 103656292.988 8  80621745.216 7
R05  22038646.133 6  22038649.754 7 117809240.898 6  91629396.774 7
R18  22440823.766 7  22440830.395 7 119790625.465 7  93170260.258 7
R19  19645460.797 8  19645463.508 7 105089967.558 8  81736707.261 7
R20  21254948.984 6  21254954.844 7 113659802.077 6  88402078.177 7
> 2025 06 15 14 50  0.0000000  0 25
C06  38353707.461 6  38353703.605 7 199717825.641 6 154434487.326 7
C11  23352042.352 5  23352040.195 7 121600204.86315  94028986.27317
C12  23194234.875 7  23194233.043 8 120778465.784 7  93393503.646 8
C16  38955840.250 6  38955841.355 6 202853285.414 6 156859021.265 6
C21  22222740.453 7                 115719645.099 7
C22  22551714.602 7                 117432695.706 7
E03  24371579.695 8  24371582.344 8 128073516.688 8  96886795.017 8
E05  22307070.070 8  22307071.469 8 117224442.213 8  88679534.520 8
E15  24036189.539 8  24036192.055 9 126311028.106 8  95553484.166 9
E34  24104047.984 8  24104050.313 8 126667622.720 8  95823241.197 8
G01  22013761.586 7                  22013766.680 7 115683090.350 7                  90142687.391 7
G02  24702312.578 6  24702317.594 4                 129811516.715 6 101151837.121 4
G03  20281521.539 8                  20281528.246 7 106580117.142 8                  83049466.656 7
G04  20508015.977 8                  20508021.000 8 107770349.942 8                  83977285.833 8
G06  23226274.172 6                  23226282.863 7 122054888.222 6                  95108108.887 7
G09  22501080.070 7                  22501086.492 7 118243965.787 7                  92138578.035 7
G17  23252703.633 6                  23252709.762 7 122193775.129 6                  95215972.176 7
G19  22341641.961 5                                 117406059.084 5                
G31  22348489.328 7                  22348493.059 7 117442100.872 7                  91513340.956 7
R03  20796636.938 8  20796641.316 7 111326020.216 8  86586840.959 7
R04  19355275.680 8  19355278.930 7 103646622.112 8  80614223.425 7
R05  22034193.781 6  22034198.785 7 117785448.089 6  91610891.263 7
R18  22443518.563 7  22443524.566 7 119805009.351 7  93181447.700 7
R19  19645338.883 8  19645341.914 7 105089316.154 8  81736200.597 7
R20  21250699.563 6  21250704.816 7 113637077.614 6  88384403.592 7
> 2025 06 15 14 50  5.0000000  0 25
C06  38352127.523 6  38352123.617 7 199709598.538 6 154428125.608 7
C11  23349819.930 5  23349814.148 7 121588612.971 5  94020022.714 7
C12  23195068.875 7  23195067.406 8 120782811.281 7  93396863.845 8
C16  38954406.703 6  38954407.461 6 202845818.640 6 156853247.471 6
C21  22220390.742 7                 115707410.326 7
C22  22552083.133 7                 117434614.433 7
E03  24368374.563 8  24368377.363 8 128056674.346 8  96874053.903 8
E05  22306503.828 8  22306505.348 8 117221467.161 8  88677283.911 8
E15  24033653.461 8  24033655.840 9 126297700.173 8  95543401.667 9
E34  24104253.891 8  24104256.082 8 126668703.988 8  95824059.167 8
G01  22015201.117 7                  22015206.066 7 115690654.916 7                  90148581.846 7
G02  24704213.742 6  24704219.207 3                 129821510.411 6 101159624.391 3
G03  20281230.195 8                  20281236.520 7 106578583.665 8                  83048271.741 7
G04  20505289.969 8                  20505294.824 8 107756023.758 8                  83966122.576 8
G06  23221983.688 6                  23221992.582 7 122032343.291 6                  95090541.418 7
G09  22496628.297 7                  22496634.797 6 118220572.727 7                  92120349.706 6
G17  23253337.508 7                  23253342.535 7 122197099.498 7                  95218562.573 7
G19  22340916.734 5                                 117402231.205 5                
G31  22347538.234 7                  22347542.695 7 117437104.560 7                  91509447.738 7
R03  20797821.086 8  20797824.777 7 111332354.721 8  86591767.789 7
R04  19353472.172 8  19353475.496 7 103636966.780 8  80606713.741 7
R05  22029742.945 6  22029749.637 7 117761664.325 6  91592392.832 7
R18  22446213.609 7  22446221.234 7 119819401.430 7  93192641.521 7
R19  19645221.430 8  19645224.477 7 105088687.840 8  81735711.917 7
R20  21246451.531 6  21246458.648 7 113614369.648 6  88366741.860 7
> 2025 06 15 14 50 10.0000000  0 25
C06  38350549.188 6  38350544.777 7 199701377.417 6 154421768.519 7
C11  23347595.219 5  23347591.352 7 121577036.597 5  94011071.136 7
C12  23195905.430 6  23195904.324 7 120787168.907 6  93400233.429 7
C16  38952973.211 6  38952974.289 6 202838357.670 6 156847478.169 6
C21  22218042.750 7                 115695185.579 7
C22  22552452.930 7                 117436540.773 7
E03  24365171.125 7  24365174.242 8 128039841.639 7  96861320.078 8
E05  22305939.469 8  22305941.227 8 117218502.683 8  88675041.301 8
E15  24031119.109 8  24031121.637 9 126284382.819 8  95533327.175 9
E34  24104461.547 8  24104463.867 8 126669795.915 8  95824885.202 8
G01  22016642.969 7                  22016647.508 7 115698230.332 7                  90154484.769 7
G02  24706116.273 6  24706121.773 3                 129831508.278 6 101167414.919 3
G03  20280940.578 8                  20280947.160 7 106577062.063 8                  83047086.066 7
G04  20502566.633 7                  20502571.500 8 107741712.370 7                  83954970.854 8
G06  23217695.125 6                  23217704.289 7 122009807.604 6                  95072981.140 7
G09  22492178.836 7                  22492184.828 6 118197188.411 7                  92102128.162 6
G17  23253972.250 7                  23253977.398 7 122200435.706 7                  95221162.229 7
G19  22340187.148 4                                 117398422.24814                
G31  22346590.828 7                  22346594.941 7 117432127.959 7                  91505569.865 7
R03  20799005.781 8  20799009.816 7 111338698.264 8  86596701.645 7
R04  19351672.344 8  19351675.430 7 103627327.495 8  80599216.522 7
R05  22025294.508 6  22025301.691 7 117737890.003 6  91573901.719 7
R18  22448913.172 7  22448919.168 7 119833802.022 7  93203841.927 7
R19  19645108.656 8  19645111.699 7 105088083.092 8  81735241.544 7
R20  21242209.164 6  21242215.699 7 113591678.547 6  88349093.218 7
> 2025 06 15 14 50 15.0000000  0 25
C06  38348971.648 6  38348966.859 7 199693161.898 6 154415415.771 7
C11  23345376.836 4  23345371.305 7 121565475.341 4  94002131.261 7
C12  23196744.148 6  23196743.340 8 120791538.350 6  93403612.163 8
C16  38951541.313 6  38951542.563 6 202830902.104 6 156841713.056 6
C21  22215697.578 7                 115682970.507 7
C22  22552824.523 7                 117438474.394 7
E03  24361969.891 8  24361972.855 8 128023018.195 8  96848593.267 8
E05  22305377.461 8  22305379.043 8 117215548.396 8  88672806.399 8
E15  24028586.594 8  24028589.355 9 126271075.713 8  95523260.441 9
E34  24104671.391 8  24104673.633 8 126670898.149 8  95825719.040 8
G01  22018086.047 7                  22018091.367 7 115705816.254 7                  90160395.883 7
G02  24708019.836 6  24708025.203 3                 129841509.890 6 101175208.348 3
G03  20280653.484 8                  20280659.980 8 106575551.996 8                  83045909.376 8
G04  20499845.484 7                  20499850.719 8 107727415.465 7                  83943830.404 8
G06  23213408.945 6                  23213417.422 7 121987280.691 6                  95055427.707 7
G09  22487730.469 7                  22487736.563 6 118173812.499 7                  92083913.165 6
G17  23254609.461 7                  23254614.453 7 122203783.408 7                  95223770.806 7
G19  22339465.742 4                                 117394631.599 4                
G31  22345648.031 7                  22345652.375 7 117427170.681 7                  91501707.043 7
R03  20800192.633 8  20800196.668 7 111345050.502 8  86601642.266 7
R04  19349874.781 8  19349878.270 7 103617703.866 8  80591731.471 7
R05  22020850.016 6  22020856.113 7 117714124.763 6  91555417.665 7
R18  22451611.430 7  22451618.012 7 119848210.716 7  93215048.651 7
R19  19644999.484 8  19645002.652 7 105087501.335 8  81734789.082 7
R20  21237969.414 6  21237975.051 7 113569003.996 6  88331457.480 7
> 2025 06 15 14 50 20.0000000  0 25
C06  38347394.516 6  38347390.148 7 199684949.688 6 154409065.579 7
C11  23343162.922 4  23343153.957 7 121553927.011 4  93993201.408 7
C12  23197585.766 6  23197584.078 8 120795917.345 6  93406998.277 8
C16  38950109.328 6  38950111.539 6 202823449.709 6 156835950.400 6
C21  22213353.758 7                 115670762.846 7
C22  22553197.539 7                 117440412.998 7
E03  24358769.992 8  24358772.754 8 128006201.741 8  96835871.741 8
E05  22304816.930 8  22304818.395 8 117212602.053 8  88670577.513 8
E15  24026055.750 8  24026058.605 9 126257776.609 8  95513199.756 9
E34  24104882.602 8  24104884.926 8 126672008.401 8  95826558.937 8
G01  22019530.883 7                  22019536.348 7 115713410.397 7                  90166313.388 7
G02  24709923.219 6  24709929.039 3                 129851513.030 6 101183002.977 3
G03  20280367.430 8                  20280374.129 8 106574051.131 8                  83044739.875 8
G04  20497127.992 7                  20497132.633 8 107713130.721 7                  83932699.440 8
G06  23209122.945 6                  23209131.770 7 121964760.451 6                  95037879.476 7
G09  22483283.180 7                  22483289.117 6 118150442.683 7                  92065702.931 6
G17  23255248.898 7                  23255253.129 7 122207140.333 7                  95226386.572 7
G19  22338751.625 4                                 117390857.25914                
G31  22344707.930 7                  22344711.828 7 117422230.483 7                  91497857.545 7
R03  20801381.484 8  20801384.219 7 111351408.998 8  86606587.760 7
R04  19348080.109 8  19348083.734 7 103608093.547 8  80584256.789 7
R05  22016407.648 6  22016412.160 7 117690366.262 6  91536938.782 7
R18  22454313.063 7  22454319.059 7 119862625.271 7  93226259.948 7
R19  19644894.188 8  19644898.008 7 105086940.344 8  81734352.758 7
R20  21233730.148 6  21233737.559 7 113546343.748 6  88313832.873 7
> 2025 06 15 14 50 25.0000000  0 24
C06  38345817.563 6  38345813.414 7 199676739.281 6 154402716.772 7
C12  23198428.609 6  23198426.496 8 120800304.273 6  93410390.527 8
C16  38948679.578 6  38948680.789 6 202815998.895 6 156830188.975 6
C21  22211010.648 7                 115658561.052 7
C22  22553570.945 7                 117442355.063 7
E03  24355570.875 8  24355573.691 8 127989390.693 8  96823154.299 8
E05  22304257.273 8  22304258.922 8 117209662.013 8  88668353.406 8
E15  24023525.844 7  24023529.070 9 126244483.897 7  95503143.907 9
E34  24105095.016 8  24105097.430 8 126673125.108 8  95827403.710 8
G01  22020977.641 7                  22020982.816 7 115721011.144 7                  90172236.043 7
G02  24711826.367 6  24711832.797 3                 129861516.178 6 101190797.638 3
G03  20280083.859 8                  20280089.887 8 106572557.915 8                  83043576.335 8
G04  20494411.164 7                  20494415.992 8 107698856.593 7                  83921576.745 8
G06  23204838.836 6                  23204846.945 7 121942245.265 6                  95020335.185 7
G09  22478836.719 7                  22478842.660 6 118127077.396 7                  92047496.243 6
G17  23255888.781 7                  23255893.691 7 122210504.831 7                  95229008.252 7
G19  22338035.625 5                                 117387097.683 5                
G31  22343770.063 7                  22343775.078 7 117417305.771 7                  91494020.118 7
R03  20802569.898 8  20802573.387 7 111357772.271 8  86611536.979 7
R04  19346287.906 8  19346291.254 7 103598494.900 8  80576791.181 7
R05  22011963.586 6  22011968.035 7 117666612.862 6  91518463.956 7
R18  22457013.063 7  22457020.262 7 119877043.948 7  93237474.458 7
R19  19644792.914 8  19644796.473 7 105086398.551 8  81733931.355 7
R20  21229495.273 6  21229502.379 7 113523696.058 6  88296218.006 7
> 2025 06 15 14 50 30.0000000  0 24
C06  38344241.617 6  38344237.555 7 199668533.793 6 154396371.760 7
C12  23199273.180 6  23199270.992 7 120804702.310 6  93413791.364 7
C16  38947249.711 6  38947251.109 6 202808552.818 6 156824431.199 6
C21  22208668.914 7                 115646368.262 7
C22  22553944.617 7                 117444303.689 7
E03  24352373.859 8  24352376.270 8 127972588.254 8  96810443.368 8
E05  22303699.508 8  22303701.285 8 117206731.496 8  88666136.480 8
E15  24020998.227 7  24021001.355 9 126231200.758 7  95493095.299 9
E34  24105309.414 8  24105311.750 8 126674251.413 8  95828255.747 8
G01  22022426.141 8                  22022431.137 7 115728621.666 8                  90178166.309 7
G02  24713730.344 6  24713736.902 3                 129871522.470 6 101198594.673 3
G03  20279801.641 8                  20279807.813 8 106571075.513 8                  83042421.215 8
G04  20491697.523 7                  20491702.391 8 107684596.234 7                  83910464.779 8
G06  23200555.695 6                  23200563.938 7 121919738.226 6                  95002797.231 7
G09  22474391.625 7                  22474397.742 6 118103719.824 7                  92029295.552 6
G17  23256531.430 7                  23256535.449 7 122213880.102 7                  95231638.320 7
G19  22337326.070 5                                 117383355.824 5                
G31  22342837.133 7                  22342841.258 7 117412399.712 7                  91490197.212 7
R03  20803759.195 8  20803763.121 7 111364143.335 8  86616492.255 7
R04  19344498.484 8  19344501.574 7 103588911.070 8  80569337.090 7
R05  22007521.492 6  22007526.012 7 117642867.817 6  91499995.602 7
R18  22459715.859 7  22459722.430 7 119891470.010 7  93248694.701 7
R19  19644695.633 8  19644699.363 7 105085879.077 8  81733527.317 7
R20  21225263.578 6  21225269.996 7 113501064.303 6  88278615.534 7
> 2025 06 15 14 50 35.0000000  0 24
C06  38342667.078 6  38342662.809 7 199660334.392 6 154390031.470 7
C12  23200121.039 6  23200118.293 8 120809112.581 6  93417201.663 8
C16  38945820.758 6  38945822.500 6 202801112.621 6 156818677.970 6
C21  22206328.859 7                 115634185.590 7
C22  22554319.875 7                 117446260.001 7
E03  24349178.188 8  24349180.699 8 127955795.529 8  96797739.788 8
E05  22303144.063 8  22303145.648 8 117203811.604 8  88663927.600 8
E15  24018472.469 7  24018475.695 9 126217928.346 7  95483054.810 9
E34  24105525.781 8  24105528.121 8 126675388.457 8  95829115.905 8
G01  22023876.461 8                  22023881.602 7 115736243.096 8                  90184105.079 7
G02  24715634.617 6  24715642.227 4                 129881532.912 6 101206394.998 4
G03  20279521.641 8                  20279528.047 8 106569605.083 8                  83041275.422 8
G04  20488986.852 7                  20488991.652 8 107670350.784 7                  83899364.437 8
G06  23196274.430 6                  23196282.941 7 121897240.586 6                  94985266.646 7
G09  22469948.320 7                  22469954.363 6 118080371.147 7                  92011101.801 6
G17  23257174.789 6                  23257180.102 6 122217267.254 6                  95234277.646 6
G19  22336617.141 4  22336613.363 2                 117379632.952 4  91464696.17312
G31  22341907.180 7                  22341911.520 7 117407513.478 7                  91486389.750 7
R03  20804951.063 8  20804954.816 7 111370523.878 8  86621454.878 7
R04  19342711.227 8  19342715.219 7 103579343.354 8  80561895.555 7
R05  22003080.875 6  22003085.520 7 117619132.377 6  91481534.713 7
R18  22462420.203 7  22462426.016 7 119905904.592 7  93259921.570 7
R19  19644603.500 8  19644606.781 7 105085383.219 8  81733141.643 7
R20  21221034.625 6  21221040.910 7 113478449.550 6  88261026.289 7
> 2025 06 15 14 50 40.0000000  0 25
C06  38341094.484 6  38341089.500 7 199652140.695 6 154383695.591 7
C12  23200970.320 6  23200967.410 8 120813534.729 6  93420621.137 8
C16  38944393.445 6  38944394.441 6 202793677.936 6 156812929.008 6
C21  22203991.297 7                 115622012.698 7
C22  22554697.055 7                 117448223.630 7
E03  24345984.023 8  24345986.898 8 127939012.167 8  96785043.282 8
E05  22302590.375 8  22302591.973 8 117200901.989 8  88661726.491 8
E13  27888165.844 6  27888170.324 7 146553295.51216 110866637.25117
E15  24015948.992 7  24015951.988 9 126204666.320 7  95473022.175 9
E34  24105744.031 8  24105746.434 8 126676535.898 8  95829983.924 8
G01  22025328.250 7                  22025334.145 7 115743875.100 7                  90190052.079 7
G02  24717540.742 6  24717547.965 3                 129891547.275 6 101214198.352 3
G03  20279244.180 8                  20279250.441 8 106568146.246 8                  83040138.659 8
G04  20486278.836 7                  20486283.039 8 107656119.907 7                  83888275.426 8
G06  23191993.797 6                  23192003.379 7 121874751.923 6                  94967743.026 7
G09  22465506.492 7                  22465513.168 6 118057030.979 7                  91992914.666 6
G17  23257822.672 6                  23257826.727 6 122220665.993 6                  95236925.965 6
G19  22335903.195 4  22335908.594 2                 117375928.408 4  91461809.574 2
G31  22340980.828 7                  22340985.320 7 117402646.663 7                  91482597.433 7
R03  20806144.602 8  20806148.727 7 111376913.033 8  86626424.221 7
R04  19340927.797 8  19340931.344 7 103569791.405 8  80554466.267 7
R05  21998642.875 6  21998646.824 6 117595406.091 6  91463080.944 6
R18  22465126.031 7  22465131.867 7 119920347.256 7  93271154.736 7
R19  19644515.641 8  19644518.180 7 105084910.473 8  81732773.939 7
R20  21216809.164 6  21216814.617 7 113455851.538 6  88243450.075 7
> 2025 06 15 14 50 45.0000000  0 25
C06  38339521.594 6  38339516.926 7 199643951.977 6 154377363.563 7
C12  23201821.234 6  23201818.922 8 120817968.022 6  93424049.238 8
C16  38942966.539 6  38942967.766 6 202786248.096 6 156807183.780 6
C21  22201655.672 7                 115609848.878 7
C22  22555075.766 7                 117450193.907 7
E03  24342791.852 8  24342794.773 8 127922237.508 8  96772353.373 8
E05  22302039.156 8  22302040.145 8 117198001.956 8  88659532.633 8
E13  27883968.297 6  27883972.625 7 146531236.077 6 110849949.438 7
E15  24013426.992 7  24013430.168 9 126191413.983 7  95462996.874 9
E34  24105964.313 8  24105966.652 8 126677693.021 8  95830859.273 8
G01  22026783.008 7                  22026788.738 7 115751516.944 7                  90196006.750 7
G02  24719446.242 6  24719454.355 3                 129901564.766 6 101222004.198 3
G03  20278968.352 8                  20278975.016 8 106566698.301 8                  83039010.396 8
G04  20483573.352 7                  20483577.859 8 107641902.896 7                  83877197.233 8
G06  23187717.336 6                  23187725.523 7 121852271.697 6                  94950225.959 7
G09  22461066.570 7                  22461072.766 6 118033698.658 7                  91974733.641 6
G17  23258470.773 6                  23258475.414 6 122224075.506 6                  95239582.702 6
G19  22335203.461 5  22335207.430 3                 117372241.938 5  91458937.003 3
G31  22340058.906 7                  22340062.789 7 117397798.578 7                  91478819.704 7
R03  20807339.883 8  20807343.910 7 111383310.079 8  86631399.695 7
R04  19339146.813 8  19339150.852 7 103560254.365 8  80547048.559 7
R05  21994206.570 6  21994210.137 6 117571688.238 6  91444633.759 6
R18  22467832.453 7  22467838.793 7 119934797.389 7  93282393.727 7
R19  19644430.844 8  19644434.246 7 105084460.196 8  81732423.728 7
R20  21212585.156 6  21212591.789 7 113433269.560 6  88225886.317 7
> 2025 06 15 14 50 50.0000000  0 25
C06  38337949.555 6  38337945.035 7 199635767.125 6 154371034.509 7
C12  23202674.008 6  23202672.359 8 120822411.337 6  93427485.092 8
C16  38941539.719 6  38941541.438 6 202778821.897 6 156801441.376 6
C21  22199321.109 7                 115597692.985 7
C22  22555455.289 7                 117452169.631 7
E03  24339601.422 8  24339604.063 8 127905470.351 8  96759669.135 8
E05  22301489.023 8  22301489.895 8 117195110.312 8  88657345.115 8
E13  27879770.813 6  27879775.051 7 146509177.500 6 110833262.276 7
E15  24010906.516 7  24010909.961 9 126178170.141 7  95452978.001 9
E34  24106186.242 8  24106188.453 8 126678858.646 8  95831741.058 8
G01  22028238.742 7                  22028244.641 8 115759167.430 7                  90201968.154 8
G02  24721353.688 6  24721360.992 3                 129911584.305 6 101229811.569 3
G03  20278694.961 8                  20278701.223 8 106565260.057 8                  83037889.683 8
G04  20480870.406 7                  20480875.051 8 107627698.565 7                  83866128.936 8
G06  23183440.727 6                  23183448.996 7 121829798.620 6                  94932714.464 7
G09  22456627.844 7                  22456633.918 6 118010372.979 7                  91956557.801 6
G17  23259121.266 6                  23259125.930 6 122227494.624 6                  95242246.947 6
G19  22334505.773 5  22334508.863 3                 117368572.106 5  91456077.419 3
G31  22339139.102 7                  22339143.418 7 117392968.047 7                  91475055.654 7
R03  20808535.789 7  20808540.043 7 111389714.128 7  86636380.617 7
R04  19337368.461 8  19337371.801 7 103550731.189 8  80539641.642 7
R05  21989769.570 6  21989773.961 6 117547977.704 6  91426192.253 6
R18  22470541.250 7  22470547.215 7 119949253.702 7  93293637.516 7
R19  19644350.891 8  19644353.820 7 105084031.155 8  81732090.021 7
R20  21208366.203 6  21208372.273 7 113410702.410 6  88208334.102 7
> 2025 06 15 14 50 55.0000000  0 26
C06  38336378.875 6  38336374.141 7 199627586.782 6 154364708.956 7
C11  23327709.953 5                 121473470.91115
C12  23203530.141 6  23203528.039 8 120826865.282 6  93430929.153 8
C16  38940114.945 6  38940115.910 6 202771400.081 6 156795702.346 6
C21  22196988.406 7                 115585545.719 7
C22  22555836.172 7                 117454151.543 7
E03  24336412.859 7  24336414.922 8 127888711.399 7  96746991.121 8
E05  22300940.172 8  22300941.367 8 117192227.761 8  88655164.485 8
E13  27875573.984 6  27875577.766 7 146487120.567 6 110816576.361 7
E15  24008388.203 8  24008391.508 9 126164935.533 8  95442966.115 9
E34  24106409.609 8  24106411.996 8 126680033.497 8  95832629.822 8
G01  22029696.320 8                  22029702.332 8 115766827.278 8                  90207936.859 8
G02  24723260.383 5  24723268.086 4                 129921606.487 5 101237621.039 4
G03  20278422.875 8                  20278429.895 8 106563832.267 8                  83036777.120 8
G04  20478169.938 7                  20478174.488 8 107613507.661 7                  83855071.091 8
G06  23179165.813 6                  23179173.922 7 121807333.428 6                  94915209.139 7
G09  22452190.633 7                  22452197.004 6 117987054.663 7                  91938387.696 6
G17  23259773.375 6                  23259778.387 6 122230924.046 6                  95244919.227 6
G19  22333811.016 5  22333813.676 3                 117364919.686 5  91453231.374 3
G31  22338223.344 7                  22338228.148 7 117388155.800 7                  91471305.850 7
R03  20809733.305 7  20809737.727 7 111396125.530 7  86641367.253 7
R04  19335592.820 8  19335596.336 7 103541222.465 8  80532245.967 7
R05  21985333.219 6  21985340.754 6 117524275.089 6  91407756.889 6
R18  22473251.008 7  22473256.070 7 119963716.954 7  93304886.693 7
R19  19644274.266 8  19644277.871 7 105083624.117 8  81731773.444 7
R20  21204148.820 6  21204154.598 7 113388150.778 6  88190793.934 7
> 2025 06 15 14 51  0.0000000  0 26
C06  38334808.617 6  38334804.090 6 199619410.610 6 154358386.614 6
C11  23325515.805 5  23325508.891 7 121462035.101 5  93922160.00217
C12  23204387.969 6  23204385.582 8 120831329.492 6  93434381.172 8
C16  38938689.695 6  38938691.328 6 202763982.221 6 156789966.394 6
C21  22194657.180 7                 115573406.657 7
C22  22556217.711 7                 117456139.207 7
E03  24333224.953 8  24333227.297 8 127871960.276 8  96734319.012 8
E05  22300393.313 8  22300394.500 8 117189353.878 8  88652990.410 8
E13  27871376.953 6  27871380.746 7 146465064.851 6 110799891.352 7
E15  24005871.594 7  24005874.754 9 126151709.743 7  95432960.898 9
E34  24106634.992 8  24106637.254 8 126681217.148 8  95833525.244 8
G01  22031155.867 8                  22031161.496 8 115774496.070 8                  90213912.531 8
G02  24725167.898 6  24725175.641 3                 129931630.938 6 101245432.240 3
G03  20278153.148 8                  20278159.715 8 106562414.475 8                  83035672.343 8
G04  20475471.844 7                  20475476.613 8 107599329.743 7                  83844023.363 8
G06  23174893.211 6                  23174900.770 7 121784875.665 6                  94897709.615 7
G09  22447754.977 7                  22447761.313 6 117963743.368 7                  91920223.058 6
G17  23260427.906 6                  23260433.148 6 122234363.354 6                  95247599.198 6
G19  22333118.766 5  22333121.445 3                 117361284.255 5  91450398.511 3
G31  22337311.281 7                  22337315.539 7 117383361.375 7                  91467569.952 7
R03  20810932.992 7  20810937.164 7 111402544.242 7  86646359.588 7
R04  19333820.164 8  19333823.398 7 103531727.743 8  80524861.193 7
R05  21980902.227 6  21980907.410 6 117500580.217 6  91389327.575 6
R18  22475960.711 7  22475966.594 7 119978186.623 7  93316140.871 7
R19  19644202.617 8  19644205.371 7 105083238.504 8  81731473.510 7
R20  21199934.422 6  21199940.250 7 113365614.376 6  88173265.634 7
> 2025 06 15 14 51  5.0000000  0 26
C06  38333239.383 6  38333234.523 6 199611239.186 6 154352067.954 6
C11  23323318.008 4  23323315.102 7 121450613.729 4  93913328.250 7
C12  23205246.344 6  23205244.629 7 120835804.592 6  93437841.583 7
C16  38937266.430 6  38937267.746 6 202756568.883 6 156784233.937 6
C21  22192327.234 7                 115561276.393 7
C22  22556600.914 7                 117458133.207 7
E03  24330038.656 8  24330041.273 8 127855217.587 8  96721653.276 8
E05  22299847.891 8  22299849.410 8 117186489.293 8  88650823.372 8
E13  27867180.383 6  27867184.094 7 146443010.926 6 110783207.717 7
E15  24003356.422 7  24003359.789 9 126138493.397 7  95422962.822 9
E34  24106862.063 8  24106864.293 8 126682410.194 8  95834427.771 8
G01  22032616.656 7                  22032622.766 8 115782174.395 7                  90219895.638 8
G02  24727075.875 6  24727084.699 3                 129941658.251 6 101253245.727 3
G03  20277885.469 8                  20277891.961 8 106561007.285 8                  83034575.835 8
G04  20472776.555 7                  20472781.113 8 107585165.430 7                  83832986.231 8
G06  23170621.000 6                  23170628.504 7 121762426.062 6                  94880216.439 7
G09  22443320.258 7                  22443326.617 7 117940439.610 7                  91902064.310 7
G17  23261084.773 6                  23261089.707 6 122237813.215 6                  95250287.379 6
G19  22332431.016 6  22332432.621 3                 117357666.424 6  91447579.425 3
G31  22336402.414 7                  22336407.309 7 117378585.420 7                  91463848.436 7
R03  20812132.813 8  20812137.363 7 111408970.293 8  86651357.661 7
R04  19332049.961 8  19332052.832 7 103522247.854 8  80517487.938 7
R05  21976471.438 6  21976476.391 6 117476893.504 6  91370904.587 6
R18  22478673.000 7  22478679.504 7 119992663.388 7  93327400.576 7
R19  19644135.117 8  19644137.734 7 105082874.977 8  81731190.766 7
R20  21195722.578 6  21195728.336 7 113343093.806 6  88155749.648 7
> 2025 06 15 14 51 10.0000000  0 26
C06  38331670.500 6  38331666.289 6 199603072.610 6 154345753.040 6
C11  23321128.203 5  23321124.863 7 121439206.810 5  93904507.714 7
C12  23206108.453 6  23206105.777 8 120840290.677 6  93441310.488 8
C16  38935842.914 6  38935844.852 6 202749160.217 6 156778505.092 6
C21  22189999.242 7                 115549155.110 7
C22  22556984.648 7                 117460133.727 7
E03  24326854.063 8  24326856.883 8 127838483.473 8  96708994.027 8
E05  22299304.641 8  22299306.098 8 117183634.119 8  88648663.450 8
E13  27862983.484 6  27862987.801 7 146420958.958 6 110766525.569 7
E15  24000843.820 7  24000846.672 9 126125286.646 7  95412972.007 9
E34  24107091.086 8  24107093.152 8 126683612.800 8  95835337.535 8
G01  22034080.383 8                  22034085.828 7 115789862.403 8                  90225886.288 7
G02  24728984.406 6  24728993.262 3                 129951688.581 6 101261061.510 3
G03  20277619.555 8                  20277626.465 8 106559610.876 8                  83033487.732 8
G04  20470084.313 7                  20470088.414 8 107571014.871 7                  83821959.828 8
G06  23166350.516 6                  23166358.672 7 121739984.755 6                  94862729.711 7
G09  22438887.211 7                  22438893.988 7 117917143.592 7                  91883911.587 7
G17  23261743.281 5                  23261747.785 6 122241273.697 5                  95252983.854 6
G19  22331745.672 6  22331747.594 3                 117354066.299 6  91444774.144 3
G31  22335497.313 7                  22335501.598 7 117373828.053 7                  91460141.400 7
R03  20813334.063 8  20813339.211 7 111415404.465 8  86656362.007 7
R04  19330282.453 8  19330285.051 7 103512782.768 8  80510126.186 7
R05  21972041.906 6  21972047.039 6 117453215.200 6  91352488.123 6
R18  22481386.563 7  22481393.031 7 120007147.432 7  93338665.920 7
R19  19644070.906 8  19644074.098 7 105082533.749 8  81730925.365 7
R20  21191514.945 6  21191520.242 7 113320589.105 6  88138245.988 7
> 2025 06 15 14 51 15.0000000  0 26
C06  38330103.109 6  38330099.004 6 199594910.699 6 154339441.740 6
C11  23318942.961 5  23318936.789 7 121427814.135 5  93895698.172 7
C12  23206972.578 6  23206969.074 7 120844787.502 6  93444787.719 7
C16  38934421.234 6  38934423.000 6 202741756.071 6 156772779.733 6
C21  22187673.164 7                 115537042.545 7
C22  22557369.992 7                 117462140.484 7
E03  24323671.078 8  24323674.066 8 127821757.711 8  96696341.100 8
E05  22298762.883 8  22298764.547 8 117180788.132 8  88646510.481 8
E13  27858787.797 6  27858791.809 7 146398908.790 6 110749844.774 7
E15  23998332.188 7  23998335.316 9 126112089.259 7  95402988.274 9
E34  24107321.539 8  24107323.773 8 126684824.729 8  95836254.347 8
G01  22035545.094 8                  22035550.578 7 115797559.855 8                  90231884.280 7
G02  24730894.391 6  24730902.488 4                 129961721.673 6 101268879.483 4
G03  20277356.281 8                  20277362.484 8 106558225.010 8                  83032407.833 8
G04  20467393.891 7                  20467398.418 8 107556877.842 7                  83810943.968 8
G06  23162081.703 6                  23162089.422 7 121717551.486 6                  94845249.269 7
G09  22434455.859 7                  22434462.172 7 117893855.146 7                  91865764.768 7
G17  23262404.156 5                  23262409.047 6 122244744.615 5                  95255688.463 6
G19  22331064.055 6  22331065.852 3                 117350483.715 6  91441982.506 3
G31  22334595.469 7                  22334599.820 7 117369089.074 7                  91456448.689 7
R03  20814537.977 8  20814542.879 7 111421846.177 8  86661372.224 7
R04  19328517.406 8  19328520.195 7 103503332.226 8  80502775.766 7
R05  21967614.055 6  21967618.926 6 117429544.929 6  91334077.920 6
R18  22484099.930 7  22484107.625 7 120021638.404 7  93349936.654 7
R19  19644011.391 8  19644014.410 7 105082214.736 8  81730677.228 7
R20  21187308.828 6  21187314.652 7 113298100.127 6  88120754.569 7
> 2025 06 15 14 51 20.0000000  0 26
C06  38328536.641 6  38328532.730 6 199586753.840 6 154333134.338 6
C11  23316758.906 5  23316751.418 7 121416436.178 5  93886900.010 7
C12  23207837.625 7  23207835.055 7 120849295.480 7  93448273.573 7
C16  38933000.211 6  38933002.418 6 202734356.757 6 156767058.117 6
C21  22185348.797 7                 115524939.144 7
C22  22557756.016 7                 117464153.930 7
E03  24320490.273 7  24320492.922 8 127805040.686 7  96683694.792 8
E05  22298222.938 8  22298224.832 8 117177951.771 8  88644364.792 8
E13  27854592.047 6  27854596.262 7 146376860.778 6 110733165.613 7
E15  23995822.750 7  23995825.832 9 126098901.675 7  95393011.953 9
E34  24107553.836 8  24107556.277 8 126686046.396 8  95837178.523 8
G01  22037010.906 7                  22037017.605 8 115805267.138 7                  90237889.957 8
G02  24732805.258 6  24732811.828 4                 129971757.909 6 101276699.886 4
G03  20277094.695 8                  20277100.938 8 106556850.058 8                  83031336.434 8
G04  20464706.734 7                  20464710.797 8 107542754.767 7                  83799938.984 8
G06  23157813.125 6                  23157822.438 7 121695126.680 6                  94827775.406 7
G09  22430025.930 7                  22430032.109 7 117870574.579 7                  91847624.097 7
G17  23263066.289 5                  23263071.547 6 122248226.319 5                  95258401.442 6
G19  22330386.445 6  22330387.996 3                 117346919.021 6  91439204.815 3
G31  22333696.719 7                  22333701.281 7 117364368.890 7                  91452770.622 7
R03  20815742.688 8  20815747.473 7 111428295.883 8  86666388.662 7
R04  19326755.359 8  19326757.715 7 103493896.718 8  80495437.034 7
R05  21963187.047 6  21963192.434 6 117405883.268 6  91315674.424 6
R18  22486817.047 7  22486823.324 7 120036136.735 7  93361213.091 7
R19  19643956.406 8  19643959.281 7 105081918.157 8  81730446.554 7
R20  21183106.539 6  21183112.188 7 113275627.421 6  88103275.818 7
> 2025 06 15 14 51 25.0000000  0 26
C06  38326971.008 6  38326967.063 6 199578601.234 6 154326830.221 6
C11  23314578.188 5  23314567.969 7 121405072.004 5  93878112.497 7
C12  23208704.219 6  23208702.641 7 120853813.816 6  93451767.413 7
C16  38931581.227 6  38931581.859 6 202726961.538 6 156761339.650 6
C21  22183026.523 7                 115512844.026 7
C22  22558144.203 7                 117466173.178 7
E03  24317310.633 7  24317313.266 8 127788331.554 7  96671054.456 8
E05  22297685.000 8  22297686.758 8 117175124.132 8  88642225.707 8
E13  27850396.914 6  27850400.945 7 146354814.066 6 110716487.433 7
E15  23993314.789 7  23993318.027 9 126085723.000 7  95383042.377 9
E34  24107787.820 8  24107790.422 8 126687276.938 8  95838109.415 8
G01  22038479.125 7                  22038485.566 8 115812983.416 7                  90243902.635 8
G02  24734714.859 6  24734722.043 4                 129981796.520 6 101284522.158 4
G03  20276834.992 8                  20276840.828 8 106555485.203 8                  83030272.919 8
G04  20462020.891 7                  20462025.559 8 107528644.769 7                  83788944.188 8
G06  23153548.234 6                  23153556.422 7 121672709.532 6                  94810307.517 7
G09  22425596.602 7                  22425603.582 7 117847301.141 7                  91829488.963 7
G17  23263729.750 5                  23263735.965 6 122251717.959 5                  95261122.193 6
G19  22329710.727 6  22329713.535 4                 117343371.339 6  91436440.406 4
G31  22332802.531 7                  22332806.488 6 117359666.639 7                  91449106.542 6
R03  20816949.352 8  20816954.016 7 111434752.809 8  86671410.732 7
R04  19324995.305 8  19324998.504 7 103484475.348 8  80488109.306 7
R05  21958761.438 6  21958767.039 6 117382229.317 6  91297276.972 6
R18  22489534.188 7  22489541.051 7 120050641.595 7  93372494.600 7
R19  19643904.078 8  19643907.473 7 105081643.100 8  81730232.616 7
R20  21178906.492 6  21178912.742 7 113253170.171 6  88085809.103 7
> 2025 06 15 14 51 30.0000000  0 26
C06  38325406.969 6  38325402.410 6 199570454.436 6 154320530.604 6
C11  23312400.867 4  23312388.766 7 121393723.300 4  93869336.924 7
C12  23209575.148 7  23209572.977 7 120858344.055 7  93455270.476 7
C16  38930162.102 6  38930162.855 6 202719571.922 6 156755625.535 6
C21  22180705.508 7                 115500758.814 7
C22  22558533.414 7                 117468199.854 7
E03  24314132.797 7  24314135.418 8 127771631.999 7  96658421.354 8
E05  22297149.070 8  22297150.688 8 117172306.881 8  88640094.471 8
E13  27846201.297 6  27846206.234 7 146332770.321 6 110699811.495 7
E15  23990809.422 7  23990812.223 9 126072554.915 7  95373080.809 9
E34  24108024.188 8  24108026.617 8 126688517.989 8  95839048.252 8
G01  22039949.797 7                  22039955.879 7 115820710.288 7                  90249923.565 7
G02  24736626.016 6  24736633.309 4                 129991838.972 6 101292347.411 4
G03  20276577.492 8                  20276583.551 8 106554132.075 8                  83029218.530 8
G04  20459338.414 7                  20459343.227 8 107514549.508 7                  83777960.863 8
G06  23149283.148 6                  23149292.707 7 121650301.690 6                  94792846.880 7
G09  22421169.438 7                  22421176.293 7 117824036.415 7                  91811360.621 7
G17  23264395.367 5                  23264402.582 6 122255221.154 5                  95263851.982 6
G19  22329039.898 6  22329043.098 4                 117339842.325 6  91433690.544 4
G31  22331911.469 7                  22331915.160 7 117354983.997 7                  91445457.730 7
R03  20818156.719 8  20818161.902 7 111441218.466 8  86676439.553 7
R04  19323239.164 8  19323241.809 7 103475069.869 8  80480793.933 7
R05  21954339.469 6  21954344.035 6 117358584.818 6  91278886.803 6
R18  22492252.914 7  22492259.586 7 120065154.510 7  93383782.422 7
R19  19643857.297 8  19643860.652 7 105081391.234 8  81730036.715 7
R20  21174709.180 6  21174716.637 7 113230729.963 6  88068355.622 7
> 2025 06 15 14 51 35.0000000  0 25
C06  38323843.875 6  38323838.902 7 199562312.453 6 154314234.712 7
C12  23210447.336 7  23210445.102 7 120862885.132 7  93458781.923 7
C16  38928742.609 6  38928744.605 6 202712186.927 6 156749915.005 6
C21  22178386.438 7                 115488682.527 7
C22  22558923.578 7                 117470232.953 7
E03  24310956.734 8  24310959.230 8 127754940.950 8  96645794.693 8
E05  22296614.922 8  22296616.367 8 117169498.967 8  88637970.297 8
E13  27842007.438 6  27842011.805 7 146310728.545 6 110683137.051 7
E15  23988305.406 8  23988308.230 9 126059396.392 8  95363126.475 9
E34  24108262.016 8  24108264.574 8 126689768.512 8  95839994.266 8
G01  22041422.273 7                  22041428.227 7 115828446.764 7                  90255951.983 7
G02  24738537.602 6  24738545.137 4                 130001884.334 6 101300174.964 4
G03  20276322.180 8                  20276328.098 7 106552789.646 8                  83028172.478 7
G04  20456659.156 7                  20456663.465 8 107500467.956 7                  83766988.224 8
G06  23145020.641 6                  23145030.199 7 121627902.060 6                  94775392.640 7
G09  22416743.664 7                  22416750.852 7 117800779.402 7                  91793238.307 7
G17  23265060.602 5                  23265071.254 6 122258734.974 5                  95266590.049 6
G19  22328371.547 6  22328375.242 4                 117336330.931 6  91430954.388 4
G31  22331023.094 7                  22331027.344 7 117350319.879 7                  91441823.330 7
R03  20819366.797 8  20819370.465 7 111447691.813 8  86681474.364 7
R04  19321485.867 8  19321488.738 7 103465679.160 8  80473490.063 7
R05  21949918.414 6  21949922.551 6 117334948.583 6  91260503.107 6
R18  22494972.758 7  22494979.684 7 120079674.564 7  93395075.781 7
R19  19643815.070 8  19643817.539 7 105081161.628 8  81729858.114 7
R20  21170516.813 6  21170522.934 7 113208305.819 6  88050914.621 7
> 2025 06 15 14 51 40.0000000  0 24
C06  38322280.359 6  38322276.191 7 199554174.503 6 154307941.941 7
C12  23211322.391 7  23211318.793 7 120867436.325 7  93462301.187 7
C16  38927325.164 6  38927326.844 6 202704805.761 6 156744207.395 6
C21  22176068.672 7                 115476614.322 7
C22  22559315.289 7                 117472271.614 7
E03  24307782.094 8  24307784.461 8 127738257.608 8  96633173.866 8
E05  22296082.383 8  22296083.684 8 117166699.560 8  88635852.561 8
E13  27837812.469 6  27837817.613 7 146288687.848 6 110666463.431 7
E15  23985803.211 8  23985805.902 9 126046246.599 8  95353178.747 9
E34  24108501.719 8  24108504.227 8 126691027.697 8  95840946.827 8
G01  22042896.781 7                  22042902.160 8 115836191.974 7                  90261987.178 8
G02  24740450.297 6  24740457.402 4                 130011931.776 6 101308004.093 4
G03  20276068.570 8                  20276074.695 7 106551457.065 8                  83027134.092 7
G04  20453982.227 7                  20453986.398 8 107486399.293 7                  83756025.634 8
G06  23140759.297 6                  23140768.945 7 121605509.934 6                  94757944.255 7
G09  22412319.758 7                  22412326.191 7 117777529.307 7                  91775121.350 7
G19  22327704.711 6  22327710.328 3                 117332836.343 6  91428231.328 3
G31  22330139.484 7                  22330143.453 6 117345673.472 7                  91438202.741 6
R03  20820578.156 8  20820581.223 7 111454172.021 8  86686514.503 7
R04  19319734.578 8  19319737.988 7 103456302.284 8  80466196.933 7
R05  21945496.125 6  21945501.578 6 117311319.814 6  91242125.198 6
R18  22497694.703 7  22497700.738 7 120094200.758 7  93406373.901 7
R19  19643775.945 8  19643778.555 7 105080953.288 8  81729696.054 7
R20  21166326.906 6  21166332.742 7 113185896.770 6  88033485.369 7
> 2025 06 15 14 51 45.0000000  0 24
C06  38320718.781 6  38320714.410 7 199546040.742 6 154301652.405 7
C12  23212197.977 7  23212194.375 7 120871997.754 7  93465828.363 7
C16  38925908.672 6  38925909.727 6 202697428.588 6 156738502.899 6
C21  22173752.969 7                 115464554.394 7
C22  22559707.688 7                 117474316.104 7
E03  24304608.578 8  24304611.199 8 127721582.187 8  96620559.034 8
E05  22295551.188 8  22295552.645 8 117163908.891 8  88633741.439 8
E13  27833618.648 6  27833623.664 8 146266648.529 6 110649790.854 8
E15  23983302.430 8  23983305.270 9 126033105.790 8  95343237.813 9
E34  24108742.977 8  24108745.516 8 126692295.749 8  95841906.097 8
G01  22044372.164 8                  22044377.738 7 115843946.125 8                  90268029.360 7
G02  24742362.602 6  24742369.480 4                 130021981.500 6 101315835.033 4
G03  20275816.859 8                  20275823.082 8 106550134.574 8                  83026103.582 8
G04  20451307.336 7                  20451311.910 8 107472343.736 7                  83745073.253 8
G06  23136500.742 6                  23136509.070 7 121583125.459 6                  94740501.814 7
G09  22407896.352 7                  22407902.867 7 117754286.344 7                  91757009.950 7
G19  22327042.328 5  22327048.348 4                 117329358.859 5  91425521.580 4
G31  22329259.484 7                  22329262.867 6 117341044.947 7                  91434596.107 6
R03  20821789.102 8  20821793.590 7 111460659.294 8  86691560.162 7
R04  19317986.297 8  19317989.191 7 103446939.607 8  80458914.842 7
R05  21941076.594 6  21941082.586 6 117287698.858 6  91223753.372 6
R18  22500416.586 7  22500423.023 7 120108733.388 7  93417677.047 7
R19  19643740.961 8  19643743.824 7 105080766.506 8  81729550.795 7
R20  21162138.570 6  21162144.594 7 113163503.090 6  88016068.061 7
> 2025 06 15 14 51 50.0000000  0 25
C06  38319157.383 6  38319153.844 7 199537912.693 6 154295367.287 7
C12  23213076.602 7  23213072.668 7 120876570.974 7  93469364.646 7
C16  38924492.750 6  38924494.109 6 202690056.973 6 156732802.710 6
C21  22171438.719 7                 115452504.245 7
C22  22560101.797 7                 117476367.844 7
E03  24301437.211 8  24301439.738 8 127704916.167 8  96607951.298 8
E05  22295022.008 8  22295023.555 8 117161128.407 8  88631638.023 8
E13  27829425.484 6  27829430.309 8 146244612.042 6 110633120.410 8
E15  23980803.969 8  23980806.605 9 126019975.404 8  95333304.767 9
E34  24108986.305 8  24108988.813 8 126693574.141 8  95842873.192 8
G01  22045849.969 8                  22045855.488 8 115851710.686 8                  90274079.657 8
G02  24744275.609 6  24744282.477 4                 130032034.964 6 101323668.866 4
G03  20275567.289 8                  20275573.598 7 106548823.653 8                  83025082.073 7
G04  20448635.586 7                  20448639.895 8 107458302.768 7                  83734132.248 8
G06  23132242.609 6                  23132250.828 6 121560750.233 6                  94723066.537 6
G09  22403474.953 7                  22403482.227 7 117731051.969 7                  91738905.249 7
G17  23267080.305 5                                 122269347.57515                
G19  22326383.594 5  22326389.727 3                 117325899.815 5  91422826.205 3
G31  22328381.758 7                  22328385.793 6 117336435.805 7                  91431004.584 6
R03  20823002.688 8  20823006.973 7 111467155.313 8  86696612.616 7
R04  19316240.695 8  19316243.797 7 103437592.568 8  80451644.909 7
R05  21936661.188 6  21936666.102 6 117264087.143 6  91205388.713 6
R18  22503140.320 7  22503146.820 6 120123273.921 7  93428986.326 6
R19  19643709.977 8  19643713.367 7 105080602.859 8  81729423.506 7
R20  21157954.617 6  21157960.227 7 113141126.327 6  87998663.927 7
> 2025 06 15 14 51 55.0000000  0 25
C06  38317598.156 6  38317593.801 7 199529789.958 6 154289086.267 7
C12  23213956.609 7  23213952.797 7 120881155.516 7  93472909.697 7
C16  38923078.992 6  38923079.344 6 202682690.499 6 156727106.477 6
C21  22169126.930 7                 115440463.504 7
C22  22560496.633 7                 117478426.507 7
E03  24298267.406 7  24298270.004 8 127688259.234 7  96595350.435 8
E05  22294494.586 8  22294496.340 8 117158357.775 8  88629542.059 8
E13  27825232.500 6  27825237.324 8 146222578.080 6 110616451.865 8
E15  23978307.320 8  23978309.887 9 126006855.131 8  95323379.367 9
E34  24109231.531 8  24109233.992 8 126694862.547 8  95843847.855 8
G01  22047329.195 8                  22047334.961 8 115859485.327 8                  90280137.822 8
G02  24746189.563 6  24746196.629 4                 130042091.838 6 101331505.335 4
G03  20275319.859 8                  20275326.211 8 106547523.938 8                  83024069.295 8
G04  20445966.328 7                  20445971.000 8 107444276.059 7                  83723202.353 8
G06  23127986.133 6                  23127994.242 6 121538383.824 6                  94705638.153 6
G09  22399055.742 7                  22399062.051 7 117707825.859 7                  91720806.990 7
G17  23267758.281 5                  23267765.473 7 122272903.408 5                  95277610.82517
G19  22325730.891 5  22325735.035 3                 117322458.977 5  91420145.018 3
G31  22327508.070 7                  22327511.992 7 117331845.688 7                  91427427.903 7
R03  20824217.352 8  20824221.512 7 111473659.394 8  86701671.344 7
R04  19314498.258 8  19314501.203 7 103428260.813 8  80444386.886 7
R05  21932244.508 6  21932250.836 6 117240484.278 6  91187030.909 6
R18  22505864.898 7  22505872.434 6 120137821.993 7  93440301.459 6
R19  19643684.289 8  19643686.680 7 105080461.962 8  81729313.912 7
R20  21153772.148 6  21153778.398 7 113118766.212 6  87981272.731 7
> 2025 06 15 14 52  0.0000000  0 25
C06  38316038.906 6  38316034.816 7 199521671.543 6 154282808.605 7
C12  23214838.008 7  23214835.168 7 120885750.378 7  93476462.715 7
C16  38921665.133 6  38921665.324 6 202675328.070 6 156721413.388 6
C21  22166816.391 7                 115428431.158 7
C22  22560893.063 7                 117480490.997 7
E03  24295099.531 7  24295101.820 8 127671610.281 7  96582755.610 8
E05  22293968.797 8  22293970.781 8 117155595.928 8  88627452.739 8
E13  27821039.539 6  27821044.656 8 146200545.527 6 110599784.387 8
E15  23975812.164 8  23975814.887 9 125993743.900 8  95313460.808 9
E34  24109478.430 8  24109480.895 8 126696159.879 8  95844829.275 8
G01  22048809.844 7                  22048816.207 8 115867268.970 7                  90286202.984 8
G02  24748104.367 6  24748110.434 4                 130052151.034 6 101339343.621 4
G03  20275074.398 8                  20275080.930 8 106546234.349 8                  83023064.423 8
G04  20443299.773 7                  20443303.926 8 107430262.501 7                  83712282.716 8
G06  23123732.078 6                  23123739.363 6 121516025.177 6                  94688215.833 6
G09  22394636.813 7                  22394643.789 7 117684606.967 7                  91702714.354 7
G17  23268439.008 6                  23268443.809 6 122276469.194 6                  95280389.313 6
G19  22325080.609 5  22325083.035 3                 117319035.127 5  91417477.090 3
G31  22326638.258 7                  22326641.809 6 117327273.591 7                  91423865.208 6
R03  20825433.648 8  20825437.852 7 111480170.851 8  86706735.802 7
R04  19312758.586 8  19312761.695 7 103418943.213 8  80437139.873 7
R05  21927832.125 7  21927836.906 6 117216889.212 7  91168679.191 6
R18  22508592.531 7  22508599.512 6 120152376.510 7  93451621.628 6
R19  19643661.766 8  19643664.422 7 105080342.603 8  81729221.073 7
R20  21149592.992 6  21149600.406 7 113096421.670 6  87963893.646 7
