     3.04           OBSERVATION DATA    Mixed(MIXED)        RINEX VERSION / TYPE
cnvtToRINEX 3.14.0  convertToRINEX OPR  20250615 162940 UTC PGM / RUN BY / DATE 
----------------------------------------------------------- COMMENT             
139.1                                                       MARKER NAME         
139.1                                                       MARKER NUMBER       
GEODETIC                                                    MARKER TYPE         
GNSS Observer       Trimble                                 OBSERVER / AGENCY   
5849S10870          Geo Explorer 3      5.51                REC # / TYPE / VERS 
49S10870            UNKNOWN EXT     NONE                    ANT # / TYPE        
  3912583.5309  1190649.9489  4878946.9618                  APPROX POSITION XYZ 
        1.2640        0.0000        0.0000                  ANTENNA: DELTA H/E/N
G    6 C1C C2W C2X L1C L2W L2X                              SYS / # / OBS TYPES 
R    4 C1C C2C L1C L2C                                      SYS / # / OBS TYPES 
E    4 C1X C8X L1X L8X                                      SYS / # / OBS TYPES 
C    2 C2I L2I                                              SYS / # / OBS TYPES 
     5.000                                                  INTERVAL            
  2025     6    15     9    43    5.0000000     GPS         TIME OF FIRST OBS   
  2025     6    15    10    24   10.0000000     GPS         TIME OF LAST OBS    
     0                                                      RCV CLOCK OFFS APPL 
  9 R01  1 R02 -4 R08  6 R14 -7 R15  0 R16 -1 R17  4 R23  3 GLONASS SLOT / FRQ #
    R24  2                                                  GLONASS SLOT / FRQ #
G L2X -0.25000                                              SYS / PHASE SHIFT   
R L2C -0.25000                                              SYS / PHASE SHIFT   
    18                                                      LEAP SECONDS        
    29                                                      # OF SATELLITES     
   C19   469   469                                          PRN / # OF OBS      
   C20   494   494                                          PRN / # OF OBS      
   C24     1     1                                          PRN / # OF OBS      
   C26    36    35                                          PRN / # OF OBS      
   C29   494   494                                          PRN / # OF OBS      
   E02   494   494   494   494                              PRN / # OF OBS      
   E04   487   487   487   487                              PRN / # OF OBS      
   E06    39    37    39    37                              PRN / # OF OBS      
   E10   478   476   478   476                              PRN / # OF OBS      
   E11   494   494   494   494                              PRN / # OF OBS      
   E25   121   118   119   118                              PRN / # OF OBS      
   E30   175   175   175   175                              PRN / # OF OBS      
   E34   295   295   295   295                              PRN / # OF OBS      
   E36   494   494   494   494                              PRN / # OF OBS      
   G01   124     0   112   120     0   112                  PRN / # OF OBS      
   G02   494   494     0   494   494     0                  PRN / # OF OBS      
   G08   494     0   494   494     0   494                  PRN / # OF OBS      
   G10   494     0   494   494     0   494                  PRN / # OF OBS      
   G23   494     0   493   493     0   493                  PRN / # OF OBS      
   G27   494     0   494   494     0   494                  PRN / # OF OBS      
   G32   144     0   136   138     0   136                  PRN / # OF OBS      
   R01   494     0   494     0                              PRN / # OF OBS      
   R02   107    96   103    92                              PRN / # OF OBS      
   R08   359   334   354   334                              PRN / # OF OBS      
   R14     5     4     5     4                              PRN / # OF OBS      
   R15   471   461   468   459                              PRN / # OF OBS      
   R16   114    79   109    72                              PRN / # OF OBS      
   R17   494   494   494   494                              PRN / # OF OBS      
   R24   494   494   494   494                              PRN / # OF OBS      
DBHZ                                                        SIGNAL STRENGTH UNIT
                                                            END OF HEADER       
>                              2  1
              *** Start of Kinematic Data ***               COMMENT             
> 2025 06 15 09 43  5.0000000  0 17
C20  23029555.602 7 119920941.41917
C29  22357449.477 7 116421105.70717
E02  24684925.352 8  24684926.629 8 129720155.42018  98132462.12718
E10  26258467.969 7  26258470.984 8 137989180.42217 104387928.20118
E11  24328028.680 7  24328026.535 8 127844648.91617  96713641.44618
E25  26431573.094 6  26431578.980 7 138898867.62316 105076084.07217
E36  23892122.781 8  23892125.547 8 125553953.74418  94980759.21318
G02  22793394.734 7  22793395.934 5                 119780090.21417  93335150.99815
G08  20824828.008 8                  20824835.281 8 109435206.86718                  85274428.11018
G10  20924559.711 8                  20924565.473 7 109959297.03118                  85682707.66317
G23  22222166.391 7                  22222172.750 7 116778276.72517                  90996006.02817
G27  20364428.906 8                  20364434.707 7 107015792.35118                  83388986.88317
R01  20465956.328 7                 109402258.55817
R08  21551618.789 7  21551622.168 7 115407943.71917  89761689.39017
R15  21690307.641 7  21690312.191 7 115906423.46317  90149415.88717
R17  20886272.648 8  20886276.699 7 111766649.78218  86929914.60017
R24  19672298.719 8  19672304.027 7 105196630.27818  81819661.76917
> 2025 06 15 09 43 10.0000000  0 17
C20  23027720.617 7 119911385.141 7
C29  22357596.703 7 116421871.288 7
E02  24684352.734 8  24684354.391 8 129717148.376 8  98130187.313 8
E10  26259183.875 7  26259187.195 8 137992943.599 7 104390775.009 8
E11  24327919.594 7  24327917.445 8 127844075.745 7  96713207.836 8
E25  26433009.102 6  26433015.242 7 138906415.148 6 105081793.701 7
E36  23889752.016 8  23889754.875 8 125541495.807 8  94971334.864 8
G02  22789634.859 7  22789636.242 5                 119760333.174 7  93319755.906 5
G08  20821929.891 8                  20821936.879 8 109419976.254 8                  85262560.094 8
G10  20923028.930 8                  20923034.703 7 109951254.595 8                  85676440.821 7
G23  22223178.773 7                  22223184.293 7 116783592.517 7                  91000148.179 7
G27  20363970.531 8                  20363976.328 8 107013383.512 8                  83387109.847 8
R01  20462413.313 7                 109383322.635 7
R08  21552108.234 7  21552110.965 7 115410565.136 7  89763728.292 7
R15  21690636.453 7  21690641.395 7 115908179.589 7  90150781.748 7
R17  20882407.680 8  20882412.344 7 111745971.328 8  86913831.381 7
R24  19671568.516 8  19671573.590 7 105192725.847 8  81816624.985 7
>                              3  5
              *** Start of Occupation ***                   COMMENT             
139.1                                                       MARKER NAME         
139.1                                                       MARKER NUMBER       
  3912583.5309  1190649.9489  4878946.9618                  APPROX POSITION XYZ 
        1.2640        0.0000        0.0000                  ANTENNA: DELTA H/E/N
> 2025 06 15 09 43 15.0000000  0 17
C20  23025888.289 7 119901844.246 7
C29  22357745.172 7 116422644.969 7
E02  24683782.766 8  24683784.555 9 129714153.606 8  98127921.792 9
E10  26259900.844 7  26259903.832 8 137996709.302 7 104393623.730 8
E11  24327811.688 7  24327809.375 8 127843507.718 7  96712778.122 8
E25  26434446.000 6  26434452.270 7 138913966.867 6 105087506.512 7
E36  23887382.719 8  23887385.434 9 125529044.236 8  94961915.326 9
G02  22785875.875 7  22785877.910 5                 119740581.877 7  93304365.293 5
G08  20819034.039 8                  20819040.797 8 109404758.798 8                  85250702.330 8
G10  20921502.086 8                  20921507.430 7 109943227.365 8                  85670185.841 7
G23  22224192.203 7                  22224197.715 7 116788918.574 7                  91004298.354 7
G27  20363514.820 8                  20363520.539 7 107010989.612 8                  83385244.462 7
R01  20458876.039 7                 109364407.484 7
R08  21552600.453 7  21552604.520 6 115413206.832 7  89765782.952 6
R15  21690968.734 8  21690973.117 7 115909955.764 8  90152163.202 7
R17  20878544.461 8  20878549.813 7 111725300.004 8  86897753.705 7
R24  19670841.945 8  19670845.348 7 105188833.688 8  81813597.754 7
> 2025 06 15 09 43 20.0000000  0 17
C20  23024058.742 7 119892319.504 7
C29  22357894.875 7 116423427.568 7
E02  24683215.555 8  24683217.156 8 129711171.893 8  98125666.147 8
E10  26260617.648 7  26260621.066 8 138000478.246 7 104396474.896 8
E11  24327704.781 7  24327702.410 8 127842945.652 7  96712352.920 8
E25  26435884.492 6  26435890.293 7 138921523.688 6 105093223.157 7
E36  23885014.781 8  23885017.320 9 125516599.797 8  94952501.189 9
G02  22782118.891 7  22782120.602 5                 119720837.139 7  93288979.784 5
G08  20816141.086 8                  20816147.992 8 109389555.304 8                  85238855.437 8
G10  20919977.234 8                  20919982.988 7 109935216.162 8                  85663943.348 7
G23  22225208.117 7                  22225213.426 7 116794255.634 7                  91008457.084 7
G27  20363061.961 8                  20363068.203 7 107008611.456 8                  83383391.349 7
R01  20455340.914 7                 109345513.739 7
R08  21553097.422 7  21553101.723 6 115415869.670 7  89767854.067 6
R15  21691304.289 8  21691309.824 7 115911752.702 8  90153560.814 7
R17  20874682.758 8  20874688.223 7 111704636.659 8  86881682.228 7
R24  19670115.789 8  19670120.488 7 105184954.224 8  81810580.373 7
> 2025 06 15 09 43 25.0000000  0 17
C20  23022232.563 7 119882811.401 7
C29  22358047.023 7 116424219.549 7
E02  24682650.734 8  24682652.348 8 129708203.761 8  98123420.771 8
E10  26261335.023 7  26261338.969 8 138004250.991 7 104399328.939 8
E11  24327598.445 7  24327596.668 8 127842389.979 7  96711932.557 8
E25  26437323.766 6  26437329.391 7 138929085.989 6 105098943.959 7
E36  23882648.250 8  23882650.684 8 125504162.998 8  94943092.823 8
G02  22778363.227 7  22778365.301 5                 119701099.406 7  93273599.754 5
G08  20813250.570 8                  20813257.406 7 109374366.265 8                  85227019.816 7
G10  20918456.047 8                  20918461.973 8 109927221.446 8                  85657713.699 8
G23  22226225.328 7                  22226230.633 7 116799604.155 7                  91012624.777 7
G27  20362612.719 8                  20362618.355 7 107006249.512 8                  83381550.871 7
R01  20451810.734 7                 109326641.987 7
R08  21553598.180 7  21553603.207 6 115418554.031 7  89769941.870 6
R15  21691645.438 8  21691649.699 7 115913570.855 8  90154974.916 7
R17  20870822.703 8  20870828.012 7 111683981.794 8  86865617.315 7
R24  19669392.875 8  19669397.367 7 105181087.977 8  81807573.294 7
> 2025 06 15 09 43 30.0000000  0 17
C20  23020410.016 7 119873319.264 7
C29  22358200.602 7 116425020.221 7
E02  24682088.508 8  24682090.000 8 129705248.490 8  98121185.120 8
E10  26262053.211 7  26262057.453 8 138008026.772 7 104402185.290 8
E11  24327493.891 7  24327492.035 8 127841840.072 7  96711516.556 8
E25  26438763.617 6  26438769.383 7 138936653.105 6 105104668.412 7
E36  23880282.844 8  23880285.379 9 125491733.139 8  94933689.709 9
G02  22774607.945 7  22774610.668 5                 119681368.057 7  93258224.684 5
G08  20810363.320 8                  20810369.863 8 109359190.986 8                  85215194.917 8
G10  20916937.781 8                  20916943.711 8 109919242.557 8                  85651496.374 8
G23  22227246.070 7                  22227250.141 7 116804963.474 7                  91016800.864 7
G27  20362166.414 8                  20362172.258 7 107003903.096 8                  83379722.487 7
R01  20448284.148 7                 109307791.612 7
R08  21554103.563 7  21554108.453 6 115421259.391 7  89772046.045 6
R15  21691989.211 8  21691993.945 7 115915409.646 8  90156405.084 7
R17  20866965.102 8  20866969.270 7 111663334.543 8  86849558.355 7
R24  19668671.961 8  19668676.535 7 105177234.499 8  81804576.134 7
> 2025 06 15 09 43 35.0000000  0 18
C19  24156659.758 5 125790059.75915
C20  23018589.859 7 119863842.445 7
C29  22358355.977 7 116425828.954 7
E02  24681529.016 8  24681529.965 8 129702305.436 8  98118958.716 8
E10  26262772.516 7  26262776.387 8 138011805.039 7 104405043.504 8
E11  24327390.398 7  24327388.336 8 127841295.254 7  96711104.406 8
E25  26440204.602 6  26440210.219 7 138944224.402 6 105110396.018 7
E36  23877919.289 8  23877921.250 8 125479309.579 8  94924291.372 8
G02  22770854.680 7  22770857.668 5                 119661642.374 7  93242854.041 5
G08  20807477.867 8                  20807484.492 8 109344028.837 8                  85203380.270 8
G10  20915422.063 8                  20915427.938 8 109911278.843 8                  85645290.881 8
G23  22228267.523 7                  22228272.008 7 116810332.960 7                  91020984.877 7
G27  20361722.250 7                  20361728.379 7 107001571.564 7                  83377905.718 7
R01  20444762.320 7                 109288961.986 7
R08  21554611.109 7  21554616.926 6 115423984.994 7  89774165.950 6
R15  21692335.891 7  21692341.664 7 115917268.290 7  90157850.701 7
R17  20863107.484 8  20863112.316 7 111642694.362 8  86833504.879 7
R24  19667953.453 8  19667957.766 7 105173392.849 8  81801588.182 7
> 2025 06 15 09 43 40.0000000  0 19
C19  24152342.469 5 125767586.094 5
C20  23016773.383 7 119854381.770 7
C29  22358512.789 7 116426646.593 7
E02  24680971.164 8  24680972.395 8 129699375.459 8  98116742.190 8
E04  26540139.516 6  26540142.699 6 139469380.15116 105507688.05616
E10  26263491.797 7  26263496.031 8 138015586.590 7 104407904.215 8
E11  24327287.477 7  24327285.770 8 127840756.378 7  96710696.747 8
E25  26441646.938 6  26441651.996 7 138951800.728 6 105116127.451 7
E36  23875556.094 8  23875558.488 8 125466893.157 8  94914898.428 8
G02  22767102.234 7  22767105.305 5                 119641923.288 7  93227488.532 5
G08  20804594.547 8                  20804601.773 8 109328880.687 8                  85191576.508 8
G10  20913909.875 8                  20913915.492 8 109903331.141 8                  85639097.859 8
G23  22229290.773 7                  22229296.195 7 116815713.369 7                  91025177.421 7
G27  20361281.219 7                  20361287.570 7 106999255.770 7                  83376101.204 7
R01  20441242.867 7                 109270153.871 7
R08  21555124.969 7  21555129.695 6 115426731.652 7  89776302.214 6
R15  21692688.047 7  21692693.055 7 115919147.655 7  90159312.420 7
R17  20859251.594 8  20859256.395 7 111622062.169 8  86817457.624 7
R24  19667237.344 8  19667241.910 7 105169564.047 8  81798610.221 7
> 2025 06 15 09 43 45.0000000  0 19
C19  24148029.008 5 125745120.881 5
C20  23014959.781 7 119844936.831 7
C29  22358671.336 7 116427472.648 7
E02  24680415.844 8  24680417.273 8 129696458.057 8  98114535.190 8
E04  26537027.289 6  26537029.961 6 139453022.852 6 105495313.87916
E10  26264211.977 7  26264216.125 8 138019370.918 7 104410767.018 8
E11  24327185.867 7  24327184.246 8 127840222.956 7  96710293.218 8
E25  26443089.406 6  26443094.605 7 138959381.553 6 105121862.274 7
E36  23873194.578 8  23873196.984 8 125454483.437 8  94905510.554 8
G02  22763350.891 7  22763354.059 5                 119622210.329 7  93212127.794 5
G08  20801714.430 7                  20801721.684 8 109313746.081 7                  85179783.311 8
G10  20912400.344 8                  20912406.191 8 109895398.973 8                  85632916.938 8
G23  22230316.430 7                  22230322.484 7 116821104.269 7                  91029378.133 7
G27  20360843.008 8                  20360850.082 7 106996955.226 8                  83374308.567 7
R01  20437728.789 7                 109251366.848 7
R08  21555642.180 7  21555646.223 6 115429498.831 7  89778454.438 6
R15  21693043.414 7  21693049.191 7 115921047.294 7  90160789.918 7
R17  20855396.875 8  20855402.176 7 111601437.382 8  86801416.121 7
R24  19666524.086 8  19666528.125 7 105165747.578 8  81795641.856 7
> 2025 06 15 09 43 50.0000000  0 19
C19  24143717.570 5 125722665.349 5
C20  23013149.469 7 119835508.791 7
C29  22358831.891 7 116428308.341 7
E02  24679863.023 8  24679864.719 8 129693554.456 8  98112338.622 8
E04  26533916.320 6  26533919.422 6 139436677.055 6 105482948.41616
E10  26264933.250 7  26264937.035 8 138023159.267 7 104413632.886 8
E11  24327085.523 7  24327083.992 8 127839696.187 7  96709894.722 8
E25  26444532.797 6  26444538.352 7 138966968.108 6 105127601.424 7
E36  23870834.492 8  23870837.008 8 125442081.560 8  94896128.616 8
G02  22759600.680 7  22759604.168 5                 119602504.632 7  93196772.706 5
G08  20798837.305 7                  20798844.746 8 109298626.205 7                  85168001.587 8
G10  20910894.398 8                  20910899.949 8 109887483.538 8                  85626749.054 8
G23  22231344.625 7                  22231350.824 7 116826506.869 7                  91033587.943 7
G27  20360408.586 8                  20360415.320 7 106994671.127 8                  83372528.769 7
R01  20434218.922 7                 109232602.104 7
R08  21556162.148 7  21556167.145 7 115432287.785 7  89780623.642 7
R15  21693403.719 7  21693407.977 7 115922968.410 7  90162284.111 7
R17  20851544.242 8  20851548.855 7 111580821.273 8  86785381.376 7
R24  19665812.773 8  19665816.898 7 105161944.672 8  81792684.037 7
> 2025 06 15 09 43 55.0000000  0 19
C19  24139407.367 5 125700219.898 5
C20  23011341.789 7 119826097.981 7
C29  22358994.031 7 116429153.977 7
E02  24679313.492 8  24679314.910 8 129690664.963 8  98110152.729 8
E04  26530807.258 6  26530811.117 6 139420343.041 6 105470591.873 6
E10  26265654.906 7  26265658.785 8 138026951.940 7 104416502.000 8
E11  24326986.578 7  24326985.070 8 127839176.437 7  96709501.535 8
E25  26445977.641 6  26445983.242 7 138974560.721 6 105133345.179 7
E36  23868475.820 8  23868478.566 8 125429687.921 8  94886752.901 8
G02  22755852.094 7  22755855.594 5                 119582806.602 7  93181423.583 5
G08  20795963.172 8                  20795970.188 8 109283521.409 8                  85156231.628 8
G10  20909391.680 8                  20909397.023 8 109879585.167 8                  85620594.471 8
G23  22232375.367 7                  22232381.121 7 116831921.470 7                  91037807.097 7
G27  20359977.227 8                  20359983.629 7 106992403.842 8                  83370762.037 7
R01  20430712.641 7                 109213860.090 7
R08  21556686.914 7  21556692.789 7 115435098.952 7  89782810.118 7
R15  21693766.742 7  21693771.766 7 115924911.390 7  90163795.317 7
R17  20847693.078 8  20847697.828 7 111560214.322 8  86769353.753 7
R24  19665104.141 8  19665108.395 7 105158155.656 8  81789737.013 7
> 2025 06 15 09 44  0.0000000  0 19
C19  24135098.773 5 125677783.780 5
C20  23009537.367 7 119816703.613 7
C29  22359158.195 7 116430008.781 7
E02  24678766.055 8  24678767.668 8 129687788.792 8  98107976.922 8
E04  26527701.469 6  26527705.035 6 139404020.088 6 105458243.677 6
E10  26266377.516 7  26266381.184 8 138030748.204 7 104419373.841 8
E11  24326889.219 7  24326887.344 8 127838662.870 7  96709113.022 8
E25  26447423.484 6  26447429.152 7 138982158.608 6 105139092.900 7
E36  23866118.539 8  23866121.566 8 125417301.707 8  94877382.809 8
G02  22752105.500 7  22752108.086 5                 119563115.415 7  93166079.800 5
G08  20793091.367 8                  20793098.484 8 109268430.911 8                  85144472.809 8
G10  20907891.719 8                  20907896.754 8 109871703.060 8                  85614452.575 8
G23  22233408.008 7                  22233413.738 7 116837347.253 7                  91042034.972 7
G27  20359549.336 8                  20359555.270 8 106990152.532 8                  83369007.778 8
R01  20427210.602 7                 109195139.913 7
R08  21557217.031 7  21557222.348 7 115437931.384 7  89785013.098 7
R15  21694135.164 7  21694139.434 7 115926875.331 7  90165322.810 7
R17  20843844.102 8  20843848.301 6 111539615.553 8  86753332.493 6
R24  19664398.531 8  19664402.391 7 105154379.727 8  81786800.178 7
> 2025 06 15 09 44  5.0000000  0 20
C19  24130792.633 5 125655355.688 5
C20  23007736.398 7 119807324.484 7
C29  22359324.727 7 116430871.533 7
E02  24678221.273 8  24678222.715 8 129684924.739 8  98105810.275 8
E04  26524597.219 6  26524600.766 6 139387706.987 6 105445902.94216
E10  26267100.320 7  26267103.973 8 138034546.793 7 104422247.430 8
E11  24326792.117 7  24326790.551 8 127838154.311 7  96708728.300 8
E25  26448870.180 6  26448875.758 7 138989760.481 6 105144843.646 7
E36  23863762.648 8  23863765.688 8 125404921.696 8  94868017.413 8
G02  22748359.523 7  22748361.598 5                 119543429.862 7  93150740.418 5
G08  20790222.461 8                  20790229.723 7 109253353.504 8                  85132724.181 7
G10  20906394.203 8                  20906399.617 8 109863836.011 8                  85608322.422 8
G23  22234441.938 7                  22234448.355 7 116842783.042 7                  91046270.632 7
G27  20359124.039 8                  20359129.754 7 106987916.018 8                  83367265.037 7
R01  20423712.133 7                 109176440.427 7
R08  21557750.336 7  21557755.137 7 115440783.768 7  89787231.618 7
R14  23634830.523 5                 125987052.92415
R15  21694505.352 7  21694511.070 7 115928858.910 7  90166865.600 7
R17  20839996.164 8  20840000.203 6 111519023.801 8  86737316.694 6
R24  19663694.797 8  19663698.598 7 105150615.691 8  81783872.590 7
> 2025 06 15 09 44 10.0000000  0 20
C19  24126485.664 5 125632936.557 5
C20  23005938.148 7 119797961.509 7
C29  22359492.328 7 116431743.193 7
E02  24677678.344 8  24677680.207 8 129682073.736 8  98103653.507 8
E04  26521494.859 6  26521498.488 6 139371404.667 6 105433570.364 6
E10  26267824.594 7  26267827.492 8 138038348.662 7 104425123.505 8
E11  24326696.430 7  24326694.926 8 127837651.655 7  96708348.039 8
E25  26450317.938 6  26450323.324 7 138997367.369 6 105150598.179 7
E36  23861408.570 8  23861411.215 8 125392548.859 8  94858657.438 8
G02  22744614.859 7  22744616.426 5                 119523750.855 7  93135406.132 5
G08  20787355.711 8                  20787362.977 8 109238290.172 8                  85120986.521 8
G10  20904900.320 8                  20904905.809 8 109855984.979 8                  85602204.727 8
G23  22235478.563 7                  22235484.410 7 116848229.758 7                  91050514.813 7
G27  20358701.125 8                  20358707.141 7 106985695.232 8                  83365534.546 7
R01  20420218.102 7                 109157762.623 7
R08  21558287.516 7  21558291.586 7 115443657.229 7  89789466.521 7
R14  23637319.688 5  23637328.883 5 126000328.152 5  98000211.19615
R15  21694880.898 7  21694886.273 7 115930863.252 7  90168424.525 7
R17  20836149.617 8  20836153.414 7 111498440.036 8  86721307.110 7
R24  19662994.289 8  19662997.285 7 105146864.440 8  81780954.942 7
> 2025 06 15 09 44 15.0000000  0 20
C19  24122181.695 5 125610526.971 5
C20  23004144.117 7 119788615.130 7
C29  22359661.922 7 116432624.093 7
E02  24677138.438 8  24677140.230 8 129679236.177 8  98101506.898 8
E04  26518394.984 6  26518398.348 6 139355113.536 6 105421246.235 6
E10  26268548.594 7  26268551.641 8 138042154.164 7 104428002.327 8
E11  24326601.906 7  24326600.469 8 127837155.288 7  96707972.536 8
E25  26451766.516 6  26451771.910 7 139004979.562 6 105156356.725 7
E36  23859055.359 8  23859058.133 8 125380183.516 8  94849303.138 8
G02  22740871.578 7  22740872.965 5                 119504078.803 7  93120077.263 5
G08  20784492.117 8                  20784499.395 8 109223241.255 8                  85109260.104 8
G10  20903409.266 8                  20903415.117 8 109848150.317 8                  85596099.793 8
G23  22236517.156 7                  22236523.441 7 116853687.716 7                  91054767.762 7
G27  20358281.859 8                  20358287.434 7 106983490.519 8                  83363816.586 7
R01  20416728.703 7                 109139106.723 7
R08  21558828.375 7  21558832.188 7 115446552.063 7  89791718.039 7
R14  23639808.828 4  23639823.063 5 126013607.762 4  98010539.728 5
R15  21695259.961 7  21695265.672 7 115932888.565 7  90169999.791 7
R17  20832304.016 8  20832309.090 7 111477864.617 8  86705304.029 7
R24  19662295.195 8  19662298.004 7 105143126.395 8  81778047.568 7
> 2025 06 15 09 44 20.0000000  0 20
C19  24117881.266 5 125588125.381 5
C20  23002352.148 7 119779283.979 7
C29  22359832.516 7 116433512.975 7
E02  24676600.750 7  24676602.578 8 129676410.715 7  98099369.449 8
E04  26515297.820 6  26515300.156 6 139338832.247 6 105408929.549 6
E10  26269273.203 7  26269276.262 8 138045961.985 7 104430882.908 8
E11  24326508.242 7  24326506.934 8 127836663.929 7  96707600.825 8
E25  26453216.047 6  26453221.270 7 139012595.748 6 105162118.306 7
E36  23856703.508 8  23856706.223 8 125367824.415 8  94839953.560 8
G02  22737128.930 7  22737130.719 5                 119484412.357 7  93104752.797 5
G08  20781631.094 8                  20781638.215 8 109208205.452 8                  85097543.894 8
G10  20901921.422 8                  20901927.023 8 109840330.721 8                  85590006.603 8
G23  22237557.227 7                  22237563.539 7 116859155.648 7                  91059028.473 7
G27  20357865.273 8                  20357870.371 7 106981300.623 8                  83362110.175 7
R01  20413243.234 7                 109120471.647 7
R08  21559372.695 7  21559376.367 7 115449466.943 7  89793985.154 7
R14  23642305.227 4  23642318.824 5 126026890.493 4  98020870.740 5
R15  21695642.242 7  21695648.422 7 115934933.655 7  90171590.419 7
R17  20828461.570 8  20828465.355 7 111457296.261 8  86689306.426 7
R24  19661598.297 8  19661601.430 7 105139400.152 8  81775149.396 7
> 2025 06 15 09 44 25.0000000  0 20
C19  24113580.297 5 125565732.881 5
C20  23000563.633 7 119769968.975 7
C29  22360004.820 7 116434410.722 7
E02  24676065.469 7  24676067.430 8 129673598.250 7  98097241.837 8
E04  26512202.086 6  26512204.031 6 139322561.771 6 105396621.022 6
E10  26269998.633 7  26270001.496 8 138049773.063 7 104433765.962 8
E11  24326415.594 7  24326414.594 8 127836178.450 7  96707233.558 8
E25  26454666.586 6  26454671.594 7 139020216.882 6 105167883.610 7
E36  23854353.000 8  23854355.715 8 125355472.411 8  94830609.351 8
G02  22733387.711 7  22733389.695 5                 119464752.504 7  93089433.446 5
G08  20778772.352 8                  20778779.477 8 109193183.716 8                  85085838.643 8
G10  20900436.305 8                  20900442.145 8 109832527.113 8                  85583925.868 8
G23  22238600.430 7                  22238605.789 7 116864634.397 7                  91063297.619 7
G27  20357451.102 8                  20357456.770 7 106979126.390 8                  83360415.961 7
R01  20409760.750 7                 109101858.261 7
R08  21559919.102 7  21559924.773 7 115452402.705 7  89796268.522 7
R14  23644804.328 4  23644814.160 4 126040177.34114  98031204.91614
R15  21696029.047 7  21696035.141 7 115936999.239 7  90173196.969 7
R17  20824619.453 8  20824623.555 7 111436735.854 8  86673315.013 7
R24  19660903.242 8  19660906.715 7 105135686.754 8  81772261.208 7
> 2025 06 15 09 44 30.0000000  0 19
C19  24109282.148 5 125543349.662 5
C20  22998777.789 7 119760670.427 7
C29  22360178.875 7 116435317.614 7
E02  24675533.008 7  24675534.742 8 129670799.085 7  98095124.281 8
E04  26509107.805 6  26509110.016 6 139306302.358 6 105384320.892 6
E10  26270724.313 7  26270727.414 8 138053587.677 7 104436651.675 8
E11  24326324.453 7  24326323.414 8 127835699.161 7  96706870.974 8
E25  26456118.320 6  26456122.895 7 139027843.199 6 105173652.841 7
E36  23852004.063 8  23852006.590 8 125343127.835 8  94821270.767 8
G02  22729647.609 7  22729649.844 5                 119445099.485 7  93074119.434 5
G08  20775916.289 8                  20775923.695 8 109178176.300 8                  85074144.554 8
G10  20898954.375 8                  20898960.371 8 109824739.740 8                  85577857.779 8
G23  22239645.156 7                  22239650.711 7 116870124.304 7                  91067575.454 7
G27  20357040.320 8                  20357046.207 7 106976968.151 8                  83358734.210 7
R01  20406282.867 7                 109083266.660 7
R08  21560469.844 6  21560476.699 7 115455359.653 6  89798568.368 7
R15  21696419.703 7  21696425.488 7 115939085.815 7  90174819.830 7
R17  20820778.664 8  20820783.047 7 111416183.746 8  86657330.061 7
R24  19660211.281 8  19660215.324 7 105131986.370 8  81769383.130 7
> 2025 06 15 09 44 35.0000000  0 19
C19  24104985.414 5 125520975.970 5
C20  22996995.305 7 119751388.455 7
C29  22360354.703 7 116436233.827 7
E02  24675003.188 7  24675004.652 8 129668013.382 7  98093016.907 8
E04  26506015.344 6  26506018.113 7 139290054.189 6 105372029.257 7
E10  26271450.680 7  26271454.109 8 138057405.947 7 104439540.163 8
E11  24326234.563 7  24326233.453 8 127835226.188 7  96706513.166 8
E25  26457570.609 6  26457575.215 7 139035474.873 6 105179426.123 7
E36  23849656.539 8  23849658.875 8 125330790.818 8  94811937.900 8
G02  22725909.195 7  22725911.051 5                 119425453.470 7  93058810.864 5
G08  20773063.578 8                  20773070.461 7 109163183.382 8                  85062461.760 7
G10  20897475.453 8                  20897481.941 8 109816968.773 8                  85571802.488 8
G23  22240692.219 7                  22240697.648 7 116875625.482 7                  91071862.067 7
G27  20356632.898 8                  20356638.543 7 106974826.037 8                  83357065.008 7
R01  20402808.359 7                 109064697.403 7
R08  21561025.484 6  21561032.594 7 115458338.021 6  89800884.861 7
R15  21696814.523 7  21696819.879 7 115941193.381 7  90176459.021 7
R17  20816939.938 8  20816944.574 7 111395640.007 8  86641351.611 7
R24  19659521.383 8  19659525.836 7 105128299.193 8  81766515.327 7
> 2025 06 15 09 44 40.0000000  0 19
C19  24100690.406 5 125498612.316 5
C20  22995215.961 7 119742123.648 7
C29  22360532.156 7 116437159.872 7
E02  24674475.859 7  24674477.207 8 129665241.709 7  98090920.150 8
E04  26502924.664 6  26502928.406 7 139273817.821 6 105359746.554 7
E10  26272178.164 7  26272181.484 8 138061228.488 7 104442431.867 8
E11  24326146.039 7  24326144.789 8 127834760.157 7  96706160.600 8
E25  26459024.055 6  26459028.648 7 139043112.430 6 105185203.851 7
E36  23847310.484 8  23847312.746 8 125318461.959 8  94802611.199 8
G02  22722171.656 7  22722173.832 5                 119405815.039 7  93043508.201 5
G08  20770213.375 8                  20770219.969 7 109148205.545 8                  85050790.723 7
G10  20895999.820 8                  20896006.297 8 109809214.757 8                  85565760.409 8
G23  22241741.773 7                  22241746.348 7 116881138.491 7                  91076157.919 7
G27  20356228.641 8                  20356234.230 7 106972700.612 8                  83355408.828 7
R01  20399338.844 7                 109046150.715 7
R08  21561586.039 6  21561592.586 7 115461338.275 6  89803218.389 7
R15  21697211.992 7  21697217.961 7 115943322.468 7  90178114.969 7
R17  20813102.711 8  20813107.313 7 111375105.394 8  86625380.241 7
R24  19658833.906 8  19658838.652 7 105124625.946 8  81763658.356 7
> 2025 06 15 09 44 45.0000000  0 19
C19  24096397.547 5 125476257.869 5
C20  22993439.508 7 119732875.192 7
C29  22360711.492 7 116438094.989 7
E02  24673950.789 7  24673952.254 8 129662483.238 7  98088833.388 8
E04  26499837.727 6  26499840.766 7 139257592.478 6 105347472.199 7
E10  26272905.875 7  26272909.645 8 138065054.451 7 104445326.178 8
E11  24326058.477 7  24326057.316 8 127834300.175 7  96705812.614 8
E25  26460477.922 6  26460483.008 7 139050755.063 6 105190985.426 7
E36  23844965.648 8  23844967.984 8 125306140.401 8  94793290.027 8
G02  22718436.281 7  22718437.629 5                 119386183.405 7  93028210.820 5
G08  20767365.828 8                  20767372.723 8 109133241.968 8                  85039130.787 8
G10  20894526.953 8                  20894533.828 8 109801476.908 8                  85559730.928 8
G23  22242792.242 7                  22242797.969 7 116886662.503 7                  91080462.335 7
G27  20355827.359 8                  20355833.000 7 106970591.072 8                  83353765.031 7
R01  20395873.398 7                 109027625.975 7
R08  21562150.484 7  21562156.691 7 115464359.625 7  89805568.294 7
R15  21697614.570 7  21697619.742 7 115945472.438 7  90179787.158 7
R17  20809266.547 8  20809271.602 7 111354578.946 8  86609415.233 7
R24  19658149.383 8  19658153.961 7 105120965.775 8  81760811.556 7
> 2025 06 15 09 44 50.0000000  0 19
C19  24092104.563 5 125453912.226 5
C20  22991666.844 7 119723642.542 7
C29  22360893.164 7 116439038.601 7
E02  24673427.828 7  24673429.766 8 129659737.378 7  98086756.166 8
E04  26496751.773 6  26496755.121 7 139241377.582 6 105335205.718 7
E10  26273634.688 7  26273638.262 8 138068883.314 7 104448222.666 8
E11  24325972.203 7  24325970.883 8 127833845.726 7  96705468.813 8
E25  26461932.484 6  26461938.227 7 139058402.229 6 105196770.445 7
E36  23842622.297 8  23842624.539 8 125293825.614 8  94783973.981 8
G02  22714701.547 7  22714702.676 5                 119366558.001 7  93012918.311 5
G08  20764521.070 8                  20764527.957 8 109118292.137 8                  85027481.572 8
G10  20893057.594 8                  20893064.711 8 109793754.668 8                  85553713.606 8
G23  22243845.578 7                  22243851.016 7 116892196.939 7                  91084774.872 7
G27  20355428.688 8                  20355434.586 7 106968496.850 8                  83352133.171 7
R01  20392411.781 7                 109009122.604 7
R08  21562720.625 7  21562724.770 7 115467401.437 7  89807934.117 7
R15  21698020.336 7  21698026.113 7 115947642.475 7  90181474.950 7
R17  20805431.906 8  20805436.742 7 111334060.084 8  86593456.126 7
R24  19657466.430 8  19657471.754 7 105117317.936 8  81757974.336 7
> 2025 06 15 09 44 55.0000000  0 19
C19  24087816.289 5 125431576.224 5
C20  22989896.945 7 119714426.635 7
C29  22361075.977 7 116439991.646 7
E02  24672907.859 7  24672909.840 8 129657005.088 7  98084689.212 8
E04  26493668.953 6  26493671.688 6 139225174.089 6 105322947.893 6
E10  26274363.734 7  26274367.621 8 138072715.915 7 104451121.984 8
E11  24325886.953 7  24325885.719 8 127833397.731 7  96705129.900 8
E25  26463388.766 6  26463394.570 7 139066054.812 6 105202559.539 7
E36  23840280.352 8  23840282.531 8 125281518.518 8  94774663.751 8
G02  22710967.938 7  22710969.301 5                 119346939.739 7  92997631.357 5
G08  20761679.055 8                  20761685.988 7 109103356.962 8                  85015843.772 7
G10  20891591.680 8                  20891598.086 8 109786048.961 8                  85547709.152 8
G23  22244901.383 7                  22244906.566 7 116897742.751 7                  91089096.273 7
G27  20355033.195 8                  20355039.086 8 106966418.878 8                  83350513.977 8
R01  20388954.039 7                 108990641.539 7
R08  21563292.633 7  21563296.969 7 115470464.702 7  89810316.655 7
R15  21698431.016 7  21698435.895 7 115949833.580 7  90183179.142 7
R17  20801598.070 8  20801604.281 7 111313549.932 8  86577503.792 7
R24  19656787.125 8  19656792.035 7 105113683.409 8  81755147.476 7
> 2025 06 15 09 45  0.0000000  0 20
C19  24083529.820 5 125409249.818 5
C20  22988130.578 7 119705227.412 7
C26  25799015.000 5 134342481.76715
C29  22361261.008 7 116440954.082 7
E02  24672390.344 7  24672392.500 8 129654286.344 7  98082632.497 8
E04  26490588.344 6  26490590.375 7 139208981.976 6 105310698.657 7
E10  26275093.797 7  26275097.684 8 138076552.348 7 104454024.210 8
E11  24325802.922 7  24325801.672 8 127832956.134 7  96704795.833 8
E25  26464846.258 6  26464851.797 7 139073712.780 6 105208352.740 7
E36  23837939.766 8  23837942.023 8 125269219.104 8  94765359.327 8
G02  22707236.398 7  22707237.727 5                 119327328.600 7  92982349.938 5
G08  20758839.391 8                  20758846.609 7 109088436.435 8                  85004217.387 7
G10  20890128.422 8                  20890134.797 8 109778359.757 8                  85541717.550 8
G23  22245958.805 7                  22245964.234 7 116903299.876 7                  91093426.495 7
G27  20354640.977 8                  20354647.129 8 106964357.118 8                  83348907.418 8
R01  20385501.125 7                 108972182.775 7
R08  21563868.188 7  21563872.594 7 115473549.318 7  89812715.798 7
R15  21698846.148 8  21698849.715 7 115952045.819 8  90184899.759 7
R17  20797767.211 8  20797773.125 7 111293048.317 8  86561558.096 7
R24  19656109.797 8  19656115.152 7 105110062.304 8  81752331.058 7
> 2025 06 15 09 45  5.0000000  0 20
C19  24079244.664 5 125386932.651 5
C20  22986367.281 7 119696044.432 7
C26  25799832.789 5 134346732.011 5
C29  22361447.656 7 116441925.448 7
E02  24671875.383 7  24671877.668 8 129651580.668 7  98080585.670 8
E04  26487509.336 6  26487511.137 7 139192800.803 6 105298457.692 7
E10  26275824.891 6  26275828.340 8 138080392.049 6 104456928.893 8
E11  24325720.008 7  24325718.863 8 127832520.481 7  96704466.263 8
E25  26466304.336 6  26466310.023 7 139081375.672 6 105214149.642 7
E36  23835600.414 8  23835602.852 8 125256926.895 8  94756060.355 8
G02  22703505.570 7  22703507.070 5                 119307724.097 7  92967073.708 5
G08  20756003.008 8                  20756010.238 7 109073530.101 8                  84992602.065 7
G10  20888668.328 8                  20888674.559 8 109770686.563 8                  85535738.441 8
G23  22247019.383 7                  22247023.668 7 116908867.854 7                  91097765.169 7
G27  20354251.602 8                  20354257.621 8 106962311.123 8                  83347313.138 8
R01  20382053.102 7                 108953745.849 7
R08  21564447.023 6  21564452.984 7 115476654.866 6  89815131.246 7
R15  21699262.914 8  21699267.051 7 115954278.551 8  90186636.315 7
R17  20793937.156 7  20793943.199 7 111272554.787 7  86545618.688 7
R24  19655435.219 8  19655440.395 7 105106454.025 8  81749524.633 7
> 2025 06 15 09 45 10.0000000  0 20
C19  24074959.805 5 125364624.854 5
C20  22984606.750 7 119686877.933 7
C26  25800652.898 5 134350990.855 5
C29  22361636.250 7 116442905.990 7
E02  24671363.133 8  24671365.328 8 129648888.344 8  98078548.936 8
E04  26484433.063 6  26484434.094 6 139176630.775 6 105286225.183 6
E10  26276556.156 6  26276559.727 8 138084235.292 6 104459836.268 8
E11  24325638.750 7  24325637.211 8 127832091.036 7  96704141.379 8
E25  26467763.492 6  26467769.270 7 139089043.722 6 105219950.456 7
E36  23833262.516 8  23833265.133 8 125244642.132 8  94746767.015 8
G02  22699776.281 7  22699778.305 5                 119288126.497 7  92951802.852 5
G08  20753168.625 8                  20753176.504 7 109058638.168 8                  84980997.979 7
G10  20887211.156 8                  20887217.512 7 109763029.636 8                  85529772.001 7
G23  22248080.563 7                  22248085.625 7 116914446.896 7                  91102112.457 7
G27  20353865.188 8                  20353871.484 8 106960281.104 8                  83345731.293 8
R01  20378608.672 7                 108935331.080 7
R08  21565031.570 7  21565036.813 7 115479781.531 7  89817563.118 7
R15  21699684.352 7  21699688.586 7 115956532.226 7  90188389.158 7
R17  20790109.281 8  20790114.684 7 111252069.653 8  86529685.800 7
R24  19654763.383 8  19654767.875 7 105102858.898 8  81746728.407 7
> 2025 06 15 09 45 15.0000000  0 20
C19  24070677.469 5 125342326.297 5
C20  22982848.898 7 119677727.660 7
C26  25801473.344 5 134355257.977 5
C29  22361826.547 7 116443895.415 7
E02  24670853.766 8  24670855.379 8 129646209.024 8  98076522.038 8
E04  26481357.641 6  26481359.156 6 139160471.625 6 105274000.878 6
E10  26277288.047 6  26277291.734 8 138088081.790 6 104462746.114 8
E11  24325558.141 7  24325556.570 8 127831667.502 7  96703820.973 8
E25  26469223.508 5  26469229.406 7 139096716.667 5 105225754.952 7
E36  23830926.242 8  23830928.848 8 125232364.537 8  94737479.093 8
G02  22696048.422 7  22696050.773 5                 119268535.532 7  92936537.165 5
G08  20750337.586 8                  20750345.348 8 109043760.415 8                  84969404.927 8
G10  20885757.664 8                  20885763.398 8 109755388.704 8                  85523818.031 8
G23  22249143.984 7                  22249149.004 7 116920036.731 7                  91106468.167 7
G27  20353481.680 8                  20353488.121 8 106958266.811 8                  83344161.697 8
R01  20375167.695 7                 108916938.112 7
R08  21565620.086 7  21565624.574 6 115482928.986 7  89820011.139 6
R15  21700110.484 7  21700114.199 7 115958806.344 7  90190157.898 7
R17  20786283.508 8  20786287.906 7 111231592.589 8  86513759.186 7
R24  19654093.641 8  19654097.984 7 105099276.624 8  81743942.195 7
> 2025 06 15 09 45 20.0000000  0 20
C19  24066399.219 5 125320036.507 5
C20  22981095.250 7 119668593.134 7
C26  25802294.297 5 134359532.947 5
C29  22362018.242 7 116444893.298 7
E02  24670346.336 7  24670347.980 8 129643542.301 7  98074504.664 8
E04  26478284.883 6  26478286.188 6 139144322.943 6 105261784.508 6
E10  26278020.508 6  26278024.266 8 138091931.133 6 104465658.105 8
E11  24325478.305 7  24325477.004 8 127831249.415 7  96703504.697 8
E25  26470685.461 5  26470690.336 7 139104394.038 5 105231562.829 7
E36  23828591.250 8  23828593.742 8 125220093.674 8  94728196.266 8
G02  22692321.500 7  22692324.215 5                 119248950.758 7  92921276.303 5
G08  20747509.625 8                  20747516.617 8 109028896.393 8                  84957822.574 8
G10  20884306.289 8                  20884312.250 7 109747763.322 8                  85517876.177 7
G23  22250209.953 7                  22250214.594 7 116925636.906 7                  91110831.922 7
G27  20353101.258 8                  20353107.688 8 106956267.799 8                  83342604.021 8
R01  20371730.500 8                 108898566.513 8
R08  21566211.539 7  21566216.836 6 115486096.791 7  89822474.962 6
R15  21700539.406 7  21700543.816 7 115961100.464 7  90191942.229 7
R17  20782457.578 8  20782462.539 7 111211123.108 8  86497838.501 7
R24  19653425.758 8  19653430.207 7 105095706.782 8  81741165.667 7
> 2025 06 15 09 45 25.0000000  0 20
C19  24062121.414 5 125297755.002 5
C20  22979344.406 7 119659473.992 7
C26  25803119.031 5 134363815.431 5
C29  22362211.484 7 116445899.244 7
E02  24669841.031 7  24669842.754 8 129640887.751 7  98072496.521 8
E04  26475213.273 7  26475215.141 6 139128184.340 7 105249575.772 6
E10  26278753.539 6  26278757.238 8 138095782.895 6 104468571.923 8
E11  24325399.711 7  24325398.418 8 127830836.428 7  96703192.282 8
E25  26472147.492 5  26472152.086 7 139112075.461 5 105237373.753 7
E36  23826257.281 8  23826259.898 9 125207829.140 8  94718918.226 9
G02  22688595.898 7  22688598.742 5                 119229371.761 7  92906019.933 5
G08  20744683.984 8                  20744690.555 8 109014045.677 8                  84946250.593 8
G10  20882858.117 8                  20882864.039 7 109740153.080 8                  85511946.117 7
G23  22251277.164 7                  22251282.230 7 116931246.998 7                  91115203.415 7
G27  20352723.727 8                  20352729.719 8 106954283.645 8                  83341057.909 8
R01  20368297.969 7                 108880216.013 7
R08  21566807.367 7  21566812.250 6 115489284.594 7  89824954.329 6
R15  21700972.000 7  21700976.574 7 115963414.101 7  90193741.734 7
R17  20778634.188 8  20778639.000 7 111190660.856 8  86481923.428 7
R24  19652760.211 8  19652765.164 7 105092148.885 8  81738398.410 7
> 2025 06 15 09 45 30.0000000  0 20
C19  24057845.000 4 125275482.82214
C20  22977596.602 7 119650371.265 7
C26  25803943.711 5 134368106.470 5
C29  22362405.906 7 116446914.264 7
E02  24669338.336 7  24669340.145 8 129638246.390 7  98070498.350 8
E04  26472143.969 6  26472146.246 6 139112056.832 6 105237375.441 6
E10  26279486.594 6  26279490.895 8 138099638.095 6 104471488.349 8
E11  24325322.555 7  24325321.016 7 127830429.490 7  96702884.430 7
E25  26473610.250 5  26473614.785 7 139119761.873 5 105243188.445 7
E36  23823924.875 8  23823927.359 8 125195571.973 8  94709645.763 8
G02  22684871.234 7  22684874.508 5                 119209799.620 7  92890768.917 5
G08  20741860.930 8                  20741867.297 8 108999209.387 8                  84934689.840 8
G10  20881413.039 8                  20881418.906 8 109732559.013 8                  85506028.671 8
G23  22252346.945 7                  22252351.617 7 116936868.040 7                  91119583.433 7
G27  20352349.070 8                  20352355.109 8 106952315.426 8                  83339524.225 8
R01  20364868.977 8                 108861887.528 8
R08  21567406.664 7  21567411.156 6 115492493.479 7  89827450.114 6
R15  21701407.695 7  21701414.242 7 115965748.371 7  90195557.282 7
R17  20774812.258 8  20774816.590 7 111170206.979 8  86466014.851 7
R24  19652097.586 8  19652102.359 7 105088604.011 8  81735641.289 7
> 2025 06 15 09 45 35.0000000  0 19
C20  22975851.078 7 119641284.116 7
C26  25804767.727 5 134372405.037 5
C29  22362602.281 7 116447937.547 7
E02  24668838.195 7  24668839.809 8 129635617.428 7  98068509.536 8
E04  26469077.445 7  26469079.270 6 139095939.645 7 105225182.906 6
E10  26280220.680 6  26280224.992 8 138103495.938 6 104474406.771 8
E11  24325245.727 7  24325244.543 7 127830027.820 7  96702580.571 7
E25  26475073.281 5  26475078.215 7 139127452.45615 105249006.31717
E36  23821593.852 8  23821596.078 8 125183321.301 8  94700378.206 8
G02  22681147.930 7  22681151.277 5                 119190233.476 7  92875522.563 5
G08  20739039.531 7                  20739046.504 8 108984386.625 7                  84923139.637 8
G10  20879970.727 8                  20879976.711 7 109724980.256 8                  85500123.152 7
G23  22253418.680 7                  22253423.289 7 116942499.159 7                  91123971.313 7
G27  20351977.273 8                  20351983.652 8 106950362.206 8                  83338002.237 8
R01  20361443.523 8                 108843580.310 8
R08  21568007.953 7  21568013.762 7 115495722.438 7  89829961.548 7
R15  21701849.555 7  21701855.355 7 115968102.514 7  90197388.279 7
R17  20770991.602 8  20770995.578 7 111149760.603 8  86450112.107 7
R24  19651437.141 8  19651441.684 7 105085071.283 8  81732893.606 7
> 2025 06 15 09 45 40.0000000  0 19
C20  22974109.383 7 119632212.681 7
C26  25805592.938 4 134376711.521 4
C29  22362800.133 7 116448969.233 7
E02  24668340.445 8  24668341.859 8 129633001.009 8  98066530.233 8
E04  26466011.969 7  26466014.457 6 139079832.896 7 105212998.254 6
E10  26280955.406 6  26280959.715 8 138107356.525 6 104477327.250 8
E11  24325170.156 7  24325169.109 7 127829631.608 7  96702280.829 7
E25  26476537.875 5  26476542.465 7 139135147.479 5 105254827.533 7
E36  23819263.656 8  23819266.086 8 125171077.354 8  94691115.742 8
G02  22677425.859 7  22677429.133 5                 119170673.521 7  92860281.036 5
G08  20736221.180 8                  20736228.648 8 108969577.589 8                  84911600.117 8
G10  20878531.094 8                  20878537.211 8 109717417.041 8                  85494229.733 8
G23  22254491.891 7                  22254496.320 7 116948140.574 7                  91128367.206 7
G27  20351608.422 8                  20351614.668 8 106948424.261 8                  83336492.143 8
R01  20358022.766 7                 108825294.586 7
R08  21568615.703 7  21568620.672 7 115498971.644 7  89832488.706 7
R15  21702293.109 7  21702299.305 7 115970476.695 7  90199234.836 7
R17  20767171.406 7  20767176.297 7 111129321.782 7  86434215.228 7
R24  19650779.305 8  19650783.141 7 105081551.060 8  81730155.646 7
> 2025 06 15 09 45 45.0000000  0 19
C20  22972370.172 7 119623156.555 7
C26  25806422.594 4 134381025.283 4
C29  22362999.516 7 116450008.885 7
E02  24667845.078 8  24667846.238 8 129630396.641 8  98064560.044 8
E04  26462948.484 6  26462951.359 7 139063736.149 6 105200821.184 7
E10  26281690.883 7  26281694.848 8 138111219.478 7 104480249.536 8
E11  24325095.836 7  24325094.641 7 127829240.351 7  96701984.850 7
E25  26478003.195 5  26478007.539 7 139142846.331 5 105260651.625 7
E36  23816935.109 8  23816937.293 8 125158839.614 8  94681857.971 8
G02  22673704.547 7  22673708.137 5                 119151119.233 7  92845043.948 5
G08  20733406.148 7                  20733413.102 8 108954781.821 7                  84900070.954 8
G10  20877094.469 8                  20877100.758 7 109709868.832 8                  85488348.021 7
G23  22255566.773 7                  22255571.613 7 116953791.748 7                  91132770.733 7
G27  20351243.125 8                  20351248.820 8 106946501.073 8                  83334993.564 8
R01  20354606.469 7                 108807029.700 7
R08  21569226.211 7  21569231.199 7 115502240.688 7  89835031.291 7
R15  21702742.258 7  21702747.254 7 115972870.258 7  90201096.453 7
R17  20763353.500 7  20763357.578 7 111108890.069 7  86418323.914 7
R24  19650123.023 8  19650127.328 7 105078042.602 8  81727426.845 7
> 2025 06 15 09 45 50.0000000  0 19
C20  22970633.508 7 119614115.898 7
C26  25807252.938 4 134385346.50914
C29  22363200.633 7 116451056.677 7
E02  24667351.805 8  24667353.047 8 129627804.545 8  98062599.138 8
E04  26459887.055 6  26459890.168 7 139047649.642 6 105188651.847 7
E10  26282426.531 7  26282430.383 8 138115084.824 7 104483173.651 8
E11  24325022.039 7  24325021.184 7 127828854.229 7  96701692.756 7
E25  26479469.195 5  26479473.398 7 139150549.329 5 105266478.858 7
E36  23814607.609 8  23814609.738 8 125146608.310 8  94672605.077 8
G02  22669984.180 7  22669988.059 5                 119131570.880 7  92829811.478 5
G08  20730592.914 7                  20730600.090 8 108939999.525 7                  84888552.282 8
G10  20875661.156 8                  20875667.172 7 109702335.874 8                  85482478.213 7
G23  22256644.766 7                  22256648.922 7 116959452.880 7                  91137182.012 7
G27  20350879.977 8                  20350885.820 8 106944592.803 8                  83333506.617 8
R01  20351194.227 7                 108788785.952 7
R08  21569840.328 7  21569845.691 7 115505529.736 7  89837589.432 7
R15  21703194.047 7  21703198.602 7 115975283.442 7  90202973.377 7
R17  20759536.977 7  20759541.262 7 111088465.726 7  86402438.337 7
R24  19649469.109 8  19649473.516 7 105074546.149 8  81724707.396 7
> 2025 06 15 09 45 55.0000000  0 19
C20  22968900.406 7 119605091.637 7
C26  25808080.398 4 134389676.44614
C29  22363403.086 7 116452113.547 7
E02  24666860.875 8  24666862.328 8 129625225.618 8  98060648.191 8
E04  26456827.742 6  26456831.063 7 139031574.215 6 105176490.925 7
E10  26283162.492 7  26283166.602 8 138118953.673 7 104486100.396 8
E11  24324949.805 7  24324948.852 7 127828474.186 7  96701405.251 7
E25  26480935.398 5  26480940.129 7 139158257.242 5 105272309.835 7
E36  23812281.320 8  23812283.566 8 125134384.340 8  94663357.722 8
G02  22666267.078 7  22666269.414 5                 119112029.350 7  92814584.326 5
G08  20727782.563 7                  20727790.012 8 108925231.615 7                  84877044.822 8
G10  20874230.852 8                  20874236.637 7 109694819.024 8                  85476620.938 7
G23  22257723.680 7                  22257728.352 7 116965124.892 7                  91141601.748 7
G27  20350520.047 8                  20350525.461 8 106942700.409 8                  83332032.023 8
R01  20347785.703 7                 108770564.497 7
R08  21570460.273 7  21570463.582 7 115508839.628 7  89840163.776 7
R15  21703650.680 8  21703654.230 7 115977717.287 8  90204866.379 7
R17  20755720.133 7  20755725.922 7 111068049.771 7  86386559.279 7
R24  19648817.586 8  19648822.023 7 105071062.892 8  81721998.201 7
> 2025 06 15 09 46  0.0000000  0 18
C20  22967169.922 7 119596082.764 7
C29  22363607.508 7 116453178.458 7
E02  24666372.281 7  24666373.918 8 129622658.892 7  98058706.478 8
E04  26453770.086 6  26453773.977 7 139015508.965 6 105164337.667 7
E10  26283899.016 7  26283903.262 8 138122824.923 7 104489028.966 8
E11  24324878.648 7  24324877.488 7 127828099.199 7  96701121.572 7
E25  26482402.828 5  26482407.691 7 139165969.131 5 105278143.820 7
E36  23809956.547 8  23809958.605 8 125122166.709 8  94654115.159 8
G02  22662549.141 7  22662551.504 5                 119092493.665 7  92799361.715 5
G08  20724974.828 8                  20724982.551 8 108910477.140 8                  84865547.831 8
G10  20872803.117 8                  20872809.223 7 109687317.345 8                  85470775.471 7
G23  22258804.273 7                  22258809.430 7 116970806.758 7                  91146029.186 7
G27  20350162.789 8                  20350168.527 8 106940822.888 8                  83330569.030 8
R01  20344380.789 8                 108752364.053 8
R08  21571081.953 7  21571085.613 7 115512169.354 7  89842753.580 7
R15  21704108.695 8  21704113.258 7 115980170.718 8  90206774.611 7
R17  20751906.742 8  20751911.863 7 111047641.080 8  86370685.869 7
R24  19648168.414 8  19648173.191 7 105067591.468 8  81719298.209 7
> 2025 06 15 09 46  5.0000000  0 18
C20  22965442.375 7 119587089.886 7
C29  22363813.992 7 116454252.024 7
E02  24665886.641 8  24665887.949 8 129620104.921 8  98056774.404 8
E04  26450716.570 6  26450719.012 7 138999454.440 6 105152192.530 7
E10  26284636.445 7  26284640.602 8 138126699.183 7 104491959.802 8
E11  24324808.609 7  24324807.211 7 127827729.839 7  96700842.155 7
E25  26483871.047 5  26483876.152 7 139173685.569 5 105283981.221 7
E36  23807632.758 8  23807634.973 8 125109956.012 8  94644877.848 8
G02  22658833.047 7  22658834.848 5                 119072964.378 7  92784144.090 5
G08  20722170.070 7                  20722177.676 8 108895736.618 7                  84854061.726 8
G10  20871378.578 8                  20871384.570 7 109679831.370 8                  85464942.231 7
G23  22259888.039 7                  22259893.191 7 116976499.083 7                  91150464.774 7
G27  20349808.414 8                  20349814.262 8 106938960.833 8                  83329118.070 8
R01  20340979.555 7                 108734185.371 7
R08  21571707.297 7  21571711.000 7 115515519.690 7  89845359.396 7
R15  21704571.375 8  21704576.148 7 115982644.172 8  90208698.415 7
R17  20748094.305 8  20748100.180 7 111027240.317 8  86354818.599 7
R24  19647522.406 8  19647526.438 7 105064132.783 8  81716608.131 7
> 2025 06 15 09 46 10.0000000  0 18
C20  22963718.531 7 119578113.483 7
C29  22364021.695 7 116455334.732 7
E02  24665403.227 8  24665404.461 8 129617564.209 8  98054852.371 8
E04  26447662.875 6  26447666.227 7 138983411.179 6 105140055.925 7
E10  26285374.797 7  26285378.539 8 138130576.969 7 104494893.303 8
E11  24324739.445 7  24324738.156 7 127827366.670 7  96700567.414 7
E25  26485338.180 5  26485345.500 7 139181407.069 5 105289822.514 7
E36  23805310.852 8  23805312.828 8 125097752.770 8  94635646.173 8
G02  22655117.070 7  22655119.316 5                 119053442.063 7  92768931.899 5
G08  20719367.617 7                  20719375.410 8 108881010.686 7                  84842586.989 8
G10  20869957.234 8                  20869962.969 7 109672361.639 8                  85459121.658 7
G23  22260973.430 7                  22260978.813 7 116982202.330 7                  91154908.854 7
G27  20349457.156 8                  20349462.961 8 106937114.745 8                  83327679.552 8
R01  20337583.109 7                 108716028.854 7
R08  21572336.813 7  21572340.891 7 115518890.879 7  89847981.411 7
R15  21705038.711 8  21705042.879 7 115985138.299 8  90210638.260 7
R17  20744283.297 7  20744289.102 7 111006848.011 7  86338957.922 7
R24  19646877.359 8  19646881.980 7 105060687.091 8  81713928.154 7
> 2025 06 15 09 46 15.0000000  0 18
C20  22961997.414 7 119569152.918 7
C29  22364231.656 7 116456425.922 7
E02  24664922.086 8  24664923.355 8 129615036.096 8  98052939.871 8
E04  26444612.539 6  26444615.465 7 138967378.511 6 105127927.315 7
E10  26286112.867 7  26286117.027 8 138134457.590 7 104497828.965 8
E11  24324672.000 7  24324670.066 7 127827008.996 7  96700296.826 7
E25  26486808.102 5  26486815.801 7 139189133.015 5 105295667.113 7
E36  23802989.805 8  23802991.895 8 125085556.278 8  94626419.613 8
G02  22651403.461 7  22651405.520 5                 119033925.985 7  92753724.587 5
G08  20716568.383 7                  20716575.883 8 108866298.573 7                  84831123.012 8
G10  20868538.820 8                  20868544.691 7 109664907.500 8                  85453313.213 7
G23  22262060.492 7                  22262066.238 7 116987915.876 7                  91159360.969 7
G27  20349108.383 8                  20349114.809 8 106935283.938 8                  83326252.947 8
R01  20334190.352 7                 108697894.020 7
R08  21572969.758 7  21572974.547 7 115522282.364 7  89850619.257 7
R15  21705509.344 8  21705512.883 7 115987652.236 8  90212593.525 7
R17  20740473.742 7  20740479.688 7 110986463.476 7  86323103.287 7
R24  19646235.977 8  19646240.059 7 105057253.865 8  81711257.867 7
> 2025 06 15 09 46 20.0000000  0 18
C20  22960279.234 7 119560208.646 7
C29  22364443.211 7 116457526.072 7
E02  24664443.359 8  24664444.766 8 129612521.040 8  98051037.238 8
E04  26441563.273 6  26441566.711 7 138951356.897 6 105115807.057 7
E10  26286851.602 7  26286856.113 8 138138341.518 7 104500767.116 8
E11  24324604.781 7  24324603.086 7 127826657.253 7  96700030.730 7
E25  26488279.273 5  26488286.906 7 139196863.711 5 105301515.301 7
E36  23800669.945 8  23800672.359 8 125073367.040 8  94617198.536 8
G02  22647691.109 7  22647693.137 5                 119014416.626 7  92738522.494 5
G08  20713771.563 8                  20713778.891 8 108851600.804 8                  84819670.210 8
G10  20867123.688 8                  20867129.188 7 109657469.344 8                  85447517.241 7
G23  22263149.266 7                  22263155.402 7 116993640.121 7                  91163821.397 7
G27  20348763.531 8                  20348769.680 8 106933468.874 8                  83324838.613 8
R01  20330801.414 7                 108679781.232 7
R08  21573603.992 7  21573611.949 7 115525694.479 7  89853273.138 7
R15  21705982.875 8  21705986.699 7 115990186.682 8  90214564.739 7
R17  20736664.969 7  20736671.684 7 110966087.158 7  86307255.045 7
R24  19645596.219 8  19645600.223 7 105053833.633 8  81708597.688 7
> 2025 06 15 09 46 25.0000000  0 19
C19  24010906.633 5 125031067.91515
C20  22958564.961 7 119551280.484 7
C29  22364656.164 7 116458635.021 7
E02  24663967.672 8  24663968.555 8 129610018.906 8  98049144.390 8
E04  26438515.555 6  26438520.074 7 138935346.186 6 105103695.092 7
E10  26287592.023 7  26287595.895 8 138142228.620 7 104503707.668 8
E11  24324538.617 7  24324537.211 7 127826311.332 7  96699769.031 7
E25  26489750.141 5  26489758.922 7 139204599.181 5 105307367.129 7
E36  23798351.734 8  23798354.195 8 125061184.880 8  94607982.810 8
G02  22643979.469 7  22643982.355 5                 118994913.878 7  92723325.561 5
G08  20710977.711 8                  20710984.680 8 108836917.221 8                  84808228.457 8
G10  20865710.891 8                  20865716.816 7 109650047.095 8                  85441733.652 7
G23  22264240.727 7                  22264246.469 7 116999374.900 7                  91168290.053 7
G27  20348420.953 8                  20348427.480 8 106931669.441 8                  83323436.461 8
R01  20327417.172 7                 108661690.326 7
R08  21574247.477 7  21574253.090 7 115529127.278 7  89855943.080 7
R15  21706460.453 7  21706465.105 7 115992741.366 7  90216551.707 7
R17  20732859.148 7  20732865.242 7 110945718.820 7  86291412.994 7
R24  19644958.914 8  19644962.508 7 105050426.074 8  81705947.337 7
> 2025 06 15 09 46 30.0000000  0 19
C19  24006647.766 4 125008904.40514
C20  22956853.695 7 119542369.589 7
C29  22364870.750 7 116459753.869 7
E02  24663493.859 8  24663495.051 8 129607530.807 8  98047262.138 8
E04  26435471.750 6  26435475.789 7 138919347.565 6 105091592.245 7
E10  26288332.469 7  26288336.375 8 138146119.969 7 104506651.457 8
E11  24324474.219 7  24324472.770 7 127825972.310 7  96699512.563 7
E25  26491224.406 5  26491232.102 7 139212340.364 5 105313223.257 7
E36  23796035.336 8  23796037.570 8 125049010.951 8  94598773.311 8
G02  22640270.242 7  22640272.105 5                 118975418.792 7  92708134.602 5
G08  20708186.430 8                  20708193.289 8 108822248.978 8                  84796798.663 8
G10  20864302.016 8                  20864307.574 7 109642641.840 8                  85435963.317 7
G23  22265334.641 7                  22265340.332 7 117005121.361 7                  91172767.840 7
G27  20348081.727 8                  20348088.105 8 106929886.714 8                  83322047.304 8
R01  20324036.805 7                 108643622.577 7
R08  21574892.539 7  21574898.168 7 115532581.727 7  89858629.906 7
R15  21706943.148 7  21706947.469 7 115995317.310 7  90218555.167 7
R17  20729054.906 7  20729060.641 7 110925359.840 7  86275578.238 7
R24  19644323.500 8  19644327.914 7 105047032.410 8  81703307.819 7
> 2025 06 15 09 46 35.0000000  0 19
C19  24002393.328 4 124986749.40314
C20  22955145.727 7 119533473.979 7
C29  22365087.039 7 116460880.660 7
E02  24663022.359 7  24663023.871 8 129605054.717 7  98045388.980 8
E04  26432428.906 6  26432433.285 7 138903358.954 6 105079496.984 7
E10  26289073.344 7  26289077.402 8 138150013.615 7 104509596.948 8
E11  24324410.781 7  24324409.207 7 127825638.206 7  96699259.822 7
E25  26492698.422 5  26492705.941 7 139220085.421 5 105319082.311 7
E36  23793720.008 8  23793722.133 8 125036843.234 8  94589568.515 8
G02  22636561.203 7  22636562.750 5                 118955929.510 7  92692948.160 5
G08  20705397.539 7                  20705404.277 8 108807594.071 7                  84785379.247 8
G10  20862895.492 8                  20862901.418 7 109635251.583 8                  85430204.688 7
G23  22266430.328 7                  22266435.703 7 117010877.516 7                  91177253.107 7
G27  20347745.344 8                  20347751.797 8 106928118.730 8                  83320669.649 8
R01  20320660.727 7                 108625575.852 7
R08  21575540.063 7  21575546.566 7 115536055.829 7  89861331.976 7
R15  21707429.672 7  21707432.805 7 115997912.512 7  90220573.651 7
R17  20725252.469 7  20725257.766 7 110905008.050 7  86259749.077 7
R24  19643691.828 8  19643695.066 7 105043650.652 8  81700677.548 7
> 2025 06 15 09 46 40.0000000  0 18
C20  22953440.867 7 119524594.192 7
C29  22365305.180 7 116462015.925 7
E02  24662553.719 7  24662555.066 8 129602591.215 7  98043525.341 8
E04  26429388.234 6  26429392.922 7 138887381.021 6 105067409.811 7
E10  26289815.039 7  26289818.859 8 138153910.088 7 104512544.612 8
E11  24324347.789 7  24324346.602 7 127825309.581 7  96699011.214 7
E25  26494172.195 5  26494180.699 7 139227834.791 5 105324944.657 7
E36  23791405.828 8  23791407.984 8 125024682.277 8  94580368.833 8
G02  22632854.258 7  22632855.742 5                 118936446.474 7  92677766.571 5
G08  20702611.289 8                  20702618.148 8 108792953.038 8                  84773970.650 8
G10  20861492.125 8                  20861497.633 7 109627876.847 8                  85424458.150 7
G23  22267527.500 7                  22267533.027 7 117016643.874 7                  91181746.373 7
G27  20347411.820 8                  20347417.715 8 106926366.013 8                  83319303.886 8
R01  20317288.742 7                 108607550.809 7
R08  21576193.797 7  21576199.195 7 115539550.120 7  89864049.739 7
R15  21707918.430 7  21707922.027 7 116000527.578 7  90222607.583 7
R17  20721450.641 7  20721456.434 7 110884664.075 7  86243925.981 7
R24  19643060.984 8  19643065.297 7 105040281.336 8  81698056.954 7
> 2025 06 15 09 46 45.0000000  0 18
C20  22951738.719 7 119515729.852 7
C29  22365525.406 7 116463159.260 7
E02  24662086.797 7  24662088.566 8 129600139.928 7  98041670.955 8
E04  26426349.914 6  26426354.410 7 138871413.360 6 105055330.369 7
E10  26290557.320 7  26290560.762 8 138157809.034 7 104515494.136 8
E11  24324285.813 7  24324285.016 7 127824986.061 7  96698766.472 7
E25  26495647.313 5  26495656.191 7 139235588.115 5 105330809.958 7
E36  23789093.172 8  23789095.098 8 125012527.703 8  94571173.989 8
G02  22629147.336 7  22629149.684 5                 118916969.334 7  92662589.604 5
G08  20699827.852 8                  20699834.656 8 108778325.542 8                  84762572.603 8
G10  20860092.172 8                  20860097.461 7 109620517.286 8                  85418723.444 7
G23  22268626.289 7                  22268632.375 7 117022420.037 7                  91186247.269 7
G27  20347081.445 8                  20347087.191 8 106924628.212 8                  83317949.753 8
R01  20313920.711 7                 108589547.172 7
R08  21576850.016 7  21576855.281 7 115543064.209 7  89866782.876 7
R15  21708411.195 7  21708415.004 7 116003162.067 7  90224656.624 7
R17  20717651.234 7  20717655.773 7 110864327.589 7  86228108.704 7
R24  19642433.383 8  19642437.125 7 105036924.025 8  81695445.697 7
> 2025 06 15 09 46 50.0000000  0 18
C20  22950039.602 7 119506881.802 7
C29  22365746.188 7 116464311.541 7
E02  24661622.820 7  24661624.641 8 129597701.620 7  98039826.400 8
E04  26423312.898 6  26423318.031 7 138855456.770 6 105043259.336 7
E10  26291300.594 7  26291303.320 8 138161711.244 7 104518446.101 8
E11  24324225.758 7  24324224.559 7 127824668.437 7  96698526.174 7
E25  26497123.820 5  26497132.449 7 139243346.220 5 105336678.879 7
E36  23786781.398 8  23786783.492 8 125000380.349 8  94561984.591 8
G02  22625442.313 7  22625444.805 5                 118897498.914 7  92647417.884 5
G08  20697047.125 8                  20697053.828 8 108763712.411 8                  84751185.746 8
G10  20858694.523 8                  20858700.160 7 109613173.729 8                  85413001.181 7
G23  22269727.805 7                  22269733.227 7 117028206.836 7                  91190756.460 7
G27  20346753.625 8                  20346759.098 8 106922906.102 8                  83316607.832 8
R01  20310556.758 7                 108571565.612 7
R08  21577508.969 7  21577514.441 7 115546598.864 7  89869532.041 7
R15  21708907.672 7  21708912.102 7 116005816.851 7  90226721.442 7
R17  20713852.156 8  20713856.988 7 110843999.201 8  86212297.767 7
R24  19641807.938 8  19641811.652 7 105033579.687 8  81692844.544 7
> 2025 06 15 09 46 55.0000000  0 18
C20  22948343.539 7 119498048.955 7
C29  22365969.227 7 116465471.692 7
E02  24661160.938 7  24661162.918 8 129595275.285 7  98037990.883 8
E04  26420278.969 6  26420283.480 7 138839510.173 6 105031195.846 7
E10  26292043.148 7  26292046.336 8 138165615.661 7 104521399.755 8
E11  24324166.609 7  24324165.047 7 127824355.660 7  96698289.554 7
E25  26498601.344 5  26498609.473 7 139251108.035 5 105342550.592 7
E36  23784471.008 8  23784473.164 8 124988239.155 8  94552799.865 8
G02  22621738.688 7  22621740.961 5                 118878034.196 7  92632250.580 5
G08  20694269.031 8                  20694275.504 8 108749112.543 8                  84739809.238 8
G10  20857300.094 8                  20857305.590 7 109605845.097 8                  85407290.570 7
G23  22270831.000 7                  22270836.027 7 117034003.152 7                  91195273.078 7
G27  20346428.516 8                  20346433.953 8 106921198.661 8                  83315277.354 8
R01  20307197.508 7                 108553605.113 7
R08  21578172.625 7  21578178.129 7 115550153.094 7  89872296.414 7
R15  21709407.758 7  21709412.957 7 116008490.941 7  90228801.279 7
R17  20710054.133 7  20710059.297 7 110823678.019 7  86196492.396 7
R24  19641184.648 8  19641188.516 7 105030247.106 8  81690252.528 7
> 2025 06 15 09 47  0.0000000  0 18
C20  22946650.414 7 119489231.697 7
C29  22366193.492 7 116466640.050 7
E02  24660701.539 8  24660703.543 8 129592861.229 8  98036164.668 8
E04  26417246.820 6  26417250.902 7 138823574.009 6 105019140.234 7
E10  26292786.453 7  26292789.820 8 138169522.662 7 104524355.354 8
E11  24324107.789 7  24324106.484 7 127824048.120 7  96698056.893 7
E25  26500078.555 5  26500087.344 7 139258873.858 5 105348425.354 7
E36  23782161.555 8  23782164.051 8 124976104.470 8  94543620.064 8
G02  22618036.383 7  22618037.902 5                 118858575.519 7  92617087.974 5
G08  20691493.609 8                  20691499.980 8 108734526.361 8                  84728443.393 8
G10  20855908.336 8                  20855913.695 7 109598531.745 8                  85401591.858 7
G23  22271935.781 7                  22271941.141 7 117039809.410 7                  91199797.415 7
G27  20346106.492 8                  20346111.652 8 106919506.212 8                  83313958.567 8
R01  20303841.781 7                 108535666.014 7
R08  21578838.914 6  21578845.641 7 115553727.193 6  89875076.256 7
R15  21709912.070 7  21709917.582 7 116011184.564 7  90230896.288 7
R17  20706257.742 7  20706263.297 7 110803364.368 7  86180692.926 7
R24  19640563.633 8  19640567.953 7 105026926.685 8  81687669.979 7
> 2025 06 15 09 47  5.0000000  0 18
C20  22944960.016 7 119480430.857 7
C29  22366419.297 7 116467817.484 7
E02  24660245.047 7  24660246.699 8 129590460.383 7  98034348.433 8
E04  26414217.008 6  26414220.586 7 138807649.120 6 105007093.156 7
E10  26293530.219 7  26293533.926 8 138173433.057 7 104527313.550 8
E11  24324050.625 7  24324049.113 7 127823746.643 7  96697828.832 7
E25  26501557.648 5  26501566.105 7 139266644.549 5 105354303.806 7
E36  23779853.859 8  23779856.316 8 124963977.175 8  94534445.841 8
G02  22614334.172 7  22614336.285 5                 118839123.743 7  92601930.759 5
G08  20688720.563 7                  20688726.684 8 108719954.737 7                  84717088.879 8
G10  20854519.969 8                  20854525.133 7 109591234.539 8                  85395905.715 7
G23  22273042.992 7                  22273047.785 7 117045626.416 7                  91204330.137 7
G27  20345787.086 8                  20345792.586 7 106917829.677 8                  83312652.178 7
R01  20300489.930 7                 108517749.354 7
R08  21579510.320 7  21579516.934 7 115557322.032 7  89877872.270 7
R15  21710421.352 7  21710425.387 7 116013898.478 7  90233007.109 7
R17  20702463.016 7  20702468.836 7 110783059.263 7  86164900.063 7
R24  19639944.742 8  19639949.727 7 105023619.321 8  81685097.591 7
> 2025 06 15 09 47 10.0000000  0 18
C20  22943273.578 7 119471647.038 7
C29  22366647.609 7 116469004.580 7
E02  24659790.406 8  24659792.449 8 129588073.290 8  98032542.605 8
E04  26411189.156 6  26411192.340 7 138791736.055 6 104995055.055 7
E10  26294275.320 7  26294278.793 8 138177347.517 7 104530274.790 8
E11  24323994.141 7  24323992.922 7 127823451.829 7  96697605.806 7
E25  26503034.414 5  26503045.848 7 139274420.81815 105360186.49417
E36  23777547.898 8  23777550.031 8 124951857.867 8  94525277.658 8
G02  22610633.961 7  22610636.316 5                 118819679.460 7  92586779.372 5
G08  20685950.344 7                  20685957.027 8 108705398.253 7                  84705746.175 8
G10  20853134.313 8                  20853139.918 7 109583954.111 8                  85390232.655 7
G23  22274151.898 7                  22274156.656 7 117051454.796 7                  91208871.711 7
G27  20345470.633 8                  20345476.820 7 106916169.585 8                  83311358.604 7
R01  20297141.820 7                 108499855.568 7
R08  21580185.750 7  21580192.785 7 115560938.243 7  89880684.862 7
R15  21710931.227 7  21710936.781 7 116016633.313 7  90235134.227 7
R17  20698669.945 8  20698675.617 7 110762763.248 8  86149114.272 7
R24  19639328.672 8  19639333.660 7 105020325.665 8  81682535.863 7
> 2025 06 15 09 47 15.0000000  0 18
C20  22941589.828 7 119462878.895 7
C29  22366877.484 7 116470199.971 7
E02  24659338.773 7  24659340.578 8 129585698.585 7  98030746.167 8
E04  26408162.453 6  26408166.188 7 138775833.593 6 104983024.948 7
E10  26295020.438 7  26295024.238 8 138181264.603 7 104533238.034 8
E11  24323939.258 7  24323937.859 7 127823162.309 7  96697386.775 7
E25  26504516.672 5  26504526.426 7 139282201.188 5 105366072.242 7
E36  23775242.750 8  23775245.043 8 124939745.146 8  94516114.467 8
G02  22606935.648 7  22606937.391 5                 118800241.313 7  92571632.767 5
G08  20683182.789 7                  20683189.441 8 108690855.553 7                  84694414.191 8
G10  20851751.852 8                  20851757.227 8 109576688.995 8                  85384571.510 8
G23  22275262.992 7                  22275267.668 7 117057293.134 7                  91213421.063 7
G27  20345157.938 8                  20345163.750 7 106914524.603 8                  83310076.801 7
R01  20293800.305 7                 108481983.345 7
R08  21580864.461 6  21580871.504 7 115564574.315 6  89883512.899 7
R15  21711447.313 7  21711451.980 7 116019387.808 7  90237276.631 7
R17  20694879.492 8  20694884.203 7 110742474.825 8  86133334.383 7
R24  19638714.500 8  19638719.703 7 105017044.289 8  81679983.688 7
> 2025 06 15 09 47 20.0000000  0 18
C20  22939908.523 7 119454125.849 7
C29  22367107.844 7 116471403.130 7
E02  24658889.789 7  24658890.934 8 129583335.729 7  98028958.676 8
E04  26405138.656 6  26405141.855 7 138759941.041 6 104971002.353 7
E10  26295766.594 7  26295770.098 8 138185183.837 7 104536202.881 8
E11  24323884.383 7  24323883.664 7 127822877.505 7  96697171.329 7
E25  26505999.766 5  26506007.676 7 139289985.11415 105371960.69517
E36  23772938.648 8  23772941.199 8 124927638.478 8  94506955.850 8
G02  22603237.164 7  22603239.586 5                 118780808.750 7  92556490.527 5
G08  20680417.648 7                  20680424.574 8 108676326.085 7                  84683092.535 8
G10  20850372.469 8                  20850377.719 8 109569438.690 8                  85378921.927 8
G23  22276375.344 7                  22276380.582 7 117063140.857 7                  91217977.711 7
G27  20344847.563 8                  20344853.500 7 106912894.143 8                  83308806.315 7
R01  20290460.719 7                 108464132.170 7
R08  21581548.531 7  21581554.309 6 115568229.713 7  89886355.971 6
R15  21711966.367 7  21711971.336 7 116022161.250 7  90239433.741 7
R17  20691089.047 8  20691093.859 7 110722193.518 8  86117560.028 7
R24  19638103.273 8  19638109.082 7 105013774.544 8  81677440.554 7
> 2025 06 15 09 47 25.0000000  0 19
C19  23959940.359 5 124765701.34515
C20  22938231.125 7 119445389.383 7
C29  22367340.688 7 116472615.480 7
E02  24658443.164 7  24658443.891 8 129580986.146 7  98027181.232 8
E04  26402116.414 6  26402119.602 7 138744059.899 6 104958988.396 7
E10  26296513.359 7  26296516.520 8 138189106.567 7 104539170.386 8
E11  24323831.852 7  24323830.715 7 127822598.903 7  96696960.555 7
E25  26507479.617 4  26507489.781 7 139297773.950 4 105377852.896 7
E36  23770636.602 8  23770638.820 8 124915539.314 8  94497802.919 8
G02  22599541.242 7  22599543.262 5                 118761383.181 7  92541353.736 5
G08  20677655.391 7                  20677662.816 8 108661811.332 7                  84671782.338 8
G10  20848995.555 8                  20849001.328 8 109562204.658 8                  85373285.003 8
G23  22277489.656 7                  22277495.465 7 117068999.434 7                  91222542.824 7
G27  20344540.070 8                  20344546.508 7 106911279.692 8                  83307548.310 7
R01  20287124.789 7                 108446303.599 7
R08  21582236.695 7  21582241.316 7 115571905.960 7  89889215.242 7
R15  21712489.016 7  21712494.250 7 116024955.139 7  90241606.774 7
R17  20687301.398 8  20687305.352 7 110701920.719 8  86101792.313 7
R24  19637494.250 8  19637499.738 7 105010518.036 8  81674907.712 7
> 2025 06 15 09 47 30.0000000  0 19
C19  23955703.109 5 124743645.763 5
C20  22936556.273 7 119436668.398 7
C29  22367574.961 7 116473835.915 7
E02  24657998.391 7  24657999.137 8 129578648.757 7  98025412.994 8
E04  26399096.320 6  26399099.316 7 138728189.060 6 104946982.202 7
E10  26297260.031 7  26297263.387 8 138193031.758 7 104542139.756 8
E11  24323779.523 7  24323778.645 7 127822325.372 7  96696753.624 7
E25  26508964.352 5  26508972.746 7 139305566.696 5 105383748.091 7
E36  23768334.852 8  23768337.691 8 124903446.528 8  94488654.807 8
G02  22595845.445 7  22595847.676 5                 118741963.597 7  92526221.593 5
G08  20674896.266 7                  20674903.145 8 108647310.161 7                  84660482.721 8
G10  20847621.789 8                  20847627.383 8 109554985.765 8                  85367659.902 8
G23  22278606.305 7                  22278611.711 7 117074867.714 7                  91227115.496 7
G27  20344235.523 8                  20344242.230 8 106909680.114 8                  83306301.897 8
R01  20283794.219 7                 108428496.404 7
R08  21582925.563 7  21582931.387 7 115575601.853 7  89892089.830 7
R15  21713015.289 7  21713020.652 7 116027768.464 7  90243794.889 7
R17  20683513.711 8  20683518.742 7 110681655.542 8  86086030.527 7
R24  19636888.484 8  19636893.055 7 105007273.491 8  81672384.177 7
> 2025 06 15 09 47 35.0000000  0 19
C19  23951470.969 5 124721598.619 5
C20  22934884.227 7 119427962.566 7
C29  22367810.594 7 116475064.146 7
E02  24657555.844 7  24657556.730 8 129576323.214 7  98023653.723 8
E04  26396078.148 6  26396080.871 7 138712328.314 6 104934983.655 7
E10  26298007.453 7  26298010.652 8 138196959.042 7 104545110.704 8
E11  24323729.070 7  24323727.527 7 127822056.606 7  96696550.297 7
E25  26510449.633 5  26510456.281 7 139313363.074 5 105389645.939 7
E36  23766035.016 8  23766037.656 8 124891359.862 8  94479511.320 8
G02  22592150.734 7  22592153.613 5                 118722549.640 7  92511093.833 5
G08  20672139.313 8                  20672146.066 7 108632822.297 8                  84649193.489 7
G10  20846251.414 8                  20846256.484 8 109547781.706 8                  85362046.351 8
G23  22279725.648 7                  22279730.258 7 117080745.407 7                  91231695.526 7
G27  20343933.461 8                  20343940.969 8 106908095.110 8                  83305066.825 8
R01  20280466.148 7                 108410710.317 7
R08  21583620.234 7  21583625.684 7 115579317.095 7  89894979.461 7
R15  21713545.578 7  21713550.773 7 116030600.803 7  90245997.760 7
R17  20679727.148 7  20679733.523 7 110661397.458 7  86070274.226 7
R24  19636284.070 8  19636288.617 7 105004040.806 8  81669869.875 7
> 2025 06 15 09 47 40.0000000  0 20
C19  23947237.883 5 124699561.508 5
C20  22933215.586 7 119419273.521 7
C24  25437239.172 4 132458292.66314
C29  22368047.938 7 116476301.816 7
E02  24657115.711 8  24657116.703 8 129574011.193 8  98021904.691 8
E04  26393061.711 6  26393064.836 7 138696479.197 6 104922993.916 7
E10  26298755.016 7  26298758.809 8 138200890.141 7 104548084.546 8
E11  24323678.969 7  24323677.625 7 127821794.284 7  96696351.838 7
E25  26511934.156 5  26511940.805 7 139321164.58515 105395547.75517
E36  23763736.805 8  23763739.109 8 124879280.918 8  94470373.676 8
G02  22588457.594 7  22588460.855 5                 118703142.903 7  92495971.745 5
G08  20669385.352 8                  20669392.418 8 108618349.387 8                  84637915.896 8
G10  20844883.367 8                  20844889.129 8 109540594.165 8                  85356445.681 8
G23  22280845.938 7                  22280850.895 7 117086634.167 7                  91236284.171 7
G27  20343635.172 8                  20343642.434 8 106906526.333 8                  83303844.403 8
R01  20277143.688 7                 108392946.970 7
R08  21584317.234 7  21584323.484 7 115583053.355 7  89897885.454 7
R15  21714080.234 7  21714084.797 7 116033453.736 7  90248216.704 7
R17  20675943.313 7  20675949.445 7 110641148.300 7  86054524.891 7
R24  19635682.984 8  19635686.324 7 105000821.491 8  81667365.964 7
> 2025 06 15 09 47 45.0000000  0 19
C19  23943008.477 5 124677533.825 5
C20  22931550.383 7 119410600.676 7
C29  22368287.383 7 116477548.263 7
E02  24656678.477 8  24656679.133 8 129571712.049 8  98020165.391 8
E04  26390047.195 6  26390050.969 7 138680641.176 6 104911012.567 7
E10  26299504.102 7  26299507.414 8 138204824.373 7 104551060.769 8
E11  24323630.234 7  24323628.801 8 127821537.733 7  96696157.767 8
E25  26513420.625 5  26513426.352 7 139328970.705 5 105401453.015 7
E36  23761439.406 8  23761441.883 8 124867209.089 8  94461241.413 8
G02  22584766.180 7  22584769.543 5                 118683742.861 7  92480854.840 5
G08  20666634.109 8                  20666641.133 8 108603890.825 8                  84626649.500 8
G10  20843518.102 8                  20843524.516 8 109533422.449 8                  85350857.349 8
G23  22281968.352 7                  22281973.527 7 117092533.316 7                  91240880.904 7
G27  20343340.039 8                  20343346.840 8 106904973.171 8                  83302634.118 8
R01  20273823.922 7                 108375205.891 7
R08  21585020.633 7  21585025.484 7 115586809.860 7  89900807.161 7
R15  21714617.852 7  21714622.688 7 116036326.726 7  90250451.220 7
R17  20672161.063 7  20672166.461 7 110620907.353 7  86038781.933 7
R24  19635082.539 8  19635086.609 7 104997614.919 8  81664871.962 7
> 2025 06 15 09 47 50.0000000  0 19
C19  23938780.195 5 124655515.187 5
C20  22929888.047 7 119401943.573 7
C29  22368528.563 7 116478803.115 7
E02  24656242.906 7  24656244.031 8 129569425.396 7  98018435.549 8
E04  26387036.000 6  26387039.121 7 138664813.831 6 104899039.293 7
E10  26300252.742 7  26300256.602 8 138208761.396 7 104554039.107 8
E11  24323582.438 7  24323580.996 8 127821286.568 7  96695967.746 8
E25  26514906.625 5  26514912.582 7 139336781.053 5 105407361.483 7
E36  23759144.000 8  23759145.961 8 124855144.001 8  94452114.252 8
G02  22581074.734 7  22581078.559 5                 118664349.106 7  92465742.835 5
G08  20663885.195 8                  20663892.426 8 108589446.220 8                  84615393.968 8
G10  20842156.641 8                  20842162.723 8 109526266.245 8                  85345281.050 8
G23  22283092.781 7                  22283098.098 7 117098442.487 7                  91245485.466 7
G27  20343047.695 8                  20343054.852 8 106903435.181 8                  83301435.688 8
R01  20270509.430 7                 108357486.479 7
R08  21585724.773 7  21585730.770 7 115590586.590 7  89903744.616 7
R15  21715159.008 7  21715164.336 7 116039219.354 7  90252701.030 7
R17  20668380.625 7  20668385.379 7 110600674.176 7  86023045.032 7
R24  19634485.258 8  19634489.070 7 104994420.879 8  81662387.708 7
> 2025 06 15 09 47 55.0000000  0 19
C19  23934553.797 5 124633505.767 5
C20  22928229.695 7 119393302.447 7
C29  22368772.047 7 116480066.562 7
E02  24655810.227 8  24655811.328 8 129567151.381 8  98016715.270 8
E04  26384026.445 6  26384029.270 7 138648997.288 6 104887074.200 7
E10  26301002.727 7  26301006.293 8 138212701.324 7 104557019.607 8
E11  24323535.766 7  24323534.258 8 127821040.940 7  96695781.935 8
E25  26516393.922 5  26516399.598 7 139344595.693 5 105413273.199 7
E36  23756849.445 8  23756851.355 8 124843085.800 8  94442992.302 8
G02  22577384.930 7  22577388.980 5                 118644961.853 7  92450635.882 5
G08  20661139.195 8                  20661146.762 8 108575015.748 8                  84604149.440 8
G10  20840797.336 8                  20840803.914 8 109519125.650 8                  85339716.947 8
G23  22284219.313 7                  22284224.586 7 117104361.812 7                  91250097.918 7
G27  20342757.523 8                  20342764.934 8 106901912.560 8                  83300249.230 8
R01  20267199.211 7                 108339789.048 7
R08  21586433.164 7  21586439.785 7 115594383.270 7  89906697.615 7
R15  21715703.695 7  21715709.227 7 116042131.610 7  90254966.132 7
R17  20664601.508 8  20664605.828 7 110580449.076 8  86007314.405 7
R24  19633889.891 8  19633894.242 7 104991239.320 8  81659913.154 7
> 2025 06 15 09 48  0.0000000  0 19
C19  23930328.133 5 124611505.429 5
C20  22926573.273 7 119384677.029 7
C29  22369016.977 7 116481338.328 7
E02  24655379.430 8  24655380.941 8 129564889.769 8  98015004.371 8
E04  26381017.523 6  26381021.371 7 138633191.372 6 104875117.155 7
E10  26301753.016 7  26301756.598 8 138216643.941 7 104560002.165 8
E11  24323489.891 7  24323488.570 8 127820800.657 7  96695600.172 8
E25  26517882.023 5  26517887.512 7 139352414.469 5 105419188.001 7
E36  23754555.797 8  23754558.027 8 124831034.248 8  94433875.374 8
G02  22573697.172 7  22573700.852 5                 118625580.721 7  92435533.689 5
G08  20658395.523 8                  20658402.742 8 108560599.164 8                  84592915.738 8
G10  20839441.867 8                  20839448.375 8 109512000.434 8                  85334164.826 8
G23  22285347.219 7                  22285353.063 7 117110291.060 7                  91254718.112 7
G27  20342470.891 8                  20342477.773 8 106900405.056 8                  83299074.546 8
R01  20263891.898 7                 108322113.497 7
R08  21587144.547 7  21587153.156 7 115598199.697 7  89909665.976 7
R15  21716252.461 7  21716258.039 7 116045063.392 7  90257246.408 7
R17  20660823.633 8  20660827.672 7 110560231.612 8  85991589.694 7
R24  19633296.906 8  19633301.742 7 104988070.103 8  81657448.211 7
> 2025 06 15 09 48  5.0000000  0 19
C19  23926105.133 6 124589515.457 6
C20  22924920.555 7 119376068.763 7
C29  22369263.195 7 116482619.847 7
E02  24654951.336 8  24654953.180 8 129562642.018 8  98013303.959 8
E04  26378012.039 6  26378015.930 7 138617397.553 6 104863169.220 7
E10  26302503.727 7  26302507.445 8 138220590.684 7 104562987.835 8
E11  24323445.430 7  24323444.047 8 127820567.106 7  96695423.491 8
E25  26519371.883 5  26519376.359 7 139360238.750 5 105425107.013 7
E36  23752264.070 8  23752266.227 8 124818990.760 8  94424764.554 8
G02  22570010.570 7  22570014.035 5                 118606207.298 7  92420437.529 5
G08  20655655.313 8                  20655661.996 8 108546197.891 8                  84581693.964 8
G10  20838088.688 8                  20838095.281 7 109504892.018 8                  85328625.817 7
G23  22286477.797 7                  22286483.676 7 117116231.635 7                  91259347.118 7
G27  20342187.539 8                  20342193.910 8 106898914.099 8                  83297912.756 8
R01  20260589.055 7                 108304461.117 7
R08  21587861.414 7  21587869.410 7 115602037.488 7  89912650.933 7
R15  21716804.820 7  21716810.766 7 116048016.223 7  90259543.039 7
R17  20657046.703 8  20657051.605 7 110540023.529 8  85975872.337 7
R24  19632707.953 8  19632711.453 7 104984914.618 8  81654993.942 7
> 2025 06 15 09 48 10.0000000  0 19
C19  23921883.391 6 124567533.920 6
C20  22923269.766 7 119367475.621 7
C29  22369510.781 7 116483909.121 7
E02  24654526.086 7  24654527.715 8 129560406.051 7  98011612.449 8
E04  26375008.398 6  26375012.324 7 138601613.788 6 104851228.918 7
E10  26303255.203 7  26303258.977 8 138224539.478 7 104565975.063 8
E11  24323401.695 7  24323400.473 8 127820338.252 7  96695250.380 8
E25  26520860.961 5  26520865.973 7 139368066.428 5 105431028.556 7
E36  23749973.391 8  23749975.578 8 124806953.336 8  94415658.318 8
G02  22566325.484 7  22566328.629 5                 118586839.403 7  92405345.681 5
G08  20652916.945 8                  20652924.039 8 108531809.939 8                  84570482.577 8
G10  20836739.258 8                  20836745.570 7 109497798.398 8                  85323098.319 7
G23  22287610.031 7                  22287616.332 7 117122181.526 7                  91263983.383 7
G27  20341905.758 8                  20341912.867 8 106897437.665 8                  83296762.271 8
R01  20257291.383 7                 108286829.861 7
R08  21588581.398 7  21588589.301 7 115605894.446 7  89915650.765 7
R15  21717360.484 7  21717366.844 7 116050987.724 7  90261854.205 7
R17  20653271.945 8  20653276.871 7 110519822.600 8  85960160.509 7
R24  19632119.602 8  19632123.832 7 104981770.939 8  81652548.865 7
> 2025 06 15 09 48 15.0000000  0 19
C19  23917664.578 6 124545562.217 6
C20  22921622.711 7 119358899.044 7
C29  22369760.758 7 116485207.533 7
E02  24654103.344 7  24654104.750 8 129558183.326 7  98009930.962 8
E04  26372006.992 6  26372010.879 7 138585841.479 6 104839297.263 7
E10  26304007.500 7  26304011.105 8 138228491.795 7 104568964.944 8
E11  24323359.391 7  24323358.129 8 127820115.553 7  96695081.909 8
E25  26522350.906 5  26522356.457 7 139375899.104 5 105436953.904 7
E36  23747683.984 8  23747686.363 8 124794923.377 8  94406557.732 8
G02  22562641.359 7  22562643.773 5                 118567478.592 7  92390259.349 5
G08  20650182.125 8                  20650188.926 7 108517436.762 8                  84559282.692 7
G10  20835392.156 8                  20835398.797 7 109490720.984 8                  85317583.458 7
G23  22288743.992 7                  22288750.746 7 117128142.083 7                  91268627.976 7
G27  20341627.742 8                  20341634.602 8 106895977.183 8                  83295624.212 8
R01  20253997.625 7                 108269221.285 7
R08  21589304.734 7  21589313.117 6 115609772.084 7  89918666.706 6
R15  21717920.727 7  21717926.648 7 116053979.617 7  90264181.205 7
R17  20649498.453 8  20649503.465 7 110499630.319 8  85944455.430 7
R24  19631534.508 8  19631538.297 7 104978640.356 8  81650113.963 7
> 2025 06 15 09 48 20.0000000  0 19
C19  23913446.563 6 124523599.906 6
C20  22919978.883 7 119350338.492 7
C29  22370011.984 7 116486514.583 7
E02  24653682.688 7  24653684.168 8 129555973.286 7  98008259.074 8
E04  26369007.891 6  26369011.594 7 138570080.124 6 104827373.894 7
E10  26304759.625 7  26304763.820 8 138232447.085 7 104571957.082 8
E11  24323317.867 7  24323316.816 8 127819898.468 7  96694917.679 8
E25  26523843.125 5  26523847.805 7 139383736.084 5 105442882.487 7
E36  23745395.945 8  23745398.434 8 124782900.376 8  94397462.410 8
G02  22558958.078 7  22558960.664 5                 118548124.274 7  92375178.048 5
G08  20647449.617 8                  20647456.438 8 108503077.815 8                  84548093.888 8
G10  20834048.852 8                  20834055.012 8 109483659.276 8                  85312080.831 8
G23  22289880.477 7                  22289886.855 7 117134112.833 7                  91273280.476 7
G27  20341353.328 8                  20341360.145 8 106894532.106 8                  83294498.179 8
R01  20250708.375 7                 108251634.763 7
R08  21590033.945 7  21590040.816 7 115613669.773 7  89921698.217 7
R15  21718485.273 7  21718490.125 7 116056991.173 7  90266523.529 7
R17  20645727.367 8  20645731.180 7 110479446.190 8  85928756.646 7
R24  19630950.484 8  19630955.477 7 104975522.371 8  81647688.856 7
> 2025 06 15 09 48 25.0000000  0 19
C19  23909230.578 6 124501646.845 6
C20  22918337.516 7 119341793.871 7
C29  22370263.984 7 116487830.196 7
E02  24653264.461 7  24653266.031 8 129553775.870 7  98006596.735 8
E04  26366010.383 6  26366014.309 7 138554329.675 6 104815458.786 7
E10  26305513.281 6  26305517.051 8 138236405.289 6 104574951.396 8
E11  24323277.383 7  24323276.586 7 127819686.933 7  96694757.646 7
E25  26525334.633 5  26525339.953 7 139391577.308 5 105448814.306 7
E36  23743109.516 8  23743111.816 8 124770884.247 8  94388372.292 8
G02  22555276.719 7  22555279.250 5                 118528776.395 7  92360101.781 5
G08  20644719.938 8                  20644727.070 8 108488733.025 8                  84536916.117 8
G10  20832707.664 8                  20832714.379 8 109476613.110 8                  85306590.325 8
G23  22291018.398 7                  22291025.047 7 117140093.681 7                  91277940.852 7
G27  20341081.438 8                  20341088.055 8 106893102.356 8                  83293384.081 8
R01  20247422.375 7                 108234070.331 7
R08  21590766.039 7  21590772.457 7 115617587.516 7  89924745.339 7
R15  21719052.867 7  21719057.727 7 116060022.385 7  90268881.139 7
R17  20641955.797 8  20641960.758 7 110459269.995 8  85913064.048 7
R24  19630369.250 8  19630374.223 7 104972416.902 8  81645273.489 7
> 2025 06 15 09 48 30.0000000  0 19
C19  23905016.336 6 124479701.497 6
C20  22916698.688 7 119333263.665 7
C29  22370517.938 7 116489152.825 7
E02  24652848.180 7  24652849.973 8 129551589.486 7  98004942.756 8
E04  26363014.500 6  26363018.836 7 138538588.490 6 104803550.690 7
E10  26306267.102 7  26306270.563 8 138240364.830 7 104577946.750 8
E11  24323238.063 7  24323237.082 7 127819479.354 7  96694600.612 7
E25  26526827.281 5  26526832.652 7 139399421.262 5 105454748.198 7
E36  23740824.242 8  23740826.258 9 124758873.438 8  94379286.200 9
G02  22551595.836 7  22551598.473 5                 118509433.397 7  92345029.318 5
G08  20641992.781 8                  20641999.656 7 108474400.827 8                  84525748.174 7
G10  20831369.586 8                  20831376.109 8 109469581.004 8                  85301110.780 8
G23  22292158.383 7                  22292164.789 7 117146083.051 7                  91282607.884 7
G27  20340812.055 8                  20340818.543 8 106891686.383 8                  83292280.734 8
R01  20244141.000 7                 108216526.171 7
R08  21591501.328 7  21591507.555 7 115621523.634 7  89927806.774 7
R15  21719622.266 7  21719628.309 7 116063071.636 7  90271252.790 7
R17  20638187.164 8  20638191.973 7 110439100.275 8  85897376.463 7
R24  19629791.438 8  19629795.762 7 104969322.512 8  81642866.740 7
> 2025 06 15 09 48 35.0000000  0 19
C19  23900803.297 6 124457765.324 6
C20  22915062.836 7 119324749.179 7
C29  22370773.531 7 116490483.817 7
E02  24652434.320 7  24652436.316 8 129549415.565 7  98003298.181 8
E04  26360021.703 6  26360025.379 7 138522858.090 6 104791650.745 7
E10  26307020.875 6  26307024.555 8 138244327.068 6 104580944.107 8
E11  24323199.602 7  24323198.598 7 127819277.133 7  96694447.628 7
E25  26528320.727 5  26528326.117 7 139407269.321 5 105460685.189 7
E36  23738539.898 8  23738541.945 8 124746869.322 8  94370205.163 8
G02  22547916.664 7  22547919.223 5                 118490096.694 7  92329961.771 5
G08  20639268.602 8                  20639275.074 7 108460082.643 8                  84514591.153 7
G10  20830034.109 8                  20830040.871 8 109462564.319 8                  85295643.237 8
G23  22293300.047 7                  22293306.496 7 117152082.291 7                  91287282.586 7
G27  20340545.625 8                  20340552.117 8 106890285.564 8                  83291189.183 8
R01  20240862.977 7                 108199004.007 7
R08  21592240.961 7  21592246.063 7 115625479.585 7  89930883.601 7
R15  21720196.641 7  21720202.063 7 116066140.274 7  90273639.511 7
R17  20634418.773 7  20634424.074 7 110418938.498 7  85881695.092 7
R24  19629214.781 8  19629219.539 7 104966240.396 8  81640469.532 7
> 2025 06 15 09 48 40.0000000  0 19
C19  23896592.234 6 124435838.166 6
C20  22913429.891 7 119316250.386 7
C29  22371030.453 7 116491823.088 7
E02  24652023.133 7  24652024.965 8 129547253.943 7  98001662.929 8
E04  26357030.016 6  26357033.926 7 138507138.278 6 104779758.825 7
E10  26307775.547 6  26307779.027 8 138248291.924 6 104583943.487 8
E11  24323161.711 7  24323161.160 7 127819080.126 7  96694298.589 7
E25  26529815.188 5  26529820.273 7 139415121.322 5 105466625.148 7
E36  23736256.641 8  23736258.938 8 124734871.802 8  94361129.127 8
G02  22544238.461 8  22544240.648 5                 118470766.122 8  92314898.998 5
G08  20636545.867 8                  20636553.105 7 108445778.339 8                  84503444.959 7
G10  20828701.672 8                  20828708.449 8 109455562.924 8                  85290187.593 8
G23  22294443.805 7                  22294450.098 7 117158091.281 7                  91291964.912 7
G27  20340281.781 8                  20340288.402 8 106888899.772 8                  83290109.335 8
R01  20237589.641 8                 108181503.620 8
R08  21592983.555 7  21592988.410 7 115629455.177 7  89933975.717 7
R15  21720775.063 7  21720780.211 7 116069228.364 7  90276041.338 7
R17  20630651.695 7  20630657.746 8 110398784.402 7  85866019.689 8
R24  19628640.398 8  19628645.781 7 104963170.571 8  81638081.890 7
> 2025 06 15 09 48 45.0000000  0 19
C19  23892383.234 6 124413921.084 6
C20  22911800.875 7 119307768.245 7
C29  22371289.383 7 116493171.602 7
E02  24651614.063 7  24651616.176 8 129545105.652 7  98000037.756 8
E04  26354041.773 6  26354044.742 7 138491430.129 6 104767875.705 7
E10  26308531.289 6  26308534.199 8 138252260.386 6 104586945.587 8
E11  24323125.258 7  24323124.855 8 127818889.394 7  96694154.296 8
E25  26531310.656 5  26531315.395 7 139422978.272 5 105472568.865 7
E36  23733975.047 8  23733977.273 8 124722881.891 8  94352058.829 8
G02  22540561.234 7  22540563.203 5                 118451442.747 7  92299841.834 5
G08  20633827.016 8                  20633834.035 7 108431488.967 8                  84492310.387 7
G10  20827372.688 8                  20827378.945 7 109448577.867 8                  85284744.682 7
G23  22295589.117 7                  22295595.184 7 117164111.044 7                  91296655.641 7
G27  20340021.234 8                  20340027.949 8 106887530.017 8                  83289041.999 8
R01  20234319.883 7                 108164026.100 7
R08  21593729.664 7  21593734.719 7 115633451.392 7  89937083.851 7
R15  21721356.711 8  21721361.316 7 116072336.694 8  90278458.875 7
R17  20626887.633 7  20626893.496 8 110378639.143 7  85850351.118 8
R24  19628069.133 8  19628073.617 7 104960114.071 8  81635704.611 7
> 2025 06 15 09 48 50.0000000  0 19
C19  23888175.961 6 124392013.624 6
C20  22910175.203 7 119299302.383 7
C29  22371549.828 7 116494529.031 7
E02  24651207.906 7  24651209.805 9 129542970.326 7  97998422.399 9
E04  26351054.813 6  26351057.641 7 138475733.216 6 104756001.115 7
E10  26309286.555 6  26309290.043 8 138256232.061 6 104589950.137 8
E11  24323090.375 7  24323089.672 7 127818704.517 7  96694014.432 7
E25  26532807.500 5  26532811.398 7 139430839.763 5 105478516.031 7
E36  23731694.508 8  23731697.078 8 124710899.203 8  94342994.005 8
G02  22536884.445 7  22536887.609 5                 118432126.170 7  92284789.968 5
G08  20631110.117 8                  20631117.367 7 108417214.137 8                  84481187.147 7
G10  20826046.313 8                  20826052.656 7 109441608.748 8                  85279314.190 7
G23  22296736.727 7                  22296742.926 7 117170141.201 7                  91301354.453 7
G27  20339763.703 8                  20339770.305 8 106886175.941 8                  83287986.887 8
R01  20231054.438 7                 108146570.960 7
R08  21594479.289 7  21594484.344 7 115637467.913 7  89940207.832 7
R15  21721943.461 8  21721946.988 7 116075464.993 8  90280891.979 7
R17  20623124.523 7  20623130.832 8 110358502.362 7  85834689.179 8
R24  19627499.578 8  19627504.441 7 104957070.403 8  81633337.313 7
> 2025 06 15 09 48 55.0000000  0 19
C19  23883971.281 6 124370115.910 6
C20  22908553.523 7 119290852.804 7
C29  22371811.906 7 116495895.381 7
E02  24650804.211 7  24650805.941 8 129540847.946 7  97996816.825 8
E04  26348070.219 6  26348072.754 7 138460047.607 6 104744135.053 7
E10  26310042.938 6  26310046.527 8 138260207.004 6 104592957.146 8
E11  24323056.594 7  24323055.625 7 127818525.519 7  96693879.020 7
E25  26534303.633 5  26534308.332 7 139438705.965 5 105484466.720 7
E36  23729415.859 8  23729418.203 8 124698923.745 8  94333934.647 8
G02  22533209.773 7  22533213.137 5                 118412816.425 7  92269743.424 5
G08  20628396.852 8                  20628403.867 8 108402953.874 8                  84470075.255 8
G10  20824722.945 8                  20824729.414 7 109434655.558 8                  85273896.105 7
G23  22297886.234 7                  22297892.137 7 117176181.731 7                  91306061.377 7
G27  20339509.539 8                  20339515.309 8 106884837.566 8                  83286943.994 8
R01  20227793.016 7                 108129138.411 7
R08  21595234.398 7  21595239.074 7 115641504.791 7  89943347.624 7
R15  21722531.250 7  21722535.578 7 116078613.187 7  90283340.565 7
R17  20619362.781 7  20619369.102 8 110338373.963 7  85819033.758 8
R24  19626933.063 8  19626937.766 7 104954039.695 8  81630980.075 7
> 2025 06 15 09 49  0.0000000  0 19
C19  23879766.383 6 124348226.340 6
C20  22906933.938 7 119282418.049 7
C29  22372075.422 7 116497269.118 7
E02  24650403.289 7  24650404.211 8 129538736.991 7  97995219.902 8
E04  26345087.984 6  26345089.750 7 138444371.783 6 104732276.406 7
E10  26310799.242 6  26310803.398 8 138264183.661 6 104595965.465 8
E11  24323023.594 7  24323022.480 7 127818350.876 7  96693746.890 7
E25  26535800.500 5  26535805.750 7 139446575.172 5 105490419.681 7
E36  23727137.883 8  23727140.461 8 124686953.999 8  94324879.614 8
G02  22529536.922 7  22529539.512 5                 118393511.975 7  92254701.011 5
G08  20625685.898 8                  20625692.445 8 108388706.657 8                  84458973.525 8
G10  20823402.508 8                  20823409.160 7 109427716.807 8                  85268489.292 7
G23  22299037.016 7                  22299043.582 7 117182231.141 7                  91310775.188 7
G27  20339256.711 8                  20339263.012 8 106883513.332 8                  83285912.121 8
R01  20224535.406 7                 108111726.664 7
R08  21595991.563 7  21595996.738 7 115645560.265 7  89946501.885 7
R15  21723124.297 7  21723128.684 7 116081779.701 7  90285803.397 7
R17  20615602.703 7  20615608.906 8 110318252.449 7  85803383.694 8
R24  19626368.820 8  19626372.898 7 104951020.370 8  81628631.696 7
> 2025 06 15 09 49  5.0000000  0 19
C19  23875564.992 6 124326345.739 6
C20  22905317.438 7 119273998.850 7
C29  22372340.211 7 116498650.985 7
E02  24650003.461 7  24650004.832 8 129536638.247 7  97993632.214 8
E04  26342106.266 6  26342108.699 7 138428706.475 6 104720425.726 7
E10  26311556.367 6  26311560.723 8 138268162.853 6 104598975.671 8
E11  24322991.672 7  24322990.207 7 127818181.347 7  96693618.623 7
E25  26537299.734 5  26537303.992 7 139454448.156 5 105496375.513 7
E36  23724861.547 8  23724863.934 8 124674990.723 8  94315829.466 8
G02  22525864.398 7  22525867.066 5                 118374213.562 7  92239663.311 5
G08  20622977.586 8                  20622984.250 8 108374473.282 8                  84447882.584 8
G10  20822085.352 8                  20822091.461 7 109420793.211 8                  85263094.281 7
G23  22300190.602 7                  22300196.406 7 117188290.108 7                  91315496.468 7
G27  20339007.758 8                  20339013.844 8 106882204.006 8                  83284891.871 8
R01  20221282.516 8                 108094336.771 8
R08  21596752.539 7  21596758.094 7 115649635.356 7  89949671.393 7
R15  21723719.531 7  21723724.691 7 116084965.337 7  90288281.090 7
R17  20611844.727 7  20611849.645 8 110298138.638 7  85787739.614 8
R24  19625806.156 8  19625810.645 7 104948013.109 8  81626292.705 7
> 2025 06 15 09 49 10.0000000  0 20
C19  23871364.641 6 124304474.625 6
C20  22903703.344 7 119265595.725 7
C26  25841670.641 5 134564399.95415
C29  22372607.031 7 116500041.536 7
E02  24649606.914 7  24649607.875 8 129534552.229 7  97992054.140 8
E04  26339127.469 6  26339129.742 7 138413052.244 6 104708583.419 7
E10  26312314.344 7  26312318.523 8 138272145.032 7 104601988.135 8
E11  24322960.633 7  24322959.039 7 127818017.500 7  96693494.651 7
E25  26538797.883 5  26538803.004 6 139462325.472 5 105502334.638 6
E36  23722586.328 8  23722588.754 8 124663034.469 8  94306784.645 8
G02  22522193.281 7  22522196.172 5                 118354921.814 7  92224630.796 5
G08  20620271.727 8                  20620278.219 8 108360254.222 8                  84436802.804 8
G10  20820770.641 8                  20820776.934 7 109413885.313 8                  85257711.496 7
G23  22301345.875 7                  22301351.250 7 117194359.241 7                  91320225.652 7
G27  20338761.320 8                  20338768.031 8 106880910.148 8                  83283883.677 8
R01  20218033.477 8                 108076969.072 8
R08  21597516.734 7  21597522.988 7 115653730.404 7  89952856.430 7
R15  21724320.539 7  21724325.113 7 116088170.541 7  90290774.001 7
R17  20608087.031 7  20608092.703 8 110278033.098 7  85772101.971 8
R24  19625246.594 8  19625250.289 7 104945018.529 8  81623963.587 7
> 2025 06 15 09 49 15.0000000  0 20
C19  23867167.109 6 124282613.529 6
C20  22902092.797 7 119257209.145 7
C26  25842561.422 5 134569039.065 5
C29  22372876.266 7 116501441.217 7
E02  24649212.531 8  24649213.434 8 129532479.402 8  97990486.058 8
E04  26336150.141 6  26336152.941 7 138397409.569 6 104696749.874 7
E10  26313072.906 7  26313076.930 8 138276130.678 7 104605003.236 8
E11  24322930.477 7  24322929.043 7 127817859.747 7  96693375.310 7
E25  26540297.711 5  26540302.957 7 139470207.618 5 105508297.418 7
E36  23720312.930 8  23720314.977 8 124651085.709 8  94297745.485 8
G02  22518523.547 7  22518526.176 5                 118335637.155 7  92209603.788 5
G08  20617568.258 8                  20617574.957 7 108346050.054 8                  84425734.609 7
G10  20819459.289 8                  20819465.570 7 109406993.611 8                  85252341.340 7
G23  22302502.961 7                  22302507.938 7 117200438.932 7                  91324963.073 7
G27  20338517.828 8                  20338525.105 8 106879632.196 8                  83282887.880 8
R01  20214789.078 8                 108059624.210 8
R08  21598285.023 7  21598291.938 7 115657845.892 7  89956057.368 7
R15  21724923.469 7  21724928.203 7 116091396.027 7  90293282.697 7
R17  20604331.555 7  20604336.926 7 110257936.237 7  85756471.093 7
R24  19624688.695 8  19624693.203 7 104942037.106 8  81621644.704 7
> 2025 06 15 09 49 20.0000000  0 20
C19  23862971.086 6 124260761.070 6
C20  22900485.695 7 119248837.730 7
C26  25843452.547 5 134573684.898 5
C29  22373146.250 7 116502848.698 7
E02  24648820.297 8  24648821.242 8 129530418.377 8  97988926.894 8
E04  26333174.516 6  26333178.039 7 138381777.078 6 104684924.018 7
E10  26313831.656 7  26313835.777 8 138280118.445 7 104608019.940 8
E11  24322901.266 7  24322899.922 7 127817706.726 7  96693259.545 7
E25  26541797.695 5  26541803.547 7 139478093.158 5 105514262.755 7
E36  23718040.375 8  23718042.371 8 124639143.036 8  94288710.931 8
G02  22514855.383 7  22514857.484 5                 118316358.187 7  92194581.220 5
G08  20614867.930 8                  20614874.641 7 108331859.319 8                  84414676.897 7
G10  20818151.117 8                  20818156.730 8 109400116.679 8                  85246982.695 8
G23  22303661.367 7                  22303667.168 7 117206527.827 7                  91329707.656 7
G27  20338277.594 8                  20338284.441 8 106878368.781 8                  83281903.393 8
R01  20211548.164 7                 108042300.767 7
R08  21599057.164 7  21599063.738 7 115661980.431 7  89959273.126 7
R15  21725530.563 7  21725535.156 7 116094640.079 7  90295805.886 7
R17  20600577.227 7  20600582.426 7 110237846.664 7  85740845.885 7
R24  19624133.008 8  19624138.027 7 104939067.619 8  81619335.105 7
> 2025 06 15 09 49 25.0000000  0 20
C19  23858778.258 6 124238917.257 6
C20  22898881.219 7 119240481.567 7
C26  25844347.219 5 134578337.505 5
C29  22373417.961 7 116504263.985 7
E02  24648430.281 8  24648431.344 8 129528369.202 8  97987376.704 8
E04  26330201.734 6  26330205.160 7 138366154.834 6 104673105.917 7
E10  26314591.414 7  26314595.031 8 138284108.355 7 104611038.265 8
E11  24322873.172 7  24322871.738 7 127817558.469 7  96693147.383 7
E25  26543298.648 5  26543304.828 7 139485982.159 5 105520230.699 7
E36  23715769.109 8  23715770.938 8 124627206.529 8  94279681.035 8
G02  22511187.617 7  22511190.258 5                 118297084.957 7  92179563.117 5
G08  20612170.359 8                  20612177.102 7 108317682.123 8                  84403629.729 7
G10  20816845.094 8                  20816850.750 7 109393254.602 8                  85241635.613 7
G23  22304822.078 7                  22304827.578 7 117212625.935 7                  91334459.426 7
G27  20338039.984 8                  20338046.723 8 106877119.939 8                  83280930.253 8
R01  20208311.563 8                 108024998.774 8
R08  21599833.063 7  21599838.867 7 115666134.090 7  89962503.742 7
R15  21726140.938 7  21726145.824 7 116097902.942 7  90298343.669 7
R17  20596824.797 7  20596829.629 7 110217764.548 7  85725226.458 7
R24  19623580.078 8  19623584.848 7 104936109.829 8  81617034.597 7
> 2025 06 15 09 49 30.0000000  0 20
C19  23854584.742 6 124217082.065 6
C20  22897278.969 7 119232140.554 7
C26  25845242.016 5 134582996.775 5
C29  22373690.820 7 116505687.017 7
E02  24648042.406 8  24648043.648 8 129526331.788 8  97985835.413 8
E04  26327230.406 6  26327234.211 7 138350542.751 6 104661295.500 7
E10  26315351.250 7  26315354.617 8 138288100.341 7 104614058.172 8
E11  24322845.969 7  24322844.402 7 127817414.924 7  96693038.789 7
E25  26544800.117 5  26544806.738 7 139493874.507 5 105526201.190 7
E36  23713498.578 8  23713500.637 8 124615276.078 8  94270655.729 8
G02  22507520.844 7  22507523.934 5                 118277817.397 7  92164549.440 5
G08  20609474.813 7                  20609481.723 7 108303518.382 7                  84392593.057 7
G10  20815542.242 8                  20815547.594 7 109386407.291 8                  85236300.036 7
G23  22305984.633 7                  22305989.820 7 117218733.214 7                  91339218.335 7
G27  20337804.836 8                  20337811.582 8 106875885.610 8                  83279968.422 8
R01  20205078.992 8                 108007718.144 8
R08  21600613.273 7  21600617.895 7 115670306.724 7  89965749.118 7
R15  21726753.977 7  21726760.086 7 116101184.366 7  90300895.879 7
R17  20593072.977 7  20593078.398 8 110197689.682 7  85709612.679 8
R24  19623029.422 8  19623034.063 7 104933163.752 8  81614743.208 7
> 2025 06 15 09 49 35.0000000  0 20
C19  23850392.945 6 124195256.703 6
C20  22895679.281 7 119223815.876 7
C26  25846139.188 4 134587663.959 4
C29  22373965.820 7 116507118.953 7
E02  24647657.164 8  24647658.430 8 129524307.318 8  97984303.905 8
E04  26324262.102 6  26324265.457 7 138334942.024 6 104649493.680 7
E10  26316111.141 7  26316114.883 8 138292095.575 7 104617080.524 8
E11  24322819.867 7  24322818.230 7 127817277.235 7  96692934.628 7
E25  26546303.047 5  26546309.492 7 139501771.426 5 105532175.128 7
E36  23711229.688 8  23711231.727 8 124603352.877 8  94261635.906 8
G02  22503855.477 7  22503858.707 5                 118258556.680 7  92149541.091 5
G08  20606782.258 8                  20606789.125 7 108289369.260 8                  84381567.778 7
G10  20814242.531 8                  20814248.004 7 109379575.911 8                  85230976.870 7
G23  22307148.805 7                  22307153.941 7 117224850.792 7                  91343985.268 7
G27  20337573.453 8                  20337579.457 7 106874666.930 8                  83279018.774 7
R01  20201848.969 7                 107990460.059 7
R08  21601395.445 7  21601399.953 7 115674499.575 7  89969010.203 7
R15  21727372.055 7  21727377.840 7 116104485.530 7  90303463.441 7
R17  20589323.844 7  20589327.934 7 110177623.392 7  85694005.568 7
R24  19622481.289 8  19622485.695 7 104930230.632 8  81612461.906 7
> 2025 06 15 09 49 40.0000000  0 20
C19  23846202.836 6 124173440.298 6
C20  22894083.227 7 119215506.651 7
C26  25847033.438 4 134592337.99714
C29  22374242.688 7 116508558.896 7
E02  24647274.117 8  24647275.508 8 129522294.913 8  97982781.522 8
E04  26321295.695 5  26321298.680 7 138319351.825 5 104637699.810 7
E10  26316872.258 7  26316875.555 8 138296093.174 7 104620104.668 8
E11  24322794.563 7  24322793.008 7 127817144.583 7  96692834.280 7
E25  26547806.547 5  26547812.973 7 139509671.976 5 105538151.797 7
E36  23708961.945 8  23708964.031 8 124591436.038 8  94252620.897 8
G02  22500191.531 7  22500194.441 5                 118239301.965 7  92134537.430 5
G08  20604092.422 8                  20604099.199 7 108275233.913 8                  84370553.235 7
G10  20812945.664 8                  20812950.961 7 109372759.580 8                  85225665.433 7
G23  22308314.422 7                  22308319.977 7 117230977.773 7                  91348759.532 7
G27  20337344.023 8                  20337350.250 7 106873463.052 8                  83278080.674 7
R01  20198625.070 7                 107973223.653 7
R08  21602181.922 7  21602185.926 7 115678711.609 7  89972286.213 7
R15  21727992.383 7  21727999.063 7 116107805.791 7  90306045.855 7
R17  20585575.781 7  20585579.066 7 110157564.626 7  85678404.291 7
R24  19621934.836 8  19621939.598 7 104927309.556 8  81610189.955 7
> 2025 06 15 09 49 45.0000000  0 19
C19  23842014.523 6 124151632.159 6
C20  22892490.430 7 119207212.244 7
C29  22374521.828 7 116510006.239 7
E02  24646893.680 7  24646894.734 8 129520293.943 7  97981267.784 8
E04  26318330.531 6  26318333.840 7 138303771.478 6 104625913.394 7
E10  26317633.695 7  26317636.531 8 138300092.525 7 104623130.139 8
E11  24322769.977 7  24322768.586 7 127817016.209 7  96692737.166 7
E25  26549311.367 5  26549317.004 7 139517575.551 5 105544130.767 7
E36  23706695.219 8  23706697.410 8 124579524.943 8  94243610.235 8
G02  22496528.180 7  22496531.520 5                 118220052.581 7  92119537.919 5
G08  20601404.906 8                  20601411.918 7 108261111.717 8                  84359548.930 7
G10  20811651.211 8                  20811656.570 7 109365957.660 8                  85220365.237 7
G23  22309482.383 7                  22309487.512 7 117237113.533 7                  91353540.631 7
G27  20337117.633 8                  20337123.480 7 106872273.337 8                  83277153.616 7
R01  20195404.797 7                 107956008.333 7
R08  21602972.773 7  21602976.047 6 115682942.246 7  89975576.688 6
R15  21728616.945 7  21728623.828 7 116111144.093 7  90308642.306 7
R17  20581828.305 8  20581832.332 7 110137512.968 8  85662808.542 7
R24  19621390.391 8  19621394.977 7 104924399.874 8  81607926.875 7
> 2025 06 15 09 49 50.0000000  0 19
C19  23837828.758 6 124129832.726 6
C20  22890900.383 7 119198932.994 7
C29  22374800.945 7 116511461.370 7
E02  24646515.070 7  24646516.207 8 129518304.769 7  97979762.973 8
E04  26315367.141 6  26315370.945 7 138288201.347 6 104614134.705 7
E10  26318395.211 7  26318397.957 8 138304093.951 7 104626157.175 8
E11  24322746.438 7  24322745.086 7 127816892.620 7  96692643.667 7
E25  26550816.141 5  26550821.680 7 139525482.435 5 105550112.249 7
E36  23704429.656 8  23704431.961 8 124567619.963 8  94234604.197 8
G02  22492866.234 7  22492869.398 5                 118200808.938 7  92104542.881 5
G08  20598720.258 8                  20598726.996 7 108247003.035 8                  84348555.151 7
G10  20810359.516 8                  20810364.824 7 109359170.506 8                  85215076.554 7
G23  22310651.141 7                  22310656.746 7 117243258.439 7                  91358328.864 7
G27  20336893.539 8                  20336899.934 7 106871098.114 8                  83276237.859 7
R01  20192187.938 7                 107938814.546 7
R08  21603766.555 7  21603769.016 7 115687191.973 7  89978882.024 7
R15  21729245.578 7  21729252.195 7 116114501.020 7  90311253.248 7
R17  20578082.477 7  20578086.367 7 110117468.627 7  85647218.509 7
R24  19620848.602 8  19620853.176 7 104921501.905 8  81605672.896 7
> 2025 06 15 09 49 55.0000000  0 19
C19  23833644.078 6 124108042.315 6
C20  22889313.563 7 119190669.292 7
C29  22375082.109 7 116512924.594 7
E02  24646138.977 8  24646139.984 8 129516327.711 8  97978267.336 8
E04  26312407.047 6  26312410.059 7 138272641.831 6 104602364.022 7
E10  26319157.305 7  26319159.836 8 138308097.810 7 104629186.058 8
E11  24322723.781 7  24322722.551 7 127816774.088 7  96692554.002 7
E25  26552321.844 5  26552327.078 7 139533393.065 5 105556096.555 7
E36  23702165.461 8  23702167.750 8 124555721.420 8  94225603.028 8
G02  22489205.773 7  22489208.230 5                 118181571.359 7  92089552.555 5
G08  20596038.320 8                  20596045.125 8 108232908.235 8                  84337572.184 8
G10  20809071.336 8                  20809076.281 7 109352398.491 8                  85209799.672 7
G23  22311822.305 7                  22311827.688 7 117249412.826 7                  91363124.484 7
G27  20336672.789 8                  20336678.762 7 106869937.777 8                  83275333.697 7
R01  20188975.727 7                 107921642.396 7
R08  21604563.156 7  21604566.719 6 115691460.904 7  89982202.300 6
R15  21729876.797 7  21729884.328 7 116117876.978 7  90313879.009 7
R17  20574337.555 8  20574342.547 7 110097432.071 8  85631634.554 7
R24  19620308.688 8  19620313.539 7 104918616.125 8  81603428.377 7
> 2025 06 15 09 50  0.0000000  0 19
C19  23829462.242 6 124086261.031 6
C20  22887730.555 7 119182421.170 7
C29  22375364.219 7 116514396.004 7
E02  24645765.148 8  24645766.051 8 129514362.858 8  97976780.935 8
E04  26309448.281 6  26309451.223 7 138257092.938 6 104590601.385 7
E10  26319919.672 7  26319922.176 8 138312104.181 7 104632216.827 8
E11  24322702.164 7  24322700.973 7 127816660.673 7  96692468.207 7
E25  26553827.703 5  26553833.160 7 139541307.492 5 105562083.729 7
E36  23699902.539 8  23699904.754 8 124543829.401 8  94216606.792 8
G02  22485546.508 7  22485548.391 5                 118162339.933 7  92074567.038 5
G08  20593358.914 8                  20593365.660 8 108218827.359 8                  84326600.072 8
G10  20807785.555 8                  20807790.652 7 109345641.646 8                  85204534.606 7
G23  22312995.297 7                  22313000.945 7 117255576.735 7                  91367927.519 7
G27  20336455.383 7                  20336460.926 7 106868792.350 7                  83274441.150 7
R01  20185767.211 7                 107904492.351 7
R08  21605363.391 7  21605367.742 6 115695749.142 7  89985537.594 6
R15  21730512.922 7  21730519.367 7 116121271.813 7  90316519.454 7
R17  20570595.125 8  20570599.957 7 110077403.310 8  85616056.649 7
R24  19619771.609 8  19619775.699 7 104915742.505 8  81601193.321 7
> 2025 06 15 09 50  5.0000000  0 19
C19  23825281.820 6 124064489.851 6
C20  22886150.023 7 119174189.637 7
C29  22375648.539 7 116515876.566 7
E02  24645393.359 8  24645394.664 8 129512411.151 8  97975304.479 8
E04  26306491.836 6  26306494.586 7 138241555.757 6 104578847.600 7
E10  26320682.758 7  26320685.234 8 138316114.071 7 104635250.267 8
E11  24322681.398 7  24322680.559 7 127816553.395 7  96692387.046 7
E25  26555334.672 5  26555340.156 6 139549226.612 5 105568074.468 6
E36  23697641.156 8  23697643.188 8 124531944.897 8  94207616.245 8
G02  22481888.492 7  22481889.930 5                 118143115.624 7  92059587.068 5
G08  20590682.055 8                  20590688.879 8 108204761.445 8                  84315639.613 8
G10  20806502.836 8                  20806508.145 7 109338900.984 8                  85199282.140 7
G23  22314170.133 7                  22314175.777 7 117261751.159 7                  91372738.736 7
G27  20336240.211 7                  20336246.102 7 106867662.852 7                  83273561.017 7
R01  20182564.352 7                 107887365.181 7
R08  21606167.523 7  21606172.340 6 115700057.880 7  89988888.825 6
R15  21731152.266 7  21731158.434 7 116124686.653 7  90319175.448 7
R17  20566853.320 7  20566858.438 7 110057383.348 7  85600485.577 7
R24  19619237.414 8  19619240.656 7 104912882.073 8  81598968.527 7
> 2025 06 15 09 50 10.0000000  0 19
C19  23821101.695 6 124042727.995 6
C20  22884572.492 7 119165973.854 7
C29  22375934.547 7 116517365.447 7
E02  24645024.070 8  24645025.609 8 129510471.813 8  97973837.386 8
E04  26303537.398 6  26303540.066 7 138226029.398 6 104567102.007 7
E10  26321446.523 7  26321448.793 8 138320126.617 7 104638285.713 8
E11  24322661.906 7  24322661.137 8 127816451.401 7  96692309.887 8
E25  26556841.789 5  26556847.906 6 139557149.625 5 105574068.152 6
E36  23695380.664 8  23695382.922 8 124520067.066 8  94198630.748 8
G02  22478231.047 7  22478232.598 5                 118123897.612 7  92044612.008 5
G08  20588008.102 8                  20588014.863 8 108190709.643 8                  84304690.151 8
G10  20805223.133 8                  20805228.395 7 109332175.663 8                  85194041.639 7
G23  22315346.734 7                  22315352.582 7 117267935.223 7                  91377557.492 7
G27  20336028.609 8                  20336034.281 7 106866548.440 8                  83272692.640 7
R01  20179364.188 7                 107870260.107 7
R08  21606974.508 7  21606981.234 6 115704385.987 7  89992255.117 6
R15  21731795.352 7  21731801.355 7 116128120.702 7  90321846.366 7
R17  20563113.813 7  20563118.480 7 110037371.319 7  85584920.674 7
R24  19618705.195 8  19618707.480 7 104910034.028 8  81596753.386 7
> 2025 06 15 09 50 15.0000000  0 19
C19  23816924.469 6 124020975.734 6
C20  22882997.672 7 119157774.101 7
C29  22376222.320 7 116518862.964 7
E02  24644657.109 7  24644659.004 8 129508545.104 7  97972379.848 8
E04  26300585.148 6  26300587.605 7 138210514.120 6 104555364.797 7
E10  26322210.555 7  26322212.891 8 138324142.101 7 104641323.382 8
E11  24322643.430 7  24322642.770 7 127816354.993 7  96692236.943 7
E25  26558350.109 5  26558356.441 6 139565076.840 5 105580065.019 6
E36  23693122.047 8  23693123.969 8 124508196.226 8  94189650.530 8
G02  22474575.570 7  22474576.594 5                 118104686.216 7  92029642.104 5
G08  20585336.875 8                  20585343.980 8 108176672.271 8                  84293751.939 8
G10  20803946.047 8                  20803951.348 8 109325465.958 8                  85188813.297 8
G23  22316525.922 7                  22316531.047 7 117274129.228 7                  91382383.984 7
G27  20335819.414 8                  20335825.000 7 106865449.399 8                  83271836.249 7
R01  20176168.133 7                 107853177.446 7
R08  21607787.453 7  21607793.078 7 115708733.887 7  89995636.799 7
R15  21732441.758 7  21732447.563 7 116131574.024 7  90324532.261 7
R17  20559374.438 7  20559380.727 7 110017367.584 7  85569362.208 7
R24  19618174.805 8  19618177.301 7 104907198.570 8  81594548.037 7
> 2025 06 15 09 50 20.0000000  0 19
C19  23812748.828 6 123999232.915 6
C20  22881425.289 7 119149590.234 7
C29  22376511.375 7 116520368.928 7
E02  24644292.680 7  24644294.754 8 129506630.854 7  97970931.738 8
E04  26297634.820 6  26297637.277 7 138195009.861 6 104543635.933 7
E10  26322974.969 7  26322977.523 8 138328160.356 7 104644363.159 8
E11  24322626.266 7  24322625.418 7 127816263.945 7  96692168.065 7
E25  26559859.961 5  26559865.754 7 139573008.090 5 105586064.935 7
E36  23690864.289 8  23690866.332 8 124496332.159 8  94180675.441 8
G02  22470920.461 7  22470922.023 5                 118085481.243 7  92014677.198 5
G08  20582668.703 8                  20582675.195 8 108162649.123 8                  84282824.808 8
G10  20802671.719 8                  20802677.707 7 109318771.728 8                  85183597.018 7
G23  22317706.289 7                  22317711.512 7 117280332.979 7                  91387218.077 7
G27  20335613.516 8                  20335619.043 7 106864365.528 8                  83270991.685 7
R01  20172976.680 7                 107836116.973 7
R08  21608602.094 7  21608608.539 7 115713101.277 7  89999033.658 7
R15  21733091.656 7  21733097.078 7 116135046.772 7  90327233.288 7
R17  20555638.336 7  20555643.609 7 109997372.007 7  85553810.083 7
R24  19617647.117 8  19617649.609 7 104904375.629 8  81592352.432 7
> 2025 06 15 09 50 25.0000000  0 19
C19  23808575.023 6 123977500.030 6
C20  22879856.617 7 119141422.712 7
C29  22376802.945 7 116521883.799 7
E02  24643930.914 7  24643932.977 8 129504729.548 7  97969493.407 8
E04  26294686.766 6  26294689.137 7 138179516.999 6 104531915.691 7
E10  26323740.313 7  26323742.809 8 138332181.852 7 104647405.389 8
E11  24322610.008 7  24322609.176 7 127816178.799 7  96692103.649 7
E25  26561370.773 5  26561375.902 6 139580943.741 5 105592068.188 6
E36  23688607.789 8  23688610.059 8 124484475.379 8  94171705.863 8
G02  22467267.570 7  22467268.820 5                 118066283.192 7  91999717.692 5
G08  20580002.750 8                  20580009.555 7 108148640.734 8                  84271909.179 7
G10  20801400.898 8                  20801406.750 7 109312093.404 8                  85178393.137 7
G23  22318888.516 7                  22318893.992 7 117286546.987 7                  91392060.147 7
G27  20335410.250 8                  20335416.164 8 106863297.363 8                  83270159.354 8
R01  20169789.656 7                 107819079.230 7
R08  21609421.336 6  21609428.605 7 115717488.785 6  90002446.178 7
R15  21733743.680 7  21733750.914 7 116138539.047 7  90329949.489 7
R17  20551903.625 7  20551908.691 7 109977385.043 7  85538264.671 7
R24  19617121.469 8  19617124.277 7 104901565.560 8  81590166.832 7
> 2025 06 15 09 50 30.0000000  0 19
C19  23804402.328 6 123955776.053 6
C20  22878291.602 7 119133270.543 7
C29  22377094.906 7 116523406.596 7
E02  24643571.773 7  24643573.418 8 129502840.184 7  97968064.110 8
E04  26291741.086 6  26291743.023 7 138164034.631 6 104520203.373 7
E10  26324505.953 7  26324508.516 8 138336205.643 7 104650449.353 8
E11  24322594.672 7  24322593.844 7 127816098.521 7  96692042.923 7
E25  26562880.695 5  26562886.734 6 139588882.87915 105598074.08516
E36  23686352.563 8  23686354.969 8 124472624.869 8  94162741.031 8
G02  22463615.023 7  22463616.422 5                 118047091.036 7  91984762.773 5
G08  20577339.359 8                  20577346.402 7 108134646.063 8                  84261004.241 7
G10  20800132.953 8                  20800138.828 7 109305430.013 8                  85173200.886 7
G23  22320072.992 7                  22320078.285 7 117292770.205 7                  91396909.393 7
G27  20335209.719 8                  20335215.848 8 106862243.854 8                  83269338.443 8
R01  20166605.250 7                 107802063.223 7
R08  21610243.883 7  21610251.875 7 115721895.262 7  90005873.427 7
R15  21734400.477 7  21734408.238 7 116142050.044 7  90332680.250 7
R17  20548169.125 7  20548174.969 7 109957405.634 7  85522725.130 7
R24  19616597.727 8  19616601.594 7 104898767.499 8  81587990.578 7
> 2025 06 15 09 50 35.0000000  0 19
C19  23800232.281 6 123934062.111 6
C20  22876729.039 7 119125134.788 7
C29  22377389.055 7 116524938.385 7
E02  24643214.875 7  24643216.352 8 129500963.821 7  97966644.648 8
E04  26288796.813 6  26288799.137 7 138148563.764 6 104508499.770 7
E10  26325272.445 7  26325274.898 8 138340232.740 7 104653495.811 8
E11  24322580.617 7  24322579.691 8 127816024.218 7  96691986.714 8
E25  26564390.844 5  26564398.457 6 139596826.61415 105604083.46316
E36  23684099.070 8  23684101.301 8 124460781.724 8  94153781.758 8
G02  22459964.273 7  22459965.547 5                 118027905.845 7  91969813.286 5
G08  20574679.016 8                  20574686.234 7 108120666.263 8                  84250110.882 7
G10  20798868.180 8                  20798874.098 7 109298782.632 8                  85168021.100 7
G23  22321258.883 7                  22321264.461 7 117299003.702 7                  91401766.642 7
G27  20335012.266 8                  20335018.832 8 106861206.071 8                  83268529.783 8
R01  20163427.453 7                 107785070.051 7
R08  21611070.422 7  21611078.875 7 115726321.917 7  90009316.385 7
R15  21735062.742 6  21735069.016 7 116145580.693 6  90335426.299 7
R17  20544437.336 7  20544442.938 7 109937434.920 7  85507192.354 7
R24  19616076.297 8  19616080.344 7 104895982.510 8  81585824.485 7
> 2025 06 15 09 50 40.0000000  0 19
C19  23796063.852 6 123912358.120 6
C20  22875170.180 7 119117015.433 7
C29  22377684.758 7 116526479.133 7
E02  24642860.500 7  24642861.730 8 129499100.423 7  97965234.992 8
E04  26285855.359 6  26285857.445 7 138133104.472 6 104496804.921 7
E10  26326039.750 7  26326041.938 8 138344263.106 7 104656544.740 8
E11  24322567.766 7  24322566.652 7 127815955.794 7  96691934.945 7
E25  26565901.813 5  26565911.023 6 139604774.71515 105610096.14116
E36  23681846.969 8  23681849.016 8 124448945.869 8  94144828.012 8
G02  22456314.789 7  22456316.172 5                 118008727.600 7  91954869.230 5
G08  20572021.352 8                  20572028.898 7 108106701.222 8                  84239229.034 7
G10  20797605.922 8                  20797612.066 7 109292151.210 8                  85162853.741 7
G23  22322447.500 7                  22322452.699 7 117305247.416 7                  91406631.854 7
G27  20334817.773 8                  20334824.352 8 106860183.988 8                  83267733.355 8
R01  20160252.797 7                 107768099.677 7
R08  21611900.164 7  21611909.273 7 115730768.590 7  90012774.919 7
R15  21735727.297 6  21735733.402 7 116149130.998 6  90338187.640 7
R17  20540707.320 7  20540712.406 7 109917472.885 7  85491666.320 7
R24  19615557.758 8  19615562.559 7 104893210.426 8  81583668.405 7
> 2025 06 15 09 50 45.0000000  0 19
C19  23791897.359 6 123890663.502 6
C20  22873614.422 7 119108911.812 7
C29  22377982.109 7 116528028.181 7
E02  24642508.281 8  24642509.465 8 129497249.336 8  97963834.651 8
E04  26282915.555 6  26282917.820 7 138117656.007 6 104485118.266 7
E10  26326806.805 7  26326809.465 8 138348296.149 7 104659595.700 8
E11  24322555.727 7  24322554.605 7 127815892.700 7  96691887.219 7
E25  26567413.156 4  26567424.297 6 139612726.774 4 105616111.814 6
E36  23679595.766 8  23679598.004 8 124437116.708 8  94135879.330 8
G02  22452666.188 7  22452668.164 5                 117989555.709 7  91939930.107 5
G08  20569366.922 8                  20569373.785 7 108092750.352 8                  84228358.229 7
G10  20796347.094 8                  20796353.176 8 109285535.099 8                  85157698.326 8
G23  22323637.102 7                  22323643.105 7 117311500.727 7                  91411504.556 7
G27  20334626.328 8                  20334632.750 8 106859176.992 8                  83266948.664 8
R01  20157081.508 7                 107751151.523 7
R08  21612735.219 7  21612742.918 6 115735234.685 7  90016248.571 6
R15  21736394.609 7  21736400.922 7 116152700.315 7  90340963.774 7
R17  20536978.984 7  20536984.055 7 109897518.928 7  85476146.575 7
R24  19615042.086 8  19615046.078 7 104890450.690 8  81581521.933 7
> 2025 06 15 09 50 50.0000000  0 19
C19  23787732.375 6 123868978.271 6
C20  22872061.148 7 119100823.924 7
C29  22378281.359 7 116529585.518 7
E02  24642158.203 8  24642159.520 8 129495410.543 8  97962443.613 8
E04  26279978.211 6  26279980.234 7 138102218.418 6 104473439.826 7
E10  26327574.391 7  26327577.480 8 138352331.794 7 104662648.634 8
E11  24322544.820 7  24322543.566 7 127815834.760 7  96691843.379 7
E25  26568925.195 4  26568938.211 6 139620682.57714 105622130.32516
E36  23677346.109 8  23677348.254 8 124425294.187 8  94126935.668 8
G02  22449019.727 7  22449020.902 5                 117970390.112 7  91924995.876 5
G08  20566714.719 8                  20566721.848 7 108078813.638 8                  84217498.457 7
G10  20795090.953 8                  20795096.914 8 109278934.270 8                  85152554.824 8
G23  22324829.234 7                  22324834.438 7 117317763.604 7                  91416384.706 7
G27  20334437.039 8                  20334444.371 8 106858185.009 8                  83266175.676 8
R01  20153915.234 7                 107734225.450 7
R08  21613572.039 7  21613579.668 6 115739720.081 7  90019737.222 6
R15  21737066.320 7  21737072.547 7 116156288.579 7  90343754.618 7
R17  20533251.828 7  20533256.289 7 109877572.964 7  85460633.029 7
R24  19614527.594 8  19614532.348 7 104887703.266 8  81579385.037 7
> 2025 06 15 09 50 55.0000000  0 19
C19  23783569.641 6 123847302.127 6
C20  22870511.148 7 119092751.502 7
C29  22378582.133 7 116531150.876 7
E02  24641810.219 8  24641811.898 8 129493583.770 8  97961061.662 8
E04  26277042.328 7  26277044.613 7 138086791.441 7 104461769.425 7
E10  26328342.633 7  26328345.961 8 138356369.783 7 104665703.334 8
E11  24322534.547 7  24322533.453 8 127815781.841 7  96691803.342 8
E25  26570441.297 4  26570452.840 6 139628641.93814 105628151.53616
E36  23675097.422 8  23675099.719 8 124413478.039 8  94117996.834 8
G02  22445373.211 7  22445375.270 5                 117951230.544 7  91910066.348 5
G08  20564065.500 8                  20564072.453 7 108064890.790 8                  84206649.496 7
G10  20793837.766 8                  20793843.672 8 109272348.423 8                  85147423.013 8
G23  22326022.180 7                  22326027.746 7 117324035.702 7                  91421272.060 7
G27  20334251.000 8                  20334258.203 8 106857207.792 8                  83265414.199 8
R01  20150752.609 7                 107717321.297 7
R08  21614414.125 7  21614420.984 6 115744224.513 7  90023240.662 6
R15  21737740.797 7  21737747.398 7 116159895.609 7  90346560.059 7
R17  20529527.367 7  20529530.500 7 109857634.719 7  85445125.495 7
R24  19614016.445 8  19614020.781 7 104884967.838 8  81577257.491 7
> 2025 06 15 09 51  0.0000000  0 18
C19  23779409.750 6 123825636.688 6
C20  22868964.516 7 119084696.183 7
C29  22378885.383 7 116532725.921 7
E02  24641465.414 8  24641466.883 8 129491770.681 8  97959690.059 8
E04  26274109.000 7  26274111.313 7 138071376.737 7 104450108.319 7
E10  26329111.063 7  26329115.219 8 138360411.791 7 104668761.075 8
E11  24322525.203 7  24322524.645 8 127815735.508 7  96691768.285 8
E36  23672850.617 8  23672852.723 8 124401669.933 8  94109064.081 8
G02  22441728.844 7  22441730.867 5                 117932078.729 7  91895142.839 5
G08  20561418.508 8                  20561425.953 7 108050983.521 8                  84195812.657 7
G10  20792587.563 8                  20792593.570 8 109265779.273 8                  85142304.194 8
G23  22327218.039 7                  22327223.313 7 117330318.735 7                  91426167.928 7
G27  20334068.609 8                  20334075.484 8 106856247.005 8                  83264665.523 8
R01  20147595.047 7                 107700440.824 7
R08  21615260.094 7  21615265.855 6 115748749.735 7  90026760.217 6
R15  21738418.664 7  21738426.109 7 116163522.902 7  90349381.275 7
R17  20525802.336 7  20525805.777 7 109837705.848 7  85429625.278 7
R24  19613506.641 8  19613511.531 7 104882246.167 8  81575140.635 7
> 2025 06 15 09 51  5.0000000  0 18
C19  23775249.859 6 123803980.348 6
C20  22867420.070 7 119076656.260 7
C29  22379189.148 7 116534308.919 7
E02  24641122.617 8  24641124.160 8 129489969.551 8  97958327.501 8
E04  26271177.547 7  26271180.012 7 138055972.590 7 104438455.188 7
E10  26329880.516 7  26329884.938 8 138364456.110 7 104671820.566 8
E11  24322517.492 7  24322516.777 7 127815694.114 7  96691736.961 7
E36  23670604.789 8  23670606.926 8 124389868.181 8  94100136.132 8
G02  22438086.086 7  22438087.629 5                 117912932.907 7  91880223.995 5
G08  20558774.781 7                  20558781.977 7 108037090.095 7                  84184986.606 7
G10  20791340.445 8                  20791346.012 7 109259225.077 8                  85137197.036 7
G23  22328415.281 7                  22328420.645 7 117336610.966 7                  91431070.968 7
G27  20333888.406 8                  20333895.293 8 106855300.896 8                  83263928.283 8
R01  20144442.125 7                 107683582.134 7
R08  21616107.125 7  21616113.984 6 115753293.916 7  90030294.549 6
R15  21739101.453 7  21739108.066 7 116167168.720 7  90352216.903 7
R17  20522079.953 8  20522083.527 7 109817784.710 8  85414131.089 7
R24  19613000.523 8  19613004.887 7 104879536.600 8  81573033.185 7
> 2025 06 15 09 51 10.0000000  0 18
C19  23771093.578 6 123782333.451 6
C20  22865879.070 7 119068632.112 7
C29  22379495.125 7 116535900.240 7
E02  24640782.289 8  24640783.738 8 129488180.735 8  97956974.263 8
E04  26268248.617 7  26268250.734 7 138040579.335 7 104426810.315 7
E10  26330650.258 7  26330655.145 8 138368503.056 7 104674882.039 8
E11  24322510.391 7  24322509.906 7 127815657.992 7  96691709.624 7
E36  23668360.227 8  23668362.391 8 124378073.091 8  94091213.225 8
G02  22434443.313 7  22434445.484 5                 117893793.411 7  91865310.095 5
G08  20556133.313 7                  20556140.996 7 108023210.893 7                  84174171.644 7
G10  20790096.008 8                  20790101.777 7 109252686.206 8                  85132101.807 7
G23  22329614.281 7                  22329620.234 7 117342912.746 7                  91435981.453 7
G27  20333711.320 8                  20333717.789 8 106854369.851 8                  83263202.794 8
R01  20141292.500 7                 107666745.857 7
R08  21616959.992 7  21616965.961 6 115757857.456 7  90033843.972 6
R15  21739789.320 7  21739793.719 7 116170833.653 7  90355067.396 7
R17  20518358.313 8  20518361.691 7 109797871.678 8  85398643.195 7
R24  19612495.523 8  19612500.773 7 104876839.307 8  81570935.281 7
> 2025 06 15 09 51 15.0000000  0 18
C19  23766938.164 6 123760697.360 6
C20  22864341.508 7 119060625.105 7
C29  22379802.789 7 116537501.269 7
E02  24640444.375 8  24640445.957 8 129486405.648 8  97955631.408 8
E04  26265321.797 7  26265323.797 7 138025198.457 7 104415174.798 7
E10  26331421.547 7  26331426.117 8 138372554.042 7 104677946.576 8
E11  24322505.492 7  24322504.320 7 127815628.546 7  96691687.341 7
E36  23666117.164 8  23666119.402 8 124366286.103 8  94082296.448 8
G02  22430803.219 7  22430805.188 5                 117874661.686 7  91850402.251 5
G08  20553495.977 7                  20553502.770 7 108009347.329 7                  84163368.861 7
G10  20788855.211 8                  20788860.738 7 109246164.055 8                  85127019.602 7
G23  22330815.445 7                  22330821.285 7 117349225.485 7                  91440900.458 7
G27  20333537.328 8                  20333543.645 8 106853455.264 8                  83262490.126 8
R01  20138147.648 7                 107649933.041 7
R08  21617817.688 7  21617821.305 6 115762441.726 7  90037409.496 6
R15  21740477.266 7  21740483.434 7 116174518.758 7  90357933.596 7
R17  20514639.461 8  20514642.070 7 109777968.153 8  85383162.700 7
R24  19611993.805 8  19611998.699 7 104874155.816 8  81568848.111 7
> 2025 06 15 09 51 20.0000000  0 18
C19  23762785.836 6 123739071.582 6
C20  22862806.461 7 119052634.696 7
C29  22380112.602 7 116539111.438 7
E02  24640109.125 7  24640110.660 8 129484643.672 7  97954298.478 8
E04  26262396.406 7  26262399.082 7 138009829.294 7 104403548.156 7
E10  26332192.859 7  26332197.750 8 138376608.527 7 104681013.755 8
E11  24322500.719 7  24322499.852 8 127815605.205 7  96691669.682 8
E36  23663875.430 8  23663877.840 8 124354506.619 8  94073385.346 8
G02  22427164.078 7  22427166.141 5                 117855537.093 7  91835499.976 5
G08  20550860.992 8                  20550867.453 7 107995498.801 8                  84152577.799 7
G10  20787617.477 8                  20787622.699 7 109239658.004 8                  85121949.957 7
G23  22332019.133 7                  22332024.777 7 117355548.565 7                  91445827.514 7
G27  20333366.328 8                  20333372.563 8 106852556.555 8                  83261789.827 8
R01  20135007.523 7                 107633143.412 7
R08  21618677.305 7  21618681.938 6 115767046.121 7  90040990.676 6
R15  21741171.969 7  21741176.766 7 116178223.745 7  90360815.230 7
R17  20510920.711 8  20510925.039 7 109758073.457 8  85367689.045 7
R24  19611494.008 8  19611499.223 7 104871485.516 8  81566771.195 7
> 2025 06 15 09 51 25.0000000  0 18
C19  23758634.617 6 123717454.972 6
C20  22861274.563 7 119044659.785 7
C29  22380423.016 7 116540729.674 7
E02  24639776.250 7  24639777.621 8 129482893.719 7  97952974.640 8
E04  26259473.703 6  26259476.391 7 137994470.814 6 104391929.598 7
E10  26332964.727 7  26332969.867 8 138380665.377 7 104684082.725 8
E11  24322497.141 7  24322496.367 7 127815586.834 7  96691655.777 7
E36  23661634.977 8  23661637.500 8 124342733.579 8  94064479.124 8
G02  22423525.469 7  22423527.938 5                 117836418.578 7  91820602.449 5
G08  20548228.438 8                  20548234.836 7 107981664.249 8                  84141797.629 7
G10  20786382.039 8                  20786387.359 7 109233167.004 8                  85116892.040 7
G23  22333223.711 7                  22333229.949 7 117361880.874 7                  91450761.762 7
G27  20333198.016 8                  20333204.281 8 106851672.628 8                  83261101.061 8
R01  20131870.266 7                 107616375.763 7
R08  21619542.375 7  21619544.988 6 115771669.448 7  90044586.600 6
R15  21741868.719 7  21741873.270 7 116181947.329 7  90363711.320 7
R17  20507203.742 8  20507208.852 7 109738186.645 8  85352221.514 7
R24  19610997.109 8  19611002.391 7 104868827.217 8  81564703.635 7
> 2025 06 15 09 51 30.0000000  0 18
C19  23754485.492 6 123695847.548 6
C20  22859746.180 7 119036700.354 7
C29  22380735.188 7 116542355.934 7
E02  24639445.531 8  24639446.895 8 129481155.833 8  97951659.940 8
E04  26256552.844 6  26256555.738 7 137979123.051 6 104380319.131 7
E10  26333737.094 7  26333742.406 8 138384724.615 7 104687153.509 8
E11  24322494.859 7  24322493.844 7 127815573.478 7  96691645.669 7
E36  23659395.898 8  23659398.406 8 124330966.948 8  94055577.744 8
G02  22419888.078 7  22419891.008 5                 117817306.177 7  91805709.693 5
G08  20545598.086 8                  20545604.707 7 107967843.668 8                  84131028.345 7
G10  20785149.633 8                  20785155.324 7 109226691.031 8                  85111845.843 7
G23  22334430.750 7                  22334436.828 7 117368222.434 7                  91455703.225 7
G27  20333032.539 8                  20333039.145 8 106850803.497 8                  83260423.813 8
R01  20128737.727 7                 107599630.062 7
R08  21620409.000 7  21620411.941 6 115776311.736 7  90048197.262 6
R15  21742569.516 7  21742573.098 6 116185689.384 7  90366621.789 6
R17  20503488.602 8  20503493.977 7 109718307.677 8  85336760.106 7
R24  19610503.016 8  19610507.715 7 104866181.137 8  81562645.569 7
> 2025 06 15 09 51 35.0000000  0 18
C19  23750337.617 6 123674249.743 6
C20  22858220.766 7 119028756.809 7
C29  22381048.836 7 116543990.641 7
E02  24639117.078 8  24639118.555 8 129479430.309 8  97950354.596 8
E04  26253633.961 6  26253637.219 7 137963786.343 6 104368717.032 7
E10  26334510.609 7  26334515.492 8 138388786.593 7 104690226.360 8
E11  24322493.023 7  24322492.348 7 127815565.474 7  96691639.606 7
E36  23657158.055 8  23657160.598 8 124319207.117 8  94046681.509 8
G02  22416252.156 7  22416254.746 5                 117798200.243 7  91790821.969 5
G08  20542971.234 8                  20542977.125 7 107954037.437 8                  84120270.236 7
G10  20783920.031 8                  20783925.938 7 109220230.459 8                  85106811.634 7
G23  22335639.383 7                  22335645.305 7 117374573.570 7                  91460652.160 7
G27  20332869.695 8                  20332876.867 8 106849949.491 8                  83259758.353 8
R01  20125608.383 7                 107582906.803 7
R08  21621279.109 7  21621283.105 6 115780973.480 7  90051823.033 6
R15  21743272.820 7  21743277.605 6 116189450.516 7  90369547.093 6
R17  20499774.445 8  20499780.441 7 109698436.882 8  85321305.069 7
R24  19610010.945 8  19610014.551 7 104863547.425 8  81560597.112 7
> 2025 06 15 09 51 40.0000000  0 19
C19  23746192.250 6 123652661.497 6
C20  22856698.453 7 119020829.106 7
C29  22381364.000 7 116545633.762 7
E02  24638791.078 7  24638792.586 8 129477717.203 7  97949058.635 8
E04  26250717.695 6  26250720.766 7 137948460.684 6 104357123.299 7
E10  26335284.023 7  26335289.059 8 138392851.294 7 104693301.260 8
E11  24322492.977 7  24322491.859 7 127815562.805 7  96691637.590 7
E25  26584120.758 5                 139700468.30215
E36  23654921.680 8  23654924.094 8 124307454.055 8  94037790.400 8
G02  22412617.539 7  22412619.781 5                 117779100.813 7  91775939.301 5
G08  20540346.641 8                  20540352.840 7 107940245.569 8                  84109523.334 7
G10  20782693.477 8                  20782699.660 8 109213785.265 8                  85101789.413 8
G23  22336849.352 7                  22336855.730 7 117380934.298 7                  91465608.568 7
G27  20332710.141 8                  20332716.844 8 106849110.617 8                  83259104.679 8
R01  20122483.750 7                 107566206.021 7
R08  21622152.742 7  21622156.922 6 115785654.456 7  90055463.786 6
R15  21743980.492 7  21743984.797 6 116193230.607 7  90372487.141 6
R17  20496062.672 8  20496068.715 7 109678574.336 8  85305856.440 7
R24  19609520.984 8  19609524.805 7 104860926.201 8  81558558.396 7
> 2025 06 15 09 51 45.0000000  0 19
C19  23742047.680 6 123631083.518 6
C20  22855179.086 7 119012917.929 7
C29  22381680.852 7 116547285.943 7
E02  24638467.164 8  24638469.074 8 129476017.124 8  97947772.541 8
E04  26247803.359 6  26247806.609 7 137933146.828 6 104345538.489 7
E10  26336058.000 7  26336063.219 8 138396919.419 7 104696378.762 8
E11  24322493.492 7  24322492.512 7 127815566.175 7  96691640.129 7
E25  26585638.359 5  26585643.742 6 139708469.288 5 105688572.10416
E36  23652686.719 8  23652688.988 8 124295708.445 8  94028904.919 8
G02  22408984.094 7  22408986.344 5                 117760008.472 7  91761062.151 5
G08  20537724.453 8                  20537730.844 7 107926468.724 8                  84098788.137 7
G10  20781470.273 8                  20781476.105 7 109207356.133 8                  85096779.701 7
G23  22338061.813 7                  22338068.105 7 117387305.227 7                  91470572.923 7
G27  20332553.742 8                  20332560.383 8 106848287.548 8                  83258463.328 8
R01  20119363.836 7                 107549528.332 7
R08  21623029.508 6  21623035.301 6 115790355.515 6  90059120.178 6
R15  21744691.461 7  21744695.652 7 116197030.303 7  90375442.460 7
R17  20492352.359 8  20492358.605 7 109658720.701 8  85290414.757 7
R24  19609033.375 8  19609037.215 7 104858318.130 8  81556529.916 7
> 2025 06 15 09 51 50.0000000  0 19
C19  23737906.227 6 123609516.007 6
C20  22853663.609 7 119005023.444 7
C29  22381999.992 7 116548947.377 7
E02  24638146.375 7  24638148.109 8 129474330.327 7  97946496.480 8
E04  26244891.219 6  26244894.766 7 137917844.787 6 104333962.604 7
E10  26336833.055 7  26336838.074 8 138400991.115 7 104699458.957 8
E11  24322495.641 7  24322494.355 7 127815575.776 7  96691647.385 7
E25  26587161.234 5  26587167.152 6 139716475.031 5 105694628.358 6
E36  23650453.211 8  23650455.363 8 124283970.491 8  94020025.233 8
G02  22405352.688 7  22405353.965 5                 117740923.461 7  91746190.722 5
G08  20535105.945 8                  20535112.516 7 107912707.121 8                  84088064.814 7
G10  20780249.281 8                  20780255.988 8 109200943.237 8                  85091782.634 8
G23  22339275.734 7                  22339282.535 7 117393686.560 7                  91475545.397 7
G27  20332400.172 8                  20332406.289 8 106847480.465 8                  83257834.412 8
R01  20116248.188 7                 107532873.973 7
R08  21623912.625 7  21623917.184 6 115795076.644 7  90062792.172 6
R15  21745405.570 7  21745410.836 7 116200849.788 7  90378413.169 7
R17  20488643.656 8  20488650.168 7 109638876.162 8  85274980.119 7
R24  19608548.117 8  19608552.113 7 104855723.418 8  81554511.799 7
> 2025 06 15 09 51 55.0000000  0 19
C19  23733765.898 6 123587957.809 6
C20  22852151.000 7 118997144.545 7
C29  22382320.133 7 116550616.909 7
E02  24637827.594 7  24637829.445 8 129472655.578 7  97945229.540 8
E04  26241980.977 6  26241984.957 7 137902553.626 6 104322394.960 7
E10  26337608.648 7  26337613.359 8 138405065.263 7 104702541.014 8
E11  24322499.172 7  24322497.188 7 127815590.400 7  96691658.439 7
E25  26588686.773 5  26588691.238 6 139724484.315 5 105700687.267 6
E36  23648220.359 8  23648222.953 8 124272239.018 8  94011150.449 8
G02  22401721.867 7  22401723.090 5                 117721844.595 7  91731324.092 5
G08  20532489.773 8                  20532496.273 7 107898959.586 8                  84077352.445 7
G10  20779031.641 8                  20779038.633 8 109194545.422 8                  85086797.322 8
G23  22340492.375 7                  22340498.191 7 117400077.156 7                  91480525.068 7
G27  20332249.016 8                  20332255.848 8 106846688.231 8                  83257217.074 8
R01  20113137.680 7                 107516241.776 7
R08  21624796.469 7  21624801.551 6 115799816.757 7  90066478.918 6
R15  21746123.773 7  21746129.703 7 116204687.883 7  90381398.339 7
R17  20484937.352 8  20484943.324 7 109619039.528 8  85259551.614 7
R24  19608064.703 8  19608069.371 7 104853140.825 8  81552503.106 7
> 2025 06 15 09 52  0.0000000  0 19
C19  23729627.578 6 123566408.983 6
C20  22850640.758 7 118989281.216 7
C29  22382642.070 7 116552294.579 7
E02  24637511.102 7  24637513.023 8 129470992.921 7  97943971.733 8
E04  26239073.578 6  26239077.215 7 137887273.249 6 104310835.464 7
E10  26338384.680 7  26338389.113 8 138409141.843 7 104705624.908 8
E11  24322502.750 7  24322500.945 7 127815610.083 7  96691673.328 7
E25  26590213.375 5  26590215.949 6 139732497.121 5 105706748.875 6
E36  23645989.211 8  23645991.801 8 124260514.040 8  94002280.579 8
G02  22398092.789 7  22398093.715 5                 117702771.951 7  91716462.311 5
G08  20529876.453 8                  20529883.113 7 107885226.154 8                  84066651.066 7
G10  20777816.859 8                  20777823.871 8 109188162.715 8                  85081823.791 8
G23  22341710.781 7                  22341716.105 7 117406477.002 7                  91485511.930 7
G27  20332101.086 8                  20332107.527 8 106845910.833 8                  83256611.301 8
R01  20110030.328 7                 107499631.743 7
R08  21625685.172 7  21625690.594 6 115804575.850 7  90070180.425 6
R15  21746845.813 7  21746851.293 7 116208544.488 7  90384397.933 7
R17  20481232.430 8  20481237.297 7 109599210.815 8  85244129.249 7
R24  19607584.297 8  19607588.906 7 104850570.431 8  81550503.914 7
> 2025 06 15 09 52  5.0000000  0 19
C19  23725491.273 6 123544870.229 6
C20  22849133.680 7 118981434.199 7
C29  22382966.023 7 116553981.099 7
E02  24637196.984 7  24637199.086 8 129469343.115 7  97942723.664 8
E04  26236167.758 6  26236171.633 7 137872004.472 6 104299284.741 7
E10  26339160.898 7  26339165.488 8 138413221.629 7 104708711.220 8
E11  24322507.297 7  24322505.840 7 127815635.585 7  96691692.616 7
E25  26591737.945 5  26591741.574 6 139740514.226 5 105712813.720 6
E36  23643759.484 8  23643762.004 8 124248796.343 8  93993416.221 8
G02  22394464.289 7  22394465.996 5                 117683706.218 7  91701605.889 5
G08  20527266.023 8                  20527272.461 7 107871507.586 8                  84055961.272 7
G10  20776605.375 8                  20776612.336 8 109181795.864 8                  85076862.598 8
G23  22342930.125 7                  22342936.043 7 117412886.850 7                  91490506.622 7
G27  20331956.719 8                  20331962.406 8 106845149.005 8                  83256017.671 8
R01  20106927.656 7                 107483044.740 7
R08  21626577.578 7  21626583.605 6 115809354.701 7  90073897.311 6
R15  21747570.547 7  21747577.031 7 116212420.455 7  90387412.576 7
R17  20477530.336 8  20477533.184 7 109579390.842 8  85228713.685 7
R24  19607105.977 8  19607110.801 7 104848012.966 8  81548514.778 7
> 2025 06 15 09 52 10.0000000  0 19
C19  23721357.195 6 123523342.675 6
C20  22847629.969 7 118973604.598 7
C29  22383292.008 7 116555677.550 7
E02  24636885.813 8  24636887.809 8 129467707.224 8  97941486.107 8
E04  26233264.625 6  26233268.527 7 137856748.333 6 104287743.569 7
E10  26339937.984 7  26339942.629 8 138417305.674 7 104711800.752 8
E11  24322513.555 7  24322512.023 7 127815667.997 7  96691717.135 7
E25  26593263.836 5  26593268.238 6 139748536.715 5 105718882.658 6
E36  23641531.500 8  23641533.770 8 124237086.956 8  93984558.146 8
G02  22390838.117 7  22390839.965 5                 117664648.540 7  91686755.738 5
G08  20524657.984 8                  20524665.016 7 107857804.955 8                  84045283.906 7
G10  20775397.039 8                  20775403.668 7 109175445.910 8                  85071914.584 7
G23  22344151.758 7                  22344158.043 7 117419307.751 7                  91495509.902 7
G27  20331815.070 8                  20331820.547 7 106844403.875 8                  83255437.050 7
R01  20103828.766 7                 107466481.662 7
R08  21627474.430 7  21627479.535 7 115814154.353 7  90077630.384 7
R15  21748300.203 7  21748306.176 7 116216316.893 7  90390443.111 7
R17  20473827.398 8  20473832.340 7 109559580.666 8  85213305.773 7
R24  19606631.594 8  19606635.195 7 104845469.633 8  81546536.621 7
> 2025 06 15 09 52 15.0000000  0 19
C19  23717224.922 6 123501825.012 6
C20  22846129.430 7 118965791.042 7
C29  22383619.563 7 116557382.632 7
E02  24636577.422 7  24636578.891 8 129466083.917 7  97940258.077 8
E04  26230363.977 6  26230367.539 7 137841503.510 6 104276210.959 7
E10  26340716.000 7  26340720.359 8 138421392.691 7 104714892.542 8
E11  24322520.461 7  24322519.262 7 127815705.934 7  96691745.833 7
E25  26594791.477 5  26594795.637 6 139756563.210 5 105724954.612 6
E36  23639304.438 8  23639306.938 8 124225384.569 8  93975705.362 8
G02  22387213.391 7  22387215.160 5                 117645597.578 7  91671910.824 5
G08  20522053.344 7                  20522060.410 7 107844116.935 7                  84034617.932 7
G10  20774191.461 8                  20774197.992 8 109169111.565 8                  85066978.716 8
G23  22345375.406 7                  22345381.813 7 117425738.402 7                  91500520.774 7
G27  20331675.813 8                  20331681.809 7 106843674.063 8                  83254868.365 7
R01  20100735.148 7                 107449941.307 7
R08  21628376.055 7  21628379.855 7 115818973.517 7  90081378.619 7
R15  21749033.422 8  21749039.219 7 116220232.353 8  90393488.457 7
R17  20470127.445 8  20470131.945 7 109539779.013 8  85197904.501 7
R24  19606158.133 8  19606162.047 7 104842938.814 8  81544568.199 7
> 2025 06 15 09 52 20.0000000  0 19
C19  23713093.703 6 123480316.908 6
C20  22844631.742 7 118957993.295 7
C29  22383948.898 7 116559096.017 7
E02  24636270.422 7  24636272.371 8 129464472.880 7  97939039.334 8
E04  26227465.484 6  26227468.637 7 137826269.769 6 104264686.720 7
E10  26341494.625 7  26341498.582 8 138425482.366 7 104717986.321 8
E11  24322528.906 7  24322527.484 7 127815749.160 7  96691778.532 7
E25  26596320.461 5  26596323.695 6 139764593.433 5 105731029.384 6
E36  23637078.898 8  23637081.305 8 124213688.917 8  93966857.679 8
G02  22383588.953 7  22383591.250 5                 117626552.996 7  91657070.892 5
G08  20519450.828 7                  20519458.711 7 107830443.272 7                  84023963.148 7
G10  20772989.109 8                  20772995.621 7 109162792.510 8                  85062054.761 7
G23  22346600.984 7                  22346607.059 7 117432178.433 7                  91505538.986 7
G27  20331540.273 8                  20331546.078 7 106842959.287 8                  83254311.393 7
R01  20097644.625 7                 107433423.379 7
R08  21629281.070 7  21629283.340 7 115823811.746 7  90085141.689 7
R15  21749770.102 7  21749775.418 7 116224166.604 7  90396548.408 7
R17  20466427.992 8  20466432.875 7 109519985.504 8  85182509.568 7
R24  19605687.023 8  19605691.246 7 104840420.309 8  81542609.358 7
> 2025 06 15 09 52 25.0000000  0 19
C19  23708965.258 6 123458818.882 6
C20  22843136.797 8 118950211.790 8
C29  22384280.117 7 116560818.198 7
E02  24635966.117 7  24635968.219 8 129462874.610 7  97937830.266 8
E04  26224568.945 6  26224571.926 7 137811047.561 6 104253171.211 7
E10  26342273.781 7  26342277.418 8 138429575.145 7 104721082.464 8
E11  24322537.953 7  24322536.813 7 127815798.098 7  96691815.560 7
E25  26597848.633 5  26597852.609 6 139772627.865 5 105737107.338 6
E36  23634854.641 8  23634857.055 8 124202000.430 8  93958015.413 8
G02  22379966.516 7  22379969.008 5                 117607515.271 7  91642236.334 5
G08  20516851.617 7                  20516859.465 7 107816784.421 7                  84013319.876 7
G10  20771789.852 8                  20771796.227 7 109156489.197 8                  85057143.076 7
G23  22347828.453 7                  22347834.574 7 117438628.347 7                  91510564.890 7
G27  20331406.766 8                  20331412.785 8 106842260.038 8                  83253766.527 8
R01  20094558.258 7                 107416928.385 7
R08  21630186.891 7  21630191.039 7 115828669.528 7  90088919.958 7
R15  21750509.773 7  21750515.434 7 116228120.030 7  90399623.296 7
R17  20462730.836 8  20462735.945 7 109500200.593 8  85167121.326 7
R24  19605217.766 8  19605222.535 7 104837914.781 8  81540660.617 7
> 2025 06 15 09 52 30.0000000  0 19
C19  23704837.352 6 123437330.396 6
C20  22841645.383 7 118942445.957 7
C29  22384612.586 7 116562548.595 7
E02  24635664.250 7  24635666.441 8 129461288.505 7  97936630.384 8
E04  26221674.773 6  26221677.301 7 137795836.289 6 104241663.980 7
E10  26343052.953 7  26343056.730 8 138433670.445 7 104724180.519 8
E11  24322548.203 7  24322547.113 7 127815852.181 7  96691856.466 7
E25  26599377.703 5  26599382.156 6 139780665.864 5 105743188.022 6
E36  23632631.617 8  23632634.047 8 124190318.539 8  93949178.138 8
G02  22376344.578 7  22376347.543 5                 117588483.903 7  91627406.707 5
G08  20514255.063 7                  20514262.391 7 107803139.859 7                  84002687.735 7
G10  20770593.406 8                  20770599.484 7 109150201.076 8                  85052243.238 7
G23  22349057.555 7                  22349063.977 7 117445087.530 7                  91515598.021 7
G27  20331276.695 8                  20331282.711 8 106841575.688 8                  83253233.276 8
R01  20091477.031 7                 107400455.756 7
R08  21631097.938 7  21631101.688 6 115833546.413 7  90092713.069 6
R15  21751252.516 7  21751258.246 7 116232092.124 7  90402712.692 7
R17  20459035.703 8  20459039.672 7 109480423.944 8  85151739.507 7
R24  19604751.578 8  19604755.969 7 104835421.480 8  81538721.378 7
> 2025 06 15 09 52 35.0000000  0 19
C19  23700713.211 6 123415852.064 6
C20  22840157.141 7 118934696.478 7
C29  22384946.578 7 116564287.860 7
E02  24635364.867 7  24635367.035 8 129459715.247 7  97935440.217 8
E04  26218782.617 7  26218784.887 7 137780636.634 7 104230165.527 7
E10  26343832.938 7  26343836.641 8 138437768.964 7 104727281.010 8
E11  24322559.813 7  24322558.500 7 127815912.100 7  96691901.790 7
E25  26600908.109 5  26600912.543 6 139788708.116 5 105749271.913 6
E36  23630410.156 8  23630412.418 8 124178643.932 8  93940346.381 8
G02  22372724.398 7  22372727.129 5                 117569459.544 7  91612582.551 5
G08  20511662.148 7                  20511668.988 7 107789510.185 7                  83992067.194 7
G10  20769400.188 8                  20769406.156 8 109143928.766 8                  85047355.717 8
G23  22350288.539 7                  22350294.891 7 117451556.703 7                  91520638.913 7
G27  20331149.672 8                  20331155.480 8 106840906.941 8                  83252712.171 8
R01  20088398.672 7                 107384006.118 7
R08  21632013.500 7  21632015.156 6 115838442.952 7  90096521.462 6
R15  21752000.164 7  21752004.969 7 116236083.312 7  90405816.950 7
R17  20455340.523 8  20455345.480 7 109460656.043 8  85136364.489 7
R24  19604286.883 8  19604292.543 7 104832941.244 8  81536792.312 7
> 2025 06 15 09 52 40.0000000  0 19
C19  23696590.766 6 123394383.546 6
C20  22838672.008 7 118926962.933 7
C29  22385282.477 7 116566035.628 7
E02  24635068.422 7  24635070.070 8 129458154.424 7  97934259.464 8
E04  26215892.258 7  26215894.629 7 137765448.243 7 104218675.618 7
E10  26344613.023 7  26344617.152 8 138441870.299 7 104730383.631 8
E11  24322572.242 7  24322570.965 7 127815977.433 7  96691951.208 7
E25  26602439.180 5  26602443.625 6 139796754.192 5 105755358.710 6
E36  23628190.188 8  23628192.117 8 124166976.202 8  93931519.823 8
G02  22369106.188 7  22369107.715 5                 117550441.774 7  91597763.504 5
G08  20509070.734 7                  20509077.754 7 107775895.046 7                  83981457.979 7
G10  20768209.742 8                  20768215.348 8 109137671.914 8                  85042480.257 8
G23  22351521.680 7                  22351527.941 7 117458035.394 7                  91525687.230 7
G27  20331024.828 8                  20331030.840 8 106840253.386 8                  83252202.904 8
R01  20085326.594 7                 107367579.178 7
R08  21632931.867 7  21632933.250 6 115843358.646 7  90100344.777 6
R15  21752750.453 7  21752755.215 7 116240093.492 7  90408935.947 7
R17  20451647.469 8  20451652.852 7 109440896.545 8  85120995.992 7
R24  19603826.078 8  19603830.699 7 104830473.479 8  81534872.944 7
> 2025 06 15 09 52 45.0000000  0 19
C19  23692469.820 6 123372925.044 6
C20  22837190.164 7 118919245.550 7
C29  22385619.688 7 116567792.102 7
E02  24634773.969 8  24634775.500 8 129456606.281 8  97933088.296 8
E04  26213004.320 7  26213006.551 7 137750271.296 7 104207194.364 7
E10  26345394.211 7  26345398.223 8 138445974.672 7 104733488.551 8
E11  24322585.773 7  24322584.465 7 127816048.424 7  96692004.914 7
E25  26603971.617 5  26603975.551 6 139804804.465 5 105761448.658 6
E36  23625970.992 8  23625973.129 8 124155315.591 8  93922698.658 8
G02  22365488.406 7  22365490.348 5                 117531430.821 7  91582949.781 5
G08  20506482.273 7                  20506489.723 7 107762294.683 7                  83970860.289 7
G10  20767021.906 8                  20767027.461 8 109131430.725 8                  85037616.994 8
G23  22352756.047 7                  22352762.328 7 117464523.857 7                  91530743.161 7
G27  20330903.742 8                  20330909.508 8 106839615.262 8                  83251705.656 8
R01  20082257.258 7                 107351175.065 7
R08  21633853.164 7  21633855.230 6 115848293.839 7  90104183.262 6
R15  21753504.164 7  21753509.164 7 116244122.698 7  90412069.768 7
R17  20447956.992 8  20447961.566 7 109421145.691 8  85105634.215 7
R24  19603367.070 8  19603371.250 7 104828018.584 8  81532963.578 7
> 2025 06 15 09 52 50.0000000  0 19
C19  23688351.406 6 123351477.920 6
C20  22835712.141 7 118911545.647 7
C29  22385959.164 7 116569558.567 7
E02  24634482.500 8  24634483.523 8 129455072.102 8  97931927.689 8
E04  26210118.445 6  26210120.945 7 137735107.150 6 104195722.793 7
E10  26346175.977 7  26346180.082 8 138450083.398 7 104736596.755 8
E11  24322600.828 7  24322599.258 7 127816126.358 7  96692063.861 7
E25  26605503.914 5  26605508.488 6 139812860.028 5 105767542.616 6
E36  23623753.516 8  23623755.785 8 124143663.376 8  93913883.836 8
G02  22361872.156 7  22361873.953 5                 117512427.942 7  91568142.362 5
G08  20503897.188 7                  20503904.973 7 107748710.390 7                  83960275.140 7
G10  20765837.664 8                  20765843.160 8 109125206.529 8                  85032766.964 8
G23  22353993.055 7                  22353999.234 7 117471023.353 7                  91535807.706 7
G27  20330785.289 8                  20330790.980 8 106838993.870 8                  83251221.446 8
R01  20079192.422 7                 107334795.184 7
R08  21634777.070 6  21634781.008 6 115853249.701 6  90108037.843 6
R15  21754261.453 7  21754267.512 7 116248172.306 7  90415219.462 7
R17  20444267.273 8  20444272.016 7 109401404.769 8  85090280.171 7
R24  19602910.469 8  19602914.453 7 104825577.730 8  81531065.140 7
> 2025 06 15 09 52 55.0000000  0 20
C19  23684235.250 6 123330041.836 6
C20  22834236.867 7 118903862.997 7
C26  25883147.523 5 134780155.86415
C29  22386299.289 7 116571334.802 7
E02  24634192.945 7  24634194.211 8 129453551.640 7  97930777.466 8
E04  26207234.844 6  26207237.754 7 137719955.589 6 104184260.744 7
E10  26346958.469 7  26346962.754 8 138454196.213 7 104739708.056 8
E11  24322616.688 7  24322615.344 7 127816211.015 7  96692127.909 7
E25  26607038.023 5  26607042.414 6 139820920.778 5 105773640.48916
E36  23621537.641 8  23621539.969 8 124132019.355 8  93905075.211 8
G02  22358257.852 7  22358259.305 5                 117493432.960 7  91553341.082 5
G08  20501315.461 7                  20501323.039 7 107735141.943 7                  83949702.334 7
G10  20764656.578 8                  20764661.785 8 109118999.031 8                  85027929.956 8
G23  22355232.281 7                  22355237.758 7 117477533.638 7                  91540880.658 7
G27  20330670.328 8                  20330676.207 8 106838388.952 8                  83250750.087 8
R01  20076132.711 7                 107318439.266 7
R08  21635705.922 6  21635710.508 6 115858226.192 6  90111908.453 6
R15  21755022.711 7  21755029.117 7 116252241.974 7  90418384.757 7
R17  20440579.914 8  20440585.000 7 109381673.546 8  85074933.697 7
R24  19602456.711 8  19602460.445 7 104823150.816 8  81529177.557 7
> 2025 06 15 09 53  0.0000000  0 20
C19  23680121.031 6 123308614.976 6
C20  22832764.281 7 118896195.541 7
C26  25884100.320 5 134785123.319 5
C29  22386641.438 7 116573118.814 7
E02  24633905.852 8  24633907.102 8 129452042.874 8  97929636.090 8
E04  26204353.477 6  26204356.492 8 137704814.544 6 104172806.662 8
E10  26347741.766 7  26347745.773 8 138458311.090 7 104742820.917 8
E11  24322633.523 7  24322632.320 7 127816300.360 7  96692195.488 7
E25  26608572.344 5  26608576.879 6 139828984.612 5 105779740.68416
E36  23619322.977 8  23619325.332 8 124120381.483 8  93896271.234 8
G02  22354644.391 7  22354645.926 5                 117474443.844 7  91538544.377 5
G08  20498736.070 7                  20498743.793 7 107721587.341 7                  83939140.325 7
G10  20763477.852 8                  20763483.559 8 109112806.226 8                  85023104.394 8
G23  22356472.219 7                  22356478.094 7 117484052.729 7                  91545960.440 7
G27  20330557.766 8                  20330564.191 8 106837798.474 8                  83250289.979 8
R01  20073077.602 7                 107302105.308 7
R08  21636637.039 6  21636642.070 6 115863221.075 6  90115793.329 6
R15  21755787.625 7  21755793.676 7 116256329.815 7  90421564.153 7
R17  20436893.742 8  20436900.254 7 109361950.072 8  85059593.229 7
R24  19602006.117 8  19602008.641 7 104820735.637 8  81527299.084 7
> 2025 06 15 09 53  5.0000000  0 20
C19  23676008.344 6 123287198.316 6
C20  22831294.766 7 118888544.467 7
C26  25885055.234 5 134790098.188 5
C29  22386985.820 7 116574911.701 7
E02  24633620.953 8  24633622.441 8 129450546.931 8  97928504.421 8
E04  26201474.211 6  26201477.465 8 137689685.160 6 104161361.400 8
E10  26348525.445 7  26348529.445 8 138462429.190 7 104745936.221 8
E11  24322651.484 7  24322650.395 7 127816395.506 7  96692267.467 7
E25  26610107.695 5  26610112.172 6 139837052.72915 105785844.15016
E36  23617109.734 8  23617112.105 8 124108750.897 8  93887472.769 8
G02  22351031.977 7  22351034.191 5                 117455461.752 7  91523753.138 5
G08  20496159.672 7                  20496167.273 7 107708047.729 7                  83928589.992 7
G10  20762303.063 8                  20762307.977 8 109106629.290 8                  85018291.191 8
G23  22357715.031 7                  22357720.086 7 117490581.696 7                  91551047.930 7
G27  20330448.383 8                  20330454.777 8 106837223.596 8                  83249842.017 8
R01  20070026.750 7                 107285794.610 7
R08  21637574.375 6  21637578.648 6 115868235.657 6  90119693.545 6
R15  21756558.430 7  21756561.816 7 116260436.712 7  90424758.364 7
R17  20433210.555 8  20433215.988 7 109342235.443 8  85044259.622 7
R24  19601555.445 8  19601559.176 7 104818333.534 8  81525430.763 7
> 2025 06 15 09 53 10.0000000  0 20
C19  23671897.766 6 123265791.139 6
C20  22829828.828 7 118880908.902 7
C26  25886013.133 5 134795079.651 5
C29  22387332.148 7 116576712.640 7
E02  24633338.563 8  24633340.086 8 129449062.994 8  97927381.820 8
E04  26198596.539 6  26198600.508 8 137674566.657 6 104149924.363 8
E10  26349309.633 7  26349313.539 8 138466549.666 7 104749053.319 8
E11  24322670.906 7  24322669.441 7 127816495.644 7  96692343.211 7
E25  26611642.578 4  26611648.082 6 139845124.12514 105791950.07416
E36  23614897.828 8  23614900.086 8 124097126.772 8  93878679.196 8
G02  22347420.945 7  22347422.848 5                 117436485.838 7  91508966.701 5
G08  20493585.797 7                  20493593.367 7 107694522.280 7                  83918050.686 7
G10  20761130.156 8                  20761135.242 8 109100467.344 8                  85013489.679 8
G23  22358959.156 7                  22358964.680 7 117497119.748 7                  91556142.499 7
G27  20330342.219 8                  20330348.227 8 106836663.493 8                  83249405.571 8
R01  20066979.695 7                 107269505.997 7
R08  21638515.227 6  21638518.535 6 115873268.862 6  90123608.241 6
R15  21757329.289 7  21757334.004 7 116264561.900 7  90427966.821 7
R17  20429528.063 8  20429532.926 7 109322528.815 8  85028932.229 7
R24  19601108.695 8  19601112.547 7 104815943.451 8  81523571.813 7
> 2025 06 15 09 53 15.0000000  0 19
C19  23667788.852 7 123244394.728 7
C20  22828366.180 7 118873290.226 7
C29  22387680.219 7 116578522.968 7
E02  24633058.516 7  24633060.250 8 129447592.394 7  97926269.311 8
E04  26195721.297 6  26195725.855 8 137659460.334 6 104138496.549 8
E10  26350094.445 7  26350098.348 8 138470673.876 7 104752173.242 8
E11  24322691.305 7  24322689.672 7 127816602.148 7  96692423.773 7
E25  26613179.031 5  26613184.910 6 139853200.314 5 105798059.646 6
E36  23612687.344 8  23612689.578 8 124085510.457 8  93869891.526 8
G02  22343811.398 7  22343813.320 5                 117417517.462 7  91494186.146 5
G08  20491015.305 7                  20491022.852 7 107681012.374 7                  83907523.471 7
G10  20759960.422 8                  20759965.973 8 109094321.738 8                  85008700.893 8
G23  22360205.133 7                  22360210.688 7 117503668.198 7                  91561245.161 7
G27  20330238.109 8                  20330245.027 8 106836119.462 8                  83248981.644 8
R01  20063937.063 7                 107253241.173 7
R08  21639459.516 6  21639462.465 6 115878322.138 6  90127538.539 6
R15  21758104.313 7  21758109.789 7 116268706.807 7  90431190.622 7
R17  20425848.078 8  20425852.047 7 109302831.448 8  85013612.048 7
R24  19600664.547 8  19600668.172 7 104813566.901 8  81521723.368 7
> 2025 06 15 09 53 20.0000000  0 19
C19  23663681.688 7 123223007.323 7
C20  22826906.008 8 118865686.586 8
C29  22388029.859 7 116580340.861 7
E02  24632781.016 7  24632782.594 8 129446133.298 7  97925165.500 8
E04  26192848.555 6  26192853.145 8 137644364.437 6 104127076.610 8
E10  26350879.492 7  26350883.504 8 138474799.978 7 104755294.596 8
E11  24322712.430 7  24322710.797 7 127816713.119 7  96692507.721 7
E25  26614715.070 4  26614722.309 6 139861279.40714 105804171.40316
E36  23610478.094 8  23610480.184 8 124073900.125 8  93861108.382 8
G02  22340202.813 7  22340204.332 5                 117398554.788 7  91479410.044 5
G08  20488447.133 7                  20488454.555 8 107667516.109 7                  83897006.896 8
G10  20758794.094 8                  20758799.254 7 109088190.623 8                  85003923.408 7
G23  22361452.758 7                  22361458.410 7 117510225.188 7                  91566354.487 7
G27  20330137.094 8                  20330144.008 8 106835589.712 8                  83248568.854 8
R01  20060899.000 7                 107236998.170 7
R08  21640406.867 6  21640409.496 6 115883393.611 6  90131483.003 6
R15  21758883.250 7  21758889.094 7 116272869.420 7  90434428.227 7
R17  20422168.688 8  20422172.699 7 109283141.718 8  84998297.820 7
R24  19600222.867 8  19600225.770 7 104811201.873 8  81519883.894 7
> 2025 06 15 09 53 25.0000000  0 19
C19  23659576.820 7 123201629.627 7
C20  22825448.086 8 118858098.743 8
C29  22388380.984 7 116582167.077 7
E02  24632505.922 7  24632507.285 8 129444686.477 7  97924070.978 8
E04  26189978.938 6  26189982.605 8 137629279.707 6 104115665.118 8
E10  26351665.258 7  26351669.137 8 138478928.718 7 104758417.947 8
E11  24322734.375 7  24322732.938 7 127816829.351 7  96692595.655 7
E25  26616252.453 4  26616260.410 5 139869362.07114 105810285.84015
E36  23608269.898 8  23608272.086 8 124062296.523 8  93852330.323 8
G02  22336595.617 7  22336596.898 5                 117379598.611 7  91464638.994 5
G08  20485881.695 7                  20485888.863 8 107654034.314 7                  83886501.594 8
G10  20757630.000 8                  20757635.387 7 109082074.797 8                  84999157.837 7
G23  22362701.695 7                  22362707.508 7 117516791.479 7                  91571471.061 7
G27  20330039.250 8                  20330046.043 8 106835074.983 8                  83248167.755 8
R01  20057864.133 7                 107220777.693 7
R08  21641357.906 6  21641359.852 6 115888484.059 6  90135442.238 6
R15  21759665.688 7  21759671.453 7 116277050.700 7  90437680.333 7
R17  20418490.641 8  20418494.672 7 109263460.214 8  84982990.000 7
R24  19599783.180 8  19599786.180 7 104808849.384 8  81518054.172 7
> 2025 06 15 09 53 30.0000000  0 19
C19  23655472.938 7 123180261.699 7
C20  22823993.617 7 118850526.689 7
C29  22388733.820 7 116584001.631 7
E02  24632233.070 8  24632234.301 8 129443251.881 8  97922985.711 8
E04  26187112.484 6  26187114.160 8 137614206.140 6 104104262.071 8
E10  26352451.180 7  26352455.273 8 138483060.122 7 104761543.321 8
E11  24322757.766 7  24322756.055 7 127816950.827 7  96692687.553 7
E25  26617791.266 4                                
E36  23606062.852 8  23606065.242 8 124050699.651 8  93843557.366 8
G02  22332989.703 7  22332990.473 5                 117360648.921 7  91449872.995 5
G08  20483318.953 7                  20483326.332 8 107640566.966 7                  83876007.564 8
G10  20756468.930 8                  20756474.453 7 109075974.237 8                  84994404.150 7
G23  22363952.750 7                  22363958.695 7 117523367.053 7                  91576594.861 7
G27  20329944.750 7                  20329950.742 8 106834575.282 7                  83247778.360 8
R01  20054833.984 7                 107204579.813 7
R08  21642311.406 6  21642314.855 6 115893593.422 6  90139416.202 6
R15  21760450.742 7  21760457.461 7 116281250.490 7  90440946.845 7
R17  20414814.508 8  20414818.238 7 109243787.069 8  84967688.677 7
R24  19599344.430 8  19599348.535 7 104806509.248 8  81516234.062 7
> 2025 06 15 09 53 35.0000000  0 19
C19  23651371.766 7 123158904.765 7
C20  22822543.164 7 118842971.673 7
C29  22389088.570 7 116585845.739 7
E02  24631962.523 8  24631963.875 8 129441830.790 8  97921910.663 8
E04  26184246.883 6  26184248.074 8 137599144.960 6 104092868.401 8
E10  26353238.117 7  26353242.105 8 138487195.404 7 104764671.619 8
E11  24322782.313 7  24322780.414 7 127817078.834 7  96692784.387 7
E25  26619330.867 4                                
E36  23603857.359 8  23603859.934 8 124039110.745 8  93834790.434 8
G02  22329384.836 7  22329385.660 5                 117341706.918 7  91435112.994 5
G08  20480758.469 7                  20480766.230 7 107627115.315 7                  83865525.775 7
G10  20755311.328 8                  20755316.633 7 109069890.173 8                  84989663.323 7
G23  22365206.141 7                  22365211.965 7 117529953.148 7                  91581726.878 7
G27  20329852.531 8                  20329858.621 8 106834091.816 8                  83247401.632 8
R01  20051808.391 7                 107188405.872 7
R08  21643267.141 6  21643272.695 7 115898722.918 6  90143405.802 7
R15  21761241.008 7  21761246.785 7 116285470.069 7  90444228.732 7
R17  20411138.977 8  20411143.980 7 109224123.521 8  84952394.827 7
R24  19598909.789 8  19598914.215 7 104804182.799 8  81514424.598 7
> 2025 06 15 09 53 40.0000000  0 19
C19  23647272.383 7 123137559.129 7
C20  22821095.883 7 118835433.964 7
C29  22389444.750 7 116587699.699 7
E02  24631694.289 8  24631696.094 8 129440423.472 8  97920846.035 8
E04  26181383.367 6  26181384.430 8 137584096.496 6 104081484.346 8
E10  26354026.102 7  26354029.762 8 138491334.867 7 104767803.085 8
E11  24322808.023 7  24322806.074 7 127817213.605 7  96692886.339 7
E25  26620870.844 4  26620879.699 5 139893636.03514 105828648.87715
E36  23601653.734 8  23601656.227 8 124027530.108 8  93826029.762 8
G02  22325781.656 7  22325782.465 5                 117322772.902 7  91420359.227 5
G08  20478202.305 7                  20478209.473 7 107613679.677 7                  83855056.445 7
G10  20754156.508 8                  20754162.215 7 109063822.901 8                  84984935.586 7
G23  22366462.602 7                  22366467.836 7 117536550.037 7                  91586867.301 7
G27  20329763.117 8                  20329769.852 8 106833624.906 8                  83247037.794 8
R01  20048787.500 7                 107172256.055 7
R08  21644228.031 6  21644234.508 7 115903872.940 6  90147411.379 7
R15  21762034.297 7  21762040.500 7 116289709.681 7  90447526.198 7
R17  20407466.617 8  20407470.926 7 109204469.911 8  84937108.695 7
R24  19598476.813 8  19598481.746 7 104801870.297 8  81512625.984 7
> 2025 06 15 09 53 45.0000000  0 19
C19  23643174.992 7 123116222.225 7
C20  22819651.203 7 118827910.990 7
C29  22389801.672 7 116589560.896 7
E02  24631428.555 7  24631430.430 8 129439027.321 7  97919789.849 8
E04  26178521.477 6  26178522.695 8 137569058.138 6 104070107.926 8
E10  26354814.094 7  26354817.699 8 138495475.876 7 104770935.717 8
E11  24322834.719 7  24322832.504 7 127817352.539 7  96692991.438 7
E25  26622415.367 4  26622420.941 5 139901734.91814 105834775.62115
E36  23599451.086 8  23599453.574 8 124015955.129 8  93817273.370 8
G02  22322179.477 7  22322180.426 5                 117303844.302 7  91405609.688 5
G08  20475647.359 7                  20475655.566 7 107600257.449 7                  83844597.568 7
G10  20753004.672 8                  20753010.285 7 109057769.795 8                  84980218.876 7
G23  22367719.563 7                  22367724.910 7 117543155.086 7                  91592014.081 7
G27  20329677.391 8                  20329683.531 8 106833171.905 8                  83246684.803 8
R01  20045769.977 7                 107156127.844 7
R08  21645193.914 6  21645199.191 7 115909040.784 6  90151430.794 7
R15  21762831.680 7  21762836.996 7 116293966.689 7  90450837.188 7
R17  20403794.875 8  20403799.684 7 109184823.425 8  84921828.107 7
R24  19598046.898 8  19598051.160 7 104799569.083 8  81510836.146 7
> 2025 06 15 09 53 50.0000000  0 18
C19  23639079.078 7 123094895.968 7
C20  22818209.797 7 118820404.665 7
C29  22390160.688 7 116591431.270 7
E02  24631165.461 7  24631167.273 8 129437644.283 7  97918743.582 8
E04  26175661.453 6  26175663.262 8 137554031.822 6 104058740.626 8
E10  26355602.828 7  26355606.301 8 138499620.399 7 104774071.021 8
E11  24322861.938 7  24322860.094 7 127817497.559 7  96693101.150 7
E36  23597249.961 8  23597252.398 8 124004387.736 8  93808522.710 8
G02  22318578.898 7  22318580.188 5                 117284923.034 7  91390865.853 5
G08  20473096.375 7                  20473104.148 7 107586850.570 7                  83834150.664 7
G10  20751855.813 8                  20751861.309 7 109051732.796 8                  84975514.721 7
G23  22368978.461 7                  22368984.020 7 117549770.264 7                  91597168.749 7
G27  20329593.664 8                  20329600.258 8 106832734.768 8                  83246344.180 8
R01  20042757.891 7                 107140023.112 7
R08  21646163.422 6  21646168.309 7 115914228.489 6  90155465.644 7
R15  21763631.531 7  21763637.465 7 116298243.078 7  90454163.244 7
R17  20400125.492 8  20400129.754 7 109165186.186 8  84906554.694 7
R24  19597618.773 8  19597623.805 7 104797281.252 8  81509056.709 7
> 2025 06 15 09 53 55.0000000  0 18
C19  23634984.977 6 123073580.746 6
C20  22816771.695 7 118812915.413 7
C29  22390521.031 7 116593311.247 7
E02  24630904.898 7  24630906.676 8 129436274.743 7  97917707.523 8
E04  26172804.031 6  26172806.207 8 137539017.986 6 104047382.780 8
E10  26356392.328 7  26356395.668 8 138503768.823 7 104777209.264 8
E11  24322891.203 7  24322888.922 8 127817649.109 7  96693215.791 8
E36  23595050.516 8  23595052.711 8 123992828.327 8  93799778.102 8
G02  22314979.633 7  22314981.199 5                 117266009.520 7  91376128.077 5
G08  20470548.539 7                  20470556.055 7 107573459.448 7                  83823716.038 7
G10  20750710.188 8                  20750715.914 7 109045712.307 8                  84970823.447 7
G23  22370239.648 7                  22370244.531 7 117556395.932 7                  91602331.604 7
G27  20329513.664 8                  20329520.605 8 106832313.887 8                  83246016.224 8
R01  20039749.492 7                 107123942.282 7
R08  21647138.195 6  21647140.910 7 115919436.183 6  90159516.055 7
R15  21764437.156 7  21764441.383 7 116302539.163 7  90457504.602 7
R17  20396457.922 8  20396461.684 7 109145558.631 8  84891288.806 7
R24  19597193.438 8  19597198.020 7 104795006.986 8  81507287.822 7
> 2025 06 15 09 54  0.0000000  0 18
C19  23630893.688 6 123052276.390 6
C20  22815336.844 7 118805442.971 7
C29  22390882.930 7 116595200.537 7
E02  24630646.359 7  24630648.605 8 129434918.473 7  97916681.501 8
E04  26169949.219 6  26169951.504 8 137524016.354 6 104036034.159 8
E10  26357182.344 7  26357185.758 8 138507920.913 7 104780350.280 8
E11  24322920.898 7  24322918.957 7 127817806.944 7  96693335.192 7
E36  23592852.203 8  23592854.508 8 123981276.710 8  93791039.383 8
G02  22311381.820 7  22311383.676 5                 117247103.529 7  91361396.153 5
G08  20468004.016 7                  20468010.758 7 107560083.884 7                  83813293.512 7
G10  20749567.641 8                  20749573.438 7 109039708.091 8                  84966144.832 7
G23  22371502.391 7                  22371507.441 7 117563031.856 7                  91607502.449 7
G27  20329437.164 8                  20329443.215 8 106831909.046 8                  83245700.769 8
R01  20036745.047 7                 107107885.247 7
R08  21648114.430 6  21648117.172 7 115924663.862 6  90163582.036 7
R15  21765244.617 7  21765248.664 7 116306854.753 7  90460861.154 7
R17  20392791.500 8  20392795.762 7 109125940.472 8  84876030.234 7
R24  19596770.914 8  19596775.125 7 104792746.279 8  81505529.484 7
> 2025 06 15 09 54  5.0000000  0 18
C19  23626804.180 6 123030982.297 6
C20  22813903.906 7 118797986.787 7
C29  22391246.352 7 116597098.616 7
E02  24630390.531 7  24630392.938 8 129433574.884 7  97915665.078 8
E04  26167097.398 6  26167098.984 8 137509026.418 6 104024694.380 8
E10  26357972.805 7  26357976.395 8 138512076.116 7 104783493.656 8
E11  24322951.875 7  24322950.066 7 127817970.469 7  96693458.886 7
E36  23590655.617 8  23590657.695 8 123969732.286 8  93782306.100 8
G02  22307784.953 7  22307787.309 5                 117228204.517 7  91346669.671 5
G08  20465461.305 7                  20465468.180 7 107546723.265 7                  83802882.646 7
G10  20748428.063 8                  20748433.488 7 109033719.603 8                  84961478.480 7
G23  22372766.617 7                  22372772.523 7 117569677.472 7                  91612680.835 7
G27  20329362.633 8                  20329369.234 8 106831519.681 8                  83245397.361 8
R01  20033745.188 7                 107091851.390 7
R08  21649094.508 6  21649097.156 6 115929910.796 6  90167662.963 6
R15  21766055.352 7  21766059.805 7 116311189.196 7  90464232.404 7
R17  20389126.992 8  20389131.293 7 109106331.089 8  84860778.494 7
R24  19596349.961 8  19596354.379 7 104790498.403 8  81503781.131 7
> 2025 06 15 09 54 10.0000000  0 18
C19  23622716.656 6 123009697.152 6
C20  22812474.531 7 118790545.486 7
C29  22391611.922 7 116599004.103 7
E02  24630137.289 7  24630139.414 8 129432242.573 7  97914657.186 8
E04  26164246.453 7  26164248.441 8 137494046.743 7 104013362.359 8
E10  26358763.734 7  26358767.371 8 138516232.988 7 104786638.286 8
E11  24322983.758 7  24322981.992 7 127818138.324 7  96693585.864 7
E36  23588459.867 8  23588461.941 8 123958193.656 8  93773577.205 8
G02  22304189.430 7  22304192.168 5                 117209311.061 7  91331947.513 5
G08  20462921.578 8                  20462928.512 7 107533376.243 8                  83792482.367 7
G10  20747291.320 8                  20747296.906 7 109027745.367 8                  84956823.238 7
G23  22374032.531 7                  22374038.203 7 117576331.317 7                  91617865.645 7
G27  20329291.773 8                  20329297.895 8 106831144.367 8                  83245104.899 8
R01  20030749.703 7                 107075839.210 7
R08  21650077.648 6  21650079.945 6 115935175.593 6  90171757.800 6
R15  21766869.258 8  21766873.922 7 116315541.052 8  90467617.192 7
R17  20385463.891 8  20385468.027 7 109086729.149 8  84845532.552 7
R24  19595932.203 8  19595936.457 7 104788262.003 8  81502041.718 7
> 2025 06 15 09 54 15.0000000  0 18
C19  23618632.250 6 122988423.095 6
C20  22811048.805 7 118783121.195 7
C29  22391979.117 7 116600919.141 7
E02  24629886.859 7  24629888.469 8 129430923.771 7  97913659.516 8
E04  26161398.594 7  26161400.324 8 137479079.589 7 104002039.805 8
E10  26359555.438 7  26359559.137 8 138520393.774 7 104789785.888 8
E11  24323016.648 7  24323015.199 7 127818312.666 7  96693717.746 7
E36  23586265.711 8  23586267.766 8 123946663.030 8  93764854.363 8
G02  22300595.578 7  22300598.461 5                 117190425.368 7  91317231.399 5
G08  20460384.914 8                  20460391.863 7 107520045.010 8                  83782094.390 7
G10  20746157.133 8                  20746163.051 7 109021787.657 8                  84952180.863 7
G23  22375301.164 7                  22375306.832 7 117582995.656 7                  91623058.626 7
G27  20329223.641 8                  20329229.797 8 106830785.312 8                  83244825.110 8
R01  20027758.461 7                 107059851.050 7
R08  21651064.656 6  21651066.801 6 115940460.420 6  90175868.225 6
R15  21767687.586 7  21767691.734 7 116319912.622 7  90471017.285 7
R17  20381802.422 8  20381806.906 7 109067136.948 8  84830294.179 7
R24  19595516.547 8  19595521.027 7 104786039.243 8  81500312.900 7
> 2025 06 15 09 54 20.0000000  0 18
C19  23614549.141 6 122967159.770 6
C20  22809626.828 7 118775713.648 7
C29  22392347.828 7 116602843.378 7
E02  24629637.953 7  24629640.066 8 129429618.064 7  97912671.756 8
E04  26158552.648 7  26158554.500 8 137464124.607 7 103990726.456 8
E10  26360347.703 7  26360351.563 8 138524558.119 7 104792936.163 8
E11  24323051.211 7  24323049.531 8 127818493.166 7  96693854.287 8
E36  23584072.922 8  23584074.984 8 123935140.062 8  93756137.308 8
G02  22297003.336 7  22297006.074 5                 117171547.105 7  91302521.070 5
G08  20457850.055 8                  20457857.344 8 107506729.220 8                  83771718.451 8
G10  20745026.727 8                  20745032.105 7 109015846.101 8                  84947551.064 7
G23  22376571.570 7                  22376576.855 7 117589670.115 7                  91628259.487 7
G27  20329158.422 8                  20329164.445 8 106830442.154 8                  83244557.712 8
R01  20024772.578 8                 107043886.513 8
R08  21652053.859 6  21652057.195 6 115945764.925 6  90179993.930 6
R15  21768508.930 7  21768513.277 7 116324303.476 7  90474432.390 7
R17  20378142.234 8  20378147.375 7 109047554.066 8  84815063.032 7
R24  19595103.250 8  19595107.723 7 104783829.804 8  81498594.445 7
> 2025 06 15 09 54 25.0000000  0 18
C19  23610467.758 6 122945905.877 6
C20  22808206.547 7 118768321.392 7
C29  22392718.781 7 116604775.471 7
E02  24629391.414 7  24629393.785 8 129428324.132 7  97911692.902 8
E04  26155708.961 7  26155710.664 8 137449180.344 7 103979421.232 8
E10  26361140.992 7  26361144.434 8 138528724.611 7 104796088.066 8
E11  24323086.180 7  24323084.773 8 127818678.416 7  96693994.409 8
E36  23581881.539 8  23581883.426 8 123923623.345 8  93747424.980 8
G02  22293412.617 7  22293415.211 5                 117152674.883 7  91287815.439 5
G08  20455318.750 8                  20455326.457 8 107493427.477 8                  83761353.459 8
G10  20743898.648 8                  20743904.465 7 109009919.280 8                  84942932.747 7
G23  22377842.852 7                  22377848.414 7 117596353.234 7                  91633467.085 7
G27  20329095.664 8                  20329101.875 8 106830113.512 8                  83244301.623 8
R01  20021791.266 7                 107027944.256 7
R08  21653049.398 6  21653051.039 6 115951087.752 6  90184133.937 6
R15  21769334.219 7  21769338.711 7 116328712.185 7  90477861.381 7
R17  20374484.352 7  20374488.879 7 109027979.084 7  84799838.041 7
R24  19594692.461 8  19594696.813 7 104781632.326 8  81496885.300 7
> 2025 06 15 09 54 30.0000000  0 18
C19  23606387.148 6 122924661.315 6
C20  22806789.648 7 118760944.402 7
C29  22393091.688 7 116606715.311 7
E02  24629147.453 7  24629149.770 8 129427041.853 7  97910722.863 8
E04  26152867.438 7  26152868.852 8 137434246.771 7 103968124.095 8
E10  26361934.086 7  26361937.727 8 138532893.203 7 104799241.561 8
E11  24323122.438 7  24323120.891 8 127818868.382 7  96694138.114 8
E36  23579691.117 8  23579693.012 8 123912112.832 8  93738717.350 8
G02  22289822.359 7  22289824.914 5                 117133808.637 7  91273114.441 5
G08  20452790.438 8                  20452797.969 8 107480139.738 8                  83750999.389 8
G10  20742773.383 8                  20742779.395 7 109004007.139 8                  84938325.896 7
G23  22379115.984 7                  22379122.031 7 117603044.998 7                  91638681.430 7
G27  20329035.859 8                  20329041.996 8 106829799.301 8                  83244056.778 8
R01  20018813.031 7                 107012024.118 7
R08  21654046.133 7  21654049.004 6 115956428.689 7  90188288.014 6
R15  21770161.086 7  21770167.621 7 116333138.815 7  90481304.300 7
R17  20370826.766 7  20370832.809 7 109008411.857 7  84784619.092 7
R24  19594283.758 8  19594288.043 7 104779446.639 8  81495185.306 7
> 2025 06 15 09 54 35.0000000  0 18
C19  23602309.273 6 122903426.098 6
C20  22805375.906 7 118753582.640 7
C29  22393465.969 7 116608662.890 7
E02  24628905.898 7  24628907.980 8 129425771.227 7  97909761.631 8
E04  26150026.164 6  26150029.125 8 137419323.877 6 103956835.046 8
E10  26362727.352 7  26362731.402 8 138537063.829 7 104802396.597 8
E11  24323159.242 7  24323157.961 8 127819062.963 7  96694285.303 8
E36  23577501.961 8  23577503.781 8 123900608.489 8  93730014.386 8
G02  22286233.414 7  22286236.086 5                 117114948.336 7  91258418.107 5
G08  20450264.391 7                  20450271.539 7 107466865.993 7                  83740656.211 7
G10  20741651.203 8                  20741657.375 7 108998109.637 8                  84933730.444 7
G23  22380390.469 7                  22380397.117 7 117609745.301 7                  91643902.448 7
G27  20328979.023 8                  20328984.625 8 106829499.491 8                  83243823.160 8
R01  20015838.602 7                 106996126.153 7
R08  21655045.031 6  21655049.484 6 115961787.846 6  90192456.212 6
R15  21770992.711 7  21770999.277 7 116337583.027 7  90484760.910 7
R17  20367171.406 7  20367177.418 7 108988852.527 7  84769406.281 7
R24  19593876.945 8  19593882.031 7 104777272.864 8  81493494.581 7
> 2025 06 15 09 54 40.0000000  0 18
C19  23598233.125 6 122882200.818 6
C20  22803965.180 7 118746236.736 7
C29  22393841.875 7 116610618.842 7
E02  24628666.523 7  24628668.500 8 129424512.838 7  97908809.655 8
E04  26147189.313 6  26147191.559 8 137404412.304 6 103945554.558 8
E10  26363522.102 7  26363525.633 8 138541237.123 7 104805553.647 8
E11  24323196.969 7  24323196.012 7 127819262.827 7  96694436.500 7
E36  23575313.898 8  23575315.875 8 123889110.922 8  93721316.546 8
G02  22282646.109 7  22282647.832 5                 117096094.593 7  91243726.875 5
G08  20447741.234 8                  20447748.367 7 107453606.837 8                  83730324.411 7
G10  20740532.102 7                  20740538.172 7 108992227.394 7                  84929146.877 7
G23  22381667.766 7                  22381673.813 7 117616454.837 7                  91649130.655 7
G27  20328924.297 8                  20328930.699 8 106829214.702 8                  83243601.232 8
R01  20012869.867 7                 106980251.101 7
R08  21656049.336 6  21656053.738 6 115967165.716 6  90196639.012 6
R15  21771828.578 7  21771834.246 7 116342045.690 7  90488231.852 7
R17  20363518.805 7  20363524.000 7 108969301.551 7  84754199.990 7
R24  19593473.906 8  19593477.754 7 104775111.484 8  81491813.521 7
> 2025 06 15 09 54 45.0000000  0 18
C19  23594158.422 6 122860985.188 6
C20  22802557.648 7 118738906.338 7
C29  22394219.648 7 116612582.817 7
E02  24628429.484 7  24628431.324 8 129423266.382 7  97907866.715 8
E04  26144353.797 6  26144356.043 8 137389511.719 6 103934282.359 8
E10  26364316.695 7  26364320.270 8 138545412.802 7 104808712.508 8
E11  24323236.219 7  24323234.930 7 127819467.649 7  96694591.437 7
E36  23573127.141 8  23573129.195 8 123877619.829 8  93712623.603 8
G02  22279059.313 7  22279061.289 5                 117077247.098 7  91229040.530 5
G08  20445221.289 8                  20445228.195 7 107440362.001 8                  83720003.757 7
G10  20739415.289 8                  20739421.656 7 108986360.119 8                  84924574.954 7
G23  22382946.141 7                  22382952.051 7 117623173.202 7                  91654365.732 7
G27  20328873.367 8                  20328879.352 8 106828944.629 8                  83243390.794 8
R01  20009904.047 7                 106964398.458 7
R08  21657056.094 6  21657061.332 6 115972562.118 6  90200836.188 6
R15  21772667.039 7  21772673.246 7 116346526.247 7  90491716.710 7
R17  20359866.859 8  20359872.438 7 108949758.888 8  84739000.145 7
R24  19593071.703 8  19593075.922 7 104772962.320 8  81490141.938 7
> 2025 06 15 09 54 50.0000000  0 18
C19  23590086.172 6 122839781.315 6
C20  22801153.492 7 118731593.572 7
C29  22394599.383 7 116614556.888 7
E02  24628194.930 7  24628196.801 8 129422033.958 7  97906934.397 8
E04  26141520.422 6  26141522.949 8 137374624.233 6 103923020.079 8
E10  26365111.750 7  26365115.672 8 138549592.956 7 104811874.748 8
E11  24323276.797 7  24323275.207 7 127819679.550 7  96694751.727 7
E36  23570942.086 8  23570944.129 8 123866137.305 8  93703937.154 8
G02  22275473.961 7  22275476.074 5                 117058407.962 7  91214360.690 5
G08  20442704.336 8                  20442710.758 7 107427133.556 8                  83709695.881 7
G10  20738302.109 8                  20738308.547 7 108980509.892 8                  84920016.331 7
G23  22384226.930 7                  22384232.277 7 117629902.556 7                  91659609.364 7
G27  20328825.195 8                  20328830.848 8 106828691.378 8                  83243193.445 8
R01  20006943.273 7                 106948570.478 7
R08  21658066.641 6  21658072.520 6 115977979.082 6  90205049.332 6
R15  21773509.664 7  21773515.367 7 116351027.033 7  90495217.301 7
R17  20356217.391 8  20356222.254 7 108930226.470 8  84723808.256 7
R24  19592672.453 8  19592676.629 7 104770827.440 8  81488481.472 7
> 2025 06 15 09 54 55.0000000  0 18
C19  23586016.195 7 122818587.560 7
C20  22799752.039 7 118724296.803 7
C29  22394980.656 7 116616539.502 7
E02  24627962.438 7  24627964.641 8 129420813.920 7  97906011.442 8
E04  26138690.125 6  26138692.133 8 137359748.296 6 103911766.544 8
E10  26365907.898 7  26365911.594 8 138553775.909 7 104815039.115 8
E11  24323318.336 7  24323316.527 7 127819896.889 7  96694916.138 7
E36  23568758.023 8  23568760.398 8 123854661.726 8  93695255.958 8
G02  22271890.133 7  22271892.207 5                 117039575.522 7  91199686.075 5
G08  20440189.563 8                  20440196.324 7 107413919.922 8                  83699399.538 7
G10  20737191.563 8                  20737198.129 7 108974675.057 8                  84915469.711 7
G23  22385509.336 7                  22385514.977 7 117636641.216 7                  91664860.279 7
G27  20328780.047 8                  20328785.379 8 106828453.267 8                  83243007.899 8
R01  20003985.906 7                 106932765.505 7
R08  21659081.773 6  21659087.270 6 115983414.966 6  90209277.235 6
R15  21774355.289 7  21774360.668 7 116355546.257 7  90498732.242 7
R17  20352569.055 8  20352574.215 7 108910702.665 8  84708623.080 7
R24  19592275.070 8  19592280.008 7 104768705.020 8  81486830.715 7
> 2025 06 15 09 55  0.0000000  0 18
C19  23581947.766 7 122797405.211 7
C20  22798354.633 7 118717017.299 7
C29  22395363.867 7 116618531.887 7
E02  24627732.695 7  24627735.094 8 129419607.581 7  97905098.843 8
E04  26135861.109 5  26135863.785 8 137344885.076 5 103900522.627 8
E10  26366704.742 7  26366708.414 8 138557962.979 7 104818206.596 8
E11  24323360.922 7  24323359.160 7 127820120.934 7  96695085.626 7
E36  23566575.898 8  23566578.242 8 123843194.377 8  93686580.980 8
G02  22268307.547 7  22268309.645 5                 117020751.083 7  91185017.699 5
G08  20437678.617 8                  20437684.809 8 107400722.374 8                  83689115.720 8
G10  20736084.211 8                  20736091.109 7 108968856.926 8                  84910936.099 7
G23  22386793.711 7                  22386799.121 7 117643390.446 7                  91670119.419 7
G27  20328738.141 8                  20328743.629 8 106828231.622 8                  83242835.184 8
R01  20001033.516 7                 106916984.880 7
R08  21660100.039 6  21660105.977 6 115988870.880 6  90213520.740 6
R15  21775204.609 7  21775210.418 7 116360085.277 7  90502262.578 7
R17  20348922.617 8  20348926.902 7 108891188.852 8  84693445.660 7
R24  19591880.555 8  19591885.742 7 104766596.710 8  81485190.917 7
> 2025 06 15 09 55  5.0000000  0 18
C19  23577881.883 7 122776232.679 7
C20  22796958.672 7 118709753.459 7
C29  22395747.313 7 116620532.441 7
E02  24627505.523 7  24627507.805 8 129418413.289 7  97904195.364 8
E04  26133034.836 6  26133037.496 8 137330033.036 6 103889287.178 8
E10  26367502.109 7  26367505.688 8 138562152.529 7 104821375.945 8
E11  24323404.594 7  24323402.742 7 127820350.056 7  96695258.950 7
E36  23564394.859 8  23564397.328 8 123831733.623 8  93677911.001 8
G02  22264727.164 7  22264728.457 5                 117001933.057 7  91170354.313 5
G08  20435169.641 8                  20435176.340 7 107387539.280 8                  83678843.181 7
G10  20734980.328 8                  20734986.953 8 108963053.838 8                  84906414.215 8
G23  22388080.359 7                  22388084.938 7 117650148.619 7                  91675385.519 7
G27  20328697.898 8                  20328704.219 8 106828024.780 8                  83242674.014 8
R01  19998085.383 7                 106901226.905 7
R08  21661121.664 6  21661128.547 6 115994345.487 6  90217778.747 6
R15  21776057.359 7  21776063.527 7 116364642.422 7  90505807.003 7
R17  20345276.875 7  20345282.316 7 108871683.263 7  84678274.641 7
R24  19591488.508 8  19591494.305 7 104764500.570 8  81483560.588 7
> 2025 06 15 09 55 10.0000000  0 18
C19  23573817.516 7 122755070.671 7
C20  22795566.828 7 118702505.971 7
C29  22396133.609 7 116622541.850 7
E02  24627281.352 7  24627282.961 8 129417231.717 7  97903301.503 8
E04  26130211.188 6  26130213.516 8 137315192.856 6 103878060.670 8
E10  26368299.727 7  26368303.504 8 138566345.264 7 104824547.710 8
E11  24323449.461 7  24323447.449 7 127820584.931 7  96695436.627 7
E36  23562215.484 8  23562217.809 8 123820280.171 8  93669246.546 8
G02  22261147.555 7  22261148.633 5                 116983122.132 7  91155696.451 5
G08  20432664.266 8                  20432670.746 7 107374371.341 8                  83668582.445 7
G10  20733879.211 8                  20733885.688 8 108957266.516 8                  84901904.602 8
G23  22389367.969 7                  22389373.059 7 117656916.459 7                  91680659.138 7
G27  20328661.789 8                  20328667.715 8 106827833.460 8                  83242524.932 8
R01  19995141.883 7                 106885492.311 7
R08  21662147.539 6  21662154.480 6 115999839.208 6  90222051.639 6
R15  21776914.508 7  21776919.512 7 116369218.328 7  90509366.036 7
R17  20341634.039 8  20341638.914 7 108852186.795 8  84663110.721 7
R24  19591099.133 8  19591104.527 7 104762417.412 8  81481940.354 7
> 2025 06 15 09 55 15.0000000  0 19
C19  23569756.164 7 122733918.389 7
C20  22794178.070 7 118695274.014 7
C29  22396521.508 7 116624559.328 7
E02  24627058.805 7  24627060.402 8 129416062.105 7  97902416.688 8
E04  26127389.125 6  26127391.680 8 137300363.734 6 103866842.553 8
E10  26369097.711 7  26369101.922 8 138570540.372 7 104827721.262 8
E11  24323494.898 7  24323493.117 7 127820824.808 7  96695618.084 7
E36  23560037.344 8  23560039.535 8 123808833.190 8  93660586.986 8
G02  22257569.055 7  22257570.082 5                 116964317.438 7  91141043.446 5
G08  20430160.945 8                  20430167.609 7 107361217.768 8                  83658332.914 7
G10  20732780.875 8                  20732787.121 8 108951494.139 8                  84897406.641 8
G23  22390657.539 7                  22390662.414 7 117663693.115 7                  91685939.653 7
G27  20328628.102 8                  20328634.117 8 106827656.854 8                  83242387.314 8
R01  19992202.516 7                 106869780.352 7
R08  21663177.203 6  21663183.965 6 116005351.336 6  90226338.805 6
R15  21777773.375 7  21777779.727 7 116373812.173 7  90512939.020 7
R16  22282868.953 5                 119031038.61215
R17  20337992.531 8  20337996.832 7 108832698.499 8  84647953.165 7
R24  19590712.391 8  19590717.145 7 104760346.369 8  81480329.547 7
> 2025 06 15 09 55 20.0000000  0 19
C19  23565696.016 6 122712775.979 6
C20  22792791.953 7 118688057.773 7
C29  22396910.117 7 116626585.007 7
E02  24626838.844 7  24626840.176 8 129414904.563 7  97901541.002 8
E04  26124569.211 6  26124571.957 8 137285545.802 6 103855632.905 8
E10  26369897.023 7  26369900.629 8 138574738.001 7 104830896.730 8
E11  24323541.938 7  24323539.699 7 127821069.822 7  96695803.424 7
E36  23557860.172 8  23557862.516 8 123797392.879 8  93651932.469 8
G02  22253992.383 7  22253992.855 5                 116945519.229 7  91126395.499 5
G08  20427660.320 8                  20427667.176 7 107348078.714 8                  83648094.693 7
G10  20731684.898 8                  20731691.539 7 108945736.850 8                  84892920.459 7
G23  22391948.914 7                  22391953.828 7 117670478.708 7                  91691227.132 7
G27  20328597.477 8                  20328603.387 8 106827495.104 8                  83242261.276 8
R01  19989267.648 7                 106854091.048 7
R08  21664210.563 6  21664216.895 6 116010881.918 6  90230640.394 6
R15  21778636.352 7  21778642.336 7 116378424.062 7  90516526.024 7
R16  22280244.586 5  22280282.820 4 119017071.745 5  92568991.60114
R17  20334351.992 7  20334356.770 7 108813218.549 7  84632802.098 7
R24  19590326.422 8  19590331.930 7 104758287.635 8  81478728.319 7
> 2025 06 15 09 55 25.0000000  0 19
C19  23561637.852 7 122691643.318 7
C20  22791409.188 7 118680857.064 7
C29  22397300.859 7 116628618.703 7
E02  24626620.695 7  24626622.180 8 129413758.933 7  97900674.333 8
E04  26121751.727 6  26121754.355 8 137270738.968 6 103844431.649 8
E10  26370696.336 7  26370699.910 8 138578937.979 7 104834073.962 8
E11  24323589.188 7  24323587.254 7 127821319.761 7  96695992.495 7
E36  23555684.172 8  23555686.727 8 123785959.066 8  93643282.866 8
G02  22250416.258 7  22250416.746 5                 116926727.287 7  91111752.435 5
G08  20425162.906 8                  20425169.473 7 107334954.003 8                  83637867.663 7
G10  20730592.242 8                  20730598.887 7 108939994.492 8                  84888445.901 7
G23  22393241.656 7                  22393246.637 7 117677273.133 7                  91696521.487 7
G27  20328569.211 8                  20328575.297 8 106827348.054 8                  83242146.682 8
R01  19986336.930 7                 106838424.446 7
R08  21665247.602 6  21665253.266 6 116016430.763 6  90234956.127 6
R15  21779502.992 7  21779508.914 7 116383053.868 7  90520126.962 7
R16  22277635.852 5  22277669.078 4 119003127.041 5  92558145.704 4
R17  20330713.141 7  20330718.184 7 108793746.979 7  84617657.543 7
R24  19589943.531 8  19589948.910 7 104756241.072 8  81477136.546 7
> 2025 06 15 09 55 30.0000000  0 19
C19  23557581.781 7 122670520.825 7
C20  22790030.078 7 118673672.330 7
C29  22397692.625 7 116630660.893 7
E02  24626405.078 7  24626406.551 8 129412625.631 7  97899817.006 8
E04  26118935.203 6  26118939.016 8 137255943.625 6 103833239.078 8
E10  26371496.211 7  26371499.637 8 138583140.757 7 104837253.340 8
E11  24323637.617 7  24323635.836 7 127821575.113 7  96696185.669 7
E36  23553509.828 8  23553512.250 8 123774532.162 8  93634638.480 8
G02  22246841.633 7  22246842.488 5                 116907942.078 7  91097114.606 5
G08  20422667.820 7                  20422675.105 7 107321844.127 7                  83627652.182 7
G10  20729502.563 8                  20729509.113 7 108934267.504 8                  84883983.315 7
G23  22394536.508 7                  22394541.305 7 117684076.793 7                  91701823.036 7
G27  20328544.531 8                  20328550.113 8 106827216.143 8                  83242043.881 8
R01  19983410.648 7                 106822780.742 7
R08  21666286.445 6  21666292.422 6 116021998.510 6  90239286.572 6
R15  21780372.430 7  21780378.469 7 116387702.084 7  90523742.210 7
R16  22275030.039 5  22275059.926 4 118989204.671 5  92547317.161 4
R17  20327075.336 7  20327080.754 7 108774283.979 7  84602519.663 7
R24  19589563.727 8  19589568.426 7 104754207.236 8  81475554.652 7
> 2025 06 15 09 55 35.0000000  0 19
C19  23553527.430 7 122649408.479 7
C20  22788653.828 7 118666503.473 7
C29  22398086.805 7 116632711.492 7
E02  24626191.750 7  24626193.230 8 129411504.602 7  97898968.952 8
E04  26116122.016 6  26116125.809 8 137241159.732 6 103822055.148 8
E10  26372295.875 7  26372299.902 8 138587346.253 7 104840434.769 8
E11  24323687.281 7  24323685.445 7 127821835.755 7  96696382.843 7
E36  23551336.891 8  23551339.055 8 123763112.113 8  93625999.281 8
G02  22243267.961 7  22243268.820 5                 116889163.518 7  91082481.966 5
G08  20420176.359 7                  20420182.922 7 107308749.017 7                  83617448.188 7
G10  20728415.898 8                  20728422.250 7 108928555.768 8                  84879532.614 7
G23  22395833.188 7                  22395837.938 7 117690889.556 7                  91707131.686 7
G27  20328522.359 8                  20328528.137 8 106827099.237 8                  83241952.777 8
R01  19980488.664 7                 106807160.126 7
R08  21667330.266 6  21667335.930 6 116027584.810 6  90243631.430 6
R15  21781244.586 7  21781252.168 7 116392368.441 7  90527371.581 7
R16  22272426.313 4  22272454.863 4 118975304.798 4  92536506.243 4
R17  20323439.625 7  20323445.004 7 108754829.479 7  84587388.399 7
R24  19589185.594 8  19589190.176 7 104752185.718 8  81473982.351 7
> 2025 06 15 09 55 40.0000000  0 18
C19  23549474.570 7 122628305.885 7
C20  22787279.969 7 118659350.145 7
C29  22398482.227 7 116634770.088 7
E02  24625980.930 7  24625982.219 8 129410395.478 7  97898129.896 8
E04  26113311.148 6  26113314.699 8 137226386.918 6 103810879.622 8
E10  26373096.555 7  26373100.617 8 138591554.096 7 104843617.946 8
E11  24323737.688 7  24323735.941 7 127822101.326 7  96696583.735 7
E36  23549164.836 8  23549167.113 8 123751698.526 8  93617364.972 8
G02  22239696.125 7  22239697.059 5                 116870391.227 7  91067854.228 5
G08  20417687.219 8                  20417693.922 7 107295668.272 8                  83607255.395 7
G10  20727331.773 8                  20727338.160 7 108922858.955 8                  84875093.543 7
G23  22397131.078 7                  22397136.422 7 117697711.066 7                  91712447.140 7
G27  20328503.063 8                  20328508.551 8 106826997.011 8                  83241873.097 8
R01  19977571.375 7                 106791562.168 7
R08  21668377.922 6  21668383.246 6 116033189.422 6  90247990.568 6
R15  21782122.297 7  21782128.660 7 116397052.595 7  90531014.786 7
R17  20319805.742 7  20319810.633 7 108735383.362 7  84572263.648 7
R24  19588810.000 8  19588814.523 7 104750176.396 8  81472419.524 7
> 2025 06 15 09 55 45.0000000  0 19
C19  23545424.109 6 122607213.361 6
C20  22785910.039 7 118652212.644 7
C26  25916343.688 5 134953224.38015
C29  22398879.273 7 116636837.042 7
E02  24625771.867 7  24625773.527 8 129409298.540 7  97897300.056 8
E04  26110501.914 6  26110505.738 8 137211625.473 6 103799712.698 8
E10  26373898.000 7  26373901.891 8 138595764.604 7 104846803.166 8
E11  24323789.109 7  24323787.535 7 127822372.175 7  96696788.640 7
E36  23546994.477 8  23546996.461 8 123740291.729 8  93608735.807 8
G02  22236125.375 7  22236126.293 5                 116851625.567 7  91053231.660 5
G08  20415201.227 8                  20415207.336 7 107282602.235 8                  83597074.073 7
G10  20726250.695 8                  20726257.090 8 108917177.371 8                  84870666.341 8
G23  22398430.563 7                  22398436.871 7 117704541.628 7                  91717769.675 7
G27  20328485.930 8                  20328492.000 8 106826909.773 8                  83241805.121 8
R01  19974657.039 7                 106775987.038 7
R08  21669428.781 6  21669432.996 6 116038812.562 6  90252364.056 6
R15  21783002.859 7  21783008.723 7 116401754.923 7  90534672.153 7
R17  20316173.977 8  20316178.035 7 108715945.805 8  84557145.550 7
R24  19588436.398 8  19588440.809 7 104748179.552 8  81470866.428 7
> 2025 06 15 09 55 50.0000000  0 19
C19  23541375.648 7 122586130.336 7
C20  22784541.938 7 118645090.385 7
C26  25917339.609 5 134958427.471 5
C29  22399278.047 7 116638911.718 7
E02  24625565.953 7  24625566.996 8 129408213.228 7  97896479.010 8
E04  26107694.570 6  26107698.809 8 137196874.805 6 103788553.939 8
E10  26374699.625 7  26374703.516 8 138599977.161 7 104849989.920 8
E11  24323841.641 7  24323840.012 7 127822647.674 7  96696997.050 7
E36  23544824.898 8  23544827.004 8 123728891.122 8  93600111.327 8
G02  22232555.250 7  22232556.617 5                 116832865.924 7  91038613.753 5
G08  20412717.133 8                  20412723.914 7 107269550.286 8                  83586903.734 7
G10  20725172.508 8                  20725178.676 8 108911510.384 8                  84866250.501 8
G23  22399731.805 7                  22399737.793 7 117711380.658 7                  91723098.754 7
G27  20328472.250 8                  20328478.035 8 106826836.909 8                  83241748.342 8
R01  19971748.359 8                 106760434.326 8
R08  21670484.227 6  21670487.223 6 116044453.559 6  90256751.471 6
R15  21783885.117 7  21783891.852 7 116406474.791 7  90538343.169 7
R17  20312543.352 7  20312547.172 7 108696516.101 7  84542033.576 7
R24  19588065.664 8  19588069.480 7 104746194.532 8  81469322.523 7
> 2025 06 15 09 55 55.0000000  0 19
C19  23537328.148 7 122565057.739 7
C20  22783177.133 7 118637984.284 7
C26  25918338.477 3
C29  22399677.766 7 116640995.068 7
E02  24625361.469 7  24625362.816 8 129407140.396 7  97895667.414 8
E04  26104888.953 6  26104894.152 8 137182135.900 6 103777404.061 8
E10  26375501.594 7  26375505.742 8 138604192.708 7 104853178.933 8
E11  24323895.016 7  24323893.543 7 127822928.734 7  96697209.669 7
E36  23542656.609 8  23542658.875 8 123717497.626 8  93591492.227 8
G02  22228986.469 7  22228988.309 5                 116814113.204 7  91024001.257 5
G08  20410236.727 8                  20410242.785 7 107256513.396 8                  83576745.109 7
G10  20724096.945 8                  20724103.184 8 108905858.945 8                  84861846.775 8
G23  22401035.109 7                  22401041.328 7 117718229.018 7                  91728435.133 7
G27  20328461.273 8                  20328467.293 8 106826779.355 8                  83241703.500 8
R01  19968842.461 8                 106744904.846 8
R08  21671539.484 6  21671544.332 7 116050113.502 6  90261153.676 7
R15  21784773.195 7  21784778.582 7 116411212.977 7  90542028.419 7
R17  20308913.719 8  20308918.453 7 108677095.412 8  84526928.629 7
R24  19587696.125 8  19587701.258 7 104744222.388 8  81467788.614 7
> 2025 06 15 09 56  0.0000000  0 18
C19  23533283.680 7 122543995.006 7
C20  22781815.180 7 118630893.782 7
C29  22400079.359 7 116643086.501 7
E02  24625159.125 7  24625160.922 8 129406079.511 7  97894864.856 8
E04  26102086.828 6  26102091.680 8 137167408.198 6 103766262.655 8
E10  26376304.484 7  26376308.445 8 138608410.651 7 104856369.770 8
E11  24323949.367 7  24323948.004 7 127823214.790 7  96697426.063 7
E36  23540489.797 8  23540492.016 8 123706110.671 8  93582878.074 8
G02  22225419.219 7  22225421.195 5                 116795366.857 7  91009393.720 5
G08  20407758.477 8                  20407764.898 7 107243490.959 8                  83566597.755 7
G10  20723024.516 8                  20723030.711 8 108900222.445 8                  84857454.694 8
G23  22402340.117 7                  22402346.250 7 117725086.152 7                  91733778.366 7
G27  20328453.633 8                  20328459.113 8 106826736.494 8                  83241670.103 8
R01  19965941.938 7                 106729398.126 7
R08  21672598.523 6  21672605.234 7 116055791.769 6  90265570.138 7
R15  21785662.484 7  21785668.590 7 116415969.094 7  90545727.606 7
R17  20305285.891 8  20305290.344 7 108657682.993 8  84511830.103 7
R24  19587330.289 8  19587334.871 7 104742262.452 8  81466264.217 7
> 2025 06 15 09 56  5.0000000  0 18
C19  23529240.688 7 122522943.244 7
C20  22780456.820 7 118623819.981 7
C29  22400482.352 7 116645187.151 7
E02  24624959.648 7  24624961.492 8 129405031.702 7  97894072.187 8
E04  26099287.672 6  26099291.512 8 137152692.762 6 103755130.512 8
E10  26377108.211 7  26377111.836 8 138612632.121 7 104859563.260 8
E11  24324004.883 7  24324003.629 7 127823506.996 7  96697647.101 7
E36  23538324.375 8  23538326.617 8 123694731.406 8  93574269.720 8
G02  22221853.578 7  22221855.387 5                 116776628.015 7  90994792.023 5
G08  20405283.281 8                  20405289.711 7 107230484.140 8                  83556462.569 7
G10  20721955.070 8                  20721961.430 8 108894602.045 8                  84853075.161 8
G23  22403646.383 7                  22403652.539 7 117731953.184 7                  91739129.295 7
G27  20328448.141 8                  20328453.836 8 106826709.510 8                  83241649.079 8
R01  19963045.313 7                 106713915.258 7
R08  21673663.039 6  21673668.535 7 116061489.373 6  90270001.646 7
R15  21786556.203 7  21786561.852 7 116420744.271 7  90549441.623 7
R17  20301659.727 8  20301664.508 7 108638279.947 8  84496738.827 7
R24  19586966.578 8  19586970.477 7 104740315.796 8  81464750.139 7
> 2025 06 15 09 56 10.0000000  0 18
C19  23525200.305 7 122501902.196 7
C20  22779101.203 7 118616762.569 7
C29  22400887.352 7 116647296.672 7
E02  24624762.477 7  24624764.500 8 129403996.617 7  97893289.156 8
E04  26096490.688 6  26096493.586 8 137137989.372 6 103744007.505 8
E10  26377912.219 7  26377915.727 8 138616856.780 7 104862759.187 8
E11  24324061.688 7  24324060.387 7 127823804.992 7  96697872.528 7
E36  23536160.313 8  23536162.629 8 123683359.480 8  93565666.937 8
G02  22218289.398 7  22218290.988 5                 116757896.329 7  90980195.903 5
G08  20402810.820 8                  20402817.031 7 107217492.615 8                  83546339.303 7
G10  20720887.516 8                  20720894.621 8 108888997.403 8                  84848707.898 8
G23  22404954.977 7                  22404960.691 7 117738829.797 7                  91744487.672 7
G27  20328445.648 8                  20328451.516 7 106826698.046 8                  83241640.134 7
R01  19960152.117 7                 106698456.037 7
R08  21674728.570 6  21674736.488 7 116067206.041 6  90274447.977 7
R15  21787453.188 7  21787459.148 7 116425537.980 7  90553170.067 7
R17  20298035.648 8  20298040.016 7 108618886.201 8  84481654.778 7
R24  19586605.000 8  19586609.176 7 104738382.179 8  81463246.187 7
> 2025 06 15 09 56 15.0000000  0 18
C19  23521161.656 7 122480870.883 7
C20  22777748.781 7 118609720.603 7
C29  22401293.883 7 116649414.136 7
E02  24624567.594 7  24624569.813 8 129402973.332 7  97892515.042 8
E04  26093695.875 7  26093697.664 8 137123296.994 7 103732892.807 8
E10  26378716.648 7  26378720.094 8 138621083.741 7 104865956.834 8
E11  24324119.469 7  24324118.074 7 127824107.853 7  96698101.640 7
E36  23533997.477 8  23533999.875 8 123671993.962 8  93557068.984 8
G02  22214725.836 7  22214727.570 5                 116739170.857 7  90965604.636 5
G08  20400341.063 8                  20400347.738 7 107204515.435 8                  83536227.229 7
G10  20719824.266 8                  20719830.844 8 108883407.566 8                  84844352.170 8
G23  22406265.586 7                  22406271.270 7 117745715.008 7                  91749852.774 7
G27  20328446.086 8                  20328452.117 8 106826701.133 8                  83241642.536 8
R01  19957264.867 7                 106683019.380 7
R08  21675800.688 7  21675807.027 6 116072940.701 7  90278908.302 6
R15  21788353.922 7  21788359.773 7 116430349.432 7  90556912.282 7
R17  20294413.531 8  20294417.363 7 108599500.688 8  84466577.130 7
R24  19586244.383 8  19586249.555 7 104736460.619 8  81461751.647 7
> 2025 06 15 09 56 20.0000000  0 18
C19  23517125.008 7 122459850.671 7
C20  22776399.852 7 118602695.423 7
C29  22401702.078 7 116651540.879 7
E02  24624374.586 7  24624377.645 8 129401963.200 7  97891750.881 8
E04  26090902.570 7  26090904.238 8 137108617.016 7 103721787.500 8
E10  26379521.578 7  26379525.164 8 138625314.300 7 104869157.201 8
E11  24324178.430 7  24324176.891 7 127824416.890 7  96698335.411 7
E36  23531836.195 8  23531838.543 8 123660636.183 8  93548476.898 8
G02  22211163.922 7  22211165.777 5                 116720452.995 7  90951019.292 5
G08  20397874.867 7                  20397881.246 7 107191553.951 7                  83526127.380 7
G10  20718763.797 8                  20718770.336 8 108877833.897 8                  84840009.055 8
G23  22407576.563 7                  22407583.719 7 117752610.163 7                  91755225.608 7
G27  20328449.906 8                  20328455.609 8 106826720.164 8                  83241657.373 8
R01  19954382.750 7                 106667606.671 7
R08  21676876.211 7  21676880.820 6 116078694.923 7  90283383.799 6
R15  21789257.672 7  21789263.508 7 116435179.691 7  90560669.146 7
R17  20290792.234 8  20290796.660 7 108580124.657 8  84451506.879 7
R24  19585887.906 8  19585892.871 7 104734552.370 8  81460267.453 7
> 2025 06 15 09 56 25.0000000  0 19
C19  23513090.008 7 122438840.674 7
C20  22775053.547 7 118595686.127 7
C29  22402111.992 7 116653675.991 7
E02  24624185.055 7  24624187.773 8 129400965.280 7  97890995.947 8
E04  26088111.188 7  26088112.938 8 137093948.551 7 103710690.917 8
E10  26380327.508 7  26380330.668 8 138629547.563 7 104872359.632 8
E11  24324238.398 7  24324236.738 7 127824731.247 7  96698573.210 7
E36  23529676.352 8  23529678.539 8 123649285.263 8  93539890.001 8
G02  22207603.141 7  22207605.211 5                 116701741.800 7  90936439.155 5
G08  20395411.063 8                  20395417.434 7 107178607.295 8                  83516039.073 7
G10  20717706.109 8                  20717712.578 8 108872275.457 8                  84835677.801 8
G23  22408891.352 7                  22408897.324 7 117759514.330 7                  91760605.450 7
G27  20328456.281 8                  20328462.082 8 106826754.200 8                  83241683.885 8
R01  19951503.195 7                 106652217.091 7
R08  21677954.117 7  21677958.648 6 116084467.605 7  90287873.643 6
R15  21790164.391 7  21790171.309 7 116440028.226 7  90564440.238 7
R16  22246601.336 5                 118837526.70315
R17  20287173.727 8  20287177.688 7 108560757.382 8  84436443.438 7
R24  19585533.484 8  19585538.402 7 104732656.855 8  81458793.177 7
> 2025 06 15 09 56 30.0000000  0 19
C19  23509058.055 7 122417841.550 7
C20  22773711.250 7 118588693.339 7
C29  22402523.742 7 116655820.156 7
E02  24623998.203 7  24624000.309 8 129399980.261 7  97890250.759 8
E04  26085321.773 7  26085323.961 8 137079292.196 7 103699603.498 8
E10  26381133.672 7  26381136.930 8 138633784.167 7 104875564.582 8
E11  24324299.109 7  24324297.703 7 127825051.553 7  96698815.527 7
E36  23527517.563 8  23527519.949 8 123637941.835 8  93531308.772 8
G02  22204043.984 7  22204045.316 5                 116683037.961 7  90921864.739 5
G08  20392950.273 8                  20392956.875 7 107165676.105 8                  83505962.813 7
G10  20716651.664 8                  20716657.961 8 108866732.908 8                  84831358.938 8
G23  22410207.359 7                  22410212.781 7 117766428.207 7                  91765992.857 7
G27  20328465.852 8                  20328471.527 8 106826803.898 8                  83241722.601 8
R01  19948628.852 7                 106636851.220 7
R08  21679035.398 7  21679040.766 6 116090259.404 7  90292378.363 6
R15  21791075.453 7  21791081.219 7 116444895.361 7  90568225.777 7
R16  22244045.633 5  22244059.895 5 118823876.090 5  92418490.91715
R17  20283555.328 8  20283560.098 7 108541399.465 8  84421387.301 7
R24  19585181.664 8  19585186.570 7 104730774.453 8  81457329.079 7
> 2025 06 15 09 56 35.0000000  0 19
C19  23505027.219 7 122396853.391 7
C20  22772371.531 7 118581717.156 7
C29  22402937.086 7 116657973.411 7
E02  24623813.250 7  24623815.316 8 129399008.159 7  97889515.356 8
E04  26082534.250 7  26082537.258 8 137064648.132 7 103688525.377 8
E10  26381940.438 7  26381943.789 8 138638024.210 7 104878772.131 8
E11  24324361.227 7  24324359.797 7 127825377.857 7  96699062.367 7
E36  23525360.523 8  23525362.824 8 123626605.968 8  93522733.267 8
G02  22200485.820 7  22200487.727 5                 116664341.519 7  90907296.079 5
G08  20390492.602 8                  20390498.648 7 107152760.481 8                  83495898.684 7
G10  20715599.766 8                  20715606.168 8 108861206.326 8                  84827052.494 8
G23  22411524.781 7                  22411530.676 7 117773351.775 7                  91771387.839 7
G27  20328478.172 8                  20328483.930 8 106826869.324 8                  83241773.566 8
R01  19945758.656 7                 106621509.197 7
R08  21680120.188 7  21680126.277 6 116096070.398 7  90296897.975 6
R15  21791990.195 7  21791995.621 7 116449781.192 7  90572025.854 7
R16  22241492.680 5  22241512.402 5 118810248.939 5  92407891.992 5
R17  20279940.188 8  20279944.594 7 108522050.883 8  84406338.426 7
R24  19584832.031 8  19584837.102 7 104728905.238 8  81455875.232 7
> 2025 06 15 09 56 40.0000000  0 19
C19  23500998.594 7 122375876.406 7
C20  22771034.930 7 118574757.787 7
C29  22403352.648 7 116660135.944 7
E02  24623631.047 7  24623632.859 8 129398049.215 7  97888789.910 8
E04  26079749.773 6  26079752.910 8 137050016.448 6 103677456.626 8
E10  26382748.180 7  26382751.359 8 138642267.837 7 104881982.391 8
E11  24324424.352 7  24324423.090 7 127825710.364 7  96699313.904 7
E36  23523204.602 8  23523207.137 8 123615277.864 8  93514163.628 8
G02  22196929.391 7  22196931.305 5                 116645652.693 7  90892733.371 5
G08  20388038.070 8                  20388043.859 7 107139860.585 8                  83485846.810 7
G10  20714551.188 8                  20714557.664 8 108855695.905 8                  84822758.657 8
G23  22412844.563 7                  22412850.164 7 117780285.256 7                  91776790.534 7
G27  20328493.641 8                  20328499.535 8 106826950.671 8                  83241836.936 8
R01  19942892.781 7                 106606191.224 7
R08  21681210.047 7  21681213.898 6 116101900.742 7  90301432.656 6
R15  21792907.820 7  21792913.480 7 116454686.121 7  90575840.772 7
R16  22238943.953 5  22238965.930 5 118796645.199 5  92397311.266 5
R17  20276325.641 8  20276330.527 7 108502711.965 8  84391297.054 7
R24  19584485.477 8  19584489.902 7 104727049.523 8  81454431.903 7
> 2025 06 15 09 56 45.0000000  0 19
C19  23496972.016 6 122354909.086 6
C20  22769701.164 7 118567813.734 7
C29  22403769.695 7 116662306.300 7
E02  24623451.125 7  24623452.578 8 129397101.899 7  97888073.254 8
E04  26076967.313 6  26076970.602 7 137035395.786 6 103666396.223 7
E10  26383556.523 8  26383559.297 8 138646513.617 8 104885194.284 8
E11  24324488.523 7  24324487.285 7 127826047.590 7  96699569.011 7
E36  23521050.664 8  23521052.695 8 123603956.047 8  93505598.749 8
G02  22193373.563 7  22193376.379 5                 116626969.978 7  90878175.410 5
G08  20385585.703 7                  20385592.102 7 107126974.971 7                  83475806.066 7
G10  20713505.680 8                  20713511.480 8 108850200.117 8                  84818476.228 8
G23  22414164.602 7                  22414170.891 7 117787227.165 7                  91782199.801 7
G27  20328511.852 8                  20328517.883 8 106827046.450 8                  83241911.563 8
R01  19940031.766 7                 106590895.817 7
R08  21682303.336 7  21682306.848 6 116107749.041 7  90305981.330 6
R15  21793829.711 7  21793834.801 7 116459608.379 7  90579669.191 7
R16  22236395.695 4                                
R17  20272713.109 8  20272718.617 7 108483381.256 8  84376262.082 7
R24  19584140.695 8  19584145.066 7 104725205.781 8  81452997.882 7
> 2025 06 15 09 56 50.0000000  0 18
C19  23492946.977 7 122333951.402 7
C20  22768370.563 7 118560884.919 7
C29  22404188.320 7 116664484.369 7
E02  24623273.375 7  24623274.508 8 129396166.124 7  97887365.337 8
E04  26074186.570 6  26074190.344 8 137020785.958 6 103655343.993 8
E10  26384364.625 8  26384367.609 8 138650761.432 8 104888407.711 8
E11  24324553.648 7  24324552.344 7 127826389.427 7  96699827.613 7
E36  23518897.320 8  23518899.391 8 123592640.433 8  93497038.557 8
G02  22189819.508 7  22189822.824 5                 116608293.341 7  90863622.191 5
G08  20383136.688 7                  20383143.016 7 107114103.564 7                  83465776.402 7
G10  20712462.805 8                  20712468.730 8 108844718.909 8                  84814205.167 8
G23  22415487.469 7                  22415493.402 7 117794177.390 7                  91787615.545 7
G27  20328533.344 8                  20328538.746 8 106827156.557 8                  83241997.359 8
R01  19937174.469 7                 106575622.967 7
R08  21683398.117 7  21683403.605 7 116113615.070 7  90310543.803 7
R15  21794754.086 7  21794759.000 7 116464548.005 7  90583511.104 7
R17  20269101.859 8  20269107.793 7 108464058.558 8  84361233.323 7
R24  19583797.867 8  19583802.391 7 104723373.850 8  81451573.048 7
> 2025 06 15 09 56 55.0000000  0 18
C19  23488923.703 7 122313004.028 7
C20  22767043.125 7 118553971.999 7
C29  22404608.781 7 116666670.857 7
E02  24623097.781 8  24623098.762 8 129395242.586 8  97886666.681 8
E04  26071407.844 6  26071412.297 8 137006187.749 6 103644300.558 8
E10  26385173.586 8  26385176.473 7 138655011.981 8 104891623.211 7
E11  24324619.813 7  24324618.422 7 127826736.636 7  96700090.270 7
E36  23516745.648 8  23516747.402 8 123581331.700 8  93488483.576 8
G02  22186267.219 7  22186270.469 5                 116589623.479 7  90849074.245 5
G08  20380689.922 7                  20380696.617 7 107101247.024 7                  83455758.310 7
G10  20711422.977 8                  20711428.055 8 108839252.945 8                  84809945.976 8
G23  22416812.508 7                  22416817.695 7 117801136.601 7                  91793038.295 7
G27  20328557.320 8                  20328562.574 8 106827281.692 8                  83242094.869 8
R01  19934321.133 7                 106560373.146 7
R08  21684495.758 7  21684502.051 6 116119499.519 7  90315120.617 6
R15  21795681.766 7  21795687.172 7 116469505.530 7  90587366.930 7
R17  20265492.805 8  20265498.688 7 108444744.675 8  84346211.422 7
R24  19583457.633 8  19583462.410 7 104721554.452 8  81450157.960 7
> 2025 06 15 09 57  0.0000000  0 18
C19  23484902.922 7 122292067.396 7
C20  22765718.484 7 118547075.453 7
C29  22405030.156 7 116668866.191 7
E02  24622924.102 8  24622925.418 8 129394331.708 8  97885977.607 8
E04  26068632.961 6  26068636.566 8 136991601.560 6 103633266.198 8
E10  26385982.953 8  26385985.945 7 138659265.703 8 104894841.115 7
E11  24324686.844 7  24324685.598 7 127827089.553 7  96700357.244 7
E36  23514594.969 8  23514596.813 8 123570030.284 8  93479934.133 8
G02  22182715.805 7  22182719.176 5                 116570960.779 7  90834531.882 5
G08  20378246.445 7                  20378252.836 7 107088405.837 7                  83445752.182 7
G10  20710385.742 8                  20710391.117 7 108833802.695 8                  84805699.025 7
G23  22418138.516 7                  22418143.527 7 117808105.242 7                  91798468.390 7
G27  20328583.641 8                  20328589.660 8 106827422.271 8                  83242204.431 8
R01  19931472.836 7                 106545147.038 7
R08  21685597.719 7  21685604.020 6 116125402.865 7  90319712.121 6
R15  21796612.367 7  21796618.855 7 116474481.457 7  90591237.074 7
R17  20261885.805 8  20261890.836 7 108425439.850 8  84331196.564 7
R24  19583120.000 8  19583124.492 7 104719748.102 8  81448753.018 7
> 2025 06 15 09 57  5.0000000  0 18
C19  23480884.031 7 122271140.950 7
C20  22764397.219 7 118540194.641 7
C29  22405453.688 7 116671069.774 7
E02  24622752.844 8  24622754.379 8 129393432.925 8  97885297.683 8
E04  26065860.219 6  26065862.973 7 136977026.868 6 103622240.522 7
E10  26386792.891 7  26386795.945 7 138663521.962 7 104898060.937 7
E11  24324754.984 7  24324753.719 7 127827447.671 7  96700628.153 7
E36  23512445.516 8  23512447.531 8 123558735.590 8  93471389.775 8
G02  22179166.000 7  22179169.184 5                 116552304.661 7  90819994.651 5
G08  20375805.883 8                  20375812.121 7 107075579.396 8                  83435757.551 7
G10  20709351.617 8                  20709356.754 7 108828367.547 8                  84801463.839 7
G23  22419466.203 7                  22419471.746 7 117815082.709 7                  91803905.369 7
G27  20328613.508 8                  20328619.090 8 106827577.722 8                  83242325.566 8
R01  19928628.945 7                 106529944.036 7
R08  21686703.141 7  21686709.656 6 116131324.441 7  90324317.762 6
R15  21797548.352 7  21797553.598 7 116479475.246 7  90595121.118 7
R17  20258280.586 8  20258284.941 7 108406143.817 8  84316188.521 7
R24  19582784.430 8  19582788.809 7 104717954.125 8  81447357.689 7
> 2025 06 15 09 57 10.0000000  0 18
C19  23476866.820 7 122250224.814 7
C20  22763078.891 7 118533329.737 7
C29  22405878.188 7 116673281.720 7
E02  24622584.383 8  24622585.645 8 129392546.320 8  97884626.964 8
E04  26063089.133 5  26063091.508 7 136962463.712 5 103611223.578 7
E10  26387603.484 7  26387606.422 7 138667780.943 7 104901282.813 7
E11  24324824.219 7  24324822.875 7 127827811.049 7  96700903.041 7
E36  23510297.609 8  23510299.520 8 123547447.769 8  93462850.611 8
G02  22175616.641 7  22175620.332 5                 116533655.270 7  90805462.670 5
G08  20373367.539 8                  20373374.145 7 107062767.827 8                  83425774.513 7
G10  20708320.242 8                  20708325.473 8 108822947.583 8                  84797240.492 8
G23  22420795.258 7                  22420801.133 7 117822069.099 7                  91809349.323 7
G27  20328645.742 8                  20328651.527 8 106827748.156 8                  83242458.375 8
R01  19925788.719 7                 106514764.032 7
R08  21687811.875 6  21687818.617 6 116137264.363 6  90328937.669 6
R15  21798485.703 7  21798491.109 7 116484487.043 7  90599019.174 7
R17  20254675.758 8  20254680.406 7 108386856.405 8  84301187.181 7
R24  19582451.875 8  19582455.672 7 104716172.558 8  81445972.028 7
> 2025 06 15 09 57 15.0000000  0 18
C19  23472852.617 7 122229318.795 7
C20  22761763.813 7 118526480.500 7
C29  22406304.586 7 116675501.886 7
E02  24622417.891 7  24622419.188 8 129391671.727 7  97883965.337 8
E04  26060319.398 6  26060322.195 7 136947911.892 6 103600215.236 7
E10  26388414.367 7  26388417.316 7 138672042.437 7 104904506.589 7
E11  24324894.242 7  24324892.980 7 127828179.516 7  96701181.780 7
E36  23508150.852 8  23508152.773 9 123536166.608 8  93454316.488 9
G02  22172069.633 7  22172072.590 5                 116515012.399 7  90790935.771 5
G08  20370932.266 7                  20370938.766 7 107049970.950 7                  83415802.919 7
G10  20707291.352 8                  20707296.973 7 108817542.647 8                  84793028.851 7
G23  22422126.602 7                  22422132.211 7 117829064.250 7                  91814800.081 7
G27  20328681.063 8                  20328687.309 8 106827933.379 8                  83242602.703 8
R01  19922953.953 7                 106499607.106 7
R08  21688924.680 6  21688931.164 6 116143222.484 6  90333571.786 6
R15  21799425.484 7  21799432.480 7 116489516.459 7  90602930.952 7
R17  20251073.609 8  20251077.281 7 108367577.537 8  84286192.486 7
R24  19582120.438 8  19582124.914 7 104714403.435 8  81444596.040 7
> 2025 06 15 09 57 20.0000000  0 18
C19  23468839.742 7 122208423.208 7
C20  22760451.875 7 118519647.227 7
C29  22406731.859 7 116677730.483 7
E02  24622253.641 7  24622255.109 8 129390809.388 7  97883312.980 8
E04  26057552.336 6  26057555.223 7 136933371.732 6 103589215.714 7
E10  26389225.680 7  26389228.727 7 138676306.693 7 104907732.444 7
E11  24324965.625 7  24324964.188 7 127828553.365 7  96701464.589 7
E36  23506005.273 8  23506007.391 8 123524892.380 8  93445787.610 8
G02  22168522.680 7  22168525.652 5                 116496376.306 7  90776414.173 5
G08  20368500.047 7                  20368506.578 7 107037189.041 7                  83405842.993 7
G10  20706265.563 8                  20706271.344 7 108812153.007 8                  84788829.122 7
G23  22423459.500 7                  22423465.199 7 117836068.399 7                  91820257.854 7
G27  20328719.273 8                  20328725.535 8 106828133.660 8                  83242758.766 8
R01  19920122.930 7                 106484473.528 7
R08  21690039.258 6  21690047.559 6 116149198.972 6  90338220.210 6
R15  21800371.414 7  21800376.984 7 116494563.870 7  90606856.697 7
R17  20247473.031 8  20247476.523 7 108348307.485 8  84271204.685 7
R24  19581791.758 8  19581796.266 7 104712646.819 8  81443229.797 7
> 2025 06 15 09 57 25.0000000  0 18
C19  23464828.289 7 122187536.943 7
C20  22759142.898 7 118512828.872 7
C29  22407161.891 7 116679966.476 7
E02  24622091.523 7  24622093.168 8 129389958.244 7  97882669.094 8
E04  26054787.102 6  26054790.227 7 136918842.184 6 103578224.218 7
E10  26390037.477 7  26390040.410 8 138680572.648 7 104910959.603 8
E11  24325037.852 7  24325036.148 7 127828931.451 7  96701750.604 7
E36  23503861.047 8  23503863.074 8 123513624.005 8  93437263.168 8
G02  22164977.820 7  22164980.367 5                 116477745.987 7  90761897.041 5
G08  20366070.383 8                  20366077.016 7 107024421.026 8                  83395893.907 7
G10  20705242.602 8                  20705248.539 7 108806777.575 8                  84784640.473 7
G23  22424793.328 7                  22424799.672 7 117843080.480 7                  91825721.813 7
G27  20328759.844 8                  20328766.094 8 106828347.941 8                  83242925.736 8
R01  19917296.461 7                 106469362.146 7
R08  21691159.125 6  21691166.805 6 116155192.812 6  90342882.075 6
R15  21801318.266 7  21801325.012 7 116499628.055 7  90610795.496 7
R17  20243872.242 8  20243876.727 7 108329045.301 8  84256222.999 7
R24  19581465.680 8  19581470.660 7 104710901.746 8  81441872.523 7
> 2025 06 15 09 57 30.0000000  0 18
C19  23460819.617 7 122166660.553 7
C20  22757836.492 7 118506025.874 7
C29  22407592.242 7 116682210.337 7
E02  24621931.711 7  24621933.430 8 129389118.787 7  97882034.041 8
E04  26052024.672 6  26052027.363 7 136904323.758 6 103567241.135 7
E10  26390849.773 7  26390852.613 8 138684840.797 7 104914188.409 8
E11  24325110.883 7  24325109.027 7 127829314.327 7  96702040.247 7
E36  23501718.367 8  23501720.008 8 123502361.996 8  93428743.534 8
G02  22161433.977 7  22161436.410 5                 116459121.925 7  90747384.778 5
G08  20363643.453 7                  20363649.953 7 107011667.445 7                  83385956.049 7
G10  20704223.070 8                  20704228.445 7 108801416.829 8                  84780463.274 7
G23  22426129.641 7                  22426135.461 7 117850100.920 7                  91831192.252 7
G27  20328803.727 8                  20328809.754 8 106828576.683 8                  83243103.972 8
R01  19914474.297 7                 106454273.464 7
R08  21692282.969 6  21692289.988 6 116161204.404 6  90347557.758 6
R15  21802270.063 7  21802276.422 7 116504709.666 7  90614747.841 7
R17  20240274.977 8  20240279.090 7 108309791.378 8  84241247.736 7
R24  19581141.859 8  19581146.086 7 104709168.706 8  81440524.608 7
> 2025 06 15 09 57 35.0000000  0 18
C19  23456812.883 7 122145794.360 7
C20  22756533.109 7 118499238.598 7
C29  22408024.703 7 116684462.399 7
E02  24621774.141 7  24621775.988 8 129388291.340 7  97881408.068 8
E04  26049265.086 6  26049266.625 7 136889816.740 6 103556266.671 7
E10  26391662.297 7  26391665.219 7 138689111.434 7 104917419.115 7
E11  24325184.969 7  24325182.863 7 127829702.300 7  96702333.742 7
E36  23499576.297 8  23499578.211 8 123491106.664 8  93420228.947 8
G02  22157891.406 7  22157893.430 5                 116440504.373 7  90732877.597 5
G08  20361219.555 8                  20361225.988 7 106998928.608 8                  83376029.688 7
G10  20703205.391 8                  20703211.000 8 108796071.125 8                  84776297.796 8
G23  22427467.320 7                  22427473.480 7 117857130.086 7                  91836669.505 7
G27  20328849.852 8                  20328856.004 8 106828820.216 8                  83243293.733 8
R01  19911656.500 7                 106439207.793 7
R08  21693408.258 6  21693416.215 6 116167234.122 6  90352247.523 6
R15  21803223.750 7  21803230.230 7 116509808.856 7  90618713.877 7
R17  20236677.859 8  20236682.855 7 108290545.959 8  84226279.105 7
R24  19580819.438 8  19580823.953 7 104707447.968 8  81439186.256 7
> 2025 06 15 09 57 40.0000000  0 18
C19  23752601.227 7 123686040.723 7
C20  23055025.875 7 120053566.582 7
C29  22708251.063 7 118247820.396 7
E02  24921411.547 7  24921413.359 8 130962896.251 7  99072586.455 8
E04  26346299.945 7  26346301.199 7 138450744.268 7 104737098.235 7
E10  26692267.883 7  26692270.648 8 140268803.956 7 106112446.245 8
E11  24625052.344 7  24625050.176 7 129405515.536 7  97894426.221 7
E36  23797228.680 8  23797230.609 8 125055280.475 8  94603516.276 8
G02  22454143.164 7  22454145.289 5                 117997317.277 7  91945978.558 5
G08  20658591.109 8                  20658597.844 7 108561627.230 8                  84593716.932 7
G10  21001983.727 8                  21001989.109 7 110366161.692 8                  85999745.009 7
G23  22728598.555 7                  22728604.668 7 119439586.749 7                  93069752.595 7
G27  20628691.500 8                  20628697.863 8 108404498.692 8                  84471095.129 8
R01  20208635.641 8                 108026731.006 8
R08  21994330.953 6  21994338.012 6 117778655.867 6  91605575.526 6
R15  22103972.906 7  22103980.867 7 118116924.911 7  91868693.029 7
R17  20532876.094 8  20532881.367 7 109875563.271 8  85459070.356 7
R24  19880293.969 8  19880297.102 7 106308865.187 8  82684732.982 7
> 2025 06 15 09 57 45.0000000  0 18
C19  23748598.227 7 123665195.955 7
C20  23053728.352 7 120046811.750 7
C29  22708687.305 7 118250089.831 7
E02  24921258.813 7  24921260.672 8 130962093.801 7  99071979.398 8
E04  26343543.320 7  26343545.117 7 138436261.129 7 104726141.849 7
E10  26693081.391 7  26693084.438 8 140273080.656 7 106115681.533 8
E11  24625128.289 7  24625126.156 7 129405914.753 7  97894728.224 7
E36  23795089.469 8  23795091.551 8 125044039.536 8  94595012.577 8
G02  22450602.367 7  22450605.223 5                 117978713.860 7  91931482.409 5
G08  20656172.734 8                  20656179.129 7 108548918.908 8                  84583814.335 7
G10  21000972.063 8                  21000977.770 8 110360847.046 8                  85995603.728 8
G23  22729939.742 7                  22729946.094 7 119446634.333 7                  93075244.196 7
G27  20628743.820 8                  20628750.020 8 108404772.835 8                  84471308.737 8
R01  20205826.250 8                 108011712.468 8
R08  21995465.047 6  21995470.586 6 117784722.743 6  91610294.136 6
R15  22104935.813 7  22104941.406 7 118122060.477 7  91872687.329 7
R17  20529282.328 8  20529288.059 7 109856336.193 8  85444115.962 7
R24  19879976.492 8  19879979.754 7 106307170.129 8  82683414.608 7
> 2025 06 15 09 57 50.0000000  0 18
C19  23744597.492 7 123644362.542 7
C20  23052434.086 7 120040073.772 7
C29  22709125.281 7 118252368.627 7
E02  24921108.758 7  24921110.461 9 130961304.518 7  99071382.304 9
E04  26340789.867 7  26340791.469 7 138421790.624 7 104715195.019 7
E10  26693895.813 7  26693898.973 8 140277361.014 7 106118919.592 8
E11  24625205.211 7  24625203.363 7 129406320.238 7  97895034.974 7
E36  23792951.539 8  23792953.996 8 125032806.460 8  94586514.833 8
G02  22447063.398 7  22447066.945 5                 117960118.142 7  91916992.262 5
G08  20653757.016 8                  20653763.691 7 108536226.485 8                  84573924.145 7
G10  20999963.797 8                  20999969.457 7 110355548.569 8                  85991475.053 7
G23  22731282.977 7                  22731289.008 7 119453691.745 7                  93080743.465 7
G27  20628798.844 8                  20628805.102 8 108405062.915 8                  84471534.766 8
R01  20203020.531 8                 107996718.182 8
R08  21996602.281 6  21996606.359 6 117790808.862 6  91615027.724 6
R15  22105899.352 7  22105905.949 7 118127214.826 7  91876696.261 7
R17  20525691.664 8  20525696.637 7 109837118.948 8  85429169.219 7
R24  19879661.555 8  19879665.438 7 106305488.680 8  82682106.821 7
> 2025 06 15 09 57 55.0000000  0 18
C19  23740598.320 7 123623539.460 7
C20  23051142.828 7 120033351.562 7
C29  22709564.641 7 118254655.682 7
E02  24920961.070 8  24920962.621 8 130960527.285 8  99070794.328 8
E04  26338038.578 7  26338039.984 7 138407331.659 7 104704256.907 7
E10  26694710.813 7  26694714.035 7 140281643.980 7 106122159.617 7
E11  24625282.938 7  24625281.516 7 129406730.881 7  97895345.619 7
E36  23790815.109 8  23790817.703 8 125021580.135 8  94578022.185 8
G02  22443525.688 7  22443529.785 5                 117941529.097 7  91902507.313 5
G08  20651345.016 8                  20651351.242 7 108523548.934 8                  84564045.531 7
G10  20998958.602 8                  20998964.066 7 110350265.156 8                  85987358.098 7
G23  22732627.203 7                  22732633.531 7 119460757.906 7                  93086249.561 7
G27  20628856.820 8                  20628863.160 8 108405367.852 8                  84471772.365 8
R01  20200219.922 8                 107981747.075 8
R08  21997742.930 6  21997746.164 5 117796913.120 6  91619775.467 5
R15  22106866.266 7  22106873.539 7 118132386.822 7  91880718.927 7
R17  20522102.125 8  20522107.238 7 109817910.481 8  85414229.308 7
R24  19879349.656 8  19879353.484 7 106303819.697 8  82680808.711 7
> 2025 06 15 09 58  0.0000000  0 18
C19  23736601.430 7 123602725.616 7
C20  23049854.547 7 120026644.081 7
C29  22710006.078 7 118256949.949 7
E02  24920814.852 8  24920816.824 8 130959761.061 8  99070214.676 8
E04  26335289.461 7  26335290.566 7 138392883.181 7 104693326.738 7
E10  26695525.914 7  26695529.352 8 140285928.450 7 106125400.782 8
E11  24625361.828 7  24625360.426 7 129407145.612 7  97895659.368 7
E36  23788679.688 8  23788682.516 8 125010359.512 8  94569533.861 8
G02  22439989.703 7  22439993.500 5                 117922945.654 7  91888026.724 5
G08  20648935.023 7                  20648941.676 7 108510885.158 7                  84554177.662 7
G10  20997955.898 8                  20997961.301 7 110344995.781 8                  85983252.096 7
G23  22733973.664 7                  22733979.906 7 119467831.766 7                  93091761.642 7
G27  20628916.836 8                  20628923.543 8 108405686.579 8                  84472020.716 8
R01  20197422.664 7                 107966798.096 7
R08  21998883.656 6  21998888.918 6 117803034.411 6  91624536.474 6
R15  22107837.477 7  22107844.219 7 118137575.341 7  91884754.417 7
R17  20518514.227 8  20518518.922 7 109798709.561 8  85399295.269 7
R24  19879039.258 8  19879043.211 7 106302161.994 8  82679519.379 7
> 2025 06 15 09 58  5.0000000  0 18
C19  23732607.078 7 123581923.392 7
C20  23048570.031 7 120019953.642 7
C29  22710448.344 7 118259253.778 7
E02  24920671.477 8  24920673.523 8 130959008.167 8  99069645.121 8
E04  26332542.094 7  26332543.586 7 138378447.525 7 104682406.264 7
E10  26696341.820 7  26696345.445 8 140290216.827 7 106128644.908 8
E11  24625441.672 7  24625440.613 7 129407566.856 7  97895978.026 7
E36  23786546.070 8  23786548.844 8 124999146.952 8  94561051.623 8
G02  22436455.063 7  22436458.762 5                 117904370.170 7  91873552.311 5
G08  20646528.438 8                  20646534.855 7 108498237.536 8                  84544322.393 7
G10  20996956.125 8                  20996961.660 7 110339742.781 8                  85979158.841 7
G23  22735321.172 7                  22735327.313 7 119474915.622 7                  93097281.522 7
G27  20628980.711 8                  20628987.039 8 108406021.452 8                  84472281.650 8
R01  20194630.555 7                 107951873.600 7
R08  22000030.141 6  22000035.379 6 117809175.126 6  91629312.625 6
R15  22108812.664 7  22108818.738 7 118142782.917 7  91888804.737 7
R17  20514927.547 8  20514932.461 7 109779518.707 8  85384369.044 7
R24  19878731.836 8  19878735.434 7 106300518.041 8  82678240.739 7
> 2025 06 15 09 58 10.0000000  0 18
C19  23728613.406 7 123561131.460 7
C20  23047287.953 7 120013278.947 7
C29  22710892.289 7 118261565.798 7
E02  24920530.258 8  24920532.574 8 130958267.273 8  99069084.641 8
E04  26329796.945 7  26329798.824 7 138364023.369 7 104671494.481 7
E10  26697158.359 7  26697162.043 8 140294507.711 7 106131890.922 8
E11  24625522.734 7  24625521.703 7 129407993.181 7  97896300.538 7
E36  23784413.828 8  23784416.445 8 124987941.073 8  94552574.444 8
G02  22432921.828 7  22432925.277 5                 117885801.266 7  91859083.045 5
G08  20644124.188 7                  20644131.039 7 108485604.710 7                  84534478.626 7
G10  20995959.484 8                  20995964.914 7 110334504.773 8                  85975077.276 7
G23  22736671.586 7                  22736677.191 7 119482008.136 7                  93102808.149 7
G27  20629047.258 8                  20629053.480 8 108406371.100 8                  84472554.104 8
R01  20191842.680 8                 107936972.341 8
R08  22001179.203 6  22001185.547 6 117815333.694 6  91634102.674 6
R15  22109790.438 7  22109796.734 7 118148007.943 7  91892868.641 7
R17  20511344.242 8  20511347.941 7 109760336.651 8  85369449.645 7
R24  19878426.180 8  19878430.422 7 106298886.479 8  82676971.738 7
> 2025 06 15 09 58 15.0000000  0 18
C19  23724622.672 7 123540349.966 7
C20  23046009.148 7 120006620.144 7
C29  22711338.188 7 118263886.217 7
E02  24920391.430 7  24920393.918 8 130957538.544 7  99068533.352 8
E04  26327053.953 7  26327056.254 7 138349610.875 7 104660591.537 7
E10  26697975.336 7  26697979.113 8 140298801.303 7 106135138.988 8
E11  24625604.938 7  24625603.813 7 129408424.764 7  97896627.023 7
E36  23782282.828 8  23782285.359 8 124976742.082 8  94544102.492 8
G02  22429389.672 7  22429392.680 5                 117867239.115 7  91844619.025 5
G08  20641723.570 8                  20641729.734 7 108472986.897 8                  84524646.557 7
G10  20994965.750 8                  20994970.930 7 110329281.964 8                  85971007.565 7
G23  22738022.625 7                  22738028.406 7 119489109.491 7                  93108341.663 7
G27  20629116.805 8                  20629122.707 8 108406735.715 8                  84472838.225 8
R01  20189059.984 8                 107922094.322 8
R08  22002334.500 6  22002339.156 6 117821510.561 6  91638906.901 6
R15  22110771.859 7  22110777.707 7 118153250.696 7  91896946.355 7
R17  20507760.953 8  20507764.766 7 109741163.284 8  85354537.010 7
R24  19878124.086 8  19878128.043 7 106297267.424 8  82675712.468 7
> 2025 06 15 09 58 20.0000000  0 18
C19  23720634.227 7 123519580.081 7
C20  23044734.320 7 119999978.342 7
C29  22711785.109 7 118266216.131 7
E02  24920256.016 7  24920257.742 8 130956823.133 7  99067992.129 8
E04  26324313.695 7  26324316.102 7 138335211.211 7 104649698.292 7
E10  26698793.445 7  26698796.934 8 140303098.715 7 106138389.951 8
E11  24625688.289 7  24625687.184 7 129408862.810 7  97896958.394 7
E36  23780153.211 8  23780155.805 8 124965551.109 8  94535636.599 8
G02  22425858.805 7  22425862.020 5                 117848684.853 7  91830161.167 5
G08  20639325.609 8                  20639331.730 7 108460385.200 8                  84514827.035 7
G10  20993975.313 8                  20993980.172 7 110324075.471 8                  85966950.558 7
G23  22739375.852 7                  22739381.203 7 119496220.788 7                  93113882.926 7
G27  20629189.055 8                  20629195.117 8 108407116.438 8                  84473134.885 8
R01  20186281.492 7                 107907240.823 7
R08  22003491.453 6  22003496.184 5 117827706.835 6  91643726.214 5
R15  22111756.398 7  22111762.523 7 118158512.371 7  91901038.770 7
R17  20504179.703 8  20504183.219 7 109721999.997 8  85339632.244 7
R24  19877823.258 8  19877828.105 7 106295662.105 8  82674463.875 7
> 2025 06 15 09 58 25.0000000  0 18
C19  23716647.672 7 123498819.915 7
C20  23043461.469 7 119993351.674 7
C29  22712233.492 7 118268553.661 7
E02  24920122.391 7  24920123.742 8 130956119.112 7  99067459.521 8
E04  26321575.359 7  26321578.020 8 138320822.473 7 104638813.306 8
E10  26699611.625 7  26699615.129 8 140307398.102 7 106141642.397 8
E11  24625773.016 7  24625771.445 7 129409305.371 7  97897293.175 7
E36  23778024.609 8  23778027.395 8 124954366.251 8  94527175.329 8
G02  22422329.719 7  22422332.137 5                 117830136.644 7  91815708.025 5
G08  20636930.211 8                  20636936.359 7 108447797.749 8                  84505018.637 7
G10  20992987.203 8                  20992992.406 7 110318883.425 8                  85962904.801 7
G23  22740730.055 7                  22740735.660 7 119503340.131 7                  93119430.469 7
G27  20629263.953 8                  20629270.266 8 108407511.355 8                  84473442.617 8
R01  20183507.008 7                 107892409.914 7
R08  22004653.516 6  22004656.473 5 117833920.339 6  91648558.929 5
R15  22112743.766 7  22112749.836 7 118163790.882 7  91905144.264 7
R17  20500599.961 8  20500603.547 7 109702844.786 8  85324733.758 7
R24  19877525.797 8  19877530.320 7 106294068.672 8  82673224.536 7
> 2025 06 15 09 58 30.0000000  0 18
C19  23712663.047 6 123478070.325 6
C20  23042192.336 7 119986740.975 7
C29  22712684.133 7 118270899.646 7
E02  24919990.938 8  24919992.121 8 130955427.320 8  99066936.170 8
E04  26318839.602 7  26318842.246 8 138306445.545 7 104627937.248 8
E10  26700430.117 7  26700433.867 8 140311700.237 7 106144896.922 8
E11  24625858.156 7  24625856.656 7 129409753.279 7  97897632.015 7
E36  23775897.359 8  23775900.320 8 124943188.375 8  94518719.333 8
G02  22418801.703 7  22418803.816 5                 117811595.317 7  91801260.223 5
G08  20634537.516 8                  20634543.773 7 108435225.378 8                  84495221.987 7
G10  20992001.977 8                  20992007.508 7 110313706.615 8                  85958870.920 7
G23  22742085.656 7                  22742092.383 7 119510468.331 7                  93124984.914 7
G27  20629342.656 8                  20629348.277 7 108407921.293 8                  84473762.046 7
R01  20180736.820 7                 107877602.437 7
R08  22005818.195 6  22005820.367 5 117840152.107 6  91653405.821 5
R15  22113735.797 7  22113740.918 7 118169087.225 7  91909263.598 7
R17  20497022.672 8  20497025.820 7 109683698.635 8  85309842.298 7
R24  19877230.117 8  19877234.844 7 106292487.776 8  82671994.941 7
> 2025 06 15 09 58 35.0000000  0 18
C19  23708680.852 7 123457332.116 7
C20  23040925.977 7 119980147.042 7
C29  22713135.914 7 118273254.901 7
E02  24919861.703 8  24919862.965 8 130954748.562 8  99066422.688 8
E04  26316106.445 7  26316108.820 8 138292081.197 7 104617070.707 8
E10  26701249.539 7  26701253.355 8 140316005.966 7 106148154.167 8
E11  24625944.438 7  24625943.070 7 129410207.326 7  97897975.499 7
E36  23773771.773 8  23773774.699 8 124932018.247 8  94510269.198 8
G02  22415274.469 7  22415276.836 5                 117793061.641 7  91786818.401 5
G08  20632148.086 8                  20632154.824 7 108422668.913 8                  84485437.729 7
G10  20991019.844 8                  20991025.449 7 110308545.832 8                  85954849.533 7
G23  22743444.453 6                  22743450.734 7 119517606.227 6                  93130546.896 7
G27  20629423.352 8                  20629429.121 7 108408347.070 8                  84474093.813 7
R01  20177971.281 7                 107862819.114 7
R08  22006986.563 6  22006988.070 5 117846402.786 6  91658267.472 5
R15  22114729.930 8  22114735.668 7 118174402.032 8  91913397.327 7
R17  20493445.648 8  20493449.719 7 109664562.297 8  85294958.498 7
R24  19876936.391 8  19876941.496 7 106290920.204 8  82670775.698 7
> 2025 06 15 09 58 40.0000000  0 18
C19  23704700.016 7 123436603.135 7
C20  23039662.461 7 119973567.729 7
C29  22713589.672 7 118275617.227 7
E02  24919735.148 8  24919735.859 8 130954080.647 8  99065917.400 8
E04  26313375.547 7  26313377.363 8 138277727.256 7 104606212.048 8
E10  26702069.391 7  26702073.098 8 140320313.107 7 106151412.468 8
E11  24626031.555 7  24626030.219 7 129410665.370 7  97898322.001 7
E36  23771647.313 8  23771650.152 8 124920853.731 8  94501823.318 8
G02  22411748.961 8  22411750.625 5                 117774533.470 8  91772380.885 5
G08  20629761.219 8                  20629767.930 7 108410126.188 8                  84475664.192 7
G10  20990040.297 8                  20990046.094 7 110303398.951 8                  85950838.980 7
G23  22744804.156 6                  22744810.191 7 119524751.597 6                  93136114.722 7
G27  20629507.172 8                  20629513.031 8 108408786.497 8                  84474436.220 8
R01  20175210.406 7                 107848057.986 7
R08  22008159.836 6  22008157.285 5 117852670.426 6  91663142.257 5
R15  22115727.852 8  22115733.102 7 118179733.239 8  91917543.794 7
R17  20489870.672 8  20489874.910 7 109645433.491 8  85280080.554 7
R24  19876646.164 8  19876650.879 7 106289363.955 8  82669565.273 7
> 2025 06 15 09 58 45.0000000  0 18
C19  23700721.375 7 123415885.262 7
C20  23038401.133 7 119967004.869 7
C29  22714045.180 7 118277988.511 7
E02  24919610.453 8  24919611.215 8 130953425.440 8  99065421.737 8
E04  26310646.578 7  26310648.223 8 138263385.565 7 104595362.674 8
E10  26702889.570 7  26702893.414 8 140324623.515 7 106154673.244 8
E11  24626120.109 7  24626118.504 7 129411129.251 7  97898672.920 7
E36  23769524.461 8  23769527.047 8 124909696.659 8  94493383.067 8
G02  22408223.891 8  22408226.230 5                 117756012.674 8  91757949.104 5
G08  20627377.508 8                  20627384.410 7 108397599.063 8                  84465902.792 7
G10  20989064.039 8                  20989069.559 7 110298267.821 8                  85946840.690 7
G23  22746166.648 7                  22746171.617 7 119531906.325 7                  93141689.832 7
G27  20629594.102 8                  20629599.762 8 108409241.444 8                  84474790.727 8
R01  20172453.781 7                 107833320.800 7
R08  22009334.102 6  22009331.539 5 117858956.677 6  91668031.537 5
R15  22116729.273 7  22116734.211 7 118185082.619 7  91921704.417 7
R17  20486297.328 8  20486302.820 7 109626314.193 8  85265209.993 7
R24  19876358.133 8  19876362.734 7 106287820.860 8  82668365.081 7
> 2025 06 15 09 58 50.0000000  0 18
C19  23696744.102 7 123395178.256 7
C20  23037143.555 7 119960458.249 7
C29  22714502.297 7 118280368.505 7
E02  24919487.516 8  24919488.898 8 130952782.724 8  99064935.525 8
E04  26307919.813 7  26307921.379 8 138249055.977 7 104584522.441 8
E10  26703710.367 7  26703714.340 8 140328936.961 7 106157936.308 8
E11  24626209.195 7  24626207.836 7 129411598.769 7  97899028.102 7
E36  23767402.789 8  23767405.277 8 124898546.840 8  94484948.299 8
G02  22404700.844 7  22404703.168 5                 117737499.020 7  91743522.874 5
G08  20624996.313 8                  20625003.492 8 108385087.355 8                  84456153.395 8
G10  20988090.359 8                  20988096.141 7 110293152.181 8                  85942854.464 7
G23  22747529.305 7                  22747535.082 7 119539070.116 7                  93147272.000 7
G27  20629683.352 8                  20629689.422 8 108409711.656 8                  84475157.109 8
R01  20169701.813 8                 107818607.282 8
R08  22010505.742 5  22010508.797 5 117865261.299 5  91672935.183 5
R15  22117732.594 7  22117738.891 7 118190449.890 7  91925878.978 7
R17  20482726.797 8  20482731.477 7 109607204.192 8  85250346.659 7
R24  19876071.086 8  19876076.477 7 106286290.622 8  82667174.907 7
> 2025 06 15 09 58 55.0000000  0 18
C19  23692769.750 7 123374482.396 7
C20  23035889.344 7 119953928.088 7
C29  22714960.633 7 118282757.439 7
E02  24919366.891 7  24919369.051 8 130952152.729 7  99064458.933 8
E04  26305195.523 7  26305196.887 8 138234738.716 7 104573691.536 8
E10  26704532.008 7  26704535.863 8 140333253.693 7 106161201.874 8
E11  24626299.563 7  24626298.285 7 129412074.173 7  97899387.739 7
E36  23765282.461 8  23765284.945 8 124887404.479 8  94476519.170 8
G02  22401179.750 7  22401181.645 5                 117718992.753 7  91729102.415 5
G08  20622619.086 8                  20622625.980 8 108372591.271 8                  84446416.180 8
G10  20987119.758 8                  20987125.527 7 110288052.299 8                  85938880.545 7
G23  22748894.313 7                  22748900.066 7 119546243.277 7                  93152861.461 7
G27  20629776.133 8                  20629781.891 8 108410197.396 8                  84475535.606 8
R01  20166953.719 8                 107803917.889 8
R08  22011686.078 5  22011690.078 6 117871584.548 5  91677853.303 6
R15  22118739.531 7  22118746.340 7 118195835.381 7  91930067.680 7
R17  20479157.141 8  20479161.934 7 109588103.699 8  85235490.717 7
R24  19875787.328 8  19875792.375 7 106284773.548 8  82665994.966 7
> 2025 06 15 09 59  0.0000000  0 18
C19  23688796.898 7 123353797.276 7
C20  23034638.156 7 119947414.010 7
C29  22715421.078 7 118285154.954 7
E02  24919249.141 7  24919251.504 8 130951535.073 7  99063991.680 8
E04  26302472.797 7  26302474.691 8 138220433.398 7 104562869.667 8
E10  26705354.047 7  26705357.957 8 140337573.315 7 106164469.616 8
E11  24626390.984 7  24626389.754 7 129412555.021 7  97899751.493 7
E36  23763163.406 8  23763165.957 8 124876269.218 8  94468095.413 8
G02  22397658.992 7  22397661.773 5                 117700493.532 7  91714687.438 5
G08  20620244.398 8                  20620251.020 8 108360110.422 8                  84436690.840 8
G10  20986152.164 8                  20986157.941 7 110282967.750 8                  85934918.563 7
G23  22750261.672 7                  22750266.691 7 119553425.372 7                  93158457.877 7
G27  20629871.461 8                  20629877.313 8 108410698.290 8                  84475925.913 8
R01  20164209.867 8                 107789251.958 8
R08  22012869.477 5  22012875.457 5 117877926.073 5  91682785.593 5
R15  22119751.109 7  22119757.570 7 118201238.714 7  91934270.249 7
R17  20475590.000 8  20475594.070 7 109569012.362 8  85220641.911 7
R24  19875506.727 8  19875511.566 7 106283269.148 8  82664824.871 7
> 2025 06 15 09 59  5.0000000  0 18
C19  23684826.578 7 123333123.102 7
C20  23033389.703 7 119940916.186 7
C29  22715882.859 7 118287561.199 7
E02  24919133.992 7  24919136.285 8 130950929.893 7  99063533.858 8
E04  26299752.664 7  26299754.758 8 138206140.191 7 104552056.959 8
E10  26706176.727 7  26706180.660 8 140341895.993 7 106167739.669 8
E11  24626483.109 7  24626482.293 7 129413041.499 7  97900119.504 7
E36  23761046.117 8  23761048.352 8 124865141.189 8  94459677.128 8
G02  22394139.461 7  22394142.980 5                 117682001.472 7  91700278.036 5
G08  20617871.922 8                  20617878.777 8 108347645.004 8                  84426977.519 8
G10  20985187.297 8                  20985193.375 7 110277898.720 8                  85930968.687 7
G23  22751629.797 7                  22751635.395 7 119560616.515 7                  93164061.356 7
G27  20629969.344 8                  20629975.191 7 108411214.443 8                  84476328.111 7
R01  20161469.195 7                 107774609.960 7
R08  22014058.031 5  22014063.305 6 117884285.970 5  91687732.140 6
R15  22120765.859 7  22120772.145 7 118206659.990 7  91938486.765 7
R17  20472022.609 8  20472028.406 7 109549930.287 8  85205800.305 7
R24  19875227.680 8  19875232.012 7 106281777.766 8  82663664.911 7
> 2025 06 15 09 59 10.0000000  0 18
C19  23680858.375 7 123312460.084 7
C20  23032144.961 7 119934434.845 7
C29  22716346.813 7 118289976.399 7
E02  24919021.430 7  24919023.551 8 130950337.464 7  99063085.675 8
E04  26297034.758 7  26297037.199 8 138191859.312 7 104541253.584 8
E10  26707000.141 7  26707004.000 8 140346221.986 7 106171012.238 8
E11  24626576.727 7  24626575.988 7 129413533.875 7  97900491.972 7
E36  23758929.938 8  23758932.199 8 124854020.681 8  94451264.535 8
G02  22390621.539 7  22390625.637 5                 117663516.834 7  91685874.434 5
G08  20615502.602 8                  20615509.461 7 108335195.262 8                  84417276.416 7
G10  20984225.742 8                  20984231.988 7 110272845.456 8                  85927031.083 7
G23  22753000.352 7                  22753005.570 7 119567817.021 7                  93169672.128 7
G27  20630070.820 8                  20630076.313 7 108411746.153 8                  84476742.431 7
R01  20158735.398 7                 107759992.026 7
R08  22015250.125 5  22015254.523 6 117890664.602 5  91692693.248 6
R15  22121785.000 7  22121789.672 7 118212099.375 7  91942717.378 7
R17  20468458.984 8  20468464.293 7 109530857.830 8  85190966.169 7
R24  19874951.000 8  19874955.930 7 106280299.474 8  82662515.135 7
> 2025 06 15 09 59 15.0000000  0 18
C19  23676891.203 7 123291804.248 7
C20  23030902.539 7 119927965.981 7
C29  22716811.344 7 118292396.587 7
E02  24918910.961 7  24918912.430 8 130949753.734 7  99062644.072 8
E04  26294318.664 7  26294321.211 8 138177586.793 7 104530456.530 8
E10  26707822.906 7  26707827.164 8 140350547.209 7 106174284.226 8
E11  24626671.102 7  24626670.031 7 129414028.060 7  97900865.811 7
E36  23756814.477 8  23756816.668 8 124842903.623 8  94442854.550 8
G02  22387104.641 7  22387109.012 5                 117645035.636 7  91671473.506 5
G08  20613135.727 8                  20613142.695 8 108322757.149 8                  84407584.381 8
G10  20983266.203 8                  20983272.531 7 110267803.876 8                  85923102.592 7
G23  22754371.391 7                  22754376.594 7 119575022.774 7                  93175286.994 7
G27  20630173.656 8                  20630179.430 7 108412289.329 8                  84477165.684 7
R01  20156004.203 7                 107745393.968 7
R08  22016445.336 5  22016447.500 6 117897057.610 5  91697665.547 6
R15  22122805.742 7  22122810.566 7 118217552.761 7  91946958.867 7
R17  20464896.672 8  20464900.527 7 109511790.923 8  85176136.362 7
R24  19874676.000 8  19874680.926 7 106278830.317 8  82661372.464 7
> 2025 06 15 09 59 20.0000000  0 18
C19  23672926.258 7 123271157.451 7
C20  23029663.094 7 119921511.431 7
C29  22717277.109 7 118294823.547 7
E02  24918802.430 7  24918803.328 8 130949180.491 7  99062210.413 8
E04  26291604.273 7  26291607.211 8 138163324.406 7 104519667.152 8
E10  26708646.289 7  26708650.480 8 140354873.535 7 106177557.040 8
E11  24626766.078 7  24626764.750 7 129414525.942 7  97901242.446 7
E36  23754700.141 8  23754702.180 8 124831791.854 8  94434448.566 8
G02  22383588.617 7  22383592.609 5                 117626559.688 7  91657076.648 5
G08  20610771.352 8                  20610778.281 8 108310332.546 8                  84397902.874 8
G10  20982309.539 8                  20982315.945 8 110262775.885 8                  85919184.671 8
G23  22755744.188 7                  22755748.832 6 119582235.662 7                  93180907.406 6
G27  20630279.914 8                  20630285.148 7 108412845.850 8                  84477599.322 7
R01  20153278.313 7                 107730817.742 7
R08  22017640.383 5  22017645.039 6 117903466.865 5  91702650.566 6
R15  22123829.094 7  22123833.730 7 118223022.058 7  91951212.739 7
R17  20461335.000 8  20461339.324 7 109492731.288 8  85161312.212 7
R24  19874402.859 8  19874408.191 7 106277372.039 8  82660238.246 7
> 2025 06 15 09 59 25.0000000  0 18
C19  23668962.977 7 123250520.827 7
C20  23028426.430 7 119915072.332 7
C29  22717744.414 7 118297258.448 7
E02  24918695.102 7  24918696.488 8 130948618.978 7  99061785.616 8
E04  26288892.383 7  26288895.309 8 138149073.384 7 104508886.370 8
E10  26709470.219 7  26709474.176 8 140359202.131 7 106180831.585 8
E11  24626861.648 7  24626860.402 7 129415028.667 7  97901622.748 7
E36  23752587.219 8  23752588.914 8 124820686.542 8  94426047.479 8
G02  22380074.703 7  22380077.844 5                 117608090.126 7  91642684.769 5
G08  20608409.602 7                  20608416.805 8 108297922.590 7                  84388232.781 8
G10  20981355.266 8                  20981361.742 8 110257762.585 8                  85915278.203 8
G23  22757118.898 7                  22757122.816 6 119589456.801 7                  93186534.273 6
G27  20630388.500 8                  20630393.934 7 108413416.861 8                  84478044.257 7
R01  20150555.930 7                 107716264.523 7
R08  22018839.203 5  22018844.621 6 117909893.692 5  91707649.176 6
R15  22124854.773 7  22124860.160 7 118228508.414 7  91955479.874 7
R17  20457774.586 8  20457779.160 7 109473680.163 8  85146494.685 7
R24  19874133.641 8  19874137.676 7 106275925.978 8  82659113.520 7
> 2025 06 15 09 59 30.0000000  0 18
C19  23665002.094 7 123229895.662 7
C20  23027193.016 7 119908649.942 7
C29  22718214.422 7 118299702.545 7
E02  24918590.602 7  24918592.066 8 130948070.361 7  99061370.594 8
E04  26286182.641 7  26286185.773 8 138134834.982 7 104498115.123 8
E10  26710294.328 7  26710298.602 8 140363534.227 7 106184108.769 8
E11  24626958.656 7  24626957.184 7 129415537.464 7  97902007.646 7
E36  23750475.109 8  23750477.102 8 124809588.975 8  94417652.236 8
G02  22376561.789 7  22376564.492 5                 117589628.227 7  91628298.866 5
G08  20606051.391 8                  20606058.113 8 108285528.563 8                  84378575.107 8
G10  20980404.563 8                  20980410.813 8 110252765.274 8                  85911384.199 8
G23  22758494.180 7                  22758498.863 6 119596687.470 7                  93192168.546 6
G27  20630500.000 8                  20630505.379 7 108414003.623 8                  84478501.470 7
R01  20147838.070 7                 107701735.655 7
R08  22020043.680 6  22020048.012 6 117916339.356 6  91712662.417 6
R15  22125883.641 7  22125890.527 7 118234012.927 7  91959761.187 7
R17  20454216.727 8  20454220.727 7 109454638.888 8  85131684.810 7
R24  19873865.445 8  19873869.270 7 106274493.284 8  82657999.194 7
> 2025 06 15 09 59 35.0000000  0 18
C19  23661043.258 7 123209281.141 7
C20  23025962.609 7 119902243.438 7
C29  22718685.531 7 118302155.021 7
E02  24918488.469 7  24918489.988 8 130947533.865 7  99060964.746 8
E04  26283476.023 7  26283478.570 8 138120608.400 7 104487352.820 8
E10  26711119.102 7  26711123.492 8 140367869.054 7 106187388.027 8
E11  24627056.328 7  24627054.996 8 129416051.566 7  97902396.561 8
E36  23748364.445 8  23748366.621 8 124798498.297 8  94409262.220 8
G02  22373049.531 7  22373052.527 5                 117571173.157 7  91613918.297 5
G08  20603695.516 8                  20603702.480 8 108273149.661 8                  84368929.222 8
G10  20979456.281 8                  20979462.949 8 110247783.090 8                  85907501.976 8
G23  22759871.594 7                  22759876.699 6 119603926.803 7                  93197809.555 6
G27  20630614.703 8                  20630619.688 7 108414605.309 8                  84478970.320 7
R01  20145124.711 7                 107687230.246 7
R08  22021250.805 6  22021255.297 6 117922802.829 6  91717689.524 6
R15  22126916.281 6  22126923.512 7 118239535.009 6  91964056.167 7
R17  20450659.781 8  20450664.758 7 109435606.655 8  85116881.974 7
R24  19873599.664 8  19873603.766 7 106273073.066 8  82656894.575 7
> 2025 06 15 09 59 40.0000000  0 19
C19  23657086.422 7 123188676.293 7
C20  23024735.617 7 119895851.866 7
C29  22719158.344 7 118304614.907 7
E02  24918388.234 7  24918390.055 8 130947008.516 7  99060567.313 8
E04  26280770.867 7  26280773.371 8 138106392.639 7 104476598.701 8
E10  26711944.148 7  26711948.660 8 140372205.589 7 106190668.576 8
E11  24627154.656 7  24627153.707 7 129416569.953 7  97902788.712 7
E34  27039780.875 6  27039785.066 7 142095005.21116 107493966.82117
E36  23746255.016 8  23746257.289 8 124787413.577 8  94400876.703 8
G02  22369539.250 7  22369541.750 5                 117552723.970 7  91599542.313 5
G08  20601342.688 8                  20601349.434 7 108260784.915 8                  84359294.362 7
G10  20978511.227 8                  20978517.313 8 110242815.113 8                  85903630.814 8
G23  22761250.492 7                  22761255.809 6 119611173.837 7                  93203456.572 6
G27  20630731.891 8                  20630736.527 7 108415220.949 8                  84479450.033 7
R01  20142415.133 7                 107672747.420 7
R08  22022461.539 5  22022465.070 6 117929283.413 5  91722729.965 6
R15  22127953.094 6  22127960.926 7 118245073.605 6  91968363.975 7
R17  20447104.875 8  20447109.484 7 109416582.403 8  85102085.323 7
R24  19873335.977 8  19873340.539 7 106271664.488 8  82655798.995 7
> 2025 06 15 09 59 45.0000000  0 19
C19  23653131.461 7 123168083.144 7
C20  23023512.406 7 119889477.216 7
C29  22719632.930 7 118307084.188 7
E02  24918290.781 7  24918292.609 8 130946496.328 7  99060179.842 8
E04  26278068.164 7  26278070.688 8 138092189.736 7 104465854.313 8
E10  26712770.070 7  26712774.602 8 140376545.867 7 106193951.952 8
E11  24627254.961 7  24627253.586 7 129417094.643 7  97903185.632 7
E34  27036071.305 6  27036076.258 7 142075514.894 6 107479222.531 7
E36  23744147.141 8  23744149.441 8 124776336.785 8  94392497.186 8
G02  22366030.539 7  22366032.238 5                 117534282.646 7  91585172.447 5
G08  20598993.227 8                  20598999.461 7 108248436.337 8                  84349672.095 7
G10  20977568.977 8                  20977574.984 8 110237863.288 8                  85899772.231 8
G23  22762632.039 7                  22762636.738 6 119618430.559 7                  93209111.165 6
G27  20630852.055 8                  20630856.750 7 108415852.541 8                  84479942.183 7
R01  20139709.727 7                 107658289.116 7
R08  22023674.367 5  22023679.668 6 117935782.730 5  91727785.044 6
R15  22128992.922 6  22129000.898 7 118250630.776 6  91972686.192 7
R17  20443550.445 8  20443555.707 7 109397568.301 8  85087296.585 7
R24  19873075.570 8  19873080.031 7 106270269.509 8  82654714.004 7
> 2025 06 15 09 59 50.0000000  0 19
C19  23649178.977 7 123147499.772 7
C20  23022291.867 7 119883117.557 7
C29  22720108.945 7 118309560.958 7
E02  24918195.445 7  24918197.313 8 130945995.339 7  99059800.846 8
E04  26275367.422 7  26275370.063 8 138077997.729 7 104455118.155 8
E10  26713596.750 7  26713600.824 8 140380887.921 7 106197236.679 8
E11  24627355.695 7  24627354.324 7 129417623.698 7  97903585.863 7
E34  27032361.305 6  27032367.895 7 142056026.849 6 107464479.984 7
E36  23742040.523 8  23742042.762 8 124765265.987 8  94384122.196 8
G02  22362521.906 7  22362523.652 5                 117515847.291 7  91570807.241 5
G08  20596646.164 8                  20596652.063 7 108236101.968 8                  84340060.913 7
G10  20976629.211 8                  20976635.133 8 110232925.681 8                  85895924.728 8
G23  22764014.828 7                  22764019.141 6 119625695.029 7                  93214771.762 6
G27  20630974.781 8                  20630979.781 7 108416498.110 8                  84480445.224 7
R01  20137008.914 7                 107643853.393 7
R08  22024892.727 5  22024895.613 6 117942299.239 5  91732853.399 6
R15  22130035.500 7  22130043.590 7 118256204.264 7  91977021.086 7
R17  20439997.672 8  20440003.691 7 109378562.325 8  85072514.180 7
R24  19872815.305 8  19872821.059 7 106268886.157 8  82653638.082 7
> 2025 06 15 09 59 55.0000000  0 19
C19  23645227.992 7 123126925.909 7
C20  23021074.109 7 119876772.621 7
C29  22720585.531 7 118312044.941 7
E02  24918102.219 7  24918104.094 8 130945505.300 7  99059430.126 8
E04  26272668.352 7  26272671.355 8 138063816.419 7 104444390.091 8
E10  26714423.031 7  26714427.352 8 140385231.551 7 106200522.579 8
E11  24627456.914 7  24627455.891 7 129418156.852 7  97903989.194 7
E34  27028653.172 6  27028659.906 7 142036540.859 6 107449738.979 7
E36  23739934.945 8  23739937.145 8 124754200.956 8  94375751.578 8
G02  22359015.375 7  22359016.617 5                 117497417.662 7  91556446.490 5
G08  20594300.922 8                  20594307.910 7 108223781.604 8                  84330460.640 7
G10  20975691.602 8                  20975698.383 8 110228002.034 8                  85892088.115 8
G23  22765397.914 7                  22765402.559 6 119632967.010 7                  93220438.235 6
G27  20631100.047 8                  20631105.535 7 108417157.441 8                  84480958.986 7
R01  20134313.508 7                 107629440.165 7
R08  22026111.734 5  22026116.148 6 117948832.266 5  91737934.626 6
R15  22131083.047 6  22131090.336 7 118261793.932 6  91981368.590 7
R17  20436447.961 8  20436453.465 7 109359564.150 8  85057737.810 7
R24  19872559.852 8  19872565.219 7 106267514.245 8  82652571.031 7
> 2025 06 15 10 00  0.0000000  0 19
C19  23641279.031 7 123106363.203 7
C20  23019858.758 7 119870444.031 7
C29  22721064.195 7 118314537.729 7
E02  24918011.422 7  24918013.203 8 130945027.772 7  99059068.876 8
E04  26269972.523 7  26269975.082 8 138049647.364 7 104433671.300 8
E10  26715250.039 7  26715254.461 8 140389578.277 7 106203810.841 8
E11  24627559.586 7  24627558.449 7 129418695.724 7  97904396.844 7
E34  27024946.336 6  27024952.586 7 142017058.521 6 107435000.732 7
E36  23737830.930 8  23737832.918 8 124743143.252 8  94367386.495 8
G02  22355509.898 7  22355510.934 5                 117478995.326 7  91542091.415 5
G08  20591959.742 8                  20591966.258 7 108211476.813 8                  84320872.496 7
G10  20974758.016 8                  20974764.504 8 110223093.953 8                  85888263.626 8
G23  22766783.477 7                  22766788.156 6 119640248.003 7                  93226111.732 6
G27  20631228.641 8                  20631233.867 7 108417832.098 8                  84481484.707 7
R01  20131620.688 7                 107615050.843 7
R08  22027337.922 6  22027339.895 6 117955383.763 6  91743030.218 6
R15  22132134.266 7  22132139.258 7 118267401.535 7  91985730.058 7
R17  20432899.688 8  20432904.797 7 109340575.490 8  85042968.837 7
R24  19872305.961 8  19872311.535 8 106266155.250 8  82651514.031 8
> 2025 06 15 10 00  5.0000000  0 19
C19  23637331.875 7 123085810.916 7
C20  23018645.891 7 119864131.070 7
C29  22721544.445 7 118317038.637 7
E02  24917922.289 7  24917924.633 8 130944562.088 7  99058716.588 8
E04  26267278.680 7  26267280.945 8 138035489.870 7 104422961.261 8
E10  26716078.008 7  26716082.117 8 140393927.457 7 106207100.949 8
E11  24627662.805 7  24627661.957 7 129419239.624 7  97904808.299 7
E34  27021239.664 5  27021245.836 7 141997579.164 5 107420264.749 7
E36  23735727.680 8  23735729.984 8 124732092.209 8  94359026.449 8
G02  22352004.453 7  22352006.918 5                 117460579.598 7  91527741.531 5
G08  20589620.648 8                  20589627.805 7 108199186.932 8                  84311295.968 7
G10  20973826.531 8                  20973833.148 8 110218200.719 8                  85884450.707 8
G23  22768170.430 7                  22768175.086 6 119647537.371 7                  93231791.747 6
G27  20631359.797 8                  20631365.250 7 108418521.396 8                  84482021.827 7
R01  20128933.711 7                 107600684.785 7
R08  22028565.008 6  22028566.496 6 117961952.813 6  91748139.456 6
R15  22133185.719 7  22133192.059 7 118273026.179 7  91990104.766 7
R17  20429353.063 8  20429357.996 7 109321595.638 8  85028206.735 7
R24  19872054.242 8  19872059.656 8 106264808.625 8  82650466.648 8
> 2025 06 15 10 00 10.0000000  0 19
C19  23633387.570 7 123065269.262 7
C20  23017436.734 7 119857833.924 7
C29  22722026.164 7 118319547.831 7
E02  24917836.164 7  24917838.309 8 130944108.411 7  99058373.371 8
E04  26264586.469 7  26264589.055 8 138021344.158 7 104412260.129 8
E10  26716906.344 7  26716910.195 8 140398279.229 7 106210393.023 8
E11  24627767.383 7  24627766.449 7 129419788.691 7  97905223.655 7
E34  27017532.719 5  27017539.734 7 141978102.958 5 107405531.121 7
E36  23733625.977 8  23733628.340 8 124721047.988 8  94350671.566 8
G02  22348501.375 7  22348503.715 5                 117442170.665 7  91513396.914 5
G08  20587285.148 8                  20587291.633 7 108186912.122 8                  84301731.196 7
G10  20972898.398 8                  20972904.773 7 110213322.529 8                  85880649.508 7
G23  22769560.117 7                  22769563.875 6 119654835.272 7                  93237478.430 6
G27  20631493.664 8                  20631499.500 7 108419225.512 8                  84482570.488 7
R01  20126251.063 7                 107586342.084 7
R08  22029799.000 6  22029796.824 6 117968539.516 6  91753262.429 6
R15  22134241.211 7  22134247.629 7 118278668.077 7  91994492.892 7
R17  20425807.703 8  20425812.953 7 109302624.763 8  85013451.614 7
R24  19871804.102 8  19871810.348 8 106263474.396 8  82649428.914 8
> 2025 06 15 10 00 15.0000000  0 19
C19  23629445.516 7 123044738.950 7
C20  23016230.359 7 119851553.297 7
C29  22722509.289 7 118322066.048 7
E02  24917752.406 7  24917754.441 8 130943667.462 7  99058039.782 8
E04  26261896.883 7  26261899.563 8 138007210.948 7 104401568.459 8
E10  26717734.672 7  26717738.965 8 140402634.346 7 106213687.625 8
E11  24627872.984 7  24627872.039 7 129420343.679 7  97905643.497 7
E34  27013826.406 5  27013834.250 7 141958630.574 5 107390800.406 7
E36  23731525.563 8  23731528.133 8 124710011.328 8  94342322.405 8
G02  22345000.055 7  22345002.105 5                 117423769.251 7  91499058.148 5
G08  20584952.195 8                  20584958.855 7 108174653.130 8                  84292178.740 7
G10  20971972.750 8                  20971979.602 7 110208460.061 8                  85876860.580 7
G23  22770950.266 7                  22770954.477 6 119662142.402 7                  93243172.290 6
G27  20631630.008 8                  20631636.563 8 108419945.177 8                  84483131.257 8
R01  20123572.492 8                 107572023.730 8
R08  22031030.094 6  22031030.105 6 117975144.561 6  91758399.719 6
R15  22135301.203 7  22135307.629 7 118284327.990 7  91998895.032 7
R17  20422263.219 8  20422269.230 7 109283663.580 8  84998704.025 7
R24  19871557.102 8  19871563.520 8 106262153.445 8  82648401.508 8
> 2025 06 15 10 00 20.0000000  0 19
C19  23625505.484 7 123024220.947 7
C20  23015027.406 7 119845290.119 7
C29  22722994.734 7 118324594.162 7
E02  24917671.039 7  24917673.230 8 130943240.188 7  99057716.540 8
E04  26259210.594 7  26259212.672 8 137993091.163 7 104390886.940 8
E10  26718564.656 7  26718568.512 8 140406993.733 7 106216985.461 8
E11  24627980.070 7  24627978.930 7 129420905.487 7  97906068.494 7
E34  27010122.172 5  27010129.648 7 141939163.14515 107376073.40017
E36  23729427.219 8  23729429.539 8 124698983.163 8  94333979.667 8
G02  22341499.969 7  22341502.012 5                 117405376.285 7  91484725.983 5
G08  20582622.883 8                  20582629.359 7 108162410.902 8                  84282639.331 7
G10  20971050.852 8                  20971057.367 7 110203614.302 8                  85873084.675 7
G23  22772342.672 7                  22772347.094 6 119669459.702 7                  93248874.064 6
G27  20631770.531 8                  20631776.480 8 108420681.315 8                  84483704.855 8
R01  20120898.859 8                 107557730.660 8
R08  22032264.273 5  22032267.391 6 117981769.148 5  91763552.188 6
R15  22136364.211 7  22136369.699 7 118290006.819 7  92003311.898 7
R17  20418722.602 8  20418728.207 7 109264713.120 8  84983964.774 7
R24  19871313.266 8  19871318.289 7 106260846.756 8  82647385.180 7
> 2025 06 15 10 00 25.0000000  0 19
C19  23621567.453 7 123003714.266 7
C20  23013827.859 7 119839043.403 7
C29  22723482.125 7 118327131.226 7
E02  24917592.219 7  24917594.371 8 130942825.569 7  99057402.874 8
E04  26256524.961 7  26256528.195 8 137978983.828 7 104380214.858 8
E10  26719394.648 7  26719398.625 8 140411356.414 7 106220285.777 8
E11  24628088.102 7  24628086.934 7 129421473.155 7  97906497.922 7
E34  27006419.641 5  27006425.734 7 141919699.441 5 107361349.220 7
E36  23727330.008 8  23727332.398 8 124687962.492 8  94325642.602 8
G02  22338001.367 7  22338003.418 5                 117386990.785 7  91470399.623 5
G08  20580296.211 8                  20580302.504 7 108150184.439 8                  84273112.207 7
G10  20970132.227 8                  20970138.828 7 110198784.234 8                  85869320.990 7
G23  22773737.148 7                  22773741.016 6 119676786.177 7                  93254582.994 6
G27  20631913.648 8                  20631919.449 8 108421432.937 8                  84484290.523 8
R01  20118229.594 7                 107543461.599 7
R08  22033503.734 5  22033508.547 6 117988412.041 5  91768718.923 6
R15  22137430.188 7  22137435.906 7 118295703.436 7  92007742.561 7
R17  20415182.883 8  20415189.215 7 109245772.263 8  84969232.996 7
R24  19871071.320 8  19871076.563 7 106259553.065 8  82646378.984 7
> 2025 06 15 10 00 30.0000000  0 19
C19  23617631.188 7 122983217.202 7
C20  23012631.320 7 119832811.399 7
C29  22723971.195 7 118329675.495 7
E02  24917515.055 7  24917517.566 8 130942421.850 7  99057097.458 8
E04  26253842.445 7  26253845.699 8 137964887.205 7 104369550.870 8
E10  26720225.273 7  26720229.098 8 140415720.589 7 106223587.240 8
E11  24628197.242 7  24628195.719 7 129422044.943 7  97906930.478 7
E34  27002716.250 5  27002722.148 7 141900237.757 5 107346626.596 7
E36  23725234.086 8  23725236.328 8 124676947.540 8  94317309.869 8
G02  22334504.078 7  22334506.191 5                 117368610.982 7  91456077.716 5
G08  20577972.281 8                  20577978.668 7 108137971.998 8                  84263596.021 7
G10  20969215.438 8                  20969222.508 8 110193968.115 8                  85865568.168 8
G23  22775132.320 7                  22775136.629 6 119684120.052 7                  93260297.672 6
G27  20632059.336 8                  20632065.418 8 108422198.260 8                  84484886.868 8
R01  20115563.094 7                 107529215.084 7
R08  22034746.234 6  22034752.414 6 117995071.485 6  91773898.507 6
R15  22138499.555 7  22138505.109 7 118301416.269 7  92012185.857 7
R17  20411645.148 8  20411650.566 7 109226839.415 8  84954507.461 7
R24  19870831.148 8  19870836.609 7 106258270.865 8  82645381.706 7
> 2025 06 15 10 00 35.0000000  0 19
C19  23613697.070 7 122962730.720 7
C20  23011437.492 7 119826595.144 7
C29  22724461.477 7 118332227.973 7
E02  24917440.414 7  24917443.086 8 130942030.055 7  99056801.062 8
E04  26251162.063 7  26251165.500 8 137950802.330 7 104358895.752 8
E10  26721055.938 7  26721060.063 8 140420087.330 7 106226890.634 8
E11  24628306.453 7  24628305.465 7 129422621.824 7  97907366.871 7
E34  26999012.563 5  26999019.219 7 141880779.193 5 107331906.312 7
E36  23723139.273 8  23723141.539 8 124665939.386 8  94308982.263 8
G02  22331007.820 7  22331010.137 5                 117350237.922 7  91441761.051 5
G08  20575650.984 8                  20575657.879 7 108125774.638 8                  84254091.569 7
G10  20968302.016 8                  20968308.656 8 110189166.936 8                  85861826.983 8
G23  22776529.453 7                  22776534.016 6 119691462.329 7                  93266018.912 6
G27  20632207.492 8                  20632213.797 8 108422978.334 8                  84485494.717 8
R01  20112902.898 7                 107514991.904 7
R08  22035993.086 6  22035998.965 6 118001748.651 6  91779091.820 6
R15  22139571.859 7  22139577.551 7 118307146.182 7  92016642.438 7
R17  20408109.148 7  20408114.672 7 109207915.546 7  84939788.893 7
R24  19870593.359 8  19870598.926 7 106257001.031 8  82644394.063 7
> 2025 06 15 10 00 40.0000000  0 19
C19  23609765.102 7 122942255.849 7
C20  23010247.383 7 119820395.569 7
C29  22724953.461 7 118334789.624 7
E02  24917368.156 7  24917371.000 8 130941651.137 7  99056514.410 8
E04  26248484.688 7  26248487.676 8 137936730.143 7 104348250.240 8
E10  26721887.578 7  26721891.684 8 140424457.543 7 106230196.664 8
E11  24628417.234 7  24628416.387 7 129423204.729 7  97907807.835 7
E34  26995311.727 5  26995317.043 7 141861324.691 5 107317189.082 7
E36  23721046.148 8  23721048.238 8 124654938.960 8  94300660.513 8
G02  22327512.883 7  22327515.266 5                 117331872.581 7  91427450.392 5
G08  20573333.211 8                  20573339.801 7 108113593.266 8                  84244599.575 7
G10  20967391.258 8                  20967398.023 8 110184381.639 8                  85858098.182 8
G23  22777928.266 7                  22777932.816 6 119698813.981 7                  93271747.470 6
G27  20632359.609 8                  20632365.129 7 108423774.085 8                  84486114.784 7
R01  20110246.867 7                 107500793.223 7
R08  22037244.023 6  22037249.137 6 118008444.311 6  91784299.520 6
R15  22140646.375 7  22140653.656 7 118312894.073 7  92021112.999 7
R17  20404574.945 7  20404579.727 7 109189001.630 7  84925078.072 7
R24  19870358.508 8  19870363.875 7 106255744.535 8  82643416.783 7
> 2025 06 15 10 00 45.0000000  0 19
C19  23605835.023 6 122921791.486 6
C20  23009059.758 8 119814211.622 8
C29  22725447.039 7 118337359.398 7
E02  24917298.281 7  24917301.168 8 130941284.036 7  99056236.695 8
E04  26245808.992 7  26245812.070 8 137922669.589 7 104337613.536 8
E10  26722720.172 7  26722723.742 8 140428830.235 7 106233504.564 8
E11  24628528.836 7  24628528.297 7 129423792.663 7  97908252.603 7
E34  26991612.367 5  26991615.402 7 141841873.177 5 107302474.132 7
E36  23718954.211 8  23718956.191 8 124643945.189 8  94292343.799 8
G02  22324019.320 7  22324021.848 5                 117313513.904 7  91413144.929 5
G08  20571017.984 7                  20571024.621 7 108101426.862 7                  84235119.256 7
G10  20966483.828 8                  20966490.301 8 110179611.191 8                  85854380.950 8
G23  22779328.523 7                  22779334.102 6 119706173.924 7                  93277482.496 6
G27  20632513.773 8                  20632519.508 7 108424584.446 8                  84486746.222 7
R01  20107595.633 7                 107486617.877 7
R08  22038498.195 6  22038503.191 6 118015157.394 6  91789520.813 6
R15  22141725.750 7  22141732.117 7 118318658.972 7  92025596.806 7
R17  20401042.617 7  20401047.207 7 109170096.588 7  84910374.137 7
R24  19870125.531 8  19870131.070 7 106254500.394 8  82642449.100 7
> 2025 06 15 10 00 50.0000000  0 19
C19  23601907.016 7 122901337.916 7
C20  23007875.250 8 119808043.533 8
C29  22725941.992 7 118339937.516 7
E02  24917230.953 7  24917233.602 8 130940928.971 7  99055968.081 8
E04  26243135.609 7  26243138.746 8 137908620.922 7 104326985.822 8
E10  26723553.023 7  26723556.273 8 140433205.566 7 106236814.463 8
E11  24628641.406 7  24628641.242 7 129424385.871 7  97908701.355 7
E34  26987908.125 5  26987914.313 7 141822424.76215 107287761.58917
E36  23716863.305 8  23716865.465 8 124632958.305 8  94284032.293 8
G02  22320527.602 7  22320529.520 5                 117295162.095 7  91398844.829 5
G08  20568705.570 8                  20568712.668 7 108089275.636 8                  84225650.776 7
G10  20965578.844 8                  20965585.477 8 110174855.795 8                  85850675.446 8
G23  22780730.859 7                  22780736.215 7 119713542.384 7                  93283224.149 7
G27  20632671.063 8                  20632676.543 7 108425409.657 8                  84487389.236 7
R01  20104947.852 7                 107472466.187 7
R08  22039753.367 6  22039760.395 6 118021888.246 6  91794755.943 6
R15  22142806.711 6  22142814.504 7 118324441.064 6  92030093.989 7
R17  20397511.930 8  20397515.805 7 109151200.592 8  84895677.243 7
R24  19869895.070 8  19869900.695 7 106253268.850 8  82641491.229 7
> 2025 06 15 10 00 55.0000000  0 20
C19  23597981.531 7 122880895.771 7
C20  23006693.680 7 119801891.948 7
C26  26280442.242 5 136849166.75815
C29  22726438.672 7 118342524.596 7
E02  24917165.758 8  24917168.480 8 130940586.580 8  99055709.061 8
E04  26240464.781 7  26240467.816 8 137894584.803 7 104316367.588 8
E10  26724385.813 7  26724389.484 8 140437584.213 7 106240126.871 8
E11  24628756.219 7  24628755.273 7 129424984.951 7  97909154.543 7
E34  26984210.180 5  26984214.059 7 141802980.24915 107273052.01117
E36  23714773.938 8  23714776.176 9 124621978.974 8  94275726.495 9
G02  22317036.211 7  22317038.734 5                 117276817.824 7  91384550.594 5
G08  20566395.953 8                  20566403.125 7 108077140.271 8                  84216194.657 7
G10  20964677.133 8                  20964683.426 8 110170116.111 8                  85846982.199 8
G23  22782134.688 7                  22782139.840 7 119720919.970 7                  93288972.928 7
G27  20632830.461 8                  20632836.523 7 108426250.380 8                  84488044.337 7
R01  20102304.594 7                 107458338.733 7
R08  22041013.539 6  22041020.375 6 118028637.369 6  91800005.298 6
R15  22143893.742 6  22143898.770 7 118330240.964 6  92034605.017 7
R17  20393983.016 8  20393986.359 7 109132314.355 8  84880987.933 7
R24  19869667.820 8  19869672.910 7 106252050.493 8  82640543.617 7
> 2025 06 15 10 01  0.0000000  0 20
C19  23594057.805 7 122860463.853 7
C20  23005514.820 7 119795755.665 7
C26  26281514.969 5 136854761.145 5
C29  22726937.063 7 118345119.439 7
E02  24917102.922 7  24917105.543 8 130940255.649 7  99055458.693 8
E04  26237795.922 7  26237799.000 8 137880559.992 7 104305757.905 8
E10  26725219.555 7  26725223.121 8 140441964.945 7 106243440.851 8
E11  24628871.227 7  24628870.219 7 129425588.685 7  97909611.254 7
E34  26980510.094 5  26980514.375 7 141783538.346 5 107258344.369 7
E36  23712685.711 8  23712688.105 8 124611005.960 8  94267425.482 8
G02  22313546.508 7  22313549.117 5                 117258479.821 7  91370261.253 5
G08  20564089.961 8                  20564096.969 7 108065019.532 8                  84206749.937 7
G10  20963777.719 8                  20963784.230 7 110165390.934 8                  85843300.239 7
G23  22783540.531 7                  22783545.301 7 119728305.478 7                  93294727.872 7
G27  20632993.086 8                  20632999.055 7 108427105.348 8                  84488710.546 7
R01  20099666.086 7                 107444234.240 7
R08  22042277.000 6  22042284.066 6 118035403.504 6  91805267.886 6
R15  22144981.859 7  22144987.441 7 118336057.524 7  92039128.994 7
R17  20390455.219 8  20390459.156 7 109113436.589 8  84866305.224 7
R24  19869442.563 8  19869447.191 7 106250844.071 8  82639605.288 7
> 2025 06 15 10 01  5.0000000  0 20
C19  23590136.266 7 122840041.985 7
C20  23004338.859 7 119789634.481 7
C26  26282584.781 5 136860360.736 5
C29  22727436.055 7 118347721.910 7
E02  24917042.484 7  24917044.664 8 130939936.008 7  99055216.873 8
E04  26235128.961 7  26235132.293 8 137866546.341 7 104295156.679 8
E10  26726053.703 7  26726057.094 8 140446347.605 7 106246756.291 8
E11  24628987.125 7  24628986.016 7 129426196.906 7  97910071.354 7
E34  26976810.953 6  26976815.137 7 141764098.969 6 107243638.644 7
E36  23710598.742 8  23710601.172 8 124600039.116 8  94259129.139 8
G02  22310058.563 7  22310060.492 5                 117240147.988 7  91355976.705 5
G08  20561786.133 8                  20561793.207 7 108052913.277 8                  84197316.481 7
G10  20962881.203 8                  20962887.895 8 110160680.047 8                  85839629.434 8
G23  22784947.422 7                  22784952.273 7 119735698.721 7                  93300488.850 7
G27  20633158.539 8                  20633164.316 7 108427974.427 8                  84489387.729 7
R01  20097032.164 7                 107430152.801 7
R08  22043543.945 6  22043551.117 5 118042186.600 6  91810543.636 5
R15  22146072.883 7  22146078.875 6 118341890.413 7  92043665.655 6
R17  20386928.227 8  20386933.320 7 109094567.258 8  84851629.102 7
R24  19869219.398 8  19869223.758 7 106249649.442 8  82638676.131 7
