     3.04           OBSERVATION DATA    Mixed(MIXED)        RINEX VERSION / TYPE
cnvtToRINEX 3.14.0  convertToRINEX OPR  20250615 162938 UTC PGM / RUN BY / DATE 
----------------------------------------------------------- COMMENT             
413                                                         MARKER NAME         
413                                                         MARKER NUMBER       
GEODETIC                                                    MARKER TYPE         
GNSS Observer       Trimble                                 OBSERVER / AGENCY   
5849S10870          Geo Explorer 3      5.51                REC # / TYPE / VERS 
49S10870            UNKNOWN EXT     NONE                    ANT # / TYPE        
  3912503.4819  1190593.1233  4879099.0234                  APPROX POSITION XYZ 
        1.1590        0.0000        0.0000                  ANTENNA: DELTA H/E/N
R    4 C1C C2C L1C L2C                                      SYS / # / OBS TYPES 
G    6 C1C C2W C2X L1C L2W L2X                              SYS / # / OBS TYPES 
E    4 C1X C8X L1X L8X                                      SYS / # / OBS TYPES 
C    2 C2I L2I                                              SYS / # / OBS TYPES 
     5.000                                                  INTERVAL            
  2025     6    15     8    38   45.0000000     GPS         TIME OF FIRST OBS   
  2025     6    15     9    20   15.0000000     GPS         TIME OF LAST OBS    
     0                                                      RCV CLOCK OFFS APPL 
  8 R01  1 R07  5 R08  6 R14 -7 R15  0 R17  4 R23  3 R24  2 GLONASS SLOT / FRQ #
R L2C -0.25000                                              SYS / PHASE SHIFT   
G L2X -0.25000                                              SYS / PHASE SHIFT   
    18                                                      LEAP SECONDS        
    26                                                      # OF SATELLITES     
   C19   330   330                                          PRN / # OF OBS      
   C20   499   499                                          PRN / # OF OBS      
   C24   352   352                                          PRN / # OF OBS      
   C26   499   499                                          PRN / # OF OBS      
   C29   499   499                                          PRN / # OF OBS      
   C30    29    29                                          PRN / # OF OBS      
   E02   499   499   499   499                              PRN / # OF OBS      
   E10   497   495   496   495                              PRN / # OF OBS      
   E11   499   499   499   499                              PRN / # OF OBS      
   E16   499   499   499   499                              PRN / # OF OBS      
   E25   499   499   499   499                              PRN / # OF OBS      
   E36   499   499   499   499                              PRN / # OF OBS      
   G02   279   180     0   266   180     0                  PRN / # OF OBS      
   G08   499     0   499   499     0   499                  PRN / # OF OBS      
   G10   499     0   499   499     0   499                  PRN / # OF OBS      
   G16   499   499     0   499   499     0                  PRN / # OF OBS      
   G18   107     0    67    98     0    67                  PRN / # OF OBS      
   G23   499     0   499   499     0   499                  PRN / # OF OBS      
   G27   499     0   499   499     0   499                  PRN / # OF OBS      
   R01   447     0   445     0                              PRN / # OF OBS      
   R08   439   427   438   425                              PRN / # OF OBS      
   R14   499   499   499   499                              PRN / # OF OBS      
   R15   499   499   499   499                              PRN / # OF OBS      
   R17   499   499   499   499                              PRN / # OF OBS      
   R23   159     0   156     0                              PRN / # OF OBS      
   R24   499   499   499   499                              PRN / # OF OBS      
DBHZ                                                        SIGNAL STRENGTH UNIT
                                                            END OF HEADER       
>                              2  1
              *** Start of Kinematic Data ***               COMMENT             
> 2025 06 15 08 38 45.0000000  0 19
C20  23932569.453 6 124623163.26316
C26  24433302.477 7 127230610.40817
C29  21386396.516 7 111364579.42317
E02  24501132.148 7  24501133.230 8 128754318.79617  97401811.35118
E10  24551299.844 8  24551302.039 8 129017949.59118  97601246.49718
E11  23410598.664 7  23410596.266 8 123023522.34817  93066487.56618
E16  25655186.383 7  25655189.242 8 134818910.59517 101989638.12318
E25  24342861.359 7  24342864.027 8 127922597.45517  96772623.20718
E36  24747303.086 8  24747305.918 8 130047952.85418  98380444.37118
G08  22347756.398 7                  22347763.586 7 117438249.54917                  91510358.37917
G10  21625503.547 8                  21625511.121 7 113642786.89318                  88552852.93917
G16  21275437.188 7  21275441.320 5                 111803175.66817  87119366.57815
G23  20833076.805 7                  20833081.613 8 109478556.94217                  85307985.25618
G27  20224694.078 8                  20224699.668 7 106281477.90618                  82816956.29617
R08  21088733.180 6  21088733.891 5 112929234.80616  87833899.36015
R14  20843629.430 8  20843634.094 7 111108281.52518  86417495.35417
R15  21339170.758 7  21339173.609 6 114030048.79717  88690319.19416
R17  22851130.438 7  22851138.156 6 122281038.14617  95107509.20216
R24  19560630.461 8  19560633.746 7 104599488.28018  81355351.11217
> 2025 06 15 08 38 50.0000000  0 19
C20  23928784.063 6 124603455.605 6
C26  24432454.039 7 127226189.946 7
C29  21385349.398 7 111359127.029 7
E02  24498795.086 7  24498796.133 8 128742037.506 7  97392520.655 8
E10  24551537.625 7  24551540.121 8 129019200.495 7  97602192.797 8
E11  23409619.930 7  23409617.508 8 123018379.197 7  93062596.809 8
E16  25656482.641 7  25656485.699 8 134825723.695 7 101994792.170 8
E25  24343295.656 8  24343298.031 8 127924878.273 8  96774348.619 8
E36  24744055.836 8  24744058.801 8 130030889.221 8  98367535.835 8
G08  22343472.398 7                  22343479.637 7 117415736.574 7                  91492815.802 7
G10  21621877.766 8                  21621885.023 7 113623731.456 8                  88538004.550 7
G16  21276141.984 7  21276145.617 5                 111806878.473 7  87122251.863 5
G23  20832096.953 7                  20832101.703 8 109473407.598 7                  85303972.767 8
G27  20222158.000 8                  20222163.773 7 106268151.547 8                  82806572.112 7
R08  21085998.867 6  21085998.422 5 112914587.897 6  87822507.366 5
R14  20844525.227 8  20844529.711 7 111113056.102 8  86421208.908 7
R15  21336305.359 7  21336308.750 6 114014737.808 7  88678410.663 6
R17  22846585.570 7  22846592.891 6 122256710.792 7  95088587.919 6
R24  19558261.906 8  19558266.688 7 104586827.556 8  81345503.897 7
>                              3  5
              *** Start of Occupation ***                   COMMENT             
413                                                         MARKER NAME         
413                                                         MARKER NUMBER       
  3912503.4819  1190593.1233  4879099.0234                  APPROX POSITION XYZ 
        1.1590        0.0000        0.0000                  ANTENNA: DELTA H/E/N
> 2025 06 15 08 38 55.0000000  0 19
C20  23925001.758 6 124583758.759 6
C26  24431607.828 6 127221783.854 6
C29  21384304.023 7 111353683.540 7
E02  24496460.555 7  24496461.340 8 128729768.128 7  97383238.938 8
E10  24551776.781 8  24551779.223 8 129020456.810 8  97603143.183 8
E11  23408643.016 7  23408640.348 8 123013243.937 7  93058712.007 8
E16  25657780.164 7  25657783.422 8 134832542.864 7 101999950.818 8
E25  24343731.328 8  24343734.012 8 127927169.191 8  96776081.675 8
E36  24740810.445 8  24740812.883 8 130013832.160 8  98354632.279 8
G08  22339189.094 7                  22339197.324 7 117393230.365 7                  91475278.508 7
G10  21618254.336 8                  21618261.242 8 113604689.036 8                  88523166.304 8
G16  21276849.422 7  21276853.184 5                 111810595.717 7  87125148.414 5
G23  20831120.414 8                  20831124.977 8 109468275.313 8                  85299973.577 8
G27  20219625.328 8                  20219630.555 7 106254838.614 8                  82796198.412 7
R08  21083265.492 6  21083268.328 5 112899963.196 6  87811132.663 5
R14  20845423.930 8  20845429.535 7 111117849.803 8  86424937.341 7
R15  21333443.867 8  21333447.473 6 113999448.915 8  88666519.305 6
R17  22842039.656 7  22842047.082 6 122232387.381 7  95069669.779 6
R24  19555896.133 8  19555900.785 7 104574178.387 8  81335665.666 7
> 2025 06 15 08 39  0.0000000  0 19
C20  23921219.805 6 124564070.830 6
C26  24430763.867 6 127217390.226 6
C29  21383259.797 7 111348247.069 7
E02  24494127.695 7  24494128.508 8 128717508.720 7  97373964.799 8
E10  24552016.516 8  24552018.988 8 129021716.604 8  97604096.195 8
E11  23407666.945 7  23407664.238 8 123008114.642 7  93054831.729 8
E16  25659078.766 7  25659081.867 8 134839366.205 7 102005112.620 8
E25  24344168.422 8  24344171.539 8 127929468.301 8  96777820.906 8
E36  24737565.547 8  24737567.871 8 129996779.718 8  98341732.225 8
G08  22334907.789 7                  22334915.316 7 117370728.976 7                  91457744.953 7
G10  21614632.430 8                  21614639.727 8 113585657.779 8                  88508336.759 8
G16  21277559.523 7  21277563.098 5                 111814325.530 7  87128054.755 5
G23  20830146.461 7                  20830150.934 7 109463158.207 7                  85295986.226 7
G27  20217094.031 8                  20217099.398 8 106241537.185 8                  82785833.666 8
R08  21080540.125 6  21080543.492 5 112885359.094 6  87799773.967 5
R14  20846326.891 8  20846332.645 7 111122660.604 8  86428679.051 7
R15  21330586.695 8  21330590.266 6 113984180.273 8  88654643.697 6
R17  22837495.875 7  22837503.027 6 122208065.876 7  95050753.067 6
R24  19553533.086 8  19553537.074 7 104561538.953 8  81325835.003 7
> 2025 06 15 08 39  5.0000000  0 20
C20  23917441.078 6 124544393.604 6
C26  24429923.367 7 127213010.752 7
C29  21382217.367 7 111342819.374 7
E02  24491797.227 7  24491797.879 8 128705261.046 7  97364699.515 8
E10  24552257.094 7  24552259.762 8 129022981.602 7  97605053.165 8
E11  23406692.320 7  23406689.609 8 123002993.026 7  93050957.261 8
E16  25660377.797 7  25660381.348 8 134846195.464 7 102010278.885 8
E25  24344607.875 8  24344610.965 8 127931777.309 8  96779567.653 8
E36  24734321.406 8  24734324.176 8 129979733.666 8  98328836.999 8
G08  22330626.828 7                  22330634.672 7 117348234.185 7                  91440216.581 7
G10  21611013.688 7                  21611020.414 7 113566639.409 7                  88493517.257 7
G16  21278272.125 7  21278275.484 5                 111818069.663 7  87130972.264 5
G23  20829176.695 8                  20829180.746 7 109458057.969 8                  85292012.011 7
G27  20214565.453 8                  20214570.414 7 106228249.024 8                  82775479.262 7
R01  22746068.320 5                 121590770.28415
R08  21077820.938 6  21077820.078 6 112870777.117 6  87788432.450 6
R14  20847231.781 8  20847238.656 7 111127490.091 8  86432435.282 7
R15  21327734.016 8  21327736.367 6 113968933.688 8  88642785.266 6
R17  22832951.586 6  22832958.438 6 122183748.073 6  95031839.274 6
R24  19551171.047 8  19551176.043 7 104548911.024 8  81316013.274 7
> 2025 06 15 08 39 10.0000000  0 20
C20  23913663.453 6 124524725.525 6
C26  24429084.281 7 127208643.969 7
C29  21381176.648 7 111337398.900 7
E02  24489468.305 8  24489469.113 8 128693023.588 8  97355441.961 8
E10  24552498.711 7  24552501.152 8 129024250.311 7  97606012.938 8
E11  23405718.703 7  23405716.133 8 122997877.612 7  93047087.481 8
E16  25661678.508 7  25661681.867 8 134853029.100 7 102015448.463 8
E25  24345048.938 8  24345051.926 8 127934094.728 8  96781320.754 8
E36  24731078.477 8  24731081.227 8 129962692.498 8  98315945.480 8
G08  22326347.313 7                  22326355.199 7 117325744.490 7                  91422692.141 7
G10  21607396.883 8                  21607403.348 7 113547632.413 8                  88478706.594 7
G16  21278986.789 7  21278990.504 5                 111821826.545 7  87133899.704 5
G23  20828208.852 8                  20828212.977 7 109452973.108 8                  85288049.798 7
G27  20212038.430 8                  20212044.215 8 106214972.599 8                  82765134.014 8
R01  22740614.258 5                 121561596.046 5
R08  21075102.625 5  21075101.516 5 112856215.855 5  87777107.028 5
R14  20848141.766 8  20848147.855 7 111132337.012 8  86436205.096 7
R15  21324884.602 8  21324887.727 7 113953707.554 8  88630942.709 7
R17  22828408.031 6  22828414.512 6 122159432.377 6  95012927.008 6
R24  19548811.258 8  19548816.422 7 104536292.975 8  81306199.234 7
> 2025 06 15 08 39 15.0000000  0 20
C20  23909888.617 6 124505067.791 6
C26  24428248.203 7 127204291.005 7
C29  21380137.344 7 111331986.785 7
E02  24487141.805 7  24487142.555 8 128680797.491 7  97346193.000 8
E10  24552741.156 8  24552743.512 8 129025523.832 8  97606976.342 8
E11  23404746.750 7  23404744.094 8 122992769.510 7  93043223.241 8
E16  25662979.648 7  25662983.340 8 134859868.236 7 102020622.220 8
E25  24345491.711 8  24345494.730 8 127936421.673 8  96783081.061 8
E36  24727836.383 8  24727839.684 8 129945657.319 8  98303058.466 8
G08  22322069.328 7                  22322076.191 7 117303261.029 7                  91405172.571 7
G10  21603782.469 8                  21603788.750 7 113528637.899 8                  88463905.696 7
G16  21279703.867 7  21279708.199 5                 111825597.328 7  87136837.955 5
G23  20827244.469 8                  20827248.379 7 109447904.766 8                  85284100.452 7
G27  20209514.945 8                  20209520.336 8 106201709.063 8                  82754798.796 8
R01  22735156.930 5                 121532427.631 5
R08  21072386.742 5  21072385.637 6 112841676.381 5  87765798.604 6
R14  20849054.719 8  20849060.410 7 111137202.410 8  86439989.281 7
R15  21322039.820 8  21322042.414 6 113938503.100 8  88619117.021 6
R17  22823865.938 7  22823871.176 6 122135119.863 7  94994017.345 6
R24  19546453.813 8  19546458.422 7 104523686.065 8  81296393.854 7
> 2025 06 15 08 39 20.0000000  0 19
C20  23906115.195 6 124485419.444 6
C26  24427415.328 6 127199950.908 6
C29  21379099.242 7 111326582.167 7
E02  24484817.359 7  24484818.059 8 128668581.829 7  97336951.935 8
E10  24552984.258 7  24552986.633 8 129026801.281 7  97607942.721 8
E11  23403775.891 7  23403773.285 8 122987667.859 7  93039363.878 8
E16  25664282.141 7  25664285.695 8 134866711.960 7 102025799.427 8
E25  24345936.148 8  24345939.156 8 127938757.237 8  96784847.890 8
E36  24724595.773 8  24724598.922 8 129928627.227 8  98290175.341 8
G08  22317791.945 7                  22317798.879 7 117280782.926 7                  91387657.161 7
G10  21600170.195 8                  21600176.527 7 113509655.050 8                  88449113.867 7
G16  21280423.453 7  21280427.777 5                 111829381.057 7  87139786.297 5
G23  20826282.695 8                  20826286.930 7 109442852.018 8                  85280163.252 7
G27  20206993.328 8                  20206998.688 8 106188457.551 8                  82744472.949 8
R01  22729699.867 5                 121503263.900 5
R14  20849970.375 8  20849976.387 7 111142085.198 8  86443787.005 7
R15  21319197.719 8  21319201.234 6 113923319.226 8  88607307.338 6
R17  22819323.078 7  22819328.750 6 122110809.915 7  94975109.602 6
R24  19544098.063 8  19544103.008 7 104511089.337 8  81286596.388 7
> 2025 06 15 08 39 25.0000000  0 20
C20  23902344.555 6 124465781.680 6
C26  24426584.375 7 127195624.813 7
C29  21378062.977 7 111321186.113 7
E02  24482494.867 7  24482495.621 8 128656377.782 7  97327719.647 8
E10  24553228.688 7  24553230.715 8 129028083.791 7  97608912.922 8
E11  23402806.602 7  23402803.887 8 122982573.706 7  93035510.183 8
E16  25665585.648 7  25665589.160 8 134873561.449 7 102030980.995 8
E25  24346382.555 8  24346385.402 8 127941102.566 8  96786622.113 8
E36  24721356.148 8  24721359.441 8 129911603.369 8  98277296.901 8
G08  22313515.711 7                  22313522.816 7 117258311.257 7                  91370146.783 7
G10  21596560.250 8                  21596566.668 7 113490684.945 8                  88434331.969 7
G16  21281146.617 7  21281150.316 5                 111833178.877 7  87142745.625 5
G23  20825324.328 8                  20825328.809 8 109437816.025 8                  85276239.104 8
G27  20204473.680 8                  20204479.543 8 106175219.132 8                  82734157.296 8
R01  22724243.414 5                 121474106.224 5
R08  21066976.438 5  21066967.527 5 112812661.85815  87743231.46715
R14  20850890.039 8  20850895.984 7 111146986.731 8  86447599.293 7
R15  21316361.570 8  21316364.164 7 113908157.410 8  88595514.819 7
R17  22814780.508 7  22814786.566 6 122086503.424 7  94956204.541 6
R24  19541744.734 8  19541749.438 7 104498503.924 8  81276807.748 7
> 2025 06 15 08 39 30.0000000  0 20
C20  23898575.156 6 124446153.145 6
C26  24425756.922 6 127191311.440 6
C29  21377028.508 7 111315797.319 7
E02  24480174.555 8  24480175.203 8 128644183.980 8  97318495.126 8
E10  24553473.336 7  24553475.449 8 129029369.990 7  97609885.913 8
E11  23401838.352 7  23401835.703 8 122977485.772 7  93031661.196 8
E16  25666889.109 7  25666893.418 8 134880415.299 7 102036165.871 8
E25  24346830.094 8  24346833.266 8 127943456.293 8  96788402.682 8
E36  24718117.445 8  24718120.859 8 129894584.437 8  98264422.195 8
G08  22309240.438 7                  22309247.113 7 117235844.767 7                  91352640.448 7
G10  21592952.508 8                  21592959.063 7 113471726.293 8                  88419559.010 7
G16  21281871.414 7  21281875.063 5                 111836989.439 7  87145714.885 5
G23  20824368.766 8                  20824373.629 8 109432795.411 8                  85272326.930 8
G27  20201956.781 8                  20201962.703 8 106161992.565 8                  82723850.874 8
R01  22718791.703 5                 121444953.354 5
R08  21064274.977 5  21064263.813 5 112798186.238 5  87731972.674 5
R14  20851812.961 8  20851819.172 7 111151905.552 8  86451425.054 7
R15  21313526.797 7  21313530.703 7 113893015.988 7  88583738.157 7
R17  22810238.859 7  22810244.836 6 122062199.183 7  94937301.250 6
R24  19539392.891 8  19539398.023 7 104485928.471 8  81267026.843 7
> 2025 06 15 08 39 35.0000000  0 20
C20  23894807.516 6 124426534.950 6
C26  24424930.898 7 127187011.778 7
C29  21375994.742 7 111310416.884 7
E02  24477856.242 8  24477856.941 8 128632001.525 8  97309279.175 8
E10  24553719.078 7  24553721.172 8 129030660.976 7  97610862.537 8
E11  23400871.594 7  23400868.887 8 122972405.132 7  93027817.723 8
E16  25668194.836 7  25668198.738 8 134887274.570 7 102041354.854 8
E25  24347279.859 8  24347282.965 8 127945819.519 8  96790190.433 8
E36  24714879.945 8  24714883.414 8 129877571.453 8  98251551.993 8
G08  22304966.742 7                  22304973.156 7 117213384.531 7                  91335138.979 7
G10  21589347.500 8                  21589353.855 7 113452780.150 8                  88404795.783 7
G16  21282599.813 7  21282602.660 5                 111840813.786 7  87148694.882 5
G23  20823416.492 8                  20823421.527 8 109427791.264 8                  85268427.593 8
G27  20199442.070 8                  20199448.090 8 106148778.853 8                  82713554.480 8
R01  22713338.336 5                 121415806.258 5
R08  21061568.758 6  21061564.273 5 112783732.562 6  87720730.913 5
R14  20852738.820 8  20852744.984 7 111156842.550 8  86455264.954 7
R15  21310697.297 7  21310701.141 7 113877896.226 7  88571978.324 7
R17  22805697.813 7  22805703.973 7 122037898.217 7  94918400.503 7
R24  19537044.047 8  19537048.387 7 104473364.072 8  81257254.533 7
> 2025 06 15 08 39 40.0000000  0 20
C20  23891042.352 6 124406927.098 6
C26  24424107.969 7 127182725.915 7
C29  21374962.867 7 111305044.810 7
E02  24475540.070 8  24475540.805 8 128619830.441 8  97300071.831 8
E10  24553965.609 7  24553967.734 9 129031956.761 7  97611842.789 9
E11  23399905.977 7  23399903.488 8 122967331.771 7  93023979.766 8
E16  25669501.336 7  25669505.156 8 134894139.343 7 102046547.997 8
E25  24347731.617 7  24347734.496 8 127948192.198 7  96791985.343 8
E36  24711643.852 7  24711647.137 8 129860564.479 7  98238686.332 8
G08  22300693.625 7                  22300700.406 7 117190930.518 7                  91317642.352 7
G10  21585744.391 8                  21585750.898 7 113433846.572 8                  88390042.348 7
G16  21283329.859 7  21283332.809 5                 111844651.947 7  87151685.646 5
G23  20822467.109 8                  20822472.230 8 109422803.589 8                  85264541.086 8
G27  20196930.328 8                  20196936.219 8 106135578.063 8                  82703268.144 8
R01  22707886.938 5                 121386664.918 5
R08  21058867.273 6  21058868.387 5 112769300.589 6  87709506.089 5
R14  20853669.336 8  20853675.000 7 111161798.019 8  86459119.205 7
R15  21307872.273 7  21307875.984 7 113862798.198 7  88560235.406 7
R17  22801158.219 7  22801162.473 6 122013600.513 7  94899502.281 6
R24  19534695.977 8  19534700.660 7 104460810.759 8  81247490.842 7
> 2025 06 15 08 39 45.0000000  0 20
C20  23887277.625 6 124387328.613 6
C26  24423287.445 7 127178452.770 7
C29  21373932.875 7 111299680.071 7
E02  24473225.969 8  24473226.668 8 128607669.697 8  97290872.305 8
E10  24554212.836 7  24554215.055 8 129033256.307 7  97612825.872 8
E11  23398941.602 7  23398939.223 8 122962264.665 7  93020146.531 8
E16  25670808.383 7  25670812.359 8 134901008.501 7 102051744.463 8
E25  24348184.844 8  24348187.609 8 127950573.365 8  96793786.672 8
E36  24708408.695 7  24708411.789 8 129843562.501 7  98225824.444 8
G08  22296421.375 7                  22296428.125 7 117168481.772 7                  91300149.825 7
G10  21582143.711 8                  21582150.230 7 113414924.509 8                  88375297.880 7
G16  21284062.586 7  21284065.738 5                 111848502.892 7  87154686.385 5
G23  20821521.453 8                  20821525.762 8 109417831.344 8                  85260666.611 8
G27  20194420.555 8                  20194426.324 8 106122389.161 8                  82692991.063 8
R01  22702435.141 4                 121357528.402 4
R08  21056174.328 6  21056177.609 5 112754889.722 6  87698297.624 5
R14  20854601.461 8  20854607.398 7 111166770.668 8  86462986.815 7
R15  21305050.547 7  21305054.879 7 113847720.865 7  88548508.595 7
R17  22796618.344 7  22796621.758 6 121989305.120 7  94880605.868 6
R24  19532350.914 8  19532354.816 7 104448267.472 8  81237734.950 7
> 2025 06 15 08 39 50.0000000  0 20
C20  23883515.992 6 124367740.072 6
C26  24422469.203 7 127174192.966 7
C29  21372904.141 7 111294323.248 7
E02  24470914.172 7  24470914.582 8 128595519.902 7  97281681.061 8
E10  24554461.227 8  24554463.215 9 129034560.220 8  97613812.260 9
E11  23397978.289 7  23397976.328 8 122957204.437 7  93016318.501 8
E16  25672117.109 7  25672120.551 8 134907882.687 7 102056944.725 8
E25  24348639.602 7  24348642.473 8 127952963.562 7  96795594.829 8
E36  24705174.594 7  24705177.496 8 129826566.081 7  98212966.763 8
G08  22292150.836 7                  22292157.484 7 117146038.876 7                  91282661.861 7
G10  21578545.000 8                  21578551.898 7 113396014.597 8                  88360562.892 7
G16  21284798.641 7  21284801.059 5                 111852367.209 7  87157697.532 5
G23  20820578.328 8                  20820582.434 8 109412875.155 8                  85256804.653 8
G27  20191912.539 8                  20191918.996 8 106109212.738 8                  82682723.726 8
R01  22696988.141 5                 121328397.486 5
R08  21053488.523 6  21053490.590 5 112740500.208 6  87687105.805 5
R14  20855537.281 7  20855543.852 7 111171761.281 7  86466868.402 7
R15  21302231.453 7  21302237.137 7 113832664.663 7  88536798.212 7
R17  22792079.633 7  22792081.801 6 121965012.544 7  94861711.649 6
R24  19530007.266 8  19530011.695 7 104435734.835 8  81227987.330 7
> 2025 06 15 08 39 55.0000000  0 20
C20  23879757.023 6 124348163.273 6
C26  24421654.328 7 127169948.315 7
C29  21371877.305 7 111288976.188 7
E02  24468604.609 8  24468604.965 8 128583382.896 8  97272499.486 8
E10  24554710.602 8  24554712.492 9 129035870.297 8  97614803.314 9
E11  23397017.195 7  23397015.051 8 122952152.911 7  93012497.054 8
E16  25673426.531 7  25673430.059 8 134914763.750 7 102062150.201 8
E25  24349096.586 7  24349099.441 8 127955364.654 7  96797411.230 8
E36  24701941.984 7  24701944.613 8 129809577.048 7  98200114.673 8
G08  22287881.289 7                  22287888.195 7 117123603.660 7                  91265179.875 7
G10  21574949.516 8                  21574955.953 7 113377118.648 8                  88345838.786 7
G16  21285536.313 7  21285539.293 5                 111856246.765 7  87160720.558 5
G23  20819638.398 8                  20819642.695 7 109407936.840 8                  85252956.614 7
G27  20189408.383 8                  20189414.391 8 106096050.657 8                  82672467.559 8
R01  22691542.117 5                 121299273.698 5
R08  21050808.656 6  21050807.109 5 112726134.001 6  87675932.060 5
R14  20856477.891 8  20856483.777 7 111176771.645 8  86470765.352 7
R15  21299418.172 7  21299424.184 7 113817631.707 7  88525105.941 7
R17  22787539.953 7  22787543.094 6 121940724.846 7  94842821.231 6
R24  19527666.156 8  19527669.684 7 104423214.739 8  81218249.475 7
> 2025 06 15 08 40  0.0000000  0 21
C20  23875998.938 6 124328597.028 6
C26  24420841.195 7 127165717.545 7
C29  21370852.195 7 111283637.592 7
E02  24466297.125 7  24466297.520 8 128571257.401 7  97263326.620 8
E10  24554960.586 8  24554962.770 8 129037185.313 8  97615798.104 8
E11  23396057.406 7  23396055.160 8 122947108.784 7  93008681.200 8
E16  25674737.484 7  25674740.613 8 134921650.298 7 102067359.821 8
E25  24349555.523 7  24349558.234 8 127957775.340 7  96799234.890 8
E36  24698710.336 7  24698712.891 8 129792594.162 7  98187267.229 8
G08  22283613.391 7                  22283619.965 7 117101174.896 7                  91247702.896 7
G10  21571356.164 8                  21571362.668 7 113358235.407 8                  88331124.586 7
G16  21286277.820 7  21286280.445 5                 111860140.297 7  87163754.452 5
G18  22404342.578 5                                                                
G23  20818701.883 8                  20818706.402 8 109403015.118 8                  85249121.486 8
G27  20186906.141 8                  20186912.254 8 106082901.628 8                  82662221.561 8
R01  22686092.984 5                 121270156.054 5
R08  21048128.117 6  21048129.047 5 112711789.872 6  87664775.521 5
R14  20857421.414 8  20857426.605 7 111181800.271 8  86474676.488 7
R15  21296608.742 7  21296615.172 7 113802620.539 7  88513430.601 7
R17  22783001.516 7  22783005.031 6 121916440.493 7  94823933.455 6
R24  19525326.398 8  19525330.523 7 104410705.929 8  81208520.413 7
> 2025 06 15 08 40  5.0000000  0 21
C20  23872245.305 6 124309041.653 6
C26  24420031.414 7 127161501.017 7
C29  21369828.805 7 111278307.872 7
E02  24463992.094 8  24463992.418 8 128559143.782 8  97254162.752 8
E10  24555212.039 7  24555214.008 9 129038505.586 7  97616796.874 9
E11  23395098.578 7  23395096.805 8 122942072.413 7  93004871.220 8
E16  25676048.813 6  25676052.289 8 134928542.851 6 102072573.976 8
E25  24350015.695 7  24350018.871 8 127960195.998 7  96801066.096 8
E36  24695479.695 7  24695482.426 8 129775617.783 7  98174424.697 8
G08  22279346.188 7                  22279352.801 6 117078752.916 7                  91230231.220 6
G10  21567764.938 8                  21567771.844 7 113339365.274 8                  88316420.599 7
G16  21287021.453 7  21287024.227 5                 111864048.000 7  87166799.402 5
G18  22405466.586 5                                 117741509.104 5                
G23  20817768.313 8                  20817773.055 8 109398110.360 8                  85245299.605 8
G27  20184406.391 8                  20184412.441 8 106069766.056 8                  82651986.053 8
R01  22680647.422 5                 121241044.952 5
R08  21045452.125 6  21045455.066 5 112697468.195 6  87653636.474 5
R14  20858367.969 8  20858374.145 7 111186847.688 8  86478602.242 7
R15  21293803.820 7  21293810.547 7 113787631.532 7  88501772.468 7
R17  22778461.742 7  22778467.895 6 121892160.009 7  94805048.670 6
R24  19522989.188 8  19522993.719 7 104398208.662 8  81198800.326 7
> 2025 06 15 08 40 10.0000000  0 21
C20  23868492.180 6 124289496.605 6
C26  24419223.414 7 127157298.167 7
C29  21368806.766 7 111272986.451 7
E02  24461688.945 8  24461689.422 8 128547041.518 8  97245007.468 8
E10  24555464.273 8  24555466.180 8 129039830.575 8  97617799.201 8
E11  23394141.766 7  23394139.820 8 122937043.294 7  93001066.721 8
E16  25677361.734 7  25677364.898 8 134935440.758 7 102077792.189 8
E25  24350478.445 7  24350481.309 8 127962626.055 7  96802904.401 8
E36  24692250.539 7  24692253.066 8 129758647.339 7  98161586.674 8
G08  22275081.055 7                  22275087.246 6 117056337.222 7                  91212764.456 6
G10  21564176.773 8                  21564183.359 7 113320507.665 8                  88301726.371 7
G16  21287767.641 7  21287770.340 5                 111867969.427 7  87169855.060 5
G18  22406592.727 5                                 117747424.499 5                
G23  20816838.797 8                  20816842.789 8 109393221.964 8                  85241490.465 8
G27  20181909.766 8                  20181915.121 8 106056643.360 8                  82641760.590 8
R01  22675202.922 5                 121211939.644 5
R08  21042780.422 5  21042784.289 5 112683168.357 5  87642514.369 5
R14  20859318.016 8  20859324.465 7 111191913.327 8  86482542.174 7
R15  21291003.594 7  21291009.273 7 113772664.289 7  88490131.278 7
R17  22773924.500 7  22773931.316 6 121867882.701 7  94786166.353 6
R24  19520654.148 8  19520659.078 7 104385722.326 8  81189088.740 7
> 2025 06 15 08 40 15.0000000  0 21
C20  23864739.883 6 124269962.736 6
C26  24418419.070 6 127153109.719 6
C29  21367786.508 7 111267674.055 7
E02  24459388.102 8  24459388.785 8 128534951.324 8  97235861.304 8
E10  24555717.719 7  24555719.305 8 129041160.986 7  97618805.662 8
E11  23393186.266 7  23393184.352 8 122932022.090 7  92997268.212 8
E16  25678675.086 7  25678678.758 8 134942344.734 7 102083014.982 8
E25  24350942.664 7  24350945.703 8 127965066.241 7  96804750.371 8
E36  24689022.000 8  24689025.008 8 129741683.572 8  98148753.694 8
G08  22270817.211 7                  22270823.438 7 117033928.473 7                  91195303.089 7
G10  21560590.430 8                  21560597.504 7 113301663.350 8                  88287042.493 7
G16  21288516.492 7  21288519.727 5                 111871905.271 7  87172921.945 5
G18  22407721.508 5                                 117753346.162 5                
G23  20815911.539 8                  20815915.863 8 109388350.705 8                  85237694.677 8
G27  20179414.805 8                  20179421.031 8 106043534.297 8                  82631545.735 8
R01  22669760.555 5                 121182841.068 5
R08  21040114.703 6  21040118.852 6 112668891.355 6  87631410.004 6
R14  20860271.656 8  20860278.039 7 111196997.787 8  86486496.732 7
R15  21288206.492 7  21288212.504 7 113757719.475 7  88478507.539 7
R17  22769387.719 7  22769395.180 6 121843609.505 7  94767287.232 6
R24  19518321.094 8  19518326.270 7 104373247.915 8  81179386.423 7
> 2025 06 15 08 40 20.0000000  0 21
C20  23860990.891 6 124250438.856 6
C26  24417617.914 6 127148934.531 6
C29  21366767.859 7 111262369.578 7
E02  24457089.656 8  24457090.188 8 128522872.063 8  97226723.424 8
E10  24555971.500 7  24555973.332 9 129042495.726 7  97619815.377 9
E11  23392231.922 7  23392230.180 8 122927007.746 7  92993474.894 8
E16  25679989.055 7  25679993.551 8 134949253.676 7 102088241.542 8
E25  24351408.906 7  24351411.738 8 127967515.442 7  96806603.172 8
E36  24685795.156 8  24685798.004 8 129724725.358 8  98135924.914 8
G08  22266553.633 7                  22266560.250 7 117011525.646 7                  91177846.358 7
G10  21557006.258 8                  21557013.602 7 113282831.210 8                  88272368.100 7
G16  21289267.172 7  21289271.715 5                 111875854.393 7  87175999.188 5
G18  22408849.031 5                                 117759272.974 5                
G23  20814987.719 8                  20814991.805 8 109383495.464 8                  85233911.367 8
G27  20176922.828 8                  20176928.398 7 106030437.729 8                  82621340.611 7
R01  22664314.508 4                 121153748.026 4
R08  21037454.633 5  21037457.270 6 112654635.783 5  87620322.256 6
R14  20861229.508 8  20861235.426 7 111202100.085 8  86490465.178 7
R15  21285414.367 7  21285419.852 7 113742795.925 7  88466900.348 7
R17  22764851.227 7  22764860.184 7 121819339.256 7  94748410.384 7
R24  19515990.023 8  19515995.172 7 104360784.110 8  81169692.358 7
> 2025 06 15 08 40 25.0000000  0 21
C20  23857242.656 6 124230925.213 6
C26  24416818.406 6 127144772.967 6
C29  21365750.719 7 111257073.313 7
E02  24454792.914 7  24454793.762 8 128510804.091 7  97217594.086 8
E10  24556226.258 8  24556228.164 8 129043835.084 8  97620828.590 8
E11  23391279.195 7  23391277.348 8 122922000.521 7  92989686.959 8
E16  25681304.633 7  25681309.313 8 134956167.890 7 102093472.077 8
E25  24351876.734 7  24351879.570 8 127969973.946 7  96808463.000 8
E36  24682568.773 8  24682572.082 8 129707773.026 8  98123100.592 8
G08  22262291.133 7                  22262298.281 7 116989129.007 7                  91160394.440 7
G10  21553424.773 8                  21553431.930 7 113264011.555 8                  88257703.442 7
G16  21290022.086 7  21290025.953 5                 111879817.081 7  87179086.988 5
G18  22409978.188 5                  22409988.754 4 117765205.304 5                  91765156.13214
G23  20814066.484 7                  20814070.809 8 109378656.503 7                  85230140.754 8
G27  20174432.500 8                  20174438.719 8 106017354.006 8                  82611145.516 8
R01  22658873.742 5                 121124661.02715
R08  21034797.352 5  21034799.336 6 112640402.127 5  87609251.544 6
R14  20862189.781 8  20862196.066 7 111207220.479 8  86494447.698 7
R15  21282625.750 8  21282631.031 7 113727894.001 8  88455309.964 7
R17  22760316.719 7  22760325.734 7 121795072.203 7  94729536.012 7
R24  19513661.445 8  19513666.090 7 104348331.308 8  81160006.850 7
> 2025 06 15 08 40 30.0000000  0 20
C20  23853496.383 6 124211422.100 6
C26  24416021.609 6 127140625.123 6
C29  21364734.797 7 111251785.436 7
E02  24452498.602 8  24452499.453 8 128498747.559 8  97208473.403 8
E10  24556482.258 8  24556483.977 8 129045179.241 8  97621845.421 8
E11  23390327.711 7  23390325.891 8 122917000.554 7  92985904.509 8
E16  25682621.242 7  25682626.078 8 134963087.489 7 102098706.695 8
E25  24352346.492 7  24352349.195 8 127972441.904 7  96810329.983 8
E36  24679343.789 8  24679347.309 8 129690826.714 8  98110280.826 8
G08  22258031.156 7                  22258038.172 7 116966738.758 7                  91142947.512 7
G10  21549846.359 8                  21549852.754 7 113245204.544 8                  88243048.621 7
G16  21290778.141 7  21290782.867 5                 111883793.501 7  87182185.478 5
G18  22411110.773 5                  22411119.383 4 117771143.230 5                  91769783.073 4
G23  20813149.117 8                  20813153.176 7 109373834.021 8                  85226382.985 7
G27  20171945.352 8                  20171951.344 8 106004283.276 8                  82600960.538 8
R08  21032142.836 6  21032145.813 6 112626190.476 6  87598197.971 6
R14  20863154.578 8  20863159.746 7 111212359.045 8  86498444.366 7
R15  21279841.961 8  21279846.289 7 113713013.871 8  88443736.531 7
R17  22755784.336 7  22755791.625 7 121770808.550 7  94710664.271 7
R24  19511335.258 8  19511339.520 7 104335889.608 8  81150329.968 7
> 2025 06 15 08 40 35.0000000  0 20
C20  23849753.789 6 124191930.707 6
C26  24415228.547 6 127136492.251 6
C29  21363720.922 7 111246507.169 7
E02  24450206.297 7  24450207.594 8 128486703.681 7  97199362.293 8
E10  24556738.891 7  24556740.895 8 129046529.380 7  97622866.800 8
E11  23389377.773 7  23389376.074 8 122912009.146 7  92982128.527 8
E16  25683939.359 7  25683944.125 8 134970013.770 7 102103946.351 8
E25  24352818.211 8  24352820.859 8 127974920.576 8  96812205.073 8
E36  24676120.227 8  24676123.938 8 129673887.670 8  98097466.566 8
G08  22253771.367 7                  22253778.934 7 116944356.117 7                  91125506.502 7
G10  21546269.539 8                  21546276.363 7 113226411.422 8                  88228404.641 7
G16  21291537.633 7  21291542.398 5                 111887784.865 7  87185295.613 5
G18  22412242.359 5                  22412251.820 4 117777087.927 5                  91774415.242 4
G23  20812234.641 7                  20812238.742 8 109369029.222 7                  85222638.993 8
G27  20169460.938 8                  20169466.855 8 105991226.763 8                  82590786.633 8
R08  21029498.719 6  21029496.078 6 112612001.987 6  87587162.458 6
R14  20864121.898 8  20864127.008 7 111217517.109 8  86502456.182 7
R15  21277061.867 8  21277065.605 7 113698156.719 8  88432180.979 7
R17  22751251.000 7  22751258.262 7 121746549.415 7  94691796.034 7
R24  19509010.797 8  19509015.145 7 104323460.156 8  81140662.616 7
> 2025 06 15 08 40 40.0000000  0 20
C20  23846013.109 6 124172448.378 6
C26  24414437.922 6 127132371.707 6
C29  21362708.531 7 111241235.872 7
E02  24447916.422 7  24447917.668 8 128474669.836 7  97190258.769 8
E10  24556996.508 7  24556998.461 9 129047882.877 7  97623890.712 9
E11  23388428.977 7  23388427.398 8 122907023.579 7  92978356.978 8
E16  25685258.188 7  25685262.910 8 134976944.024 7 102109189.026 8
E25  24353291.188 7  24353294.070 8 127977407.272 7  96814086.235 8
E36  24672897.547 8  24672901.430 8 129656953.229 8  98084655.782 8
G08  22249512.516 7                  22249520.797 7 116921978.462 7                  91108069.382 7
G10  21542695.516 7                  21542702.328 7 113207629.597 7                  88213769.453 7
G16  21292299.891 7  21292304.023 5                 111891788.549 7  87188415.347 5
G18  22413371.516 5                  22413383.004 3 117783036.847 5                  91779050.822 3
G23  20811323.055 7                  20811327.141 8 109364239.472 7                  85218906.713 8
G27  20166978.313 8                  20166984.348 7 105978181.864 8                  82580621.779 7
R08  21026854.492 6  21026850.563 6 112597834.077 6  87576142.978 6
R14  20865092.852 8  20865097.754 7 111222691.856 8  86506480.999 7
R15  21274284.695 8  21274288.730 7 113683320.051 8  88420641.357 7
R17  22746719.766 7  22746725.879 7 121722292.333 7  94672929.428 7
R24  19506688.508 8  19506692.949 7 104311040.528 8  81131002.905 7
> 2025 06 15 08 40 45.0000000  0 20
C20  23842273.516 6 124152977.299 6
C26  24413648.898 6 127128265.624 6
C29  21361697.484 7 111235973.698 7
E02  24445628.750 7  24445630.059 8 128462648.161 7  97181164.456 8
E10  24557255.438 7  24557257.094 8 129049241.863 7  97624918.767 8
E11  23387481.969 7  23387480.184 8 122902046.013 7  92974591.477 8
E16  25686578.125 7  25686582.852 8 134983880.382 7 102114436.319 8
E25  24353766.555 8  24353769.211 8 127979904.143 8  96815975.104 8
E36  24669676.469 8  24669680.168 8 129640025.543 8  98071850.113 8
G08  22245256.391 7                  22245263.941 7 116899607.913 7                  91090637.782 7
G10  21539123.992 7                  21539130.840 7 113188861.192 7                  88199144.695 7
G16  21293064.797 7  21293068.633 5                 111895806.632 7  87191546.307 5
G18  22414498.070 4                                 117788992.071 4                
G23  20810414.695 7                  20810419.125 7 109359466.887 7                  85215187.821 7
G27  20164498.781 8                  20164504.793 8 105965150.706 8                  82570467.618 8
R08  21024206.367 6  21024209.145 6 112583688.943 6  87565141.238 6
R14  20866066.250 8  20866071.859 7 111227885.468 8  86510520.471 7
R15  21271512.258 8  21271516.598 7 113668505.872 8  88409119.243 7
R17  22742186.445 7  22742193.309 7 121698039.308 7  94654065.956 7
R24  19504368.219 8  19504372.813 7 104298632.768 8  81121352.417 7
> 2025 06 15 08 40 50.0000000  0 19
C20  23838536.797 6 124133516.704 6
C26  24412863.289 6 127124173.267 6
C29  21360688.594 7 111230719.849 7
E02  24443343.133 7  24443344.586 8 128450637.904 7  97172078.775 8
E10  24557514.930 7  24557516.582 8 129050605.571 7  97625950.396 8
E11  23386536.102 7  23386534.371 8 122897075.704 7  92970831.465 8
E16  25687899.578 7  25687903.805 8 134990822.114 7 102119687.678 8
E25  24354243.305 8  24354246.129 8 127982410.397 8  96817871.067 8
E36  24666456.297 8  24666460.043 8 129623103.849 8  98059048.975 8
G08  22241000.547 7                  22241007.891 7 116877243.754 7                  91073211.161 7
G10  21535555.781 7                  21535561.852 7 113170105.398 7                  88184529.794 7
G16  21293831.953 7  21293835.918 6                 111899838.365 7  87194687.906 6
G23  20809509.602 8                  20809514.227 8 109354710.702 8                  85211481.716 8
G27  20162021.477 8                  20162027.391 7 105952132.511 8                  82560323.574 7
R08  21021567.688 6  21021571.637 6 112569565.790 6  87554156.605 6
R14  20867044.867 8  20867049.723 7 111233097.117 8  86514573.958 7
R15  21268744.742 8  21268747.848 6 113653713.414 8  88397614.027 6
R17  22737655.695 7  22737661.781 7 121673789.600 7  94635205.102 7
R24  19502049.297 8  19502054.398 7 104286236.052 8  81111710.528 7
> 2025 06 15 08 40 55.0000000  0 19
C20  23834801.586 6 124114065.139 6
C26  24412079.305 6 127120093.115 6
C29  21359681.563 7 111225472.833 7
E02  24441059.648 7  24441061.004 8 128438637.575 7  97163000.601 8
E10  24557774.727 7  24557776.684 8 129051972.502 7  97626984.467 8
E11  23385591.148 7  23385589.680 8 122892111.102 7  92967075.771 8
E16  25689221.273 7  25689225.449 8 134997767.686 7 102124941.938 8
E25  24354721.875 8  24354724.574 8 127984924.579 8  96819773.024 8
E36  24663237.438 8  24663240.770 8 129606186.688 8  98046251.259 8
G08  22236746.195 7                  22236753.371 7 116854884.472 7                  91055788.354 7
G10  21531988.523 7                  21531994.898 7 113151360.803 7                  88169923.612 7
G16  21294601.578 7  21294605.293 5                 111903882.251 7  87197838.985 5
G23  20808607.039 8                  20808612.074 8 109349969.440 8                  85207787.218 8
G27  20159546.391 8                  20159552.160 8 105939125.818 8                  82550188.478 8
R08  21018935.258 6  21018937.883 6 112555463.244 6  87543187.932 6
R14  20868025.742 8  20868030.879 7 111238325.270 8  86518640.274 7
R15  21265980.789 8  21265984.125 7 113638941.432 8  88386124.697 7
R17  22733124.188 7  22733129.871 7 121649541.757 7  94616345.698 7
R24  19499732.398 8  19499737.863 7 104273848.970 8  81102076.121 7
> 2025 06 15 08 41  0.0000000  0 19
C20  23831067.500 6 124094623.702 6
C26  24411298.266 7 127116026.287 7
C29  21358675.813 7 111220233.796 7
E02  24438778.430 7  24438779.590 8 128426648.285 7  97153930.787 8
E10  24558035.703 7  24558037.613 8 129053343.771 7  97628021.813 8
E11  23384647.703 7  23384646.266 8 122887153.387 7  92963325.292 8
E16  25690543.922 7  25690548.078 8 135004718.210 7 102130199.948 8
E25  24355202.039 8  24355204.734 8 127987447.769 8  96821681.798 8
E36  24660019.086 7  24660022.590 8 129589275.135 7  98033457.775 8
G08  22232492.641 7                  22232499.566 7 116832531.234 7                  91038370.256 7
G10  21528423.523 7                  21528430.262 7 113132628.449 7                  88155326.996 7
G16  21295374.102 7  21295377.426 5                 111907939.391 7  87201000.396 5
G23  20807708.258 8                  20807712.563 7 109345244.197 8                  85204105.207 7
G27  20157073.523 8                  20157079.574 8 105926131.718 8                  82540063.216 8
R08  21016303.133 6  21016307.734 6 112541382.232 6  87532236.053 6
R14  20869010.023 8  20869015.047 7 111243571.206 8  86522720.441 7
R15  21263219.820 8  21263223.352 7 113624190.749 8  88374651.952 7
R17  22728593.031 7  22728598.891 7 121625296.885 7  94597488.584 7
R24  19497418.656 8  19497423.391 7 104261472.496 8  81092449.984 7
> 2025 06 15 08 41  5.0000000  0 19
C20  23827335.883 6 124075193.889 6
C26  24410519.469 7 127111974.230 7
C29  21357671.102 7 111215004.263 7
E02  24436499.273 7  24436500.508 8 128414671.582 7  97144870.479 8
E10  24558297.602 7  24558299.699 8 129054720.911 7  97629063.603 8
E11  23383706.234 7  23383704.461 8 122882204.021 7  92959581.120 8
E16  25691867.813 7  25691871.945 8 135011675.197 7 102135462.838 8
E25  24355683.930 8  24355686.895 8 127989981.496 8  96823598.540 8
E36  24656802.508 7  24656805.770 8 129572370.758 7  98020669.729 8
G08  22228239.766 7                  22228246.969 7 116810185.502 7                  91020957.996 7
G10  21524862.258 8                  21524868.371 7 113113909.930 8                  88140741.123 7
G16  21296148.742 7  21296152.297 6                 111912011.356 7  87204173.341 6
G23  20806812.320 8                  20806816.938 8 109340536.501 8                  85200436.860 8
G27  20154603.375 8                  20154609.496 8 105913151.774 8                  82529948.975 8
R08  21013675.586 6  21013681.984 6 112527324.508 6  87521302.335 6
R14  20869997.414 8  20870002.781 7 111248836.269 8  86526815.480 7
R15  21260463.430 8  21260467.609 7 113609463.088 8  88363197.109 7
R17  22724062.859 7  22724068.902 7 121601056.590 7  94578635.033 7
R24  19495106.891 8  19495111.125 7 104249108.366 8  81082833.447 7
> 2025 06 15 08 41 10.0000000  0 19
C20  23823606.906 6 124055774.465 6
C26  24409743.961 7 127107935.705 7
C29  21356668.695 7 111209782.874 7
E02  24434222.367 7  24434223.570 8 128402706.133 7  97135818.692 8
E10  24558560.750 7  24558562.586 8 129056102.563 7  97630108.798 8
E11  23382765.875 7  23382763.992 8 122877261.719 7  92955842.300 8
E16  25693192.883 7  25693196.785 8 135018637.330 7 102140729.639 8
E25  24356167.844 7  24356170.785 8 127992524.456 7  96825522.261 8
E36  24653587.313 8  24653590.078 8 129555472.152 8  98007886.044 8
G08  22223988.578 7                  22223995.965 7 116787846.003 7                  91003550.615 7
G10  21521302.328 8                  21521308.801 7 113095203.932 8                  88126165.045 7
G16  21296925.984 7  21296930.051 5                 111916096.733 7  87207356.745 5
G23  20805919.500 8                  20805924.297 8 109335845.023 8                  85196781.149 8
G27  20152136.336 8                  20152142.281 7 105900184.646 8                  82519844.732 7
R08  21011053.172 5  21011060.824 6 112513288.621 5  87510385.568 6
R14  20870989.500 8  20870993.988 7 111254119.227 8  86530924.429 7
R15  21257711.164 8  21257715.363 7 113594757.056 8  88351759.075 7
R17  22719533.055 7  22719539.676 7 121576819.500 7  94559783.972 7
R24  19492796.680 8  19492801.484 7 104236755.165 8  81073225.395 7
> 2025 06 15 08 41 15.0000000  0 19
C20  23819879.359 6 124036365.837 6
C26  24408971.500 7 127103911.165 7
C29  21355667.406 7 111204570.146 7
E02  24431947.469 7  24431948.922 8 128390752.412 7  97126775.779 8
E10  24558824.672 7  24558826.473 8 129057489.233 7  97631157.800 8
E11  23381826.578 7  23381824.945 8 122872326.922 7  92952109.150 8
E16  25694518.773 7  25694522.688 8 135025605.094 7 102146000.679 8
E25  24356653.758 7  24356656.520 8 127995077.067 7  96827453.289 8
E36  24650372.625 7  24650375.539 8 129538579.896 7  97995107.163 8
G08  22219738.625 7                  22219746.168 7 116765513.214 7                  90986148.441 7
G10  21517745.219 8                  21517751.570 7 113076510.934 8                  88111599.081 7
G16  21297706.461 7  21297710.141 5                 111920196.043 7  87210551.007 5
G23  20805029.867 8                  20805034.656 8 109331170.221 8                  85193138.448 8
G27  20149671.555 8                  20149677.039 7 105887230.823 8                  82509750.845 7
R08  21008436.000 5  21008443.469 6 112499275.164 5  87499486.253 6
R14  20871983.695 8  20871988.395 7 111259420.461 8  86535047.586 7
R15  21254963.281 8  21254967.992 7 113580073.265 8  88340338.357 7
R17  22715004.109 7  22715010.922 7 121552585.971 7  94540935.682 7
R24  19490488.930 8  19490493.910 7 104224413.412 8  81063626.236 7
> 2025 06 15 08 41 20.0000000  0 19
C20  23816154.266 6 124016966.981 6
C26  24408201.125 7 127099899.448 7
C29  21354667.617 7 111199364.955 7
E02  24429674.914 8  24429676.266 8 128378809.322 8  97117740.917 8
E10  24559089.242 7  24559091.031 8 129058879.788 7  97632209.741 8
E11  23380888.914 7  23380887.090 8 122867398.524 7  92948380.848 8
E16  25695845.305 7  25695849.453 8 135032577.334 7 102151275.120 8
E25  24357141.352 8  24357143.938 8 127997638.262 8  96829390.804 8
E36  24647159.070 7  24647162.023 8 129521692.806 7  97982332.187 8
G08  22215489.945 7                  22215497.133 7 116743186.051 7                  90968750.654 7
G10  21514190.516 8                  21514196.730 7 113057829.822 8                  88097042.384 7
G16  21298489.008 7  21298492.738 5                 111924308.152 7  87213755.251 5
G23  20804143.273 8                  20804148.230 8 109326511.005 8                  85189507.876 8
G27  20147208.344 8                  20147214.215 8 105874289.228 8                  82499666.488 8
R08  21005824.586 6  21005830.723 6 112485282.961 6  87488603.461 6
R14  20872981.586 8  20872986.109 7 111264738.915 8  86539184.139 7
R15  21252219.758 8  21252223.719 7 113565410.395 8  88328933.889 7
R17  22710477.133 7  22710482.969 7 121528355.021 7  94522089.373 7
R24  19488182.898 8  19488187.426 7 104212081.966 8  81054035.103 7
> 2025 06 15 08 41 25.0000000  0 19
C20  23812431.219 6 123997578.467 6
C26  24407433.977 7 127095901.226 7
C29  21353669.953 7 111194167.894 7
E02  24427403.977 8  24427405.734 8 128366877.479 8  97108714.560 8
E10  24559354.742 7  24559356.516 8 129060274.821 7  97633265.062 8
E11  23379952.609 7  23379950.582 8 122862477.158 7  92944657.860 8
E16  25697173.039 7  25697177.195 8 135039554.703 7 102156553.441 8
E25  24357630.617 7  24357633.039 8 128000208.621 7  96831335.259 8
E36  24643946.594 7  24643949.613 8 129504811.520 7  97969561.603 8
G08  22211242.477 7                  22211249.586 7 116720865.115 7                  90951357.737 7
G10  21510637.727 8                  21510644.270 7 113039161.199 8                  88082495.434 7
G16  21299273.609 7  21299277.676 5                 111928433.674 7  87216969.948 5
G23  20803260.398 8                  20803264.730 8 109321867.949 8                  85185889.903 8
G27  20144748.656 8                  20144754.027 8 105861360.439 8                  82489592.100 8
R08  21003218.578 6  21003222.348 6 112471312.641 6  87477737.621 6
R14  20873982.031 8  20873987.324 7 111270075.070 8  86543334.453 7
R15  21249479.008 8  21249484.477 7 113550769.295 8  88317546.363 7
R17  22705949.383 7  22705955.141 7 121504127.221 7  94503245.541 7
R24  19485879.047 8  19485883.703 7 104199761.352 8  81044452.398 7
> 2025 06 15 08 41 30.0000000  0 20
C20  23808709.602 6 123978200.107 6
C26  24406668.180 7 127091916.230 7
C29  21352674.086 7 111188978.768 7
E02  24425135.703 8  24425137.285 8 128354956.645 8  97099696.527 8
E10  24559621.109 7  24559622.742 8 129061674.128 7  97634323.631 8
E11  23379017.359 7  23379015.379 8 122857562.564 7  92940939.996 8
E16  25698502.016 7  25698505.852 8 135046536.897 7 102161835.412 8
E25  24358121.328 7  24358123.855 8 128002787.902 7  96833286.456 8
E36  24640735.141 7  24640738.277 8 129487935.817 7  97956795.250 8
G08  22206996.133 7                  22207003.082 7 116698550.164 7                  90933969.478 7
G10  21507087.211 8                  21507093.980 7 113020504.856 8                  88067958.027 7
G16  21300060.984 7  21300064.758 5                 111932572.294 7  87220194.847 5
G23  20802378.906 8                  20802384.309 8 109317240.854 8                  85182284.365 8
G27  20142290.336 8                  20142296.285 8 105848444.235 8                  82479527.531 8
R01  22588246.836 5                 120747077.73715
R08  21000613.867 6  21000617.336 5 112457363.927 6  87466888.647 5
R14  20874986.148 8  20874991.566 7 111275428.832 8  86547498.484 7
R15  21246743.352 8  21246747.949 7 113536149.505 8  88306175.408 7
R17  22701423.477 7  22701427.820 7 121479902.410 7  94484404.044 7
R24  19483577.641 8  19483581.434 7 104187451.377 8  81034877.975 7
> 2025 06 15 08 41 35.0000000  0 20
C20  23804990.898 6 123958832.350 6
C26  24405905.875 7 127087944.936 7
C29  21351679.055 7 111183798.023 7
E02  24422869.688 8  24422871.051 8 128343047.325 8  97090687.210 8
E10  24559888.398 7  24559889.914 8 129063078.154 7  97635385.754 8
E11  23378083.422 7  23378081.559 8 122852655.223 7  92937227.624 8
E16  25699831.547 7  25699835.594 8 135053524.467 7 102167121.444 8
E25  24358613.922 7  24358616.453 8 128005376.597 7  96835244.780 8
E36  24637524.766 8  24637528.102 8 129471066.139 8  97944033.453 8
G08  22202751.078 7                  22202758.133 7 116676241.713 7                  90916586.271 7
G10  21503539.273 8                  21503546.172 7 113001861.290 8                  88053430.581 7
G16  21300851.078 7  21300855.078 5                 111936724.511 7  87223430.325 5
G23  20801502.477 8                  20801506.980 8 109312630.163 8                  85178691.604 8
G27  20139834.570 8                  20139840.766 7 105835541.106 8                  82469473.155 7
R01  22582818.914 5                 120718075.690 5
R08  20998011.969 6  20998016.242 6 112443437.350 6  87456056.908 6
R14  20875993.391 8  20875998.910 7 111280800.505 8  86551676.455 7
R15  21244011.352 8  21244016.496 7 113521551.582 8  88294821.470 7
R17  22696895.195 7  22696901.332 7 121455681.012 7  94465565.224 7
R24  19481277.320 8  19481281.750 7 104175152.487 8  81025312.174 7
> 2025 06 15 08 41 40.0000000  0 20
C20  23801273.578 7 123939474.460 7
C26  24405144.906 7 127083986.557 7
C29  21350685.492 7 111178624.880 7
E02  24420605.305 7  24420606.805 8 128331148.708 7  97081685.990 8
E10  24560156.164 7  24560157.777 8 129064486.133 7  97636450.879 8
E11  23377150.891 7  23377148.961 8 122847754.346 7  92933520.134 8
E16  25701162.078 7  25701166.141 8 135060516.543 7 102172410.890 8
E25  24359108.258 7  24359110.637 8 128007973.882 7  96837209.608 8
E36  24634315.563 8  24634318.941 8 129454201.739 8  97931275.650 8
G08  22198506.914 7                  22198514.285 7 116653939.000 7                  90899207.532 7
G10  21499994.078 8                  21500000.902 7 112983229.733 8                  88038912.486 7
G16  21301643.367 7  21301647.766 5                 111940889.543 7  87226675.801 5
G23  20800628.086 8                  20800632.605 8 109308035.082 8                  85175111.019 8
G27  20137381.406 8                  20137387.504 8 105822650.265 8                  82459428.354 8
R01  22577391.195 5                 120689079.310 5
R08  20995417.344 6  20995419.430 6 112429532.215 6  87445241.820 6
R14  20877004.883 8  20877010.172 7 111286189.463 8  86555867.867 7
R15  21241283.781 8  21241287.961 7 113506974.900 8  88283484.041 7
R17  22692369.531 7  22692375.547 7 121431462.234 7  94446728.425 7
R24  19478979.172 8  19478983.227 7 104162864.029 8  81015754.501 7
> 2025 06 15 08 41 45.0000000  0 20
C20  23797558.336 6 123920126.946 6
C26  24404387.383 7 127080041.615 7
C29  21349693.844 7 111173459.847 7
E02  24418343.516 7  24418344.676 8 128319261.326 7  97072693.258 8
E10  24560425.094 7  24560426.492 8 129065898.544 7  97637519.346 8
E11  23376219.703 7  23376217.680 8 122842860.435 7  92929817.928 8
E16  25702493.109 7  25702497.660 8 135067513.641 7 102177704.135 8
E25  24359604.289 7  24359606.625 8 128010580.291 7  96839181.328 8
E36  24631107.500 8  24631110.824 8 129437343.093 8  97918522.195 8
G08  22194264.352 7                  22194271.066 7 116631642.514 7                  90881833.632 7
G10  21496451.086 8                  21496457.746 7 112964610.657 8                  88024404.115 7
G16  21302438.555 7  21302442.836 5                 111945067.865 7  87229931.632 5
G23  20799756.594 8                  20799761.188 8 109303456.131 8                  85171542.986 8
G27  20134930.938 8                  20134937.141 8 105809772.245 8                  82449393.535 8
R01  22571967.664 5                 120660088.840 5
R08  20992822.789 6  20992826.934 6 112415648.836 6  87434443.653 6
R14  20878018.727 8  20878024.016 7 111291596.056 8  86560072.980 7
R15  21238560.703 8  21238564.828 7 113492419.803 8  88272163.398 7
R17  22687844.547 7  22687850.469 6 121407246.650 7  94427894.104 6
R24  19476683.273 8  19476687.711 7 104150586.408 8  81006205.234 7
> 2025 06 15 08 41 50.0000000  0 20
C20  23793844.742 6 123900790.623 6
C26  24403631.742 7 127076110.884 7
C29  21348703.813 7 111168303.764 7
E02  24416083.875 8  24416084.836 8 128307386.033 8  97063709.674 8
E10  24560694.375 7  24560696.250 8 129067316.227 7  97638591.810 8
E11  23375289.688 7  23375287.898 8 122837974.327 7  92926121.614 8
E16  25703826.039 7  25703830.277 8 135074516.625 7 102183001.821 8
E25  24360102.250 7  24360104.469 8 128013196.612 7  96841160.555 8
E36  24627900.813 8  24627904.035 8 129420491.082 8  97905773.765 8
G08  22190022.203 7                  22190029.688 7 116609353.091 7                  90864465.240 7
G10  21492910.602 8                  21492917.082 7 112946004.960 8                  88009906.188 7
G16  21303235.547 7  21303240.582 5                 111949260.344 7  87233198.498 5
G23  20798888.523 8                  20798892.926 8 109298894.123 8                  85167988.172 8
G27  20132483.180 8                  20132489.074 7 105796907.890 8                  82439369.371 7
R01  22566544.641 5                 120631105.414 5
R08  20990235.773 7  20990238.762 6 112401788.300 7  87423663.227 6
R14  20879036.453 8  20879042.500 7 111297021.111 8  86564292.480 7
R15  21235840.758 8  21235845.453 6 113477887.153 8  88260860.235 6
R17  22683319.438 7  22683325.922 7 121383034.976 7  94409062.824 7
R24  19474389.461 8  19474393.270 7 104138320.519 8  80996665.087 7
> 2025 06 15 08 41 55.0000000  0 20
C20  23790133.594 7 123881465.903 7
C26  24402879.203 7 127072194.801 7
C29  21347715.469 7 111163157.007 7
E02  24413826.539 8  24413827.375 8 128295523.171 8  97054735.492 8
E10  24560965.234 7  24560967.113 8 129068739.564 7  97639668.551 8
E11  23374361.258 7  23374359.684 8 122833096.403 7  92922431.493 8
E16  25705160.063 7  25705164.133 8 135081525.877 7 102188304.257 8
E25  24360602.250 7  24360604.301 8 128015823.279 7  96843147.616 8
E36  24624695.320 8  24624698.520 8 129403646.068 8  97893030.621 8
G08  22185781.813 7                  22185789.121 7 116587071.159 7                  90847102.690 7
G10  21489372.539 8                  21489379.320 7 112927412.983 8                  87995418.939 7
G16  21304036.484 7  21304041.559 5                 111953467.343 7  87236476.667 5
G23  20798023.391 8                  20798028.355 8 109294349.475 8                  85164446.888 8
G27  20130037.172 8                  20130043.871 7 105784057.579 8                  82429356.131 7
R01  22561125.039 5                 120602129.359 5
R08  20987652.547 7  20987654.785 6 112387950.853 7  87412900.762 6
R14  20880056.898 8  20880063.453 7 111302465.040 8  86568526.651 7
R15  21233125.320 8  21233130.422 7 113463377.467 8  88249574.924 7
R17  22678796.172 7  22678801.469 7 121358827.860 7  94390235.112 7
R24  19472097.844 8  19472102.215 7 104126066.783 8  80987134.401 7
> 2025 06 15 08 42  0.0000000  0 21
C20  23786423.688 6 123862151.615 6
C26  24402130.148 7 127068292.097 7
C29  21346729.070 7 111158018.359 7
C30  24409967.156 5 127109077.12715
E02  24411571.453 8  24411572.070 8 128283671.579 8  97045769.839 8
E10  24561237.109 7  24561238.746 8 129070167.329 7  97640748.641 8
E11  23373434.070 7  23373432.754 8 122828225.433 7  92918746.643 8
E16  25706494.984 7  25706498.910 8 135088540.131 7 102193610.479 8
E25  24361103.992 8  24361105.910 8 128018459.050 8  96845141.558 8
E36  24621490.688 8  24621494.125 8 129386806.841 8  97880291.865 8
G08  22181544.047 7                  22181550.785 7 116564795.468 7                  90829745.024 7
G10  21485836.766 8                  21485843.828 7 112908833.558 8                  87980941.472 7
G16  21304839.438 7  21304844.402 5                 111957687.615 7  87239765.193 5
G23  20797161.797 8                  20797166.539 8 109289820.927 8                  85160918.158 8
G27  20127594.328 8                  20127600.887 8 105771220.090 8                  82419352.888 8
R01  22555701.977 5                 120573159.682 5
R08  20985070.500 7  20985075.813 6 112374135.289 7  87402155.315 6
R14  20881081.914 8  20881087.730 7 111307926.716 8  86572774.613 7
R15  21230414.961 8  21230418.727 7 113448889.582 8  88238306.578 7
R17  22674274.344 7  22674279.477 6 121334623.792 7  94371409.753 6
R24  19469807.930 8  19469812.531 7 104113823.861 8  80977612.131 7
> 2025 06 15 08 42  5.0000000  0 21
C20  23782717.195 7 123842847.032 7
C26  24401382.602 7 127064402.129 7
C29  21345743.695 7 111152887.161 7
C30  24411060.836 5 127114773.041 5
E02  24409318.500 8  24409318.746 8 128271830.552 8  97036812.172 8
E10  24561509.313 7  24561511.188 8 129071598.863 7  97641831.577 8
E11  23372508.508 7  23372507.074 8 122823360.738 7  92915066.526 8
E16  25707830.414 7  25707834.570 8 135095558.700 7 102198919.964 8
E25  24361606.852 8  24361609.137 8 128021103.223 8  96847141.847 8
E36  24618287.070 7  24618290.730 8 129369972.669 7  97867556.925 8
G08  22177304.813 7                  22177313.359 7 116542525.376 7                  90812391.725 7
G10  21482303.688 8                  21482310.441 7 112890265.981 8                  87966473.229 7
G16  21305645.805 7  21305650.203 5                 111961920.469 7  87243063.531 5
G23  20796302.742 8                  20796307.727 8 109285307.810 8                  85157401.438 8
G27  20125153.984 8                  20125160.336 8 105758394.753 8                  82409359.122 8
R01  22550285.219 5                 120544195.431 5
R08  20982496.656 6  20982499.500 6 112360340.997 6  87391426.409 6
R14  20882109.906 8  20882115.926 7 111313405.290 8  86577035.718 7
R15  21227707.172 8  21227711.445 7 113434422.507 8  88227054.407 7
R17  22669751.484 7  22669756.273 7 121310422.240 7  94352586.351 7
R24  19467520.602 8  19467524.805 7 104101591.179 8  80968097.822 7
> 2025 06 15 08 42 10.0000000  0 21
C20  23779011.563 7 123823552.559 7
C26  24400638.750 7 127060525.237 7
C29  21344759.289 7 111147763.795 7
C30  24412154.328 5 127120471.85615
E02  24407066.961 8  24407067.539 8 128260000.495 8  97027862.813 8
E10  24561782.414 7  24561784.281 8 129073034.518 7  97642917.639 8
E11  23371584.008 7  23371582.598 8 122818502.717 7  92911391.456 8
E16  25709167.211 7  25709171.133 8 135102581.992 7 102204233.033 8
E25  24362111.453 8  24362114.027 8 128023756.197 8  96849148.801 8
E36  24615084.750 7  24615088.359 8 129353144.019 7  97854826.164 8
G08  22173069.008 7                  22173076.340 7 116520261.255 7                  90795043.066 7
G10  21478772.555 8                  21478779.797 7 112871710.684 8                  87952014.560 7
G16  21306453.453 7  21306457.781 5                 111966166.324 7  87246371.987 5
G23  20795447.398 8                  20795452.051 8 109280810.540 8                  85153897.063 8
G27  20122715.820 7                  20122722.043 7 105745581.984 7                  82399375.153 7
R01  22544868.609 5                 120515237.116 5
R08  20979924.742 7  20979927.250 6 112346568.393 7  87380714.415 6
R14  20883140.688 8  20883146.434 7 111318901.156 8  86581310.277 7
R15  21225004.641 8  21225008.332 7 113419976.963 8  88215818.979 7
R17  22665228.641 7  22665234.629 7 121286223.576 7  94333765.173 7
R24  19465234.727 8  19465239.180 7 104089369.157 8  80958591.818 7
> 2025 06 15 08 42 15.0000000  0 21
C20  23775309.094 7 123804269.049 7
C26  24399897.352 7 127056662.298 7
C29  21343777.289 7 111142649.069 7
C30  24413249.758 5 127126174.351 5
E02  24404818.070 8  24404818.605 8 128248182.210 8  97018922.360 8
E10  24562056.758 7  24562058.410 8 129074475.125 7  97644007.447 8
E11  23370661.344 7  23370659.605 8 122813652.176 7  92907722.051 8
E16  25710504.805 7  25710508.691 8 135109610.813 7 102209550.276 8
E25  24362618.008 8  24362620.727 8 128026418.806 8  96851163.042 8
E36  24611883.656 8  24611887.137 8 129336321.666 8  97842100.172 8
G08  22168833.719 7                  22168841.254 7 116498003.959 7                  90777699.735 7
G10  21475244.023 8                  21475250.961 7 112853168.468 8                  87937566.091 7
G16  21307263.711 7  21307268.129 5                 111970425.972 7  87249691.173 5
G23  20794594.570 8                  20794599.266 8 109276329.885 8                  85150405.639 8
G27  20120279.898 8                  20120286.695 8 105732782.591 8                  82389401.602 8
R01  22539448.945 4                 120486285.500 4
R08  20977356.148 7  20977360.211 6 112332818.216 7  87370019.863 6
R14  20884174.977 8  20884180.793 7 111324415.090 8  86585598.897 7
R15  21222305.039 8  21222309.477 7 113405553.689 8  88204600.879 7
R17  22660706.750 7  22660712.672 7 121262028.618 7  94314946.861 7
R24  19462950.883 8  19462955.672 7 104077158.476 8  80949094.629 7
> 2025 06 15 08 42 20.0000000  0 21
C20  24071401.547 6 125346098.440 6
C26  24698950.867 7 128613912.097 7
C29  21642589.547 7 112698642.079 7
C30  24714137.305 4 128692977.575 4
E02  24702364.023 8  24702364.816 8 129811798.150 8  98201787.663 8
E10  24862123.891 7  24862125.848 8 130651340.474 7  98836895.835 8
E11  23669532.492 7  23669530.668 8 124384230.157 7  94095854.091 8
E16  26011635.672 7  26011639.500 8 136692063.797 7 103406665.690 8
E25  24662918.750 8  24662921.652 8 129604510.519 8  98044979.171 8
E36  24908476.445 8  24908480.246 8 130894929.061 8  99021176.551 8
G08  22464393.016 7                  22464400.410 7 118051177.989 7                  91987965.217 7
G10  21771511.836 8                  21771518.145 7 114410063.114 8                  89150730.760 7
G16  21607869.695 7  21607873.457 5                 113550118.590 7  88480620.471 5
G23  21093537.641 8                  21093542.488 8 110847286.840 8                  86374527.939 8
G27  20417640.156 8                  20417646.656 8 107295419.202 8                  83607040.518 8
R01  22833830.133 4                 122059909.199 4
R08  21274584.422 6  21274589.742 7 113924468.282 6  88607969.962 7
R14  21185005.203 8  21185010.816 7 112928008.640 8  87832838.325 7
R15  21519403.695 8  21519407.324 7 114993155.622 8  89439402.362 7
R17  22955980.305 7  22955985.629 7 122842092.300 7  95543885.278 7
R24  19760462.609 8  19760467.383 7 105668086.808 8  82186483.317 7
> 2025 06 15 08 42 25.0000000  0 21
C20  24067702.273 6 125326837.733 6
C26  24698214.625 7 128610077.800 7
C29  21641610.078 7 112693545.449 7
C30  24715235.391 5 128698688.358 5
E02  24700119.609 8  24700120.508 8 129800004.268 8  98192865.672 8
E10  24862400.445 6  24862402.082 8 130652791.789 6  98837993.751 8
E11  23668612.234 7  23668610.656 8 124379395.395 7  94092196.620 8
E16  26012975.563 7  26012979.355 8 136699104.473 7 103411991.889 8
E25  24663429.000 8  24663432.160 8 129607193.134 8  98047008.543 8
E36  24905278.234 8  24905281.582 8 130878120.151 8  99008460.727 8
G08  22460160.375 7                  22460167.664 7 118028935.185 7                  91970633.168 7
G10  21767987.969 8                  21767994.887 7 114391547.907 8                  89136303.321 7
G16  21608685.406 7  21608689.637 5                 113554406.559 7  88483961.735 5
G23  21092691.320 8                  21092696.121 8 110842840.260 8                  86371063.072 8
G27  20415210.039 8                  20415216.230 8 107282647.403 8                  83597088.466 8
R01  22828417.133 5                 122030972.108 5
R08  21272025.250 6  21272030.551 7 113910763.937 6  88597311.042 7
R14  21186046.789 8  21186052.742 7 112933559.629 8  87837155.745 7
R15  21516712.883 8  21516716.953 7 114978777.643 8  89428219.500 7
R17  22951460.258 7  22951465.816 7 122817905.658 7  95525073.466 7
R24  19758184.109 8  19758188.238 7 105655899.789 8  82177004.523 7
> 2025 06 15 08 42 30.0000000  0 21
C20  24064004.180 6 125307587.312 6
C26  24697481.172 7 128606256.700 7
C29  21640633.125 7 112688456.788 7
C30  24716333.734 5 128704402.283 5
E02  24697877.547 7  24697878.266 8 129788221.513 7  98183952.096 8
E10  24862677.531 7  24862679.094 8 130654247.385 7  98839094.886 8
E11  23667693.805 7  23667691.887 8 124374567.438 7  94088544.294 8
E16  26014316.703 7  26014320.074 8 136706149.976 7 103417321.746 8
E25  24663941.586 8  24663944.344 8 129609884.663 8  98049044.656 8
E36  24902080.836 8  24902083.992 8 130861316.891 8  98995749.177 8
G08  22455928.641 7                  22455936.145 7 118006698.541 7                  91953305.907 7
G10  21764467.234 8                  21764473.922 7 114373045.149 8                  89121885.585 7
G16  21609503.758 7  21609507.957 5                 113558707.627 7  88487313.202 5
G23  21091848.492 8                  21091852.961 8 110838409.625 8                  86367610.628 8
G27  20412781.648 8                  20412788.188 7 107269888.322 8                  83587146.331 7
R01  22823005.547 5                 122002041.117 5
R08  21269470.375 6  21269475.234 7 113897081.510 6  88586669.147 7
R14  21187091.648 8  21187097.023 7 112939127.993 8  87841486.689 7
R15  21514025.734 8  21514030.145 7 114964421.316 8  89417053.492 7
R17  22946940.273 7  22946946.461 7 122793721.968 7  95506263.965 7
R24  19755907.617 8  19755910.836 7 105643723.526 8  82167534.095 7
> 2025 06 15 08 42 35.0000000  0 21
C20  24060310.195 6 125288347.927 6
C26  24696749.789 7 128602449.528 7
C29  21639657.336 7 112683376.766 7
C30  24717431.047 5 128710119.871 5
E02  24695637.680 8  24695638.332 8 129776450.586 8  98175047.457 8
E10  24862955.078 6  24862956.984 8 130655707.860 6  98840199.733 8
E11  23666776.414 7  23666774.613 8 124369746.929 7  94084897.607 8
E16  26015658.039 7  26015661.941 8 136713200.984 7 103422655.768 8
E25  24664455.336 7  24664458.383 8 129612585.818 7  98051088.050 8
E36  24898884.516 8  24898887.523 8 130844519.938 8  98983042.390 8
G08  22451698.414 7                  22451706.332 7 117984468.765 7                  91935984.013 7
G10  21760948.914 8                  21760955.309 7 114354555.508 8                  89107478.077 7
G16  21610325.109 7  21610329.215 5                 113563022.405 7  88490675.352 5
G23  21091008.469 8                  21091013.223 8 110833995.597 8                  86364171.131 8
G27  20410356.539 8                  20410362.832 7 107257142.637 8                  83577214.619 7
R01  22817592.906 5                 121973117.120 5
R08  21266918.422 6  21266923.984 7 113883421.370 6  88576044.644 7
R14  21188140.211 8  21188145.121 7 112944714.284 8  87845831.565 7
R15  21511343.273 8  21511347.758 7 114950087.334 8  89405904.851 7
R17  22942422.000 7  22942427.539 7 122769541.994 7  95487457.334 7
R24  19753633.078 8  19753636.387 7 105631558.680 8  82158072.555 7
> 2025 06 15 08 42 40.0000000  0 22
C20  24056617.156 6 125269119.262 6
C26  24696021.742 7 128598655.957 7
C29  21638683.711 7 112678305.108 7
C30  24718530.617 5 128715840.882 5
E02  24693399.758 7  24693400.547 8 129764691.146 7  98166151.523 8
E10  24863233.992 7  24863235.816 8 130657173.020 7  98841308.115 8
E11  23665860.531 7  23665858.664 8 124364933.583 7  94081256.349 8
E16  26017001.602 7  26017004.738 8 136720257.221 7 103427993.735 8
E25  24664971.094 8  24664974.180 8 129615296.244 8  98053138.458 8
E36  24895689.117 8  24895692.289 8 130827729.003 8  98970340.160 8
G08  22447468.961 7                  22447476.941 7 117962245.550 7                  91918667.226 7
G10  21757433.063 8                  21757439.406 7 114336078.686 8                  89093080.546 7
G16  21611148.586 7  21611153.098 5                 113567350.655 7  88494048.000 5
G23  21090171.734 8                  21090175.969 8 110829597.894 8                  86360744.344 8
G27  20407933.719 8                  20407939.684 7 107244410.064 8                  83567293.138 7
R01  22812185.680 5                 121944199.698 5
R08  21264371.336 6  21264377.703 7 113869783.608 6  88565437.505 7
R14  21189190.922 8  21189196.609 7 112950318.560 8  87850190.434 7
R15  21508665.383 8  21508669.969 7 114935775.322 8  89394773.287 7
R17  22937903.383 7  22937909.859 7 122745365.487 7  95468653.411 7
R23  21488792.742 5                 114950701.03815
R24  19751359.852 8  19751363.527 7 105619404.994 8  82148619.704 7
> 2025 06 15 08 42 45.0000000  0 22
C20  24052926.508 6 125249901.788 6
C26  24695295.469 7 128594876.521 7
C29  21637711.281 7 112673242.313 7
C30  24719630.664 5 128721565.869 5
E02  24691164.430 7  24691165.086 8 129752943.771 7  98157264.717 8
E10  24863514.008 7  24863515.637 8 130658643.310 7  98842420.387 8
E11  23664946.172 7  23664944.188 8 124360127.954 7  94077620.919 8
E16  26018344.906 7  26018348.531 8 136727319.154 7 103433336.027 8
E25  24665489.055 8  24665491.836 8 129618016.473 8  98055196.275 8
E36  24892495.008 8  24892498.254 8 130810944.626 8  98957642.893 8
G08  22443241.148 7                  22443249.254 7 117940029.421 7                  91901355.964 7
G10  21753919.578 8                  21753926.008 7 114317615.255 8                  89078693.474 7
G16  21611975.094 7  21611979.324 5                 113571692.828 7  88497431.489 5
G23  21089337.828 8                  21089342.324 8 110825217.050 8                  86357330.692 8
G27  20405513.414 8                  20405519.336 7 107231691.128 8                  83557382.273 7
R01  22806778.266 5                 121915289.252 5
R08  21261827.516 6  21261834.746 7 113856168.521 6  88554847.987 7
R14  21190245.438 8  21190251.973 7 112955940.888 8  87854563.331 7
R15  21505990.695 8  21505995.684 7 114921485.715 8  89383659.157 7
R17  22933387.156 7  22933393.410 7 122721193.054 7  95449852.641 7
R23  21489928.703 5                 114956794.051 5
R24  19749088.555 8  19749092.633 7 105607263.044 8  82139175.973 7
> 2025 06 15 08 42 50.0000000  0 21
C20  24049237.602 6 125230695.541 6
C26  24694572.203 7 128591111.139 7
C29  21636740.570 7 112668188.331 7
C30  24720729.805 5 128727294.725 5
E02  24688931.344 7  24688931.918 8 129741208.371 7  98148386.963 8
E10  24863794.719 6  24863796.367 8 130660118.722 6  98843536.543 8
E11  23664033.039 7  23664031.172 8 124355329.926 7  94073991.246 8
E16  26019690.016 7  26019693.449 8 136734386.720 7 103438682.583 8
E25  24666008.797 8  24666011.352 8 129620746.454 8  98057261.480 8
E36  24889302.273 8  24889305.449 8 130794166.736 8  98944950.533 8
G08  22439015.273 7                  22439023.191 7 117917820.325 7                  91884050.203 7
G10  21750408.500 8                  21750415.137 7 114299165.146 8                  89064316.759 7
G16  21612804.125 7  21612808.590 5                 113576048.926 7  88500825.853 5
G23  21088507.352 8                  21088511.938 8 110820852.963 8                  86353930.104 8
G27  20403095.648 8                  20403101.973 8 107218985.803 8                  83547482.025 8
R01  22801369.258 5                 121886385.926 5
R08  21259289.320 6  21259296.590 7 113842576.156 6  88544276.166 7
R14  21191303.000 8  21191309.867 7 112961581.515 8  87858950.474 7
R15  21503321.336 8  21503325.773 7 114907218.696 8  89372562.616 7
R17  22928870.109 7  22928875.969 7 122697024.490 7  95431054.875 7
R24  19746819.930 8  19746824.367 7 105595132.576 8  82129741.175 7
> 2025 06 15 08 42 55.0000000  0 22
C20  24045551.844 6 125211499.896 6
C26  24693851.672 7 128587359.229 7
C29  21635772.016 8 112663142.588 8
C30  24721831.156 5 128733026.95615
E02  24686699.805 7  24686700.898 8 129729484.404 7  98139517.859 8
E10  24864076.125 6  24864077.957 8 130661598.646 6  98844656.075 8
E11  23663121.266 7  23663119.465 8 124350538.982 7  94070366.928 8
E16  26021035.844 7  26021039.375 8 136741459.379 7 103444032.972 8
E25  24666529.867 8  24666532.598 8 129623485.601 8  98059333.622 8
E36  24886110.875 8  24886113.805 8 130777394.760 8  98932262.642 8
G08  22434790.109 7                  22434797.887 7 117895617.739 7                  91866749.492 7
G10  21746900.125 8                  21746906.605 7 114280727.729 8                  89049949.944 7
G16  21613635.719 7  21613640.563 5                 113580418.309 7  88504230.561 5
G23  21087679.781 8                  21087684.285 8 110816505.073 8                  86350542.142 8
G27  20400680.805 8                  20400686.387 8 107206293.486 8                  83537591.911 8
R01  22795962.945 5                 121857489.18215
R08  21256755.836 6  21256761.773 7 113829006.032 6  88533721.623 7
R14  21192364.977 8  21192371.238 7 112967239.562 8  87863351.169 7
R15  21500655.219 8  21500660.152 7 114892973.562 8  89361483.072 7
R17  22924352.828 7  22924360.320 7 122672859.100 7  95412259.632 7
R23  21492210.516 5                 114968998.90115
R24  19744553.023 8  19744557.566 7 105583013.127 8  82120314.959 7
> 2025 06 15 08 43  0.0000000  0 22
C20  24041867.758 6 125192316.021 6
C26  24693133.266 7 128583621.888 7
C29  21634804.250 7 112658106.168 7
C30  24722932.789 4 128738763.54614
E02  24684471.234 7  24684472.277 8 129717772.914 7  98130658.203 8
E10  24864358.695 6  24864360.660 8 130663084.169 6  98845779.859 8
E11  23662210.953 7  23662209.309 8 124345756.169 7  94066748.762 8
E16  26022383.289 7  26022386.422 8 136748538.158 7 103449388.013 8
E25  24667053.031 8  24667055.797 8 129626235.002 8  98061413.516 8
E36  24882920.469 8  24882923.391 8 130760629.776 8  98919580.045 8
G08  22430566.922 7                  22430574.402 7 117873422.730 7                  91849454.712 7
G10  21743394.273 8                  21743400.191 7 114262304.190 8                  89035593.922 7
G16  21614469.688 7  21614475.230 5                 113584802.026 7  88507646.451 5
G23  21086855.703 8                  21086860.195 8 110812174.440 8                  86347167.621 8
G27  20398268.234 8                  20398273.906 8 107193615.282 8                  83527712.801 8
R01  22790554.438 4                 121828600.070 4
R08  21254226.969 6  21254232.367 7 113815459.052 6  88523185.087 7
R14  21193429.883 8  21193436.188 7 112972916.347 8  87867766.424 7
R15  21497993.711 8  21497998.809 7 114878751.404 8  89350421.410 7
R17  22919836.477 7  22919845.742 7 122648698.329 7  95393467.914 7
R23  21493355.555 5                 114975111.011 5
R24  19742289.703 8  19742293.625 7 105570906.029 8  82110898.317 7
> 2025 06 15 08 43  5.0000000  0 22
C20  24038184.094 6 125173142.688 6
C26  24692417.922 7 128579897.897 7
C29  21633839.008 7 112653077.861 7
C30  24724036.063 4 128744503.25214
E02  24682244.742 7  24682245.770 8 129706072.761 7  98121807.116 8
E10  24864642.320 7  24864644.230 8 130664574.036 7  98846906.933 8
E11  23661302.320 7  23661300.488 8 124340980.287 7  94063135.829 8
E16  26023731.359 7  26023734.441 8 136755621.886 7 103454746.781 8
E25  24667578.125 8  24667580.719 8 129628993.420 8  98063500.241 8
E36  24879731.094 8  24879734.172 8 130743870.601 8  98906901.836 8
G08  22426343.781 7                  22426352.020 7 117851234.070 7                  91832164.850 7
G10  21739890.578 8                  21739896.719 7 114243893.290 8                  89021247.777 7
G16  21615306.188 7  21615311.781 5                 113589198.920 7  88511072.589 5
G23  21086034.719 8                  21086039.449 8 110807859.900 8                  86343805.633 8
G27  20395858.344 8                  20395863.828 8 107180949.974 8                  83517843.726 8
R01  22785154.469 5                 121799717.572 5
R08  21251702.414 6  21251706.391 7 113801934.205 6  88512665.762 7
R14  21194497.930 8  21194504.266 7 112978610.664 8  87872195.328 7
R15  21495336.320 8  21495342.000 7 114864551.020 8  89339376.669 7
R17  22915323.328 7  22915331.863 7 122624540.738 7  95374678.683 7
R23  21494501.281 5                 114981228.965 5
R24  19740028.313 8  19740031.484 7 105558809.668 8  82101490.035 7
> 2025 06 15 08 43 10.0000000  0 22
C20  24034506.227 6 125153979.557 6
C26  24691705.344 7 128576186.937 7
C29  21632875.125 7 112648057.385 7
E02  24680020.250 8  24680021.391 8 129694383.581 8  98112964.327 8
E10  24864926.859 6  24864928.445 8 130666067.998 6  98848037.123 8
E11  23660394.359 7  23660392.906 8 124336211.000 7  94059527.890 8
E16  26025080.172 7  26025083.324 8 136762710.209 7 103460109.057 8
E25  24668104.383 8  24668107.281 8 129631760.554 8  98065593.546 8
E36  24876543.281 8  24876546.004 8 130727116.900 8  98894227.765 8
G08  22422122.734 7                  22422130.750 7 117829051.503 7                  91814879.751 7
G10  21736389.609 8                  21736395.457 7 114225494.719 8                  89006911.237 7
G16  21616144.625 7  21616151.012 5                 113593608.616 7  88514508.729 5
G18  22747603.648 4                                 119539446.41914                
G23  21085217.086 8                  21085221.250 8 110803561.103 8                  86340455.908 8
G27  20393450.633 8                  20393456.172 8 107168297.302 8                  83507984.494 8
R01  22779753.234 5                 121770841.105 5
R08  21249183.414 6  21249184.582 6 113788431.049 6  88502163.313 6
R14  21195569.750 8  21195575.781 7 112984321.997 8  87876637.485 7
R15  21492683.336 8  21492688.277 7 114850372.180 8  89328348.674 7
R17  22910809.578 7  22910817.391 7 122600386.040 7  95355891.705 7
R23  21495646.750 5                 114987352.123 5
R24  19737768.000 8  19737771.660 7 105546723.923 8  82092090.000 7
> 2025 06 15 08 43 15.0000000  0 21
C20  24030826.883 6 125134827.647 6
C26  24690995.758 6 128572489.954 6
C29  21631912.375 7 112643045.639 7
E02  24677797.836 7  24677799.297 8 129682706.352 7  98104130.595 8
E10  24865211.266 6  24865213.672 8 130667566.951 6  98849171.054 8
E11  23659488.133 7  23659486.793 8 124331449.266 7  94055925.662 8
E16  26026430.078 7  26026433.184 8 136769804.075 7 103465475.513 8
E25  24668632.836 8  24668635.668 8 129634537.352 8  98067694.164 8
E36  24873356.266 7  24873359.051 8 130710369.615 7  98881558.560 8
G08  22417902.789 7                  22417910.578 7 117806875.983 7                  91797600.131 7
G10  21732890.984 8                  21732896.676 7 114207109.437 8                  88992585.058 7
G16  21616987.195 7  21616992.645 5                 113598032.039 7  88517955.548 5
G18  22748768.898 5                  22748771.102 5 119545565.442 5                  93152408.12315
G23  21084401.789 8                  21084406.629 8 110799278.973 8                  86337119.191 8
G27  20391045.266 8                  20391050.859 8 107155658.160 8                  83498135.812 8
R01  22774352.586 5                 121741971.757 5
R08  21246666.711 7  21246667.125 6 113774950.652 7  88491678.536 6
R14  21196645.102 8  21196650.523 7 112990051.234 8  87881093.546 7
R15  21490034.219 8  21490039.074 7 114836215.767 8  89317338.123 7
R17  22906296.914 7  22906304.254 7 122576235.134 7  95337107.661 7
R24  19735509.391 8  19735513.555 7 105534649.609 8  82082698.861 7
> 2025 06 15 08 43 20.0000000  0 21
C20  24027151.383 6 125115685.804 6
C26  24690288.273 6 128568805.774 6
C29  21630951.203 7 112638041.537 7
E02  24675577.875 7  24675579.273 8 129671039.945 7  98095305.037 8
E10  24865497.422 6  24865499.652 8 130669069.816 6  98850307.971 8
E11  23658583.203 7  23658581.895 8 124326693.957 7  94052328.303 8
E16  26027780.242 7  26027783.914 8 136776902.360 7 103470845.312 8
E25  24669162.945 8  24669165.652 8 129637322.677 8  98069801.240 8
E36  24870170.430 7  24870173.125 8 130693627.624 7  98868893.366 8
G08  22413684.055 6                  22413691.723 7 117784706.341 6                  91780325.097 7
G10  21729394.867 8                  21729400.109 7 114188736.325 8                  88978268.351 7
G16  21617831.609 7  21617836.441 5                 113602468.126 7  88521412.245 5
G18  22749935.719 5                  22749936.973 5 119551689.122 5                  93157179.733 5
G23  21083589.813 8                  21083594.480 8 110795012.421 8                  86333794.583 8
G27  20388642.711 8                  20388648.258 8 107143031.439 8                  83488296.815 8
R01  22768951.547 5                 121713108.455 5
R08  21244152.469 7  21244154.305 6 113761491.801 7  88481210.538 6
R14  21197722.781 8  21197728.645 7 112995797.473 8  87885562.846 7
R15  21487389.281 8  21487394.219 7 114822080.810 8  89306344.252 7
R17  22901785.430 7  22901791.211 7 122552087.071 7  95318325.827 7
R24  19733252.625 8  19733257.453 7 105522585.794 8  82073315.890 7
> 2025 06 15 08 43 25.0000000  0 21
C20  24023476.914 6 125096556.048 6
C26  24689584.172 6 128565136.482 6
C29  21629992.453 7 112633047.021 7
E02  24673360.398 7  24673361.703 8 129659386.368 7  98086489.175 8
E10  24865784.539 7  24865786.813 8 130670578.535 7  98851449.301 8
E11  23657679.516 7  23657678.566 8 124321947.060 7  94048737.295 8
E16  26029133.109 7  26029135.871 8 136784007.040 7 103476219.930 8
E25  24669694.977 8  24669697.652 8 129640118.499 8  98071916.257 8
E36  24866985.773 7  24866988.625 8 130676892.939 7  98856233.687 8
G08  22409466.313 7                  22409474.418 7 117762544.628 7                  91763056.221 7
G10  21725900.539 8                  21725906.375 7 114170377.393 8                  88963962.708 7
G16  21618678.492 7  21618683.250 5                 113606918.805 7  88524880.284 5
G18  22751103.383 5                  22751103.746 5 119557819.449 5                  93161956.576 5
G23  21082781.766 8                  21082786.223 8 110790763.387 8                  86330483.646 8
G27  20386242.109 8                  20386248.195 8 107130419.172 8                  83478469.062 8
R01  22763554.359 5                 121684253.226 5
R08  21241640.188 7  21241644.348 6 113748056.454 7  88470760.840 6
R14  21198804.273 8  21198810.215 7 113001562.377 8  87890046.669 7
R15  21484749.242 8  21484753.367 7 114807969.199 8  89295368.548 7
R17  22897273.656 7  22897280.281 7 122527943.715 7  95299547.651 7
R24  19730999.758 8  19731004.238 7 105510534.538 8  82063942.678 7
> 2025 06 15 08 43 30.0000000  0 21
C20  24019805.250 6 125077436.784 6
C26  24688881.148 6 128561480.500 6
C29  21629034.398 7 112628060.623 7
E02  24671145.477 7  24671146.215 8 129647744.124 7  98077681.885 8
E10  24866072.297 6  24866074.707 8 130672091.574 6  98852593.904 8
E11  23656777.789 7  23656776.563 8 124317207.022 7  94045151.486 8
E16  26030485.539 7  26030488.797 8 136791116.630 7 103481598.266 8
E25  24670228.813 8  24670231.387 8 129642923.308 8  98074038.063 8
E36  24863802.305 8  24863805.188 8 130660164.031 8  98843578.381 8
G08  22405250.828 7                  22405257.652 7 117740389.290 7                  91745792.324 7
G10  21722410.156 8                  21722415.188 7 114152031.117 8                  88949666.909 7
G16  21619527.641 7  21619532.688 5                 113611382.579 7  88528358.543 5
G18  22752270.375 5                  22752271.371 5 119563954.807 5                  93166737.385 5
G23  21081976.352 8                  21081980.848 8 110786530.379 8                  86327185.211 8
G27  20383844.672 8                  20383850.633 8 107117819.794 8                  83468651.367 8
R01  22758157.500 5                 121655404.567 5
R08  21239136.586 6  21239140.082 6 113734643.246 6  88460328.292 6
R14  21199888.867 8  21199895.000 7 113007344.812 8  87894544.117 7
R15  21482111.859 8  21482116.797 7 114793879.229 8  89284409.688 7
R17  22892762.695 7  22892768.191 7 122503803.558 7  95280771.952 7
R24  19728747.773 8  19728752.641 7 105498494.116 8  82054577.929 7
> 2025 06 15 08 43 35.0000000  0 21
C20  24016137.703 6 125058329.500 6
C26  24688181.594 7 128557839.148 7
C29  21628078.820 7 112623083.693 7
E02  24668932.266 7  24668933.207 8 129636114.541 7  98068884.169 8
E10  24866360.820 6  24866363.660 8 130673610.349 6  98853742.840 8
E11  23655877.516 7  23655876.121 8 124312475.316 7  94041571.972 8
E16  26031839.836 7  26031842.809 8 136798232.447 7 103486981.328 8
E25  24670764.773 8  24670767.160 8 129645738.483 8  98076167.720 8
E36  24860620.273 8  24860623.184 8 130643442.294 8  98830928.499 8
G08  22401036.500 7                  22401043.043 7 117718241.807 7                  91728534.523 7
G10  21718921.430 8                  21718926.711 7 114133698.908 8                  88935382.096 7
G16  21620379.023 7  21620384.660 5                 113615860.844 7  88531848.084 5
G18  22753440.469 5                  22753440.207 5 119570096.715 5                  93171523.277 5
G23  21081173.867 8                  21081178.680 8 110782314.783 8                  86323900.336 8
G27  20381449.852 8                  20381455.695 8 107105234.759 8                  83458844.848 8
R01  22752765.938 5                 121626563.876 5
R08  21236635.234 6  21236639.188 6 113721253.456 6  88449913.997 6
R14  21200976.430 8  21200983.301 7 113013145.931 8  87899056.072 7
R15  21479479.461 8  21479484.027 7 114779812.619 8  89273469.000 7
R17  22888251.719 7  22888258.418 7 122479668.037 7  95261999.889 7
R24  19726498.078 8  19726503.832 7 105486465.929 8  82045222.680 7
> 2025 06 15 08 43 40.0000000  0 21
C20  24012470.219 6 125039233.718 6
C26  24687484.938 7 128554212.055 7
C29  21627124.531 7 112618115.780 7
E02  24666721.656 7  24666722.480 8 129624497.223 7  98060095.736 8
E10  24866650.273 6  24866653.656 8 130675134.406 6  98854895.770 8
E11  23654978.711 7  23654977.109 8 124307751.361 7  94037998.324 8
E16  26033195.211 7  26033198.012 8 136805354.079 7 103492368.770 8
E25  24671302.266 7  24671304.754 8 129648563.552 7  98078304.863 8
E36  24857439.328 8  24857442.414 8 130626727.229 8  98818283.671 8
G08  22396823.758 7                  22396829.367 6 117696101.651 7                  91711282.435 6
G10  21715435.914 8                  21715440.875 7 114115380.273 8                  88921107.842 7
G16  21621235.398 7  21621239.223 5                 113620353.049 7  88535348.494 5
G18  22754609.977 5                  22754610.625 6 119576244.667 5                  93176313.874 6
G23  21080374.828 8                  21080379.508 8 110778116.105 8                  86320628.641 8
G27  20379057.336 8                  20379063.281 8 107092663.567 8                  83449049.110 8
R01  22747370.430 5                 121597730.688 5
R08  21234140.281 7  21234142.934 6 113707886.666 7  88439517.576 6
R14  21202069.258 8  21202074.871 7 113018965.059 8  87903582.050 7
R15  21476850.531 8  21476855.969 7 114765768.828 8  89262546.074 7
R17  22883742.188 7  22883747.859 7 122455536.691 7  95243231.094 7
R24  19724251.961 8  19724256.824 7 105474449.693 8  82035876.716 7
> 2025 06 15 08 43 45.0000000  0 22
C20  24008804.500 6 125020148.854 6
C26  24686790.969 7 128550598.501 7
C29  21626171.906 7 112613156.264 7
C30  24732883.703 5 128790525.46215
E02  24664513.070 7  24664514.031 8 129612891.471 7  98051316.063 8
E10  24866941.234 6  24866944.418 8 130676663.074 6  98856052.189 8
E11  23654081.039 7  23654079.520 8 124303034.594 7  94034430.116 8
E16  26034551.156 7  26034554.152 8 136812480.781 7 103497760.066 8
E25  24671841.578 7  24671844.113 8 129651397.868 7  98080448.985 8
E36  24854259.672 7  24854262.766 8 130610018.243 7  98805643.440 8
G08  22392611.055 6                  22392617.719 6 117673968.172 6                  91694035.586 6
G10  21711952.484 8                  21711957.512 7 114097074.611 8                  88906843.698 7
G16  21622091.906 7  21622095.871 5                 113624858.539 7  88538859.260 5
G18  22755782.875 5                  22755781.504 6 119582397.934 5                  93181108.601 6
G23  21079578.836 8                  21079583.801 8 110773933.709 8                  86317369.634 8
G27  20376667.539 8                  20376673.742 8 107080105.585 8                  83439263.669 8
R01  22741979.484 5                 121568904.419 5
R08  21231647.828 6  21231650.480 5 113694542.298 6  88429138.689 5
R14  21203164.773 8  21203169.664 7 113024801.838 8  87908121.758 7
R15  21474226.523 8  21474232.141 7 114751747.106 8  89251640.308 7
R17  22879232.508 7  22879238.387 6 122431408.805 7  95224465.010 6
R24  19722006.789 8  19722011.266 7 105462444.468 8  82026539.317 7
> 2025 06 15 08 43 50.0000000  0 22
C20  24005142.117 7 125001073.749 7
C26  24686099.516 7 128546997.462 7
C29  21625220.781 7 112608204.049 7
C30  24733989.898 5 128796296.846 5
E02  24662306.703 7  24662307.531 8 129601296.244 7  98042544.345 8
E10  24867233.516 6  24867236.047 8 130678195.233 6  98857211.260 8
E11  23653184.922 7  23653183.105 8 124298323.862 7  94030866.471 8
E16  26035908.250 7  26035911.074 8 136819611.561 7 103503154.429 8
E25  24672382.766 8  24672385.043 8 129654240.351 8  98082599.290 8
E36  24851080.781 7  24851084.125 8 130593314.225 7  98793006.974 8
G08  22388400.836 7                  22388407.367 6 117651840.354 7                  91676793.126 6
G10  21708470.867 8                  21708476.453 7 114078780.839 8                  88892588.808 7
G16  21622951.469 7  21622955.824 5                 113629376.310 7  88542379.593 5
G18  22756950.617 5                  22756953.113 6 119588555.509 5                  93185906.647 6
G23  21078786.281 8                  21078791.012 8 110769766.497 8                  86314122.444 8
G27  20374280.406 8                  20374286.488 8 107067559.732 8                  83429487.682 8
R01  22736588.773 5                 121540083.985 5
R08  21229160.688 7  21229162.434 6 113681219.109 7  88418776.170 6
R14  21204262.766 8  21204268.000 7 113030654.919 8  87912674.147 7
R15  21471606.578 8  21471611.543 7 114737746.359 8  89240750.844 7
R17  22874724.883 7  22874730.113 6 122407283.383 7  95205700.810 6
R24  19719764.156 8  19719768.801 7 105450449.524 8  82017209.915 7
> 2025 06 15 08 43 55.0000000  0 22
C20  24001481.922 7 124982009.940 7
C26  24685410.492 7 128543410.388 7
C29  21624271.492 7 112603260.598 7
C30  24735098.516 5 128802071.992 5
E02  24660102.227 8  24660103.332 8 129589713.004 8  98033781.710 8
E10  24867526.102 6  24867528.594 8 130679732.427 6  98858374.096 8
E11  23652290.070 7  23652288.105 8 124293620.695 7  94027308.558 8
E16  26037265.797 7  26037269.027 8 136826747.887 7 103508552.994 8
E25  24672925.367 7  24672927.824 8 129657092.474 7  98084756.897 8
E36  24847903.563 7  24847906.813 8 130576616.668 7  98780375.386 8
G08  22384190.867 6                  22384197.859 6 117629719.612 6                  91659556.203 6
G10  21704991.969 8                  21704997.934 7 114060500.450 8                  88878344.356 7
G16  21623814.148 7  21623818.020 5                 113633907.765 7  88545910.580 5
G18  22758123.547 5                  22758126.363 6 119594718.786 5                  93190709.175 6
G23  21077995.906 8                  21078001.281 8 110765615.974 8                  86310888.264 8
G27  20371895.766 8                  20371901.566 8 107055027.507 8                  83419722.320 8
R01  22731199.063 5                 121511270.774 5
R08  21226676.594 7  21226679.328 6 113667918.711 7  88408431.427 6
R14  21205363.328 8  21205369.383 7 113036526.059 8  87917240.581 7
R15  21468991.141 8  21468995.543 7 114723768.313 8  89229879.042 7
R17  22870216.648 7  22870222.961 6 122383161.866 7  95186939.668 6
R24  19717523.820 8  19717528.008 7 105438466.077 8  82007889.438 7
> 2025 06 15 08 44  0.0000000  0 22
C20  23997822.656 7 124962956.939 7
C26  24684725.273 7 128539836.715 7
C29  21623324.047 7 112598325.415 7
C30  24736206.359 5 128807850.422 5
E02  24657899.555 8  24657901.375 8 129578141.268 8  98025027.763 8
E10  24867820.039 6  24867821.895 8 130681274.066 6  98859540.338 8
E11  23651396.359 7  23651394.340 8 124288924.551 7  94023755.961 8
E16  26038624.664 7  26038627.957 8 136833889.182 7 103513955.322 8
E25  24673469.680 8  24673472.301 8 129659953.702 8  98086921.385 8
E36  24844727.508 7  24844730.512 8 130559925.063 7  98767748.303 8
G08  22379982.320 6                  22379990.273 7 117607605.502 6                  91642324.447 7
G10  21701515.664 8                  21701521.855 7 114042232.913 8                  88864109.925 7
G16  21624678.813 7  21624682.477 5                 113638452.443 7  88549451.887 5
G18  22759297.117 4                  22759300.387 5 119600887.321 4                  93195515.843 5
G23  21077209.375 8                  21077214.430 8 110761481.603 8                  86307666.681 8
G27  20369513.383 8                  20369519.262 8 107042508.388 8                  83409967.173 8
R01  22725808.852 5                 121482464.411 5
R08  21224195.883 7  21224200.047 6 113654640.592 7  88398104.015 6
R14  21206468.023 8  21206473.508 7 113042414.418 8  87921820.374 7
R15  21466380.188 8  21466383.824 7 114709812.127 8  89219024.224 7
R17  22865709.703 7  22865716.113 6 122359043.706 7  95168181.172 6
R24  19715284.070 8  19715288.746 7 105426493.703 8  81998577.597 7
> 2025 06 15 08 44  5.0000000  0 22
C20  23994166.148 6 124943915.161 6
C26  24684042.086 7 128536276.975 7
C29  21622378.000 7 112593398.936 7
C30  24737319.773 5 128813632.555 5
E02  24655700.203 7  24655701.559 8 129566581.494 7  98016282.872 8
E10  24868114.547 7  24868116.223 8 130682820.653 7  98860710.314 8
E11  23650504.133 7  23650502.055 8 124284235.917 7  94020209.035 8
E16  26039984.602 7  26039987.980 8 136841035.910 7 103519361.757 8
E25  24674016.438 8  24674018.676 8 129662824.503 8  98089093.114 8
E36  24841552.367 7  24841555.441 8 130543239.859 7  98755126.056 8
G08  22375775.266 6                  22375783.336 7 117585498.487 6                  91625098.215 7
G10  21698041.852 8                  21698048.559 7 114023978.734 8                  88849885.881 7
G16  21625546.867 7  21625549.496 5                 113643010.745 7  88553003.774 5
G18  22760471.016 4                  22760475.793 6 119607061.544 4                  93200326.883 6
G23  21076425.961 8                  21076431.008 8 110757363.841 8                  86304458.011 8
G27  20367133.484 8                  20367139.465 8 107030002.880 8                  83400222.628 8
R01  22720420.555 5                 121453665.384 5
R08  21221721.164 7  21221724.426 5 113641385.227 7  88387794.327 5
R14  21207576.531 8  21207581.582 7 113048320.822 8  87926414.248 7
R15  21463770.766 8  21463775.941 7 114695878.657 8  89208187.084 7
R17  22861203.859 7  22861209.379 6 122334929.486 7  95149425.659 6
R24  19713047.984 8  19713051.688 7 105414532.824 8  81989274.673 7
> 2025 06 15 08 44 10.0000000  0 22
C20  23990511.938 7 124924884.325 7
C26  24683360.148 7 128532730.770 7
C29  21621433.641 7 112588480.821 7
C30  24738429.539 5 128819418.154 5
E02  24653502.750 7  24653504.070 8 129555033.306 7  98007546.750 8
E10  24868409.477 7  24868411.320 8 130684371.851 7  98861883.768 8
E11  23649613.508 7  23649611.230 8 124279554.392 7  94016667.480 8
E16  26041345.484 7  26041348.922 8 136848187.737 7 103524772.041 8
E25  24674564.266 8  24674566.703 8 129665704.484 8  98091271.792 8
E36  24838377.930 7  24838381.543 8 130526560.718 7  98742508.403 8
G08  22371569.445 6                  22371578.074 7 117563398.194 6                  91607877.229 7
G10  21694570.820 8                  21694577.660 7 114005737.527 8                  88835671.962 7
G16  21626416.656 7  21626419.270 5                 113647582.291 7  88556566.009 5
G18  22761645.664 4                  22761651.105 6 119613240.922 4                  93205142.036 6
G23  21075645.211 8                  21075650.359 8 110753262.313 8                  86301261.999 8
G27  20364756.164 8                  20364762.406 7 107017510.582 8                  83390488.364 7
R01  22715034.461 5                 121424873.357 5
R08  21219249.750 7  21219252.254 5 113628152.292 7  88377502.050 5
R14  21208687.680 8  21208693.016 7 113054244.557 8  87931021.556 7
R15  21461167.602 8  21461172.297 7 114681967.161 8  89197367.051 7
R17  22856697.430 7  22856703.703 7 122310818.751 7  95130672.853 7
R24  19710812.516 8  19710816.922 7 105402583.157 8  81979980.482 7
> 2025 06 15 08 44 15.0000000  0 21
C20  23986859.648 6 124905864.848 6
C26  24682682.367 7 128529198.517 7
C29  21620490.586 7 112583571.529 7
C30  24739539.852 5 128825207.613 5
E02  24651307.391 7  24651308.859 8 129543497.195 7  97998819.755 8
E10  24868706.625 7  24868707.531 8 130685928.028 7  98863061.013 8
E11  23648724.133 7  23648721.863 8 124274880.460 7  94013131.678 8
E16  26042707.758 7  26042710.934 8 136855345.090 7 103530186.507 8
E25  24675114.125 8  24675116.594 8 129668594.146 8  98093457.789 8
E36  24835204.898 7  24835208.926 8 130509888.070 7  98729895.664 8
G08  22367365.555 6                  22367373.980 7 117541305.090 6                  91590661.858 7
G10  21691102.383 8                  21691108.824 7 113987509.762 8                  88821468.520 7
G16  21627289.727 7  21627291.531 5                 113652167.555 7  88560138.906 5
G23  21074867.805 8                  21074873.219 8 110749177.481 8                  86298079.025 8
G27  20362381.648 8                  20362387.625 7 107005031.963 8                  83380764.777 7
R01  22709650.102 5                 121396088.628 5
R08  21216782.492 7  21216785.402 5 113614942.190 7  88367227.576 5
R14  21209802.430 8  21209807.598 7 113060186.152 8  87935642.797 7
R15  21458568.406 7  21458573.301 7 114668078.300 7  89186564.595 7
R17  22852192.852 7  22852198.941 6 122286711.976 7  95111923.131 6
R24  19708579.813 8  19708584.801 7 105390645.165 8  81970695.386 7
> 2025 06 15 08 44 20.0000000  0 21
C20  23983208.195 7 124886855.689 7
C26  24682006.133 7 128525679.173 7
C29  21619549.453 7 112578669.940 7
C30  24740650.945 5 128830999.757 5
E02  24649114.086 7  24649115.723 8 129531972.037 7  97990101.045 8
E10  24869003.141 7  24869004.352 8 130687488.113 7  98864241.200 8
E11  23647836.203 7  23647833.625 8 124270212.966 7  94009600.752 8
E16  26044070.445 7  26044073.754 8 136862506.853 7 103535604.319 8
E25  24675665.500 8  24675668.121 8 129671492.344 8  98095650.250 8
E36  24832033.953 7  24832037.289 8 130493220.811 7  98717286.990 8
G08  22363162.844 6                  22363170.625 7 117519218.107 6                  91573451.218 7
G10  21687636.141 8                  21687642.570 7 113969294.361 8                  88807274.700 7
G16  21628164.500 7  21628166.598 5                 113656765.359 7  88563721.615 5
G23  21074094.203 8                  21074098.754 8 110745108.252 8                  86294908.196 8
G27  20360009.633 8                  20360015.363 7 106992565.937 8                  83371050.996 7
R01  22704263.070 5                 121367310.330 5
R08  21214319.531 6  21214323.746 5 113601753.812 6  88356970.086 5
R14  21210920.734 8  21210925.594 7 113066144.471 8  87940277.037 7
R15  21455973.070 7  21455978.215 7 114654211.087 7  89175778.991 7
R17  22847687.945 7  22847693.605 7 122262607.996 7  95093175.603 7
R24  19706350.336 8  19706353.945 7 105378717.674 8  81961418.444 7
> 2025 06 15 08 44 25.0000000  0 21
C20  23979560.063 6 124867857.543 6
C26  24681333.391 7 128522173.452 7
C29  21618610.242 7 112573776.823 7
C30  24741763.469 4 128836795.399 4
E02  24646923.773 7  24646924.809 8 129520458.605 7  97981391.212 8
E10  24869300.797 7  24869302.133 8 130689052.892 7  98865424.942 8
E11  23646949.141 7  23646946.727 8 124265552.702 7  94006075.294 8
E16  26045434.242 7  26045437.531 8 136869673.774 7 103541026.030 8
E25  24676219.000 8  24676221.398 8 129674399.828 8  98097849.737 8
E36  24828863.328 7  24828866.785 8 130476559.740 7  98704682.991 8
G08  22358961.820 6                  22358969.383 7 117497138.008 6                  91556245.963 7
G10  21684172.320 8                  21684178.281 7 113951092.055 8                  88793091.068 7
G16  21629041.938 7  21629043.887 5                 113661376.482 7  88567314.673 5
G23  21073322.844 8                  21073327.031 8 110741055.339 8                  86291750.078 8
G27  20357639.734 8                  20357645.754 7 106980113.238 8                  83361347.601 7
R01  22698882.352 5                 121338539.247 5
R08  21211861.492 6  21211866.555 5 113588588.024 6  88346730.023 5
R14  21212041.281 8  21212045.629 7 113072120.315 8  87944924.898 7
R15  21453381.445 7  21453387.617 7 114640366.147 7  89165010.705 7
R17  22843183.664 7  22843189.992 6 122238507.794 7  95074431.020 6
R24  19704121.281 8  19704125.422 7 105366801.393 8  81952150.210 7
> 2025 06 15 08 44 30.0000000  0 21
C20  23975913.625 6 124848871.048 6
C26  24680663.055 6 128518681.911 6
C29  21617672.070 8 112568892.760 8
C30  24742875.328 4 128842595.091 4
E02  24644735.250 7  24644736.184 8 129508957.482 7  97972690.686 8
E10  24869600.320 7  24869600.895 8 130690622.912 7  98866612.644 8
E11  23646064.039 7  23646061.398 8 124260900.237 7  94002555.726 8
E16  26046799.156 7  26046802.547 8 136876846.460 7 103546452.105 8
E25  24676774.094 8  24676776.547 8 129677317.207 8  98100056.704 8
E36  24825694.500 7  24825697.582 8 130459905.376 7  98692084.079 8
G08  22354760.688 6                  22354769.293 7 117475065.320 6                  91539046.463 7
G10  21680711.906 8                  21680717.020 7 113932903.479 8                  88778918.149 7
G16  21629922.477 7  21629924.313 5                 113666001.502 7  88570918.573 5
G23  21072554.945 8                  21072558.945 8 110737019.347 8                  86288605.147 8
G27  20355273.344 8                  20355278.543 7 106967674.511 8                  83351655.083 7
R01  22693502.633 5                 121309775.901 5
R08  21209406.953 6  21209411.898 4 113575445.327 6  88336508.016 4
R14  21213165.766 8  21213170.918 7 113078114.233 8  87949586.841 7
R15  21450795.617 7  21450800.871 7 114626544.057 7  89154260.177 7
R17  22838679.180 7  22838686.836 6 122214411.717 7  95055689.633 6
R24  19701894.914 8  19701899.625 7 105354896.989 8  81942891.246 7
> 2025 06 15 08 44 35.0000000  0 20
C20  23972269.328 6 124829896.436 6
C26  24679995.484 7 128515204.817 7
C29  21616736.102 7 112564017.955 7
E02  24642549.141 7  24642550.035 8 129497468.895 7  97963999.632 8
E10  24869899.820 7  24869900.813 8 130692198.419 7  98867804.491 8
E11  23645179.609 7  23645177.621 8 124256255.801 7  93999042.250 8
E16  26048165.438 7  26048168.559 8 136884025.091 7 103551882.665 8
E25  24677331.109 8  24677333.566 8 129680244.659 8  98102271.293 8
E36  24822526.852 7  24822529.680 8 130443257.999 7  98679490.452 8
G08  22350562.938 6                  22350569.824 7 117453000.369 6                  91521853.010 7
G10  21677252.820 8                  21677258.680 7 113914728.848 8                  88764756.101 7
G16  21630804.883 7  21630806.977 5                 113670640.610 7  88574533.460 5
G23  21071789.477 8                  21071794.418 8 110733000.504 8                  86285473.575 8
G27  20352908.516 8                  20352914.078 8 106955249.932 8                  83341973.593 8
R01  22688122.469 5                 121281020.554 5
R08  21206956.617 6  21206961.633 4 113562325.994 6  88326304.060 4
R14  21214293.922 8  21214298.461 7 113084126.577 8  87954263.073 7
R15  21448214.047 7  21448218.715 7 114612745.101 7  89143527.659 7
R17  22834178.711 7  22834184.875 6 122190320.187 7  95036951.836 6
R24  19699670.766 8  19699675.422 7 105343004.701 8  81933641.692 7
> 2025 06 15 08 44 40.0000000  0 20
C20  23968626.680 6 124810932.613 6
C26  24679330.656 7 128511741.065 7
C29  21615801.695 7 112559151.364 7
E02  24640365.078 7  24640366.027 8 129485991.778 7  97955317.277 8
E10  24870200.875 7  24870201.586 8 130693778.285 7  98868999.647 8
E11  23644297.258 7  23644295.172 8 124251618.321 7  93995534.027 8
E16  26049532.242 7  26049535.570 8 136891208.606 7 103557316.947 8
E25  24677889.898 8  24677892.379 8 129683181.139 8  98104492.715 8
E36  24819359.672 7  24819362.859 8 130426616.514 7  98666901.285 8
G08  22346364.016 7                  22346372.457 7 117430942.050 7                  91504664.728 7
G10  21673796.813 8                  21673802.539 7 113896567.109 8                  88750604.112 7
G16  21631690.477 7  21631692.480 5                 113675292.796 7  88578158.527 5
G23  21071028.141 8                  21071032.449 8 110728997.705 8                  86282354.515 8
G27  20350547.094 8                  20350552.395 8 106942838.494 8                  83332302.338 8
R01  22682743.188 5                 121252272.124 5
R08  21204511.633 7  21204513.516 3 113549229.021 7  88316117.553 3
R14  21215423.813 8  21215429.922 7 113090155.932 8  87958952.563 7
R15  21445635.031 7  21445641.148 7 114598968.162 7  89132812.263 7
R17  22829676.523 7  22829683.652 6 122166232.100 7  95018216.658 6
R24  19697449.984 8  19697453.129 7 105331123.490 8  81924400.749 7
> 2025 06 15 08 44 45.0000000  0 20
C20  23964987.773 6 124791979.315 6
C26  24678667.117 7 128508290.356 7
C29  21614868.805 8 112554292.698 8
E02  24638182.969 7  24638184.180 8 129474525.844 7  97946643.367 8
E10  24870502.273 7  24870502.996 8 130695362.271 7  98870197.909 8
E11  23643415.992 7  23643413.918 8 124246987.511 7  93992030.848 8
E16  26050900.188 7  26050903.527 8 136898396.688 7 103562754.668 8
E25  24678450.180 8  24678452.848 8 129686126.322 8  98106720.722 8
E36  24816193.938 7  24816197.086 8 130409980.634 7  98654316.354 8
G08  22342168.531 7                  22342176.297 7 117408890.059 7                  91487481.376 7
G10  21670342.844 8                  21670348.605 7 113878417.932 8                  88736461.896 7
G16  21632578.195 7  21632579.766 5                 113679957.677 7  88581793.501 5
G23  21070269.383 7                  21070273.934 8 110725010.676 7                  86279247.752 8
G27  20348187.586 8                  20348193.352 8 106930439.852 8                  83322641.062 8
R01  22677367.406 5                 121223530.324 5
R08  21202072.094 6  21202070.961 3 113536154.040 6  88305948.017 3
R14  21216558.922 8  21216564.727 7 113096202.250 8  87963655.243 7
R15  21443061.211 7  21443067.230 7 114585212.983 7  89122113.800 7
R17  22825175.836 7  22825182.879 6 122142146.893 7  94999483.732 6
R24  19695230.234 8  19695233.113 7 105319252.980 8  81915168.153 7
> 2025 06 15 08 44 50.0000000  0 21
C20  23961349.469 7 124773038.423 7
C26  24678007.547 6 128504854.560 6
C29  21613937.703 7 112549443.787 7
E02  24636003.594 7  24636004.805 8 129463072.945 7  97937979.322 8
E10  24870804.203 7  24870805.566 8 130696952.204 7  98871400.688 8
E11  23642536.250 7  23642534.395 8 124242365.195 7  93988534.090 8
E16  26052269.328 7  26052272.605 8 136905591.243 7 103568197.280 8
E25  24679012.563 8  24679015.285 8 129689082.083 8  98108956.724 8
E36  24813029.617 7  24813032.773 8 130393352.215 7  98641737.068 8
G08  22337973.367 6                  22337981.461 7 117386846.302 6                  91470304.431 7
G10  21666892.133 8                  21666897.844 7 113860283.217 8                  88722330.978 7
G16  21633467.992 7  21633470.637 5                 113684637.161 7  88585439.841 5
G18  22771103.875 5                                 119662873.30315                
G23  21069513.789 7                  21069518.652 8 110721041.256 7                  86276154.708 8
G27  20345830.805 8                  20345836.684 8 106918055.907 8                  83312991.229 8
R01  22671992.398 5                 121194797.118 5
R08  21199636.977 5  21199633.707 4 113523102.843 5  88295797.072 4
R14  21217696.305 8  21217702.285 7 113102267.270 8  87968372.463 7
R15  21440491.563 7  21440497.277 7 114571481.412 7  89111433.691 7
R17  22820674.742 7  22820683.371 6 122118066.808 7  94980754.811 6
R24  19693011.938 8  19693015.895 7 105307395.105 8  81905945.375 7
> 2025 06 15 08 44 55.0000000  0 21
C20  23957713.523 7 124754108.286 7
C26  24677350.367 7 128501431.986 7
C29  21613008.102 7 112544602.987 7
E02  24633826.273 7  24633827.637 8 129451631.446 7  97929323.897 8
E10  24871107.617 7  24871108.863 8 130698546.414 7  98872606.692 8
E11  23641658.391 7  23641656.133 8 124237749.733 7  93985042.528 8
E16  26053639.672 7  26053642.551 8 136912790.534 7 103573643.478 8
E25  24679576.711 8  24679579.445 8 129692046.755 8  98111199.469 8
E36  24809867.008 7  24809869.559 8 130376729.604 7  98629162.169 8
G08  22333779.820 6                  22333788.359 7 117364809.086 6                  91453132.587 7
G10  21663443.742 8                  21663449.652 7 113842161.301 8                  88708210.026 7
G16  21634360.953 7  21634363.590 5                 113689329.534 7  88589096.235 5
G18  22772286.820 5                  22772282.023 5 119669102.495 5                  93248692.30815
G23  21068761.664 8                  21068766.609 8 110717087.800 8                  86273074.091 8
G27  20343476.805 8                  20343482.574 8 106905684.972 8                  83303351.543 8
R01  22666619.117 5                 121166070.861 5
R08  21197198.516 5  21197203.914 4 113510073.872 5  88285663.510 4
R14  21218837.266 8  21218843.535 7 113108349.210 8  87973102.832 7
R15  21437925.805 7  21437931.945 7 114557771.893 7  89100770.753 7
R17  22816176.961 7  22816184.238 6 122093989.990 7  94962028.393 6
R24  19690796.570 8  19690800.016 7 105295548.094 8  81896731.054 7
> 2025 06 15 08 45  0.0000000  0 21
C20  23954080.445 6 124735189.454 6
C26  24676695.148 6 128498023.257 6
C29  21612080.016 7 112539770.847 7
E02  24631651.461 8  24631652.711 8 129440201.882 8  97920677.511 8
E10  24871412.078 7  24871413.254 8 130700145.468 7  98873816.351 8
E11  23640781.242 7  23640779.258 8 124233141.652 7  93981556.537 8
E16  26055010.703 7  26055013.590 8 136919995.137 7 103579093.713 8
E25  24680142.484 8  24680145.414 8 129695020.881 8  98113449.366 8
E36  24806705.188 7  24806707.547 8 130360113.354 7  98616592.103 8
G08  22329587.758 6                  22329596.246 7 117342779.019 6                  91435966.316 7
G10  21659997.578 8                  21660003.781 7 113824052.780 8                  88694099.478 7
G16  21635256.508 7  21635259.609 5                 113694035.368 7  88592763.105 5
G18  22773475.898 5                  22773467.977 5 119675337.194 5                  93253550.457 5
G23  21068012.383 8                  21068017.039 8 110713150.841 8                  86270006.334 8
G27  20341125.070 8                  20341131.082 8 106893327.649 8                  83293722.444 8
R01  22661248.063 5                 121137352.062 5
R08  21194768.781 4  21194776.617 5 113497067.793 4  88275547.662 5
R14  21219981.180 8  21219987.727 7 113114448.792 8  87977846.938 7
R15  21435363.461 7  21435370.988 7 114544084.969 7  89090125.384 7
R17  22811679.219 7  22811684.648 6 122069917.007 7  94943305.003 6
R24  19688583.602 8  19688587.500 7 105283712.586 8  81887525.658 7
> 2025 06 15 08 45  5.0000000  0 20
C20  23950449.961 6 124716281.109 6
C26  24676042.578 6 128494627.439 6
C29  21611153.344 7 112534946.567 7
E02  24629478.453 8  24629479.871 8 129428783.442 8  97912039.543 8
E10  24871717.406 7  24871718.410 8 130701748.539 7  98875029.060 8
E11  23639905.672 7  23639903.629 8 124228540.145 7  93978075.524 8
E16  26056382.250 7  26056385.520 8 136927204.229 7 103584547.327 8
E25  24680710.250 7  24680713.035 8 129698003.598 7  98115705.768 8
E36  24803543.648 7  24803546.660 8 130343502.608 7  98604026.180 8
G08  22325397.016 6                  22325405.109 7 117320755.257 6                  91418804.971 7
G10  21656554.063 8                  21656560.195 7 113805956.779 8                  88679998.719 7
G16  21636154.039 7  21636157.758 5                 113698753.745 7  88596439.760 5
G18  22774663.234 4                                                                
G23  21067266.055 8                  21067270.918 8 110709229.550 8                  86266950.795 8
G27  20338775.898 8                  20338781.777 8 106880983.052 8                  83284103.278 8
R01  22655875.039 5                 121108639.943 5
R14  21221129.492 8  21221135.262 7 113120565.141 8  87982604.078 7
R15  21432807.211 7  21432813.770 7 114530419.657 7  89079496.811 7
R17  22807180.805 7  22807186.559 6 122045847.106 7  94924583.977 6
R24  19686371.391 8  19686376.137 7 105271887.807 8  81878328.601 7
> 2025 06 15 08 45 10.0000000  0 20
C20  23946820.953 7 124697385.337 7
C26  24675393.875 6 128491246.622 6
C29  21610228.672 7 112530132.172 7
E02  24627307.922 8  24627309.582 8 129417378.186 8  97903411.539 8
E10  24872023.875 7  24872024.684 8 130703357.647 7  98876246.332 8
E11  23639031.891 7  23639029.684 8 124223947.267 7  93974601.049 8
E16  26057755.164 7  26057758.668 8 136934419.841 7 103590005.861 8
E25  24681279.758 8  24681282.637 8 129700996.991 8  98117970.242 8
E36  24800384.391 7  24800387.172 8 130326899.480 7  98591466.021 8
G08  22321206.922 6                  22321215.797 7 117298739.844 6                  91401650.109 7
G10  21653113.336 8                  21653119.762 7 113787875.394 8                  88665909.320 7
G16  21637054.773 7  21637058.535 5                 113703486.836 7  88600127.865 5
G18  22775852.938 4                                                                
G23  21066523.109 8                  21066528.609 8 110705325.954 8                  86263909.040 8
G27  20336429.164 8                  20336435.730 8 106868653.290 8                  83274495.668 8
R01  22650506.867 5                 121079936.671 5
R14  21222279.945 8  21222286.250 7 113126700.149 8  87987375.752 7
R15  21430253.852 8  21430260.160 7 114516778.151 8  89068886.750 7
R17  22802684.688 7  22802689.828 6 122021782.252 7  94905866.841 6
R24  19684162.180 8  19684166.820 7 105260075.674 8  81869141.372 7
> 2025 06 15 08 45 15.0000000  0 21
C20  23943195.531 7 124678501.204 7
C26  24674747.078 6 128487879.884 6
C29  21609305.672 7 112525326.749 7
E02  24625140.203 8  24625141.617 8 129405985.208 8  97894792.816 8
E10  24872330.672 7  24872331.871 8 130704971.892 7  98877467.494 8
E11  23638159.109 7  23638157.191 8 124219362.100 7  93971132.395 8
E16  26059129.695 7  26059132.777 8 136941641.078 7 103595468.657 8
E25  24681850.672 7  24681854.152 8 129704000.151 7  98120242.100 8
E36  24797226.297 7  24797228.980 8 130310303.029 7  98578910.929 8
G08  22317019.898 7                  22317027.805 7 117276731.941 7                  91384501.093 7
G10  21649674.984 8                  21649681.797 7 113769807.734 8                  88651830.608 7
G16  21637958.773 7  21637962.063 5                 113708233.636 7  88603826.669 5
G18  22777039.602 4                                                                
G23  21065784.023 7                  21065788.898 8 110701439.188 7                  86260880.391 8
G27  20334086.047 8                  20334091.844 8 106856337.459 8                  83264898.920 8
R01  22645138.992 5                 121051241.252 5
R08  21187521.180 5  21187516.336 5 113458186.73715  88245306.47715
R14  21223434.313 8  21223440.207 7 113132853.228 8  87992161.486 7
R15  21427704.844 8  21427711.699 7 114503159.643 8  89058294.571 7
R17  22798187.000 7  22798193.820 6 121997721.596 7  94887153.041 6
R24  19681955.398 8  19681960.313 7 105248275.435 8  81859963.409 7
> 2025 06 15 08 45 20.0000000  0 20
C20  23939570.820 7 124659628.104 7
C26  24674104.336 6 128484526.650 6
C29  21608384.844 7 112520529.692 7
E02  24622974.609 7  24622975.805 8 129394603.884 7  97886182.918 8
E10  24872638.992 7  24872639.914 8 130706590.663 7  98878692.075 8
E11  23637288.313 7  23637285.984 8 124214783.983 7  93967669.083 8
E16  26060504.555 7  26060507.906 8 136948867.311 7 103600935.231 8
E25  24682423.891 7  24682427.395 8 129707012.433 7  98122520.857 8
E36  24794069.328 7  24794071.941 8 130293712.621 7  98566360.393 8
G08  22312832.781 7                  22312841.488 7 117254730.843 7                  91367357.396 7
G10  21646239.461 8                  21646246.188 7 113751753.156 8                  88637762.108 7
G16  21638864.469 7  21638867.664 5                 113712993.542 7  88607535.682 5
G23  21065047.023 8                  21065052.438 8 110697568.599 8                  86257864.340 8
G27  20331744.648 8                  20331750.789 8 106844034.921 8                  83255312.521 8
R01  22639772.648 6                 121022553.052 6
R08  21185107.930 5  21185104.055 5 113445272.260 5  88235261.830 5
R14  21224592.000 8  21224597.094 7 113139023.338 8  87996960.445 7
R15  21425161.555 8  21425167.352 7 114489563.365 8  89047719.692 7
R17  22793692.820 7  22793698.137 6 121973664.475 7  94868441.969 6
R24  19679751.242 8  19679756.102 7 105236486.382 8  81850794.135 7
> 2025 06 15 08 45 25.0000000  0 20
C20  23935949.297 7 124640766.963 7
C26  24673463.891 6 128481187.724 6
C29  21607464.969 7 112515741.891 7
E02  24620811.000 8  24620812.398 8 129383235.113 8  97877582.517 8
E10  24872948.305 7  24872948.980 8 130708214.813 7  98879920.733 8
E11  23636418.766 7  23636416.371 8 124210213.839 7  93964211.797 8
E16  26061881.070 7  26061884.215 8 136956099.361 7 103606406.209 8
E25  24682999.078 7  24683002.543 8 129710034.746 7  98124807.206 8
E36  24790913.211 7  24790916.246 8 130277129.156 7  98553815.117 8
G08  22308647.992 7                  22308656.340 7 117232737.519 7                  91350219.744 7
G10  21642806.242 8                  21642813.148 7 113733712.563 8                  88623704.496 7
G16  21639772.461 7  21639775.953 5                 113717767.409 7  88611255.570 5
G23  21064314.094 7                  21064319.551 8 110693715.063 7                  86254861.582 8
G27  20329406.414 8                  20329412.383 7 106831746.591 8                  83245737.202 7
R01  22634408.633 5                 120993873.014 5
R08  21182704.813 5  21182697.316 5 113432381.198 5  88225235.398 5
R14  21225752.891 8  21225757.402 7 113145211.441 8  88001773.448 7
R15  21422622.422 8  21422627.344 7 114475990.311 8  89037162.866 7
R17  22789196.383 7  22789202.910 7 121949611.855 7  94849734.378 7
R24  19677549.008 8  19677553.797 7 105224709.428 8  81841634.277 7
> 2025 06 15 08 45 30.0000000  0 20
C20  23932329.047 6 124621916.822 6
C26  24672826.141 6 128477862.228 6
C29  21606547.367 7 112510962.372 7
E02  24618649.555 7  24618651.188 8 129371877.950 7  97868990.898 8
E10  24873257.922 7  24873258.879 8 130709843.461 7  98881152.796 8
E11  23635550.188 7  23635548.016 8 124205650.744 7  93960759.844 8
E16  26063257.875 7  26063261.352 8 136963336.367 7 103611880.929 8
E25  24683576.688 7  24683579.395 8 129713066.111 7  98127100.399 8
E36  24787758.852 7  24787761.660 8 130260551.744 7  98541274.419 8
G08  22304463.984 7                  22304472.320 7 117210751.052 7                  91333087.446 7
G10  21639375.992 8                  21639382.754 7 113715685.018 8                  88609657.054 7
G16  21640683.633 7  21640686.598 5                 113722554.351 7  88614985.637 5
G23  21063583.398 7                  21063588.859 8 110689877.644 7                  86251871.377 8
G27  20327070.688 8                  20327076.426 7 106819471.544 8                  83236172.230 7
R01  22629043.703 5                 120965200.321 5
R08  21180309.359 5  21180294.168 5 113419512.593 5  88215226.506 5
R14  21226916.688 8  21226921.785 7 113151416.636 8  88006599.721 7
R15  21420086.180 8  21420091.457 7 114462439.317 8  89026623.206 7
R17  22784702.781 7  22784708.656 6 121925562.773 7  94831029.561 6
R24  19675348.891 8  19675354.047 7 105212943.697 8  81832483.140 7
> 2025 06 15 08 45 35.0000000  0 20
C20  23928711.797 7 124603078.245 7
C26  24672190.414 6 128474550.641 6
C29  21605631.008 7 112506191.707 7
E02  24616490.883 7  24616492.309 8 129360532.947 7  97860408.475 8
E10  24873568.984 7  24873569.832 8 130711477.063 7  98882388.584 8
E11  23634683.000 7  23634681.137 8 124201095.160 7  93957313.574 8
E16  26064636.445 7  26064639.602 8 136970578.804 7 103617359.765 8
E25  24684155.445 7  24684158.086 8 129716107.031 7  98129400.826 8
E36  24784605.336 7  24784608.352 8 130243980.818 7  98528738.623 8
G08  22300282.000 7                  22300289.996 7 117188771.934 7                  91315960.858 7
G10  21635948.172 8                  21635954.594 7 113697671.060 8                  88595620.211 7
G16  21641597.352 7  21641600.180 5                 113727354.779 7  88618726.231 5
G23  21062856.594 7                  21062861.820 8 110686056.846 7                  86248894.129 8
G27  20324736.719 8                  20324743.156 7 106807210.246 8                  83226617.981 7
R01  22623678.977 5                 120936535.293 5
R08  21177901.602 4  21177895.801 5 113406666.963 4  88205235.479 5
R14  21228083.359 8  21228089.156 7 113157639.593 8  88011439.807 7
R15  21417555.367 8  21417559.820 7 114448911.272 8  89016101.406 7
R17  22780209.000 7  22780215.313 7 121901517.626 7  94812327.783 7
R24  19673149.945 8  19673155.766 7 105201189.444 8  81823340.946 7
> 2025 06 15 08 45 40.0000000  0 19
C20  23925096.141 6 124584250.699 6
C26  24671555.883 6 128471252.429 6
C29  21604716.281 7 112501429.311 7
E02  24614334.266 7  24614335.609 8 129349199.507 7  97851834.801 8
E10  24873880.430 7  24873881.473 8 130713115.058 7  98883627.731 8
E11  23633817.719 7  23633815.594 8 124196546.567 7  93953872.593 8
E16  26066015.414 7  26066018.707 8 136977826.071 7 103622842.245 8
E25  24684736.266 7  24684738.449 8 129719156.979 7  98131708.078 8
E36  24781453.523 8  24781456.152 8 130227415.888 8  98516207.362 8
G08  22296101.102 7                  22296108.852 7 117166799.605 7                  91298839.560 7
G10  21632522.805 8                  21632529.039 7 113679670.128 8                  88581593.512 7
G16  21642512.914 7  21642516.227 5                 113732168.202 7  88622476.930 5
G23  21062132.734 7                  21062137.879 8 110682252.120 7                  86245929.406 8
G27  20322406.625 8                  20322412.461 7 106794962.200 8                  83217074.051 7
R01  22618317.828 5                 120907877.601 5
R14  21229253.992 8  21229260.160 7 113163879.672 8  88016293.178 7
R15  21415027.586 8  21415032.238 7 114435405.334 8  89005596.779 7
R17  22775716.273 7  22775722.652 7 121877476.011 7  94793628.763 7
R24  19670954.906 8  19670959.262 7 105189446.457 8  81814207.509 7
> 2025 06 15 08 45 45.0000000  0 19
C20  23921482.938 6 124565434.372 6
C26  24670924.000 7 128467967.828 7
C29  21603803.156 7 112496675.460 7
E02  24612179.672 7  24612181.133 8 129337877.932 7  97843270.102 8
E10  24874193.055 7  24874194.090 8 130714757.739 7  98884870.403 8
E11  23632953.438 7  23632951.379 8 124192005.225 7  93950437.093 8
E16  26067395.656 7  26067398.758 8 136985078.465 7 103628328.617 8
E25  24685318.492 7  24685320.633 8 129722216.213 7  98134022.353 8
E36  24778302.328 8  24778305.113 8 130210857.194 8  98503680.815 8
G08  22291920.813 7                  22291928.898 7 117144834.346 7                  91281723.776 7
G10  21629100.102 8                  21629105.895 7 113661682.516 8                  88567577.190 7
G16  21643431.516 7  21643435.223 5                 113736994.843 7  88626237.961 5
G23  21061412.148 7                  21061416.805 8 110678463.717 7                  86242977.400 8
G27  20320078.383 8                  20320084.289 8 106782727.671 8                  83207540.663 8
R01  22612957.617 5                 120879227.534 5
R14  21230428.195 8  21230434.168 7 113170136.863 8  88021159.847 7
R15  21412503.555 8  21412508.617 7 114421921.887 8  88995109.669 7
R17  22771223.836 7  22771230.461 7 121853438.207 7  94774932.701 7
R24  19668760.680 8  19668765.473 7 105177714.885 8  81805082.953 7
> 2025 06 15 08 45 50.0000000  0 19
C20  23917871.992 6 124546630.146 6
C26  24670296.078 7 128464697.617 7
C29  21602891.805 7 112491930.916 7
E02  24610027.516 7  24610029.133 8 129326569.005 7  97834714.970 8
E10  24874507.141 7  24874507.801 8 130716405.876 7  98886117.207 8
E11  23632090.422 7  23632088.699 8 124187471.889 7  93947007.654 8
E16  26068777.617 7  26068779.949 8 136992336.761 7 103633819.450 8
E25  24685902.359 7  24685904.723 8 129725285.472 7  98136344.223 8
E36  24775152.914 8  24775155.434 8 130194305.530 8  98491159.587 8
G08  22287742.242 7                  22287750.223 7 117122876.956 7                  91264614.115 7
G10  21625679.570 8                  21625685.762 7 113643708.987 8                  88553571.850 7
G16  21644352.094 7  21644356.195 5                 113741835.520 7  88630009.893 5
G23  21060694.094 8                  21060698.980 8 110674692.414 8                  86240038.731 8
G27  20317753.242 8                  20317758.906 7 106770507.438 8                  83198018.398 7
R01  22607599.508 5                 120850585.857 5
R14  21231605.102 8  21231612.199 7 113176412.304 8  88026040.717 7
R15  21409984.344 8  21409989.824 7 114408461.711 8  88984640.649 7
R17  22766731.477 7  22766739.141 6 121829404.974 7  94756240.202 6
R24  19666569.836 8  19666573.652 7 105165995.472 8  81795967.852 7
> 2025 06 15 08 45 55.0000000  0 20
C20  23914262.680 6 124527837.145 6
C26  24669670.375 6 128461440.981 6
C29  21601982.570 7 112487194.850 7
E02  24607877.813 7  24607879.363 8 129315271.867 7  97826168.759 8
E10  24874821.422 7  24874822.246 8 130718058.616 7  98887367.504 8
E11  23631229.469 7  23631227.426 8 124182945.757 7  93943583.659 8
E16  26070159.445 7  26070162.129 8 136999600.091 7 103639314.091 8
E25  24686488.094 7  24686490.563 8 129728363.947 7  98138673.063 8
E36  24772004.414 8  24772006.863 8 130177760.021 8  98478643.021 8
G08  22283565.547 7                  22283573.043 7 117100926.590 7                  91247509.943 7
G10  21622261.719 8                  21622267.832 7 113625748.739 8                  88539576.845 7
G16  21645276.586 7  21645280.121 5                 113746689.399 7  88633792.128 5
G23  21059979.711 8                  21059984.434 8 110670937.368 8                  86237112.723 8
G27  20315430.266 8                  20315435.879 7 106758300.670 8                  83188506.647 7
R01  22602244.086 5                 120821951.566 5
R14  21232786.258 8  21232792.418 7 113182704.893 8  88030934.939 7
R15  21407469.836 8  21407474.754 7 114395024.033 8  88974189.107 7
R17  22762242.578 7  22762248.500 6 121805375.436 7  94737550.545 6
R23  21534065.766 6                 115192773.58916
R24  19664380.359 8  19664384.172 7 105154287.242 8  81786861.468 7
> 2025 06 15 08 46  0.0000000  0 19
C20  23910655.703 6 124509056.730 6
C26  24669047.711 6 128458199.165 6
C29  21601075.094 7 112482468.573 7
E02  24605730.391 7  24605732.078 8 129303987.848 7  97817632.473 8
E10  24875137.406 7  24875137.871 8 130719717.245 7  98888622.254 8
E11  23630369.828 7  23630367.785 8 124178428.084 7  93940166.075 8
E16  26071543.156 7  26071545.426 8 137006869.812 7 103644813.569 8
E25  24687075.711 7  24687078.430 8 129731452.938 7  98141009.855 8
E36  24768856.820 8  24768859.766 8 130161222.027 8  98466132.144 8
G08  22279389.398 7                  22279397.359 7 117078984.605 7                  91230412.309 7
G10  21618847.102 8                  21618853.102 7 113607803.068 8                  88525593.215 7
G16  21646202.063 7  21646206.797 5                 113751557.689 7  88637585.606 5
G23  21059268.555 8                  21059273.094 8 110667199.891 8                  86234200.406 8
G27  20313110.461 8                  20313115.895 7 106746108.691 8                  83179006.400 7
R14  21233970.453 8  21233976.566 7 113189015.833 8  88035843.451 7
R15  21404960.273 8  21404964.309 7 114381610.086 8  88963756.021 7
R17  22757753.219 7  22757759.406 7 121781350.926 7  94718864.823 7
R23  21535250.070 5                 115199105.538 5
R24  19662193.352 8  19662197.172 7 105142591.762 8  81777764.986 7
> 2025 06 15 08 46  5.0000000  0 20
C20  23907049.922 6 124490287.417 6
C26  24668428.250 6 128454970.799 6
C29  21600169.156 7 112477750.655 7
E02  24603585.281 7  24603587.047 8 129292715.554 7  97809105.056 8
E10  24875453.703 7  24875454.430 8 130721380.399 7  98889880.406 8
E11  23629511.391 7  23629509.363 8 124173917.506 7  93936753.850 8
E16  26072927.609 7  26072929.695 8 137014144.437 7 103650316.765 8
E25  24687665.156 8  24687667.988 8 129734551.005 8  98143353.525 8
E36  24765711.078 8  24765713.793 8 130144690.102 8  98453625.860 8
G08  22275215.234 7                  22275222.965 7 117057049.562 7                  91213320.080 7
G10  21615434.234 8                  21615440.543 7 113589870.581 8                  88511619.858 7
G16  21647130.906 7  21647135.543 5                 113756438.991 7  88641389.194 5
G23  21058559.945 7                  21058564.996 8 110663478.595 7                  86231300.688 8
G27  20310792.750 8                  20310798.031 7 106733930.064 8                  83169516.562 7
R08  21163589.234 5  21163588.883 5 113330074.75415  88145602.64115
R14  21235157.375 8  21235163.703 7 113195343.946 8  88040765.298 7
R15  21402454.070 8  21402457.910 7 114368218.475 8  88953340.315 7
R17  22753266.281 7  22753270.273 6 121757330.072 7  94700181.934 6
R23  21536437.984 5                 115205443.306 5
R24  19660008.711 8  19660012.027 7 105130907.525 8  81768677.258 7
> 2025 06 15 08 46 10.0000000  0 21
C20  23903446.891 6 124471529.549 6
C26  24667809.813 6 128451756.114 6
C29  21599265.070 7 112473041.385 7
E02  24601442.398 7  24601444.250 8 129281455.221 7  97800586.682 8
E10  24875770.820 7  24875771.730 8 130723048.289 7  98891142.157 8
E11  23628654.391 7  23628652.473 8 124169414.207 7  93933347.125 8
E16  26074312.977 7  26074314.930 8 137021424.236 7 103655823.870 8
E25  24688256.328 8  24688259.359 8 129737658.427 8  98145704.264 8
E36  24762565.992 8  24762569.047 8 130128164.521 8  98441124.371 8
G02  24558095.703 6                                 129053663.71116                
G08  22271042.422 7                  22271050.031 7 117035121.731 7                  91196233.475 7
G10  21612024.867 8                  21612030.539 7 113571951.540 8                  88497656.967 7
G16  21648062.039 7  21648066.914 5                 113761333.538 7  88645203.111 5
G23  21057855.172 7                  21057859.832 8 110659773.654 7                  86228413.734 8
G27  20308477.797 8                  20308483.203 7 106721765.085 8                  83160037.361 7
R08  21161223.125 5  21161219.234 5 113317389.967 5  88135736.683 5
R14  21236347.148 8  21236354.094 7 113201689.423 8  88045700.664 7
R15  21399951.914 8  21399956.887 7 114354849.598 8  88942942.293 7
R17  22748777.539 7  22748782.691 7 121733313.111 7  94681502.121 7
R23  21537621.539 5                 115211787.136 5
R24  19657826.164 8  19657829.707 7 105119234.736 8  81759598.410 7
> 2025 06 15 08 46 15.0000000  0 21
C20  23899846.352 6 124452783.023 6
C26  24667195.414 6 128448555.063 6
C29  21598362.766 7 112468340.670 7
E02  24599301.883 7  24599303.727 8 129270206.783 7  97792077.317 8
E10  24876088.914 7  24876090.000 8 130724720.858 7  98892407.445 8
E11  23627798.727 7  23627796.891 8 124164918.190 7  93929945.926 8
E16  26075699.195 7  26075701.113 8 137028709.134 7 103661334.834 8
E25  24688849.414 8  24688852.488 8 129740775.111 8  98148062.012 8
E36  24759422.477 8  24759425.520 8 130111645.187 8  98428627.614 8
G02  24553761.516 6                                 129030888.882 6                
G08  22266870.461 7                  22266878.723 7 117013201.071 7                  91179152.452 7
G10  21608617.117 8                  21608623.313 7 113554045.848 8                  88483704.496 7
G16  21648995.922 7  21649000.754 5                 113766241.256 7  88649027.288 5
G23  21057153.063 7                  21057158.020 8 110656085.023 7                  86225539.483 8
G27  20306165.328 8                  20306170.715 7 106709613.667 8                  83150568.719 7
R08  21158865.727 5  21158854.680 5 113304728.264 5  88125888.582 5
R14  21237541.063 8  21237547.559 7 113208051.974 8  88050649.304 7
R15  21397455.000 8  21397459.578 7 114341503.377 8  88932561.905 7
R17  22744288.320 7  22744294.816 6 121709299.986 7  94662825.259 6
R23  21538807.523 5                 115218136.817 5
R24  19655645.039 8  19655648.383 7 105107573.350 8  81750528.460 7
> 2025 06 15 08 46 20.0000000  0 21
C20  23896247.984 7 124434047.157 7
C26  24666582.711 6 128445366.907 6
C29  21597461.211 7 112463647.811 7
E02  24597163.039 7  24597165.324 8 129258969.546 7  97783576.426 8
E10  24876407.992 7  24876409.039 8 130726397.378 7  98893675.725 8
E11  23626944.375 7  23626942.563 8 124160428.688 7  93926549.643 8
E16  26077086.031 7  26077088.133 8 137035998.426 7 103666849.121 8
E25  24689444.219 8  24689447.254 8 129743900.339 8  98150426.212 8
E36  24756280.000 8  24756283.012 8 130095131.411 8  98416135.066 8
G02  24549428.172 5                                 129008117.195 5                
G08  22262700.219 7                  22262708.484 7 116991286.854 7                  91162076.440 7
G10  21605212.344 8                  21605218.387 7 113536152.837 8                  88469761.891 7
G16  21649932.469 7  21649937.117 5                 113771161.393 7  88652861.149 5
G23  21056453.922 7                  21056459.066 8 110652412.016 7                  86222677.407 8
G27  20303855.648 8                  20303860.734 7 106697475.108 8                  83141110.091 7
R08  21156519.844 5  21156494.457 5 113292088.605 5  88116057.549 5
R14  21238737.586 8  21238744.098 7 113214430.960 8  88055610.737 7
R15  21394961.984 8  21394965.793 7 114328178.763 8  88922198.318 7
R17  22739801.813 7  22739808.699 7 121685289.962 7  94644150.811 7
R23  21539994.008 5                 115224491.811 5
R24  19653466.070 8  19653469.859 7 105095922.653 8  81741466.810 7
> 2025 06 15 08 46 25.0000000  0 21
C20  23892652.242 6 124415324.179 6
C26  24665973.648 6 128442193.892 6
C29  21596562.164 7 112458965.038 7
E02  24595027.617 7  24595029.516 8 129247745.779 7  97775085.715 8
E10  24876727.797 7  24876729.324 8 130728080.129 7  98894948.705 8
E11  23626091.766 7  23626089.941 8 124155947.988 7  93923160.020 8
E16  26078474.375 7  26078476.406 8 137043294.357 7 103672368.418 8
E25  24690040.711 8  24690044.051 8 129747036.389 8  98152798.601 8
E36  24753138.961 8  24753142.008 8 130078625.459 8  98403648.434 8
G02  24545095.820 5                                 128985350.979 5                
G08  22258532.898 7                  22258539.730 7 116969381.334 7                  91145007.199 7
G10  21601810.094 8                  21601816.172 7 113518274.763 8                  88455830.930 7
G16  21650872.727 7  21650876.254 5                 113776096.243 7  88656706.490 5
G23  21055758.711 7                  21055763.141 8 110648756.866 7                  86219829.248 8
G27  20301548.750 8                  20301553.602 7 106685351.675 8                  83131663.256 7
R08  21154167.258 6  21154139.266 5 113279473.274 6  88106245.583 5
R14  21239937.391 8  21239944.637 7 113220828.856 8  88060586.878 7
R15  21392472.156 8  21392476.988 7 114314878.399 8  88911853.595 7
R17  22735316.297 7  22735322.137 7 121661285.304 7  94625480.532 7
R23  21541175.008 4                 115230854.139 4
R24  19651289.875 8  19651293.691 7 105084284.966 8  81732415.284 7
> 2025 06 15 08 46 30.0000000  0 20
C20  23889059.984 7 124396613.223 7
C26  24665367.234 6 128439035.033 6
C29  21595664.727 7 112454291.431 7
E02  24592894.172 7  24592895.992 8 129236534.491 7  97766604.451 8
E10  24877049.242 7  24877050.574 8 130729768.117 7  98896225.657 8
E11  23625240.734 7  23625238.797 8 124151475.098 7  93919776.310 8
E16  26079863.352 7  26079865.770 8 137050595.955 7 103677892.019 8
E25  24690639.422 8  24690642.684 8 129750182.254 8  98155178.420 8
E36  24749999.328 8  24750002.320 8 130062126.382 8  98391166.985 8
G02  24540764.477 5                                 128962589.135 5                
G08  22254365.563 7                  22254372.434 7 116947483.657 7                  91127944.073 7
G10  21598410.719 8                  21598416.676 7 113500410.696 8                  88441910.869 7
G16  21651814.344 7  21651817.648 5                 113781044.798 7  88660562.517 5
G23  21055066.109 7                  21055070.793 8 110645118.623 7                  86216994.247 8
G27  20299244.031 8                  20299249.070 7 106673242.413 8                  83122227.464 7
R08  21151809.305 6  21151788.852 5 113266881.198 6  88096451.745 5
R14  21241141.258 8  21241147.188 7 113227244.262 8  88065576.632 7
R15  21389987.484 8  21389992.266 7 114301601.246 8  88901526.926 7
R17  22730829.977 7  22730837.609 7 121637284.949 7  94606813.619 7
R24  19649115.438 8  19649119.063 7 105072659.296 8  81723373.103 7
> 2025 06 15 08 46 35.0000000  0 20
C20  23885469.703 7 124377913.916 7
C26  24664763.219 6 128435890.052 6
C29  21594768.766 7 112449626.646 7
E02  24590763.344 7  24590764.840 8 129225335.438 7  97758132.440 8
E10  24877371.500 7  24877372.813 8 130731461.053 7  98897506.350 8
E11  23624391.047 7  23624389.098 8 124147009.731 7  93916398.288 8
E16  26081254.125 7  26081256.195 8 137057902.905 7 103683419.666 8
E25  24691239.648 7  24691243.121 8 129753337.672 7  98157565.461 8
E36  24746861.109 8  24746863.883 8 130045633.866 8  98378690.497 8
G02  24536434.406 5                                 128939831.410 5                
G08  22250200.188 7                  22250206.961 7 116925593.374 7                  91110886.710 7
G10  21595014.156 8                  21595019.492 7 113482560.312 8                  88428001.479 7
G16  21652757.875 7  21652761.664 5                 113786006.779 7  88664429.005 5
G23  21054376.695 7                  21054381.746 8 110641496.928 7                  86214172.150 8
G27  20296942.867 8                  20296947.672 7 106661147.008 8                  83112802.467 7
R08  21149458.695 6  21149442.977 5 113254312.284 6  88086675.848 5
R14  21242348.461 8  21242354.168 7 113233677.273 8  88070580.064 7
R15  21387506.188 7  21387511.992 7 114288346.809 7  88891217.921 7
R17  22726345.461 7  22726354.031 7 121613288.729 7  94588149.907 7
R24  19646942.828 8  19646947.426 7 105061045.333 8  81714340.010 7
> 2025 06 15 08 46 40.0000000  0 21
C20  23881881.273 7 124359225.931 7
C26  24664162.281 6 128432758.575 6
C29  21593874.414 7 112444970.359 7
E02  24588634.320 7  24588635.961 8 129214148.174 7  97749669.349 8
E10  24877694.234 7  24877695.887 8 130733158.538 7  98898790.491 8
E11  23623542.664 7  23623540.742 8 124142551.499 7  93913025.660 8
E16  26082645.164 7  26082647.586 8 137065214.839 7 103688951.069 8
E25  24691841.758 7  24691845.316 8 129756502.221 7  98159959.408 8
E36  24743723.984 8  24743726.637 8 130029147.527 8  98366218.684 8
G02  24532105.070 5                                 128917077.574 5                
G08  22246036.484 7                  22246042.922 7 116903710.263 7                  91093834.937 7
G10  21591619.461 8                  21591624.992 7 113464723.253 8                  88414102.467 7
G16  21653705.094 7  21653708.266 5                 113790981.803 7  88668305.638 5
G23  21053690.953 7                  21053695.387 8 110637891.475 7                  86211362.720 8
G27  20294643.492 8                  20294648.473 7 106649065.118 8                  83103388.006 7
R08  21147112.672 5  21147103.391 5 113241766.051 5  88076917.741 5
R14  21243558.359 8  21243564.324 7 113240127.249 8  88075596.691 7
R15  21385030.734 8  21385035.797 7 114275114.962 8  88880926.485 7
R17  22721861.609 7  22721870.402 7 121589296.306 7  94569489.121 7
R23  21544748.422 5                 115249979.38315
R24  19644773.781 8  19644778.039 7 105049442.805 8  81705315.813 7
> 2025 06 15 08 46 45.0000000  0 21
C20  23878294.844 7 124340549.225 7
C26  24663563.805 6 128429640.565 6
C29  21592981.477 7 112440322.495 7
E02  24586507.938 7  24586509.297 8 129202972.735 7  97741215.198 8
E10  24878018.203 7  24878019.824 8 130734860.568 7  98900078.053 8
E11  23622695.867 7  23622693.734 8 124138100.353 7  93909658.395 8
E16  26084037.594 7  26084039.895 8 137072531.692 7 103694486.210 8
E25  24692446.125 7  24692449.250 8 129759675.877 7  98162360.250 8
E36  24740588.047 8  24740590.570 8 130012667.325 8  98353751.521 8
G02  24527778.477 6                                 128894327.277 6                
G08  22241873.688 7                  22241880.227 7 116881834.188 7                  91076788.645 7
G10  21588227.422 8                  21588233.285 7 113446899.458 8                  88400213.810 7
G16  21654654.289 7  21654657.105 5                 113795969.829 7  88672192.397 5
G23  21053007.844 7                  21053011.977 8 110634302.182 7                  86208565.872 8
G27  20292346.773 8                  20292352.004 7 106636996.685 8                  83093984.020 7
R08  21144762.156 5  21144767.273 4 113229242.468 5  88067177.265 4
R14  21244771.625 8  21244777.762 7 113246594.191 8  88080626.529 7
R15  21382559.023 8  21382563.832 7 114261905.505 8  88870652.464 7
R17  22717379.320 7  22717387.387 7 121565307.600 7  94550831.215 7
R23  21545944.586 5                 115256366.284 5
R24  19642606.406 8  19642610.582 8 105037851.468 8  81696300.333 8
> 2025 06 15 08 46 50.0000000  0 21
C20  23874711.008 7 124321885.404 7
C26  24662967.805 6 128426537.535 6
C29  21592090.938 7 112435684.619 7
E02  24584383.492 7  24584385.133 8 129191810.662 7  97732771.172 8
E10  24878343.727 7  24878344.902 8 130736568.649 7  98901370.192 8
E11  23621850.563 7  23621848.355 8 124133657.888 7  93906297.704 8
E16  26085430.914 7  26085433.473 8 137079855.030 7 103700026.258 8
E25  24693052.086 7  24693055.199 8 129762860.183 7  98164769.150 8
E36  24737453.328 8  24737455.957 8 129996194.835 8  98341290.196 8
G02  24523452.578 6                                 128871582.423 6                
G08  22237711.922 7                  22237718.969 7 116859966.802 7                  91059749.127 7
G10  21584838.469 8                  21584844.211 7 113429090.540 8                  88386336.746 7
G16  21655606.500 7  21655608.949 5                 113800972.413 7  88676090.512 5
G23  21052328.164 7                  21052332.699 7 110630730.591 7                  86205782.816 7
G27  20290052.742 8                  20290058.168 7 106624943.304 8                  83084591.777 7
R08  21142421.203 4  21142432.871 4 113216743.352 4  88057455.846 4
R14  21245988.953 8  21245994.223 7 113253079.682 8  88085670.788 7
R15  21380091.711 8  21380097.059 7 114248720.349 8  88860397.361 7
R17  22712897.906 7  22712905.191 7 121541324.195 7  94532177.460 7
R23  21547141.719 5                 115262760.612 5
R24  19640440.742 8  19640445.539 7 105026273.032 8  81687294.885 7
> 2025 06 15 08 46 55.0000000  0 21
C20  23871129.211 7 124303233.845 7
C26  24662374.992 6 128423448.931 6
C29  21591202.258 7 112431056.138 7
E02  24582262.000 7  24582263.449 8 129180661.349 7  97724336.799 8
E10  24878669.305 7  24878671.039 8 130738282.228 7  98902666.513 8
E11  23621006.633 7  23621004.523 8 124129223.495 7  93902943.110 8
E16  26086825.742 7  26086828.184 8 137087184.272 7 103705570.771 8
E25  24693660.172 7  24693663.059 8 129766054.563 7  98167185.668 8
E36  24734319.875 8  24734322.715 8 129979729.462 8  98328834.248 8
G02  24519126.055 6                                 128848842.188 6                
G08  22233553.023 7                  22233559.441 7 116838107.454 7                  91042715.880 7
G10  21581452.602 8                  21581457.918 7 113411295.899 8                  88372470.814 7
G16  21656560.594 7  21656563.305 5                 113805988.887 7  88679999.438 5
G23  21051651.859 7                  21051656.336 7 110627176.129 7                  86203013.119 7
G27  20287762.047 8                  20287767.371 8 106612904.389 8                  83075210.813 8
R08  21140093.359 4  21140099.250 5 113204267.925 4  88047752.790 5
R14  21247208.164 8  21247213.809 7 113259583.168 8  88090729.051 7
R15  21377628.219 8  21377633.563 7 114235558.478 8  88850160.353 7
R17  22708416.891 7  22708424.117 7 121517345.489 7  94513527.365 7
R23  21548335.422 5                 115269161.520 5
R24  19638278.070 8  19638282.691 8 105014706.966 8  81678299.053 8
> 2025 06 15 08 47  0.0000000  0 21
C20  23867549.281 7 124284593.726 7
C26  24661784.336 6 128420373.952 6
C29  21590314.688 8 112426436.264 8
E02  24580142.359 7  24580144.063 8 129169524.009 7  97715911.466 8
E10  24878996.414 6  24878998.008 8 130740000.490 6  98903966.354 8
E11  23620164.180 7  23620162.082 8 124124796.346 7  93899594.007 8
E16  26088221.438 7  26088223.883 8 137094518.565 7 103711119.093 8
E25  24694269.875 7  24694272.680 8 129769258.171 7  98169609.168 8
E36  24731187.781 8  24731190.672 8 129963270.385 8  98316383.074 8
G02  24514797.500 5                                 128826105.861 5                
G08  22229394.000 7                  22229401.164 7 116816255.376 7                  91025688.287 7
G10  21578069.156 8                  21578074.563 7 113393514.744 8                  88358615.388 7
G16  21657518.070 7  21657520.367 5                 113811018.474 7  88683918.592 5
G23  21050978.320 7                  21050983.230 7 110623637.978 7                  86200256.118 7
G27  20285473.773 8                  20285479.145 8 106600879.102 8                  83065840.459 8
R08  21137768.359 4  21137773.293 5 113191815.288 4  88038067.530 5
R14  21248431.555 8  21248437.449 7 113266103.664 8  88095800.552 7
R15  21375169.758 8  21375174.965 7 114222419.264 8  88839940.964 7
R17  22703937.734 7  22703943.750 7 121493370.719 7  94494880.313 7
R23  21549534.484 5                 115275568.349 5
R24  19636117.156 8  19636121.813 8 105003152.270 8  81669312.063 8
> 2025 06 15 08 47  5.0000000  0 21
C20  23863971.875 6 124265964.715 6
C26  24661196.586 7 128417312.146 7
C29  21589429.227 7 112421824.563 7
E02  24578025.352 7  24578026.871 8 129158398.239 7  97707494.899 8
E10  24879324.359 6  24879325.797 8 130741722.992 6  98905269.415 8
E11  23619322.953 7  23619320.973 8 124120376.041 7  93896250.071 8
E16  26089618.328 7  26089620.473 8 137101857.517 7 103716670.948 8
E25  24694881.211 7  24694883.992 8 129772470.641 7  98172039.381 8
E36  24728056.844 8  24728059.715 8 129946817.204 8  98303936.354 8
G02  24510471.094 5                                 128803372.996 5                
G08  22225236.820 7                  22225244.602 7 116794410.176 7                  91008666.076 7
G10  21574688.164 8                  21574693.051 7 113375746.665 8                  88344770.147 7
G16  21658476.805 7  21658479.867 5                 113816060.808 7  88687847.656 5
G23  21050307.711 7                  21050313.230 8 110620115.717 7                  86197511.492 8
G27  20283187.984 8                  20283193.219 7 106588867.076 8                  83056480.454 7
R08  21135445.086 4  21135450.000 5 113179385.380 4  88028399.853 5
R14  21249658.555 8  21249663.602 7 113272640.812 8  88100885.001 7
R15  21372715.500 8  21372720.219 7 114209302.365 8  88829738.951 7
R17  22699458.203 7  22699464.156 7 121469399.327 7  94476235.915 7
R23  21550733.313 5                 115281980.813 5
R24  19633957.891 8  19633963.188 7 104991608.579 8  81660333.629 7
> 2025 06 15 08 47 10.0000000  0 20
C20  23860395.977 6 124247347.409 6
C26  24660610.813 7 128414264.129 7
C29  21588545.023 7 112417221.663 7
E02  24575910.328 7  24575912.020 8 129147284.640 7  97699087.538 8
E10  24879652.953 6  24879654.574 8 130743450.369 6  98906576.166 8
E11  23618483.266 7  23618481.234 8 124115963.172 7  93892911.762 8
E16  26091015.570 7  26091018.055 8 137109201.742 7 103722226.787 8
E25  24695494.430 7  24695497.074 8 129775692.524 7  98174476.701 8
E36  24724927.227 7  24724930.039 8 129930370.555 7  98291494.575 8
G02  24506146.344 5                                 128780644.31415                
G08  22221081.508 7                  22221088.746 7 116772572.447 7                  90991649.671 7
G10  21571308.977 8                  21571314.246 7 113357992.272 8                  88330935.567 7
G16  21659438.586 7  21659442.270 5                 113821116.420 7  88691787.071 5
G23  21049639.945 7                  21049646.438 8 110616609.953 7                  86194779.727 8
G27  20280905.258 8                  20280910.223 8 106576868.895 8                  83047131.216 8
R14  21250888.352 8  21250892.973 7 113279195.141 8  88105982.804 7
R15  21370265.063 8  21370269.629 7 114196208.272 8  88819554.655 7
R17  22694981.016 7  22694985.316 7 121445432.051 7  94457594.696 7
R23  21551935.820 5                 115288399.533 5
R24  19631801.055 8  19631806.711 7 104980076.646 8  81651364.342 7
> 2025 06 15 08 47 15.0000000  0 20
C20  23856822.063 6 124228742.211 6
C26  24660027.453 7 128411230.249 7
C29  21587663.156 7 112412627.924 7
E02  24573797.992 7  24573799.531 8 129136183.613 7  97690689.688 8
E10  24879982.875 6  24879984.313 8 130745182.966 6  98907886.859 8
E11  23617645.055 7  23617643.000 8 124111558.126 7  93889579.372 8
E16  26092413.938 7  26092416.758 8 137116551.568 7 103727786.869 8
E25  24696109.617 7  24696112.039 8 129778924.214 7  98176921.449 8
E36  24721799.156 8  24721801.652 8 129913930.771 8  98279057.997 8
G02  24501820.563 5                                 128757920.081 5                
G08  22216926.992 7                  22216934.902 7 116750742.601 7                  90974639.410 7
G10  21567933.133 8                  21567938.805 7 113340251.953 8                  88317111.947 7
G16  21660403.813 7  21660407.258 5                 113826185.681 7  88695737.123 5
G23  21048976.617 7                  21048982.535 8 110613121.063 7                  86192061.089 8
G27  20278624.492 8                  20278629.660 7 106564884.981 8                  83037793.101 7
R14  21252120.719 8  21252126.090 7 113285767.194 8  88111094.373 7
R15  21367819.125 8  21367823.559 7 114183137.380 8  88809388.410 7
R17  22690503.086 7  22690507.270 7 121421469.253 7  94438956.984 7
R23  21553137.711 5                 115294824.576 5
R24  19629647.484 8  19629652.504 7 104968556.708 8  81642404.386 7
> 2025 06 15 08 47 20.0000000  0 20
C20  23853251.359 6 124210149.556 6
C26  24659448.281 7 128408211.023 7
C29  21586782.977 7 112408043.835 7
E02  24571688.055 7  24571689.566 8 129125095.618 7  97682301.689 8
E10  24880313.516 6  24880315.066 8 130746921.268 6  98909201.875 8
E11  23616807.805 7  23616806.344 8 124107161.352 7  93886253.243 8
E16  26093813.992 7  26093816.570 8 137123907.520 7 103733351.588 8
E25  24696726.063 8  24696728.949 8 129782166.199 8  98179373.977 8
E36  24718672.125 8  24718674.645 8 129897498.382 8  98266627.003 8
G02  24497498.102 6                                 128735200.790 6                
G08  22212774.727 7                  22212782.344 7 116728921.107 7                  90957635.656 7
G10  21564559.883 8                  21564565.449 7 113322526.213 8                  88303299.681 7
G16  21661370.789 7  21661375.250 5                 113831269.063 7  88699698.187 5
G23  21048316.125 7                  21048322.254 8 110609649.497 7                  86189355.966 8
G27  20276346.555 8                  20276352.133 7 106552915.782 8                  83028466.444 7
R14  21253357.711 8  21253362.738 7 113292357.279 8  88116219.957 7
R15  21365377.641 8  21365382.098 7 114170090.300 8  88799240.675 7
R17  22686026.859 7  22686029.832 7 121397511.427 7  94420323.125 7
R23  21554335.648 5                 115301256.699 5
R24  19627494.664 8  19627500.379 7 104957049.296 8  81633454.167 7
> 2025 06 15 08 47 25.0000000  0 21
C20  23849682.813 6 124191569.119 6
C26  24658871.523 7 128405206.058 7
C29  21585904.672 7 112403469.022 7
E02  24569580.586 7  24569581.980 8 129114020.312 7  97673923.293 8
E10  24880645.492 6  24880646.875 8 130748664.938 6  98910520.935 8
E11  23615972.820 7  23615971.188 8 124102772.532 7  93882933.131 8
E16  26095214.406 7  26095217.543 8 137131269.179 7 103738920.622 8
E25  24697344.945 8  24697347.758 8 129785418.079 8  98181833.995 8
E36  24715546.594 7  24715549.012 8 129881072.967 7  98254201.287 8
G02  24493175.984 6                                 128712486.149 6                
G08  22208623.805 7                  22208631.355 7 116707107.592 7                  90940638.111 7
G10  21561189.383 8                  21561195.316 7 113304814.670 8                  88289498.488 7
G16  21662341.484 7  21662345.453 5                 113836366.214 7  88703669.974 5
G23  21047659.156 6                  21047665.000 8 110606194.940 6                  86186664.090 8
G27  20274072.422 8                  20274077.402 7 106540960.925 8                  83019150.985 7
R08  21126202.922 5  21126211.383 5 113129899.91715  87989911.20615
R14  21254596.219 8  21254601.918 7 113298965.081 8  88121359.348 7
R15  21362940.563 8  21362944.766 7 114157066.675 8  88789111.200 7
R17  22681548.680 7  22681554.195 7 121373558.252 7  94401692.921 7
R23  21555539.031 4                 115307695.481 4
R24  19625346.094 8  19625350.637 7 104945554.093 8  81624513.454 7
> 2025 06 15 08 47 30.0000000  0 20
C20  23846116.563 6 124172999.889 6
C26  24658296.750 7 128402214.311 7
C29  21585027.820 7 112398902.474 7
E02  24567475.219 7  24567476.629 8 129102956.676 7  97665553.725 8
E10  24880977.992 6  24880979.508 8 130750412.902 6  98911843.264 8
E11  23615138.758 7  23615137.348 8 124098390.616 7  93879618.237 8
E16  26096616.336 7  26096619.387 8 137138635.505 7 103744493.184 8
E25  24697965.586 8  24697968.250 8 129788678.837 8  98184300.730 8
E36  24712422.102 8  24712424.504 8 129864653.557 8  98241780.104 8
G02  24488853.797 6                                 128689775.086 6                
G08  22204474.289 7                  22204482.020 7 116685301.110 7                  90923646.050 7
G10  21557821.445 8                  21557827.508 7 113287116.321 8                  88275707.569 7
G16  21663313.586 7  21663317.949 5                 113841476.059 7  88707651.668 5
G23  21047004.633 7                  21047010.352 8 110602756.291 7                  86183984.612 8
G27  20271799.336 8                  20271804.934 7 106529019.428 8                  83009845.937 7
R08  21123902.383 5  21123911.852 5 113117586.841 5  87980334.328 5
R14  21255839.367 8  21255845.227 7 113305589.490 8  88126511.650 7
R15  21360507.422 8  21360511.785 7 114144065.305 8  88778999.025 7
R17  22677073.711 7  22677078.148 7 121349608.589 7  94383065.446 7
R24  19623197.969 8  19623203.152 7 104934069.910 8  81615581.316 7
> 2025 06 15 08 47 35.0000000  0 20
C20  23842553.273 7 124154441.528 7
C26  24657724.969 7 128399235.507 7
C29  21584152.555 7 112394343.856 7
E02  24565372.406 7  24565373.398 8 129091904.347 7  97657192.710 8
E10  24881312.109 6  24881312.836 8 130752164.859 6  98913168.595 8
E11  23614305.867 7  23614304.742 8 124094015.253 7  93876308.299 8
E16  26098018.688 7  26098022.066 8 137146006.226 7 103750069.073 8
E25  24698587.461 8  24698590.387 8 129791948.145 8  98186773.937 8
E36  24709298.367 8  24709301.051 8 129848239.785 8  98229363.196 8
G02  24484532.984 6                                 128667067.287 6                
G08  22200325.938 7                  22200333.172 7 116663501.269 7                  90906659.178 7
G10  21554455.945 8                  21554462.293 7 113269430.802 8                  88261926.649 7
G16  21664288.219 7  21664292.484 5                 113846598.279 7  88711643.006 5
G23  21046353.492 7                  21046359.105 8 110599333.266 7                  86181317.324 8
G27  20269529.734 8                  20269535.195 7 106517090.961 8                  83000551.034 7
R08  21121608.992 6  21121615.980 5 113105296.104 6  87970774.855 5
R14  21257084.805 8  21257090.590 7 113312230.082 8  88131676.537 7
R15  21358078.828 8  21358082.555 7 114131086.033 8  88768904.041 7
R17  22672597.273 7  22672603.566 7 121325662.068 7  94364440.408 7
R24  19621052.703 8  19621057.242 7 104922596.717 8  81606657.710 7
> 2025 06 15 08 47 40.0000000  0 20
C20  23838991.773 7 124135895.920 7
C26  24657155.352 6 128396271.416 6
C29  21583278.813 7 112389795.039 7
E02  24563271.766 7  24563272.684 8 129080865.250 7  97648841.700 8
E10  24881646.711 6  24881647.348 8 130753922.691 6  98914498.348 8
E11  23613474.875 7  23613473.727 8 124089648.314 7  93873004.735 8
E16  26099422.938 7  26099425.914 8 137153383.174 7 103755649.663 8
E25  24699211.602 8  24699214.488 8 129795227.848 8  98189254.995 8
E36  24706176.109 8  24706179.020 8 129831833.532 8  98216951.967 8
G02  24480212.586 6                                 128644364.665 6                
G08  22196178.969 7                  22196186.691 7 116641709.979 7                  90889678.964 7
G10  21551093.172 8                  21551099.426 7 113251760.039 8                  88248157.225 7
G16  21665266.016 7  21665269.945 5                 113851734.734 7  88715645.428 5
G23  21045705.758 7                  21045710.766 8 110595927.688 7                  86178663.625 8
G27  20267262.500 8                  20267268.164 8 106505177.374 8                  82991267.727 8
R08  21119319.859 6  21119323.121 4 113093029.469 6  87961234.121 4
R14  21258334.164 8  21258340.078 7 113318888.926 8  88136855.601 7
R15  21355653.711 8  21355658.359 7 114118130.729 8  88758827.694 7
R17  22668122.664 7  22668130.113 7 121301720.690 7  94345819.336 7
R24  19618909.805 8  19618914.008 7 104911136.103 8  81597743.896 7
> 2025 06 15 08 47 45.0000000  0 20
C20  23835432.961 7 124117363.118 7
C26  24656589.547 6 128393322.111 6
C29  21582407.492 7 112385256.057 7
E02  24561173.570 7  24561174.484 8 129069839.396 7  97640500.712 8
E10  24881982.016 5  24881982.918 8 130755686.365 5  98915832.541 8
E11  23612645.797 7  23612644.313 8 124085289.846 7  93869707.575 8
E16  26100827.820 7  26100830.980 8 137160766.346 7 103761234.971 8
E25  24699837.422 8  24699840.602 8 129798518.005 8  98191743.971 8
E36  24703055.617 8  24703058.453 8 129815434.842 8  98204546.473 8
G02  24475894.898 6                                 128621667.150 6                
G08  22192034.313 7                  22192041.781 7 116619927.276 7                  90872705.446 7
G10  21547733.242 8                  21547739.926 7 113234104.075 8                  88234399.341 7
G16  21666246.039 7  21666249.676 5                 113856885.451 7  88719658.995 5
G23  21045061.344 7                  21045065.820 8 110592539.629 7                  86176023.583 8
G27  20264998.234 8                  20265004.027 7 106493278.754 8                  82981996.078 7
R08  21117033.992 6  21117034.270 3 113080787.032 6  87951712.296 3
R14  21259586.570 7  21259593.098 7 113325565.996 7  88142048.845 7
R15  21353234.000 8  21353238.523 7 114105199.417 8  88748770.000 7
R17  22663649.617 7  22663656.625 7 121277784.588 7  94327202.386 7
R24  19616769.484 8  19616772.613 7 104899688.255 8  81588840.018 7
> 2025 06 15 08 47 50.0000000  0 20
C20  23831876.234 7 124098841.668 7
C26  24656025.797 6 128390386.124 6
C29  21581536.953 7 112380725.426 7
E02  24559077.813 7  24559078.527 8 129058825.318 7  97632168.628 8
E10  24882318.852 5  24882319.324 8 130757454.421 5  98917170.062 8
E11  23611817.789 7  23611816.219 8 124080938.356 7  93866415.707 8
E16  26102233.813 7  26102236.941 8 137168154.275 7 103766823.876 8
E25  24700465.203 8  24700468.402 8 129801817.104 8  98194239.708 8
E36  24699935.961 8  24699939.047 8 129799042.209 8  98192145.556 8
G02  24471577.563 5                                 128598973.404 5                
G08  22187889.414 7                  22187897.852 7 116598151.702 7                  90855737.476 7
G10  21544376.453 8                  21544382.801 7 113216461.391 8                  88220651.808 7
G16  21667228.922 7  21667232.145 5                 113862048.909 7  88723682.467 5
G23  21044418.570 7                  21044424.191 8 110589167.551 7                  86173395.992 8
G27  20262736.938 8                  20262742.250 8 106481393.568 8                  82972734.905 8
R08  21114752.688 6  21114752.336 3 113068567.188 6  87942208.130 3
R14  21260842.719 7  21260848.914 7 113332259.531 7  88147254.933 7
R15  21350818.484 8  21350822.695 7 114092290.530 8  88738729.753 7
R17  22659177.719 7  22659184.426 7 121253852.115 7  94308588.253 7
R24  19614629.867 8  19614634.074 7 104888251.735 8  81579944.955 7
> 2025 06 15 08 47 55.0000000  0 20
C20  23828321.688 7 124080331.607 7
C26  24655464.500 7 128387463.505 7
C29  21580668.414 7 112376203.207 7
E02  24556984.242 8  24556984.852 8 129047823.047 8  97623845.484 8
E10  24882655.797 5  24882656.637 8 130759226.901 5  98918510.919 8
E11  23610991.070 7  23610989.484 8 124076593.903 7  93863129.149 8
E16  26103640.969 7  26103643.820 8 137175547.026 7 103772416.425 8
E25  24701094.727 7  24701097.953 8 129805125.184 7  98196742.239 8
E36  24696817.625 8  24696820.824 8 129782655.698 8  98179749.274 8
G02  24467264.422 5                                 128576283.398 5                
G08  22183747.180 7                  22183755.906 7 116576383.288 7                  90838775.091 7
G10  21541021.188 8                  21541028.348 7 113198832.093 8                  88206914.688 7
G16  21668213.531 7  21668216.910 5                 113867225.192 7  88727715.924 5
G23  21043780.156 7                  21043785.453 8 110585811.558 7                  86170780.932 8
G27  20260477.695 8                  20260483.223 7 106469521.927 8                  82963484.274 7
R08  21112473.156 6  21112475.887 4 113056370.282 6  87932721.791 4
R14  21262101.078 7  21262107.703 7 113338969.847 7  88152474.067 7
R15  21348406.813 8  21348411.180 7 114079404.198 8  88728707.039 7
R17  22654706.789 7  22654712.863 7 121229923.401 7  94289977.043 7
R24  19612493.430 8  19612496.648 7 104876826.388 8  81571058.578 7
> 2025 06 15 08 48  0.0000000  0 20
C20  23824769.797 7 124061832.867 7
C26  24654905.430 7 128384554.171 7
C29  21579801.359 7 112371689.296 7
E02  24554892.953 8  24554893.434 8 129036832.531 8  97615531.229 8
E10  24882994.109 5  24882994.742 8 130761003.781 5  98919855.105 8
E11  23610165.859 7  23610164.023 8 124072256.389 7  93859847.843 8
E16  26105048.219 7  26105051.574 8 137182944.479 7 103778012.533 8
E25  24701725.938 7  24701729.152 8 129808442.193 7  98199251.525 8
E36  24693700.664 8  24693703.742 8 129766275.259 8  98167357.582 8
G02  24462958.320 5                                 128553597.028 5                
G08  22179606.117 7                  22179614.715 7 116554621.998 7                  90821818.256 7
G10  21537669.188 8                  21537676.547 7 113181216.111 8                  88193187.942 7
G16  21669201.203 7  21669204.027 5                 113872414.185 7  88731759.287 5
G23  21043144.406 7                  21043149.645 7 110582471.540 7                  86168178.314 7
G27  20258220.758 8                  20258226.656 7 106457663.719 8                  82954244.119 7
R08  21110203.031 6  21110205.184 5 113044196.050 6  87923252.941 5
R14  21263363.422 8  21263369.559 7 113345696.925 8  88157706.233 7
R15  21345999.938 8  21346004.074 7 114066540.419 8  88718701.855 7
R17  22650235.109 7  22650241.918 7 121205998.273 7  94271368.635 7
R24  19610358.844 8  19610362.859 7 104865412.321 8  81562180.979 7
> 2025 06 15 08 48  5.0000000  0 20
C20  23821219.703 7 124043346.278 7
C26  24654348.953 6 128381658.896 6
C29  21578936.406 7 112367184.556 7
E02  24552803.711 8  24552804.367 8 129025854.585 8  97607226.484 8
E10  24883333.117 5  24883333.852 8 130762785.802 5  98921203.190 8
E11  23609342.008 7  23609340.066 8 124067926.646 7  93856572.416 8
E16  26106457.352 7  26106460.359 8 137190347.462 7 103783612.819 8
E25  24702358.977 7  24702362.219 8 129811768.902 7  98201768.157 8
E36  24690584.836 8  24690587.953 8 129749901.664 8  98154971.066 8
G02  24458646.797 5                                 128530915.15415                
G08  22175466.523 7                  22175475.102 7 116532868.639 7                  90804867.603 7
G10  21534319.773 8                  21534326.984 7 113163614.231 8                  88179472.191 7
G16  21670191.141 7  21670193.848 5                 113877616.719 7  88735813.199 5
G23  21042511.813 7                  21042517.281 8 110579148.284 7                  86165588.765 8
G27  20255967.203 8                  20255972.863 7 106445819.779 8                  82945015.073 7
R08  21107931.656 6  21107937.609 5 113032045.314 6  87913802.357 5
R14  21264629.133 8  21264634.445 7 113352441.213 8  88162951.778 7
R15  21343597.563 7  21343601.145 6 114053699.727 7  88708714.641 6
R17  22645763.836 7  22645771.250 7 121182077.660 7  94252763.715 7
R24  19608227.008 8  19608230.594 7 104854010.308 8  81553312.749 7
> 2025 06 15 08 48 10.0000000  0 20
C20  23817672.109 7 124024871.450 7
C26  24653795.852 7 128378777.317 7
C29  21578072.914 8 112362688.518 8
E02  24550716.859 8  24550717.641 8 129014888.790 8  97598930.934 8
E10  24883671.992 5  24883673.867 8 130764572.584 5  98922554.871 8
E11  23608519.273 7  23608517.484 8 124063604.216 7  93853302.532 8
E16  26107867.047 7  26107870.086 8 137197755.524 7 103789216.967 8
E25  24702993.898 7  24702997.020 8 129815104.910 7  98204291.818 8
E36  24687470.180 8  24687473.406 8 129733534.527 8  98142589.444 8
G02  24454332.953 5                                 128508237.31015                
G08  22171328.422 7                  22171337.266 7 116511122.800 7                  90787922.803 7
G10  21530972.992 8                  21530980.000 8 113146026.054 8                  88165767.117 8
G16  21671183.414 7  21671186.098 5                 113882832.346 7  88739877.319 5
G23  21041882.586 7                  21041887.730 7 110575841.420 7                  86163011.993 7
G27  20253715.828 8                  20253721.578 7 106433989.728 8                  82935796.846 7
R08  21105664.531 6  21105674.758 6 113019917.775 6  87904369.829 6
R14  21265896.938 8  21265902.973 7 113359202.585 8  88168210.615 7
R15  21341197.828 8  21341202.660 7 114040882.199 8  88698745.451 7
R17  22641295.992 7  22641302.031 7 121158161.165 7  94234162.024 7
R24  19606096.672 8  19606101.086 7 104842619.934 8  81544453.573 7
> 2025 06 15 08 48 15.0000000  0 22
C20  23814126.125 7 124006409.165 7
C26  24653245.180 6 128375910.155 6
C29  21577210.992 7 112358202.008 7
E02  24548632.570 7  24548633.395 8 129003935.930 7  97590645.173 8
E10  24884010.727 4  24884014.949 8 130766364.904 4  98923910.729 8
E11  23607698.422 7  23607696.469 8 124059289.937 7  93850038.810 8
E16  26109277.961 8  26109280.969 8 137205169.494 8 103794825.564 8
E25  24703630.453 7  24703633.746 8 129818451.018 7  98206823.120 8
E36  24684357.109 8  24684360.211 8 129717174.663 8  98130213.315 8
G02  24450017.469 5                                 128485564.396 5                
G08  22167192.328 7                  22167200.504 7 116489385.297 7                  90770984.483 7
G10  21527628.688 8                  21527636.074 7 113128452.411 8                  88152073.362 7
G16  21672178.367 7  21672180.934 5                 113888061.846 7  88743952.243 5
G18  22820570.734 5                                 119922955.64415                
G23  21041256.695 7                  21041261.730 7 110572551.686 7                  86160448.565 7
G27  20251467.391 8                  20251473.109 7 106422174.302 8                  82926590.010 7
R01  22452885.250 5                                
R08  21103403.172 6  21103414.914 5 113007814.151 6  87894955.903 5
R14  21267168.781 8  21267174.719 7 113365981.721 8  88173483.261 7
R15  21338804.094 8  21338808.813 7 114028088.225 8  88688794.575 7
R17  22636827.016 7  22636833.688 7 121134249.543 7  94215564.092 7
R24  19603969.516 8  19603973.125 7 104831241.945 8  81535604.033 7
> 2025 06 15 08 48 20.0000000  0 22
C20  23810583.391 7 123987958.924 7
C26  24652696.641 7 128373056.937 7
C29  21576350.984 8 112353724.514 8
E02  24546550.734 7  24546551.539 8 128992995.546 7  97582368.845 8
E10  24884351.188 5  24884356.941 8 130768162.20615  98925270.39218
E11  23606878.773 7  23606876.898 8 124054983.262 7  93846780.839 8
E16  26110690.016 8  26110692.848 8 137212588.848 8 103800438.240 8
E25  24704268.852 7  24704272.301 8 129821806.677 7  98209361.642 8
E36  24681245.641 7  24681248.332 8 129700821.510 7  98117842.261 8
G02  24445703.195 4                                 128462895.810 4                
G08  22163057.086 7                  22163065.602 7 116467655.631 7                  90754052.271 7
G10  21524287.242 8                  21524294.313 7 113110892.763 8                  88138390.521 7
G16  21673176.188 7  21673178.664 5                 113893304.698 7  88748037.555 5
G18  22821801.266 5                                 119929415.746 5                
G23  21040634.039 7                  21040638.594 7 110569278.609 7                  86157898.124 7
G27  20249221.695 8                  20249227.375 7 106410373.025 8                  82917394.201 7
R01  22447572.891 5                 119995112.39015
R08  21101146.789 6  21101159.309 5 112995734.070 6  87885560.283 5
R14  21268443.555 8  21268449.484 7 113372778.007 8  88178769.256 7
R15  21336413.891 8  21336418.609 7 114015317.509 8  88678861.794 7
R17  22632359.164 7  22632366.270 7 121110342.299 7  94196969.596 7
R24  19601843.625 8  19601847.492 7 104819875.871 8  81526763.749 7
> 2025 06 15 08 48 25.0000000  0 22
C20  23807042.344 7 123969520.898 7
C26  24652151.766 7 128370217.797 7
C29  21575492.898 7 112349256.171 7
E02  24544471.219 7  24544472.063 8 128982067.750 7  97574102.039 8
E10  24884693.977 5  24884699.992 8 130769964.68715  98926633.93718
E11  23606060.477 7  23606058.816 8 124050684.343 7  93843528.733 8
E16  26112103.086 8  26112105.715 8 137220013.675 8 103806055.063 8
E25  24704909.297 7  24704912.688 8 129825172.060 7  98211907.524 8
E36  24678135.258 7  24678137.746 8 129684475.238 7  98105476.417 8
G02  24441394.047 4                                                                
G08  22158923.477 7                  22158931.648 7 116445933.916 7                  90737126.269 7
G10  21520948.734 8                  21520955.555 8 113093347.274 8                  88124718.720 8
G16  21674176.383 7  21674178.805 5                 113898561.012 7  88752133.368 5
G18  22823030.891 5                                 119935881.639 5                
G23  21040014.375 7                  21040018.910 7 110566022.328 7                  86155360.759 7
G27  20246979.219 8                  20246984.395 8 106398586.046 8                  82908209.532 8
R01  22442267.063 4                 119966727.522 4
R08  21098897.633 6  21098907.398 5 112983677.551 6  87876182.963 5
R14  21269721.797 8  21269727.941 7 113379591.601 8  88184068.707 7
R15  21334028.578 8  21334033.008 7 114002570.136 8  88668947.165 7
R17  22627893.531 7  22627898.738 7 121086439.537 7  94178378.564 7
R24  19599720.609 8  19599724.094 7 104808521.738 8  81517932.762 7
> 2025 06 15 08 48 30.0000000  0 21
C20  23803503.352 7 123951094.913 7
C26  24651608.281 6 128367392.555 6
C29  21574636.664 7 112344796.824 7
E02  24542394.500 7  24542394.988 8 128971152.422 7  97565844.665 8
E10  24885039.844 5  24885043.961 8 130771772.171 5  98928001.290 8
E11  23605243.875 7  23605242.215 8 124046393.063 7  93840282.408 8
E16  26113517.156 7  26113519.648 8 137227443.889 7 103811675.946 8
E25  24705551.563 7  24705554.953 8 129828547.016 7  98214460.642 8
E36  24675025.961 8  24675028.488 8 129668135.706 8  98093115.679 8
G02  24437082.273 4                                                                
G08  22154791.453 7                  22154799.293 7 116424220.075 7                  90720206.388 7
G10  21517612.273 8                  21517619.504 8 113075815.806 8                  88111057.838 8
G16  21675179.211 7  21675181.934 5                 113903830.694 7  88756239.603 5
G18  22824261.602 4                                 119942353.216 4                
G23  21039398.320 7                  21039402.441 7 110562782.669 7                  86152836.357 7
G27  20244738.266 8                  20244744.207 8 106386813.251 8                  82899035.918 8
R08  21096648.469 6  21096659.438 4 112971644.431 6  87866823.813 4
R14  21271003.141 8  21271009.469 7 113386422.547 8  88189381.644 7
R15  21331647.281 8  21331652.047 7 113989845.876 8  88659050.537 7
R17  22623428.313 7  22623432.816 7 121062541.127 7  94159790.928 7
R24  19597600.031 8  19597603.332 7 104797179.630 8  81509111.132 7
> 2025 06 15 08 48 35.0000000  0 20
C20  23799967.164 7 123932680.997 7
C26  24651068.250 7 128364581.213 7
C29  21573782.102 7 112340346.469 7
E02  24540319.672 7  24540320.254 8 128960249.521 7  97557596.687 8
E10  24885386.211 5  24885388.883 8 130773584.715 5  98929372.451 8
E11  23604428.570 7  23604427.027 8 124042109.347 7  93837041.798 8
E16  26114932.281 8  26114934.625 8 137234879.420 8 103817300.866 8
E25  24706195.492 7  24706198.980 8 129831931.493 7  98217020.960 8
E36  24671917.891 7  24671920.441 8 129651802.904 7  98080760.017 8
G08  22150661.000 7                  22150668.973 7 116402514.029 7                  90703292.594 7
G10  21514278.773 8                  21514286.102 8 113058298.348 8                  88097407.876 8
G16  21676184.656 7  21676187.715 5                 113909113.689 7  88760356.198 5
G18  22825493.805 4                  22825503.582 4 119948830.376 4                  93466620.72014
G23  21038785.117 7                  21038789.301 7 110559559.564 7                  86150324.854 7
G27  20242500.797 8                  20242506.648 8 106375054.591 8                  82889873.331 8
R08  21094404.250 6  21094416.422 4 112959634.833 6  87857483.023 4
R14  21272287.883 7  21272294.465 7 113393270.398 7  88194707.746 7
R15  21329270.969 8  21329275.539 7 113977144.905 8  88649171.998 7
R17  22618962.477 7  22618967.945 7 121038646.999 7  94141206.637 7
R24  19595480.992 8  19595484.727 7 104785849.445 8  81500298.763 7
> 2025 06 15 08 48 40.0000000  0 19
C20  23796433.945 7 123914278.943 7
C26  24650530.734 6 128361783.551 6
C29  21572928.898 7 112335904.886 7
E02  24538247.484 7  24538247.801 8 128949358.863 7  97549357.969 8
E10  24885733.273 5  24885734.727 8 130775401.972 5  98930747.185 8
E11  23603614.711 7  23603613.266 8 124037832.983 7  93833806.753 8
E16  26116348.352 8  26116350.531 8 137242320.079 8 103822929.655 8
E25  24706841.117 7  24706844.820 8 129835325.277 7  98219588.319 8
E36  24668811.047 7  24668813.676 8 129635476.597 7  98068409.276 8
G08  22146531.727 7                  22146539.676 7 116380815.620 7                  90686384.741 7
G10  21510947.688 8                  21510955.379 7 113040794.704 8                  88083768.673 7
G16  21677193.133 7  21677195.855 5                 113914409.752 7  88764482.985 5
G23  21038174.625 7                  21038179.074 7 110556352.874 7                  86147826.120 7
G27  20240265.703 8                  20240271.844 8 106363309.863 8                  82880721.593 8
R08  21092165.023 6  21092176.672 4 112947648.438 6  87848160.249 4
R14  21273576.313 8  21273582.422 7 113400135.305 8  88200047.117 7
R15  21326898.844 8  21326902.551 7 113964466.840 8  88639311.304 7
R17  22614497.711 7  22614503.438 7 121014757.154 7  94122625.659 7
R24  19593363.711 8  19593368.223 7 104774530.889 8  81491495.445 7
> 2025 06 15 08 48 45.0000000  0 20
C20  23792902.039 7 123895888.940 7
C26  24649996.102 7 128358999.736 7
C29  21572078.117 7 112331472.274 7
E02  24536177.508 7  24536177.734 8 128938480.594 7  97541128.628 8
E10  24886081.359 5  24886081.516 8 130777224.188 5  98932125.688 8
E11  23602802.609 7  23602800.914 8 124033564.188 7  93830577.435 8
E16  26117765.219 8  26117767.438 8 137249765.999 8 103828562.424 8
E25  24707488.992 7  24707492.508 8 129838728.563 7  98222162.864 8
E36  24665705.414 7  24665708.176 8 129619157.002 7  98056063.609 8
G08  22142404.977 7                  22142411.691 7 116359125.060 7                  90669482.988 7
G10  21507619.930 8                  21507627.000 8 113023305.047 8                  88070140.378 8
G16  21678202.719 7  21678206.504 5                 113919719.056 7  88768620.100 5
G23  21037567.766 7                  21037572.207 7 110553162.753 7                  86145340.297 7
G27  20238033.313 8                  20238039.523 7 106351579.256 8                  82871580.866 7
R01  22421042.305 5                                
R08  21089933.180 6  21089943.590 4 112935685.503 6  87838855.713 4
R14  21274867.359 8  21274872.672 7 113407017.325 8  88205399.795 7
R15  21324530.570 8  21324534.309 7 113951811.958 8  88629468.623 7
R17  22610032.414 7  22610039.680 7 120990871.552 7  94104047.981 7
R24  19591249.328 8  19591253.883 7 104763224.105 8  81482701.274 7
> 2025 06 15 08 48 50.0000000  0 21
C20  23789373.406 7 123877511.883 7
C26  24649464.539 7 128356230.681 7
C29  21571228.898 7 112327049.507 7
E02  24534109.734 7  24534110.164 8 128927615.662 7  97532909.371 8
E10  24886429.125 5  24886429.461 8 130779052.20915  98933508.56818
E11  23601991.992 7  23601990.211 8 124029303.841 7  93827354.502 8
E16  26119183.305 8  26119185.512 8 137257218.080 8 103834199.863 8
E25  24708139.266 7  24708142.152 8 129842142.226 7  98224745.259 8
E36  24662601.438 7  24662604.102 8 129602844.978 7  98043723.673 8
G08  22138278.672 7                  22138285.621 7 116337443.188 7                  90652588.031 7
G10  21504294.984 8                  21504301.246 8 113005830.296 8                  88056523.690 8
G16  21679215.648 7  21679219.621 5                 113925042.457 7  88772768.197 5
G23  21036964.031 7                  21036968.457 7 110549990.061 7                  86142868.058 7
G27  20235803.781 8                  20235810.098 7 106339863.695 8                  82862451.858 7
R01  22415737.648 5                 119824931.07615
R08  21087704.195 6  21087714.781 4 112923746.866 6  87829569.990 4
R14  21276162.078 8  21276167.391 7 113413917.316 8  88210766.421 7
R15  21322165.539 8  21322170.641 7 113939181.127 8  88619644.675 7
R17  22605568.570 7  22605577.129 7 120966991.257 7  94085474.435 7
R23  21576181.703 5                 115418034.41215
R24  19589136.445 8  19589141.945 7 104751930.047 8  81473917.014 7
> 2025 06 15 08 48 55.0000000  0 21
C20  23785846.070 7 123859145.859 7
C26  24648935.289 6 128353474.422 6
C29  21570380.820 7 112322634.657 7
E02  24532044.234 7  24532044.809 8 128916762.082 7  97524698.709 8
E10  24886777.969 5  24886778.105 8 130780884.196 5  98934894.441 8
E11  23601182.391 7  23601180.750 8 124025049.991 7  93824136.483 8
E16  26120601.391 7  26120604.371 8 137264674.406 7 103839840.505 8
E25  24708790.563 7  24708793.426 8 129845564.318 7  98227334.042 8
E36  24659498.344 8  24659501.129 8 129586538.604 8  98031388.008 8
G08  22134153.656 7                  22134161.836 7 116315768.138 7                  90635698.394 7
G10  21500971.836 8                  21500978.523 7 112988368.502 8                  88042917.107 7
G16  21680231.438 7  21680235.406 5                 113930378.058 7  88776925.799 5
G23  21036363.359 7                  21036367.789 7 110546832.900 7                  86140407.925 7
G27  20233577.039 8                  20233583.391 7 106328161.214 8                  82853333.052 7
R01  22410438.680 5                 119796598.398 5
R08  21085480.789 6  21085490.723 4 112911830.617 6  87820301.753 4
R14  21277459.578 8  21277464.801 7 113420833.363 8  88216145.549 7
R15  21319806.375 8  21319811.574 7 113926572.426 8  88609837.900 7
R17  22601106.258 6  22601115.070 7 120943114.210 6  94066903.410 7
R23  21577406.859 5                 115424584.429 5
R24  19587026.430 8  19587031.723 7 104740646.957 8  81465141.267 7
> 2025 06 15 08 49  0.0000000  0 21
C20  23782322.250 7 123840792.082 7
C26  24648409.039 6 128350732.177 6
C29  21569535.063 7 112318228.944 7
E02  24529980.836 7  24529981.859 8 128905921.141 7  97516497.620 8
E10  24887127.578 5  24887127.715 8 130782721.354 5  98936284.249 8
E11  23600374.672 7  23600372.715 8 124020803.857 7  93820924.310 8
E16  26122021.609 7  26122024.230 8 137272136.195 7 103845485.274 8
E25  24709443.664 7  24709446.473 8 129848996.088 7  98229930.139 8
E36  24656396.688 8  24656399.453 8 129570239.118 8  98019057.559 8
G08  22130030.992 7                  22130038.332 7 116294101.116 7                  90618815.008 7
G10  21497651.859 8                  21497657.973 7 112970920.919 8                  88029321.580 7
G16  21681249.594 7  21681253.074 5                 113935727.053 7  88781093.842 5
G23  21035765.203 7                  21035770.195 7 110543692.438 7                  86137960.816 7
G27  20231352.836 8                  20231359.098 8 106316473.081 8                  82844225.406 8
R01  22405140.008 5                 119768274.657 5
R08  21083263.398 6  21083271.219 4 112899938.018 6  87811051.757 4
R14  21278760.117 8  21278765.398 7 113427766.435 8  88221537.909 7
R15  21317451.141 8  21317456.316 7 113913987.172 8  88600049.373 7
R17  22596646.172 6  22596653.785 7 120919241.686 6  94048335.881 7
R23  21578639.227 5                 115431140.879 5
R24  19584918.406 8  19584924.277 7 104729375.876 8  81456374.860 7
> 2025 06 15 08 49  5.0000000  0 21
C20  23778799.430 7 123822450.639 7
C26  24647885.016 6 128348004.011 6
C29  21568691.078 7 112313832.424 7
E02  24527919.734 7  24527921.344 8 128895092.832 7  97508306.080 8
E10  24887478.617 5  24887478.258 8 130784563.605 5  98937677.882 8
E11  23599568.047 7  23599566.195 8 124016565.488 7  93817718.009 8
E16  26123442.836 7  26123445.207 8 137279603.459 7 103851134.187 8
E25  24710098.484 7  24710101.434 8 129852437.530 7  98232533.555 8
E36  24653296.211 7  24653299.129 8 129553946.524 7  98006732.322 8
G08  22125909.586 7                  22125916.902 7 116272442.193 7                  90601937.923 7
G10  21494334.438 8                  21494340.363 7 112953487.579 8                  88015737.154 7
G16  21682269.602 7  21682273.527 5                 113941089.449 7  88785272.320 5
G23  21035170.703 7                  21035176.070 7 110540568.747 7                  86135526.782 7
G27  20229131.320 8                  20229137.805 8 106304799.283 8                  82835128.950 8
R01  22399839.508 6                 119739960.071 6
R08  21081048.164 6  21081056.383 4 112888068.975 6  87801820.258 4
R14  21280064.078 8  21280068.723 7 113434716.784 8  88226943.725 7
R15  21315100.563 8  21315105.117 7 113901425.313 8  88590279.024 7
R17  22592186.250 6  22592193.543 7 120895373.696 6  94029771.935 7
R23  21579875.727 5                 115437703.563 5
R24  19582812.578 8  19582818.547 7 104718116.872 8  81447617.857 7
> 2025 06 15 08 49 10.0000000  0 21
C20  23775278.867 7 123804120.762 7
C26  24647364.023 6 128345289.121 6
C29  21567848.367 7 112309444.336 7
E02  24525861.648 7  24525863.090 8 128884276.438 7  97500123.563 8
E10  24887829.156 5  24887829.633 8 130786410.27715  98939074.85918
E11  23598762.719 7  23598761.000 8 124012334.156 7  93814517.023 8
E16  26124864.453 7  26124867.066 8 137287075.442 7 103856786.678 8
E25  24710754.938 7  24710758.035 8 129855887.904 7  98235143.729 8
E36  24650197.438 8  24650199.965 8 129537660.145 8  97994411.774 8
G08  22121789.523 7                  22121796.715 7 116250790.598 7                  90585066.557 7
G10  21491019.500 8                  21491025.676 7 112936067.754 8                  88002163.277 7
G16  21683292.383 7  21683296.145 5                 113946464.525 7  88789460.675 5
G23  21034579.594 7                  21034584.652 7 110537461.053 7                  86133105.200 7
G27  20226912.805 8                  20226919.160 8 106293139.156 8                  82826043.128 8
R01  22394544.055 6                 119711653.623 6
R08  21078835.766 6  21078846.012 5 112876223.008 6  87792606.680 5
R14  21281370.250 7  21281376.129 7 113441683.555 7  88232362.326 7
R15  21312754.414 8  21312758.602 7 113888886.109 8  88580526.303 7
R17  22587728.969 6  22587734.395 7 120871509.650 6  94011211.014 7
R23  21581114.773 5                 115444272.067 5
R24  19580709.398 8  19580715.094 7 104706869.281 8  81438869.726 7
> 2025 06 15 08 49 15.0000000  0 21
C20  23771761.219 7 123785802.962 7
C26  24646846.375 6 128342588.081 6
C29  21567007.438 7 112305065.221 7
E02  24523805.766 7  24523807.199 8 128873472.473 7  97491950.436 8
E10  24888181.633 5  24888182.012 8 130788261.888 5  98940475.584 8
E11  23597958.672 7  23597957.250 8 124008110.318 7  93811321.726 8
E16  26126287.609 7  26126289.879 8 137294552.663 7 103862443.124 8
E25  24711413.313 8  24711416.488 8 129859347.752 8  98237761.069 8
E36  24647099.492 8  24647102.066 8 129521380.410 8  97982096.264 8
G08  22117670.719 7                  22117678.582 7 116229146.871 7                  90568201.331 7
G10  21487707.125 8                  21487713.270 7 112918661.929 8                  87988600.309 7
G16  21684318.047 7  21684321.133 5                 113951852.841 7  88793659.344 5
G23  21033991.758 7                  21033996.441 7 110534369.897 7                  86130696.521 7
G27  20224696.461 8                  20224702.637 8 106281493.158 8                  82816968.332 8
R01  22389250.398 5                 119683356.146 5
R08  21076627.414 6  21076639.586 4 112864400.441 6  87783411.249 4
R14  21282681.234 7  21282686.113 7 113448667.386 7  88237794.195 7
R15  21310412.102 8  21310416.781 7 113876370.136 8  88570791.649 7
R17  22583270.883 6  22583275.520 7 120847649.922 6  93992653.471 7
R23  21582345.578 4                 115450846.770 4
R24  19578608.742 8  19578614.141 7 104695633.504 8  81430130.792 7
> 2025 06 15 08 49 20.0000000  0 20
C20  23768245.492 7 123767496.663 7
C26  24646331.422 6 128339900.202 6
C29  21566167.539 7 112300694.441 7
E02  24521751.828 7  24521753.543 8 128862680.338 7  97483786.254 8
E10  24888534.281 6  24888535.176 8 130790117.767 6  98941879.548 8
E11  23597156.602 7  23597154.793 8 124003893.414 7  93808131.660 8
E16  26127710.977 7  26127713.563 8 137302034.499 7 103868103.054 8
E25  24712073.289 8  24712076.609 8 129862816.411 8  98240385.076 8
E36  24644002.633 8  24644005.336 8 129505106.764 8  97969785.366 8
G08  22113553.258 7                  22113561.051 7 116207510.395 7                  90551341.744 7
G10  21484397.859 8                  21484403.438 7 112901269.531 8                  87975047.803 7
G16  21685345.531 7  21685349.051 5                 113957253.647 7  88797867.753 5
G23  21033406.039 7                  21033411.430 8 110531294.629 7                  86128300.203 8
G27  20222482.758 8                  20222489.219 8 106269860.717 8                  82807904.100 8
R01  22383958.117 5                 119655066.997 5
R08  21074421.766 5  21074437.094 4 112852600.653 5  87774233.575 4
R14  21283993.969 7  21283999.277 7 113455667.491 7  88243238.710 7
R15  21308073.836 8  21308078.719 7 113863876.562 8  88561074.446 7
R17  22578810.609 6  22578817.672 7 120823793.854 6  93974098.825 7
R24  19576509.945 8  19576515.027 7 104684408.930 8  81421400.573 7
> 2025 06 15 08 49 25.0000000  0 21
C20  23764732.477 7 123749202.673 7
C26  24645818.477 6 128337226.318 6
C29  21565330.195 7 112296332.776 7
E02  24519700.648 7  24519702.254 8 128851900.823 7  97475631.624 8
E10  24888889.102 5  24888889.305 8 130791978.719 5  98943287.364 8
E11  23596355.398 7  23596353.836 8 123999684.198 7  93804947.411 8
E16  26129135.555 7  26129138.289 8 137309521.708 7 103873767.069 8
E25  24712735.094 8  24712738.508 8 129866294.670 8  98243016.350 8
E36  24640906.805 8  24640909.891 8 129488839.960 8  97957479.646 8
G08  22109437.648 7                  22109445.395 7 116185881.997 7                  90534488.474 7
G10  21481090.547 8                  21481096.641 7 112883891.364 8                  87961506.396 7
G16  21686376.031 7  21686379.457 5                 113962667.758 7  88802086.535 5
G23  21032823.750 7                  21032829.418 8 110528236.049 7                  86125916.894 8
G27  20220272.281 8                  20220278.277 7 106258242.620 8                  82798851.036 7
R01  22378666.969 5                 119626786.903 5
R08  21072223.508 4                 112840824.507 4
R14  21285309.859 8  21285315.715 7 113462684.776 8  88248696.591 7
R15  21305739.992 8  21305744.875 7 113851406.591 8  88551375.571 7
R17  22574353.352 6  22574360.246 7 120799942.240 6  93955547.548 7
R23  21584786.367 4                 115464013.57014
R24  19574413.078 8  19574418.578 7 104673196.470 8  81412679.764 7
> 2025 06 15 08 49 30.0000000  0 19
C20  23761222.234 7 123730922.074 7
C26  24645308.219 7 128334567.513 7
C29  21564494.813 7 112291981.338 7
E02  24517652.039 7  24517653.652 8 128841135.024 7  97467487.368 8
E10  24889244.992 5  24889244.586 8 130793845.933 5  98944699.899 8
E11  23595556.195 7  23595554.473 8 123995483.766 7  93801769.808 8
E16  26130561.313 7  26130564.293 8 137317015.446 7 103879436.016 8
E25  24713398.414 7  24713402.445 8 129869783.660 7  98245655.740 8
E36  24637812.781 8  24637815.938 8 129472581.154 8  97945179.971 8
G08  22105323.469 7                  22105331.340 7 116164262.756 7                  90517642.337 7
G10  21477786.305 8                  21477792.660 7 112866528.528 8                  87947976.925 7
G16  21687408.969 7  21687412.391 5                 113968096.343 7  88806316.577 5
G23  21032245.070 7                  21032250.973 8 110525195.245 7                  86123547.448 8
G27  20218063.930 8                  20218070.480 8 106246639.953 8                  82789809.999 8
R01  22373379.641 5                 119598517.021 5
R14  21286630.141 8  21286635.676 7 113469720.211 8  88254168.567 7
R15  21303411.258 8  21303415.867 7 113838961.159 8  88541695.799 7
R17  22569896.836 7  22569903.906 7 120776096.474 7  93937000.860 7
R24  19572318.805 8  19572323.492 7 104661997.204 8  81403969.229 7
> 2025 06 15 08 49 35.0000000  0 19
C20  23757714.523 7 123712653.137 7
C26  24644800.164 7 128331922.063 7
C29  21563661.039 7 112287638.401 7
E02  24515605.875 7  24515607.332 8 128830381.229 7  97459352.188 8
E10  24889601.047 5  24889600.746 8 130795717.607 5  98946115.782 8
E11  23594758.563 7  23594756.488 8 123991290.405 7  93798597.556 8
E16  26131988.625 7  26131991.145 8 137324513.921 7 103885108.539 8
E25  24714063.617 7  24714068.059 8 129873281.641 7  98248301.924 8
E36  24634719.961 8  24634723.164 8 129456328.578 8  97932885.006 8
G08  22101210.859 7                  22101218.633 7 116142650.970 7                  90500802.000 7
G10  21474485.273 8                  21474490.879 7 112849179.322 8                  87934458.071 7
G16  21688444.516 7  21688447.801 5                 113973537.559 7  88810556.474 5
G23  21031670.242 7                  21031675.484 8 110522170.490 7                  86121190.484 8
G27  20215859.398 8                  20215865.316 8 106235051.018 8                  82780779.652 8
R01  22368094.461 6                 119570255.572 6
R14  21287953.570 8  21287959.000 7 113476772.090 8  88259653.337 7
R15  21301086.344 8  21301091.340 7 113826538.388 8  88532033.663 7
R17  22565441.492 7  22565448.422 7 120752254.452 7  93918457.091 7
R24  19570226.258 8  19570232.121 7 104650809.355 8  81395267.585 7
> 2025 06 15 08 49 40.0000000  0 19
C20  23754207.945 7 123694395.620 7
C26  24644295.016 7 128329289.640 7
C29  21562828.188 7 112283303.663 7
E02  24513561.430 8  24513563.227 8 128819639.113 8  97451225.848 8
E10  24889959.180 5  24889957.715 8 130797593.355 5  98947534.772 8
E11  23593961.961 7  23593959.852 8 123987103.762 7  93795430.383 8
E16  26133416.266 7  26133418.938 8 137332016.843 7 103890784.437 8
E25  24714731.258 7  24714735.348 8 129876788.260 7  98250954.647 8
E36  24631628.133 8  24631631.543 8 129440081.925 8  97920594.533 8
G08  22097099.484 7                  22097107.094 7 116121046.351 7                  90483967.255 7
G10  21471186.469 8                  21471192.406 7 112831843.393 8                  87920949.553 7
G16  21689482.305 7  21689486.211 5                 113978991.130 7  88814805.982 5
G23  21031097.141 7                  21031102.711 8 110519161.464 7                  86118845.792 8
G27  20213656.203 8                  20213662.227 8 106223475.478 8                  82771759.752 8
R01  22362808.281 6                 119542002.298 6
R14  21289278.625 8  21289284.879 7 113483840.113 8  88265150.675 7
R15  21298766.211 8  21298770.676 7 113814138.153 8  88522389.042 7
R17  22560988.164 7  22560993.355 7 120728416.059 7  93899916.149 7
R24  19568136.711 8  19568140.930 7 104639632.642 8  81386574.574 7
> 2025 06 15 08 49 45.0000000  0 20
C20  23750704.047 7 123676149.700 7
C26  24643791.125 7 128326670.471 7
C29  21561997.516 7 112278977.335 7
E02  24511519.703 7  24511521.348 8 128808908.892 7  97443108.507 8
E10  24890316.773 5  24890315.473 8 130799473.487 5  98948957.077 8
E11  23593166.594 7  23593164.488 8 123982924.100 7  93792268.495 8
E16  26134844.906 7  26134847.520 8 137339524.378 7 103896463.815 8
E25  24715399.953 7  24715404.332 8 129880303.730 7  98253614.063 8
E36  24628537.688 8  24628541.047 8 129423841.392 8  97908308.684 8
G08  22092989.492 7                  22092997.387 7 116099449.089 7                  90467138.218 7
G10  21467890.234 8                  21467895.719 7 112814520.991 8                  87907451.568 7
G16  21690522.484 7  21690526.344 5                 113984457.267 7  88819065.300 5
G23  21030527.781 7                  21030533.203 8 110516168.352 7                  86116513.488 8
G27  20211455.938 8                  20211462.262 8 106211913.565 8                  82762750.477 8
R01  22357524.445 6                 119513757.511 6
R08  21063476.938 4  21063474.262 5 112793956.65714  87728612.82115
R14  21290608.453 8  21290614.082 7 113490924.290 8  88270660.575 7
R15  21296449.375 8  21296454.008 7 113801760.555 8  88512762.044 7
R17  22556531.219 7  22556538.965 6 120704581.456 7  93881378.152 6
R24  19566048.484 8  19566053.168 7 104628467.085 8  81377890.259 7
> 2025 06 15 08 49 50.0000000  0 19
C20  23747202.602 7 123657916.611 7
C26  24643289.430 7 128324065.711 7
C29  21561168.477 7 112274660.580 7
E02  24509480.453 7  24509481.938 8 128798191.798 7  97435001.087 8
E10  24890675.805 5  24890674.371 8 130801359.174 5  98950383.560 8
E11  23592372.422 7  23592370.688 8 123978752.589 7  93789112.769 8
E16  26136274.984 7  26136277.277 8 137347037.742 7 103902147.612 8
E25  24716070.852 7  24716075.227 8 129883829.292 7  98256281.114 8
E36  24625448.281 8  24625451.984 8 129407608.228 8  97896028.399 8
G08  22088881.836 7                  22088888.676 7 116077860.403 7                  90450315.859 7
G10  21464597.156 8                  21464602.168 7 112797213.329 8                  87893965.074 7
G16  21691565.531 7  21691569.297 5                 113989937.151 7  88823335.311 5
G23  21029961.633 7                  21029966.867 8 110513192.384 7                  86114194.544 8
G27  20209258.773 8                  20209264.922 8 106200366.510 8                  82753752.779 8
R01  22352240.055 6                 119485522.194 6
R14  21291940.867 8  21291946.953 7 113498025.991 8  88276184.096 7
R15  21294137.836 8  21294142.172 7 113789406.849 8  88503153.604 7
R17  22552077.633 7  22552086.395 7 120680751.924 7  93862844.083 7
R24  19563962.289 8  19563967.680 7 104617314.207 8  81369215.807 7
> 2025 06 15 08 49 55.0000000  0 19
C20  23743703.258 7 123639695.699 7
C26  24642791.844 7 128321474.756 7
C29  21560341.086 7 112270352.824 7
E02  24507443.625 7  24507444.938 8 128787487.165 7  97426903.100 8
E10  24891036.078 5  24891034.172 8 130803249.776 5  98951813.766 8
E11  23591580.031 7  23591578.293 8 123974588.588 7  93785962.734 8
E16  26137705.711 7  26137708.074 8 137354556.313 7 103907835.344 8
E25  24716743.430 7  24716747.930 8 129887364.271 7  98258955.281 8
E36  24622360.594 8  24622364.176 8 129391381.799 8  97883753.211 8
G08  22084774.844 7                  22084782.020 7 116056279.713 7                  90433499.730 7
G10  21461306.133 8                  21461311.109 7 112779919.784 8                  87880489.590 7
G16  21692610.813 7  21692614.348 5                 113995430.131 7  88827615.556 5
G23  21029398.242 7                  21029403.801 8 110510232.910 7                  86111888.452 8
G27  20207063.883 8                  20207070.117 8 106188833.670 8                  82744766.153 8
R01  22346961.906 6                 119457296.042 6
R14  21293276.398 8  21293282.516 7 113505144.395 8  88281720.623 7
R15  21291829.711 8  21291834.820 7 113777076.411 8  88493563.260 7
R17  22547624.781 7  22547633.781 7 120656926.799 7  93844313.427 7
R24  19561878.953 8  19561883.824 7 104606173.232 8  81360550.620 7
> 2025 06 15 08 50  0.0000000  0 19
C20  23740206.789 7 123621487.555 7
C26  24642296.086 7 128318898.140 7
C29  21559515.703 7 112266054.568 7
E02  24505409.008 8  24505410.363 8 128776795.574 8  97418814.983 8
E10  24891397.125 5  24891395.008 8 130805145.881 5  98953248.123 8
E11  23590789.180 7  23590787.488 8 123970432.665 7  93782818.805 8
E16  26139137.695 7  26139139.957 8 137362080.620 7 103913527.419 8
E25  24717418.367 7  24717422.512 8 129890909.216 7  98261636.991 8
E36  24619274.281 8  24619277.754 8 129375162.600 8  97871483.503 8
G08  22080670.258 7                  22080676.988 7 116034707.505 7                  90416690.219 7
G10  21458017.555 8                  21458023.238 7 112762640.886 8                  87867025.533 7
G16  21693658.625 7  21693662.004 5                 114000936.769 7  88831906.440 5
G23  21028838.633 7                  21028843.512 8 110507290.477 7                  86109595.645 8
G27  20204872.383 8                  20204878.348 8 106177315.598 8                  82735791.023 8
R01  22341685.086 6                 119429079.533 6
R14  21294614.703 8  21294621.215 7 113512280.291 8  88287270.755 7
R15  21289526.516 7  21289531.305 7 113764769.845 7  88483991.484 7
R17  22543173.305 7  22543182.059 7 120633106.561 7  93825786.580 7
R24  19559797.617 8  19559802.590 7 104595044.676 8  81351895.088 7
> 2025 06 15 08 50  5.0000000  0 20
C20  23736711.578 7 123603291.818 7
C24  25850174.500 5 134608638.59715
C26  24641803.875 7 128316335.540 7
C29  21558691.813 7 112261765.538 7
E02  24503377.117 8  24503378.230 8 128766116.706 8  97410736.484 8
E10  24891759.141 5  24891756.805 8 130807047.099 5  98954686.349 8
E11  23589999.789 7  23589998.125 8 123966284.504 7  93779680.746 8
E16  26140570.609 7  26140572.832 8 137369610.353 7 103919223.598 8
E25  24718095.094 7  24718098.957 8 129894463.794 7  98264325.984 8
E36  24616189.109 7  24616192.664 8 129358950.361 7  97859219.055 8
G08  22076566.563 7                  22076573.500 7 116013143.512 7                  90399887.094 7
G10  21454732.508 8                  21454737.793 7 112745376.334 8                  87853572.642 7
G16  21694709.289 7  21694712.477 5                 114006456.696 7  88836207.671 5
G23  21028281.250 7                  21028286.863 7 110504364.763 7                  86107315.869 7
G27  20202683.000 8                  20202689.070 7 106165811.994 8                  82726827.166 7
R01  22336404.242 5                 119400872.288 5
R14  21295957.141 8  21295962.633 7 113519433.409 8  88292834.278 7
R15  21287228.148 7  21287233.117 7 113752486.838 7  88474438.030 7
R17  22538722.352 7  22538731.164 7 120609291.043 7  93807263.374 7
R24  19557719.727 8  19557724.316 7 104583928.209 8  81343248.940 7
> 2025 06 15 08 50 10.0000000  0 20
C20  23733219.781 7 123585108.189 7
C24  25847256.898 5 134593443.793 5
C26  24641314.188 7 128313786.583 7
C29  21557869.742 7 112257485.330 7
E02  24501347.555 8  24501348.445 8 128755450.195 8  97402667.339 8
E10  24892122.891 5  24892119.527 8 130808953.06915  98956128.18318
E11  23589212.055 7  23589210.199 8 123962143.702 7  93776548.250 8
E16  26142004.516 7  26142006.777 8 137377145.131 7 103924923.596 8
E25  24718773.609 7  24718777.152 8 129898027.660 7  98267022.008 8
E36  24613105.383 7  24613108.844 8 129342744.709 7  97846959.581 8
G08  22072464.703 7                  22072471.602 7 115991587.391 7                  90383090.111 7
G10  21451449.234 8                  21451455.371 7 112728125.767 8                  87840130.650 7
G16  21695762.125 7  21695765.363 5                 114011989.583 7  88840518.987 5
G23  21027728.078 7                  21027732.949 7 110501455.374 7                  86105048.818 7
G27  20200497.117 8                  20200502.582 7 106154322.464 8                  82717874.276 7
R01  22331128.680 5                 119372674.068 5
R14  21297301.430 8  21297307.305 7 113526602.918 8  88298410.564 7
R15  21284934.539 7  21284938.996 7 113740226.952 7  88464902.555 7
R17  22534274.719 7  22534281.551 7 120585479.837 7  93788743.535 7
R24  19555643.141 8  19555647.816 7 104572823.660 8  81334612.067 7
> 2025 06 15 08 50 15.0000000  0 21
C20  23729730.281 7 123566937.227 7
C24  25844340.023 5 134578262.258 5
C26  24640827.859 7 128311251.774 7
C29  21557049.758 7 112253214.524 7
E02  24499320.180 8  24499321.082 8 128744796.596 8  97394607.960 8
E10  24892485.805 5  24892483.227 8 130810864.325 5  98957574.045 8
E11  23588425.742 7  23588423.730 8 123958010.808 7  93773421.749 8
E16  26143439.211 7  26143441.688 8 137384685.487 7 103930627.802 8
E25  24719453.633 7  24719457.164 8 129901601.309 7  98269725.438 8
E36  24610022.914 7  24610026.348 8 129326546.193 7  97834705.511 8
G08  22068364.219 7                  22068371.484 7 115970039.664 7                  90366299.686 7
G10  21448169.188 8                  21448175.148 7 112710889.755 8                  87826700.004 7
G16  21696817.875 7  21696821.074 5                 114017535.943 7  88844840.832 5
G23  21027177.492 7                  21027182.590 7 110498562.889 7                  86102794.926 7
G27  20198313.367 8                  20198319.035 8 106142847.618 8                  82708932.838 8
R01  22325853.703 5                 119344485.502 5
R14  21298649.500 8  21298655.570 7 113533789.876 8  88304000.416 7
R15  21282644.688 7  21282648.598 7 113727990.758 7  88455385.540 7
R17  22529826.430 7  22529832.754 7 120561673.459 7  93770227.479 7
R23  21597150.250 5                 115530251.44915
R24  19553568.820 8  19553572.996 7 104561731.485 8  81325984.816 7
> 2025 06 15 08 50 20.0000000  0 21
C20  23726242.852 7 123548777.597 7
C24  25841426.672 5 134563092.548 5
C26  24640343.938 7 128308729.849 7
C29  21556231.023 7 112248951.771 7
E02  24497295.102 8  24497295.930 8 128734154.586 8  97386557.344 8
E10  24892850.688 5  24892847.746 8 130812779.634 5  98959022.947 8
E11  23587640.516 7  23587638.531 8 123953884.531 7  93770300.243 8
E16  26144874.711 7  26144877.477 8 137392230.073 7 103936335.223 8
E25  24720135.430 8  24720138.816 8 129905183.461 8  98272435.304 8
E36  24606941.797 7  24606945.012 8 129310353.472 7  97822455.823 8
G08  22064265.023 7                  22064272.371 7 115948499.069 7                  90349514.804 7
G10  21444891.844 8                  21444897.754 7 112693666.991 8                  87813279.677 7
G16  21697875.148 7  21697878.891 5                 114023094.423 7  88849172.102 5
G23  21026630.367 7                  21026635.418 8 110495685.938 7                  86100553.147 8
G27  20196132.477 8                  20196138.031 7 106131386.081 8                  82700001.771 7
R01  22320583.219 5                 119316305.124 5
R14  21300000.438 7  21300007.066 7 113540992.560 7  88309602.487 7
R15  21280358.734 7  21280363.246 7 113715776.973 7  88445885.908 7
R17  22525376.992 7  22525385.086 7 120537870.586 7  93751714.155 7
R23  21598394.000 5                 115536906.057 5
R24  19551497.063 8  19551500.707 7 104550650.208 8  81317366.038 7
> 2025 06 15 08 50 25.0000000  0 21
C20  23722757.547 7 123530629.891 7
C24  25838515.391 5 134547935.389 5
C26  24639863.047 7 128306221.348 7
C29  21555414.531 7 112244697.674 7
E02  24495272.547 8  24495273.098 8 128723524.753 8  97378515.943 8
E10  24893215.625 5  24893213.129 8 130814699.470 5  98960475.269 8
E11  23586856.734 7  23586854.688 8 123949765.417 7  93767184.159 8
E16  26146311.398 7  26146314.195 8 137399779.506 7 103942046.306 8
E25  24720819.109 7  24720822.156 8 129908774.646 7  98275152.009 8
E36  24603861.500 7  24603864.801 8 129294167.155 7  97810210.988 8
G08  22060167.758 7                  22060175.063 7 115926966.128 7                  90332735.887 7
G10  21441616.891 8                  21441623.273 7 112676458.025 8                  87799870.101 7
G16  21698935.008 7  21698938.676 5                 114028665.620 7  88853513.285 5
G23  21026086.305 7                  21026090.703 7 110492825.126 7                  86098323.938 7
G27  20193953.750 8                  20193959.547 8 106119938.454 8                  82691081.546 8
R01  22315315.031 5                 119288133.549 5
R14  21301355.227 7  21301361.570 7 113548211.554 7  88315217.253 7
R15  21278077.109 7  21278081.867 7 113703586.129 7  88436404.136 7
R17  22520930.258 7  22520937.727 7 120514071.828 7  93733204.016 7
R23  21599641.313 5                 115543566.469 5
R24  19549427.813 8  19549430.902 7 104539580.438 8  81308756.223 7
> 2025 06 15 08 50 30.0000000  0 21
C20  23719274.688 7 123512494.881 7
C24  25835607.891 5 134532791.489 5
C26  24639383.609 7 128303727.038 7
C29  21554599.422 7 112240452.981 7
E02  24493252.266 8  24493252.691 8 128712907.847 8  97370484.325 8
E10  24893578.766 5  24893579.496 7 130816624.59615  98961931.58617
E11  23586074.234 7  23586072.363 8 123945654.219 7  93764074.060 8
E16  26147748.875 7  26147752.016 8 137407334.521 7 103947761.593 8
E25  24721504.688 7  24721507.371 8 129912375.657 7  98277876.132 8
E36  24600782.461 7  24600786.000 8 129277987.975 7  97797971.548 8
G08  22056071.938 7                  22056079.352 7 115905441.652 7                  90315963.580 7
G10  21438345.195 8                  21438351.332 7 112659263.671 8                  87786471.909 7
G16  21699998.336 7  21700001.688 5                 114034250.266 7  88857864.947 5
G23  21025544.844 7                  21025549.402 7 110489981.234 7                  86096107.908 7
G27  20191778.180 8                  20191784.023 7 106108505.520 8                  82682172.771 7
R01  22310047.555 6                 119259971.596 6
R14  21302712.281 7  21302718.785 7 113555447.724 7  88320845.373 7
R15  21275800.109 7  21275804.887 7 113691419.145 7  88426940.922 7
R17  22516484.453 7  22516491.402 7 120490277.872 7  93714697.618 7
R23  21600891.594 5                 115550233.567 5
R24  19547359.516 8  19547363.211 7 104528523.009 8  81300155.995 7
> 2025 06 15 08 50 35.0000000  0 20
C20  23715794.016 7 123494371.818 7
C24  25832701.148 5 134517660.155 5
C26  24638907.008 7 128301246.154 7
C29  21553785.680 7 112236216.925 7
E02  24491234.297 8  24491234.711 8 128702303.112 8  97362461.910 8
E10  24893945.047 5  24893946.723 8 130818554.325 5  98963391.400 8
E11  23585293.398 7  23585291.410 8 123941550.220 7  93760969.410 8
E16  26149187.164 7  26149190.641 8 137414894.360 7 103953480.540 8
E25  24722191.828 7  24722194.320 8 129915985.725 7  98280607.118 8
E36  24597705.531 7  24597708.477 8 129261815.181 7  97785736.955 8
G08  22051976.844 7                  22051985.012 7 115883924.870 7                  90299197.291 7
G10  21435075.719 8                  21435082.070 7 112642083.161 8                  87773084.501 7
G16  21701063.258 7  21701066.766 5                 114039847.603 7  88862226.504 5
G23  21025007.484 7                  21025011.602 8 110487153.406 7                  86093904.396 8
G27  20189605.266 8                  20189610.953 7 106097086.516 8                  82673274.851 7
R01  22304778.813 6                 119231818.550 6
R14  21304071.602 7  21304078.871 7 113562700.313 7  88326486.291 7
R15  21273526.688 7  21273532.445 7 113679275.106 7  88417495.568 7
R17  22512038.828 7  22512045.859 7 120466487.982 7  93696194.369 7
R24  19545294.414 8  19545297.613 7 104517477.225 8  81291564.840 7
> 2025 06 15 08 50 40.0000000  0 20
C20  23712316.008 7 123476261.578 7
C24  25829797.031 5 134502542.188 5
C26  24638433.492 6 128298779.618 6
C29  21552973.836 7 112231990.405 7
E02  24489218.844 8  24489219.168 8 128691711.464 8  97354449.398 8
E10  24894312.563 5  24894314.941 7 130820489.45315  98964855.26817
E11  23584514.195 7  23584512.047 8 123937454.261 7  93757870.842 8
E16  26150627.477 7  26150630.441 8 137422459.882 7 103959203.779 8
E25  24722880.781 7  24722883.180 8 129919605.719 7  98283345.609 8
E36  24594628.891 7  24594632.281 8 129245649.663 7  97773507.853 8
G08  22047883.398 7                  22047892.148 7 115862416.716 7                  90282437.700 7
G10  21431809.211 8                  21431815.367 7 112624917.394 8                  87759708.571 7
G16  21702130.266 7  21702134.484 5                 114045458.498 7  88866598.617 5
G23  21024471.906 7                  21024476.574 7 110484342.595 7                  86091714.146 7
G27  20187435.070 8                  20187440.660 8 106085682.317 8                  82664388.480 8
R01  22299515.234 5                 119203675.313 5
R14  21305436.906 8  21305442.949 7 113569970.120 8  88332140.592 7
R15  21271259.727 7  21271264.289 7 113667154.842 7  88408068.722 7
R17  22507593.406 7  22507601.465 7 120442703.133 7  93677695.083 7
R24  19543230.563 8  19543234.039 7 104506443.886 8  81282983.381 7
> 2025 06 15 08 50 45.0000000  0 21
C20  23708841.195 7 123458164.503 7
C24  25826896.828 5 134487437.986 5
C26  24637962.648 6 128296327.683 6
C29  21552163.969 7 112227773.757 7
E02  24487205.484 7  24487206.191 8 128681133.235 7  97346447.044 8
E11  23583736.172 7  23583734.281 8 123933366.681 7  93754778.612 8
E16  26152067.906 7  26152071.422 8 137430031.417 7 103964931.580 8
E25  24723571.969 8  24723574.000 8 129923235.966 8  98286091.861 8
E36  24591553.867 7  24591557.512 8 129229491.791 7  97761284.532 8
G08  22043792.344 7                  22043801.047 7 115840917.479 7                  90265685.060 7
G10  21428545.719 8                  21428552.008 7 112607766.650 8                  87746344.372 7
G16  21703200.766 7  21703205.359 5                 114051083.290 7  88870981.563 5
G18  22857908.859 5                                 120119147.88615                
G23  21023940.445 7                  21023944.738 7 110481549.129 7                  86089537.412 7
G27  20185267.773 8                  20185273.613 8 106074293.303 8                  82655513.926 8
R01  22294253.375 5                 119175542.248 5
R08  21037635.141 5  21037634.133 5 112655560.38615  87620998.46015
R14  21306803.195 8  21306810.168 7 113577257.512 8  88337808.526 7
R15  21268995.352 7  21269000.324 7 113655058.920 7  88398660.784 7
R17  22503150.914 7  22503157.586 7 120418923.827 7  93659200.035 7
R24  19541169.883 8  19541173.059 7 104495423.397 8  81274411.896 7
> 2025 06 15 08 50 50.0000000  0 22
C20  23705368.445 7 123440079.770 7
C24  25823997.813 5 134472346.760 5
C26  24637493.906 6 128293889.526 6
C29  21551355.758 7 112223566.139 7
E02  24485194.930 8  24485195.531 8 128670567.570 8  97338454.191 8
E11  23582959.531 7  23582957.797 8 123929286.711 7  93751692.147 8
E16  26153510.102 7  26153513.332 8 137437608.153 7 103970663.305 8
E25  24724264.023 8  24724266.652 8 129926875.659 8  98288845.246 8
E36  24588480.570 7  24588484.000 8 129213340.695 7  97749066.341 8
G02  24316663.016 5                                 127785084.68215                
G08  22039703.586 7                  22039711.711 7 115819426.396 7                  90248938.765 7
G10  21425284.539 8                  21425290.773 7 112590630.186 8                  87732991.300 7
G16  21704273.617 7  21704278.293 5                 114056721.097 7  88875374.664 5
G18  22859169.648 5                  22859183.559 5 120125774.773 5                  93604534.04315
G23  21023412.148 7                  21023416.438 7 110478772.181 7                  86087373.536 7
G27  20183103.008 8                  20183109.133 7 106062918.617 8                  82646650.533 7
R01  22288993.242 6                 119147418.555 6
R08  21035516.578 6  21035513.598 6 112644185.973 6  87612151.747 6
R14  21308174.117 8  21308180.359 7 113584561.630 8  88343489.469 7
R15  21266736.625 7  21266741.148 7 113642986.385 7  88389271.027 7
R17  22498709.523 6  22498714.250 7 120395148.851 6  93640708.380 7
R24  19539110.648 8  19539115.406 7 104484414.839 8  81265849.675 7
> 2025 06 15 08 50 55.0000000  0 23
C20  23701898.281 7 123422008.730 7
C24  25821103.125 5 134457269.722 5
C26  24637029.180 6 128291466.422 6
C29  21550550.102 7 112219368.853 7
E02  24483187.133 7  24483187.559 8 128660015.835 7  97330471.862 8
E10  24895425.344 5                 130826381.45815
E11  23582184.859 7  23582183.063 8 123925215.479 7  93748612.296 8
E16  26154952.430 7  26154956.531 8 137445191.354 7 103976399.930 8
E25  24724957.961 8  24724961.344 8 129930526.069 8  98291606.752 8
E36  24585408.508 7  24585411.988 8 129197197.664 7  97736854.251 8
G02  24312375.047 5                                 127762554.175 5                
G08  22035615.445 7                  22035623.879 7 115797944.723 7                  90232199.805 7
G10  21422026.688 8                  21422032.879 7 112573509.265 8                  87719650.307 7
G16  21705349.094 7  21705353.859 5                 114062373.266 7  88879778.939 5
G18  22860432.969 5                  22860445.672 5 120132408.435 5                  93609703.128 5
G23  21022887.141 7                  21022891.270 7 110476012.993 7                  86085223.520 7
G27  20180941.414 8                  20180947.414 7 106051559.570 8                  82637799.314 7
R01  22283731.453 6                 119119305.428 6
R08  21033399.297 5  21033395.324 6 112632836.670 5  87603324.512 6
R14  21309548.406 8  21309554.328 7 113591883.664 8  88349184.335 7
R15  21264482.250 7  21264486.523 7 113630938.563 7  88379900.499 7
R17  22494267.016 7  22494272.336 7 120371379.685 7  93622221.297 7
R24  19537054.180 8  19537059.117 7 104473419.643 8  81257297.833 7
> 2025 06 15 08 51  0.0000000  0 22
C20  23698430.336 7 123403949.817 7
C24  25818209.258 5 134442205.401 5
C26  24636566.617 7 128289056.902 7
C29  21549746.047 7 112215180.331 7
E02  24481181.523 7  24481181.961 8 128649476.416 7  97322498.859 8
E10  24895797.289 5  24895798.703 7 130828338.257 5  98970762.54017
E11  23581411.398 7  23581409.793 8 123921151.576 7  93745537.981 8
E16  26156396.797 7  26156400.512 8 137452779.442 7 103982140.244 8
E25  24725654.273 8  24725657.832 8 129934185.630 8  98294375.165 8
E36  24582337.883 7  24582341.379 8 129181061.221 7  97724647.128 8
G08  22031529.289 7                  22031537.531 7 115776470.941 7                  90215467.010 7
G10  21418771.516 8                  21418777.523 7 112556402.351 8                  87706320.253 7
G16  21706426.859 7  21706432.254 5                 114068038.194 7  88884193.171 5
G18  22861695.875 5                  22861708.895 5 120139047.382 5                  93614876.309 5
G23  21022365.102 7                  21022369.355 7 110473270.021 7                  86083086.132 7
G27  20178782.641 8                  20178788.371 8 106040214.604 8                  82628959.085 8
R01  22278473.617 5                 119091201.525 5
R08  21031281.141 5  21031279.949 6 112621510.804 5  87594515.446 6
R14  21310924.750 8  21310930.863 7 113599222.078 8  88354891.961 7
R15  21262232.016 7  21262236.066 7 113618913.876 7  88370547.964 7
R17  22489826.375 7  22489830.996 7 120347614.812 7  93603737.497 7
R24  19534999.586 8  19535005.023 7 104462436.213 8  81248755.151 7
> 2025 06 15 08 51  5.0000000  0 22
C20  23694965.078 7 123385901.495 7
C24  25815318.836 5 134427152.207 5
C26  24636106.484 7 128286659.306 7
C29  21548943.438 7 112210999.031 7
E02  24479177.750 8  24479178.434 8 128638947.745 8  97314534.004 8
E10  24896170.648 5  24896171.473 7 130830297.980 5  98972245.095 7
E11  23580639.039 7  23580637.531 8 123917093.401 7  93742467.991 8
E16  26157841.602 7  26157845.176 8 137460370.928 7 103987883.113 8
E25  24726351.773 8  24726355.734 8 129937852.771 8  98297149.331 8
E36  24579269.250 8  24579271.598 8 129164929.710 8  97712443.739 8
G08  22027443.867 7                  22027452.074 7 115755003.480 7                  90198739.127 7
G10  21415518.266 8                  21415524.719 7 112539307.852 8                  87692999.876 7
G16  21707506.977 7  21707512.984 5                 114073714.292 7  88888616.107 5
G18  22862961.625 6                  22862971.730 5 120145689.965 6                  93620052.329 5
G23  21021845.648 7                  21021850.020 7 110470541.710 7                  86080960.173 7
G27  20176625.664 8                  20176632.059 8 106028882.176 8                  82620128.607 8
R01  22273216.234 5                 119063105.112 5
R08  21029172.305 6  21029168.805 6 112610206.646 6  87585723.304 6
R14  21312304.141 8  21312309.672 7 113606575.282 8  88360611.134 7
R15  21259986.047 7  21259990.250 7 113606910.768 7  88361212.240 7
R17  22485385.063 7  22485390.699 7 120323852.575 7  93585255.766 7
R24  19532948.227 8  19532953.148 7 104451462.875 8  81240220.338 7
> 2025 06 15 08 51 10.0000000  0 22
C20  23691501.016 7 123367865.198 7
C24  25812431.313 5 134412111.607 5
C26  24635649.102 7 128284275.111 7
C29  21548141.945 7 112206826.399 7
E02  24477176.336 7  24477177.242 8 128628431.299 7  97306578.382 8
E10  24896543.422 6  24896545.301 8 130832262.371 6  98973731.155 8
E11  23579868.352 7  23579866.574 8 123913042.375 7  93739403.420 8
E16  26159286.781 7  26159290.695 8 137467967.124 7 103993629.562 8
E25  24727051.688 7  24727055.367 8 129941528.912 7  98299930.283 8
E36  24576200.195 8  24576203.055 8 129148804.594 8  97700245.202 8
G08  22023360.016 7                  22023368.570 7 115733543.816 7                  90182017.313 7
G10  21412268.227 8                  21412274.250 7 112522227.289 8                  87679690.332 7
G16  21708590.391 7  21708595.613 5                 114079403.008 7  88893048.868 5
G18  22864225.359 6                  22864236.207 6 120152337.646 6                  93625232.277 6
G23  21021329.508 7                  21021333.617 7 110467829.478 7                  86078846.746 7
G27  20174472.555 8                  20174478.199 8 106017563.735 8                  82611309.032 8
R01  22267957.641 5                 119035017.783 5
R08  21027065.133 5  21027062.535 6 112598925.850 5  87576949.332 6
R14  21313686.992 8  21313693.000 7 113613944.860 8  88366343.016 7
R15  21257744.984 8  21257748.258 6 113594930.774 8  88351894.469 6
R17  22480944.961 7  22480950.844 7 120300094.545 7  93566777.301 7
R24  19530898.141 8  19530903.258 7 104440501.169 8  81231694.550 7
> 2025 06 15 08 51 15.0000000  0 22
C20  23688040.109 7 123349841.504 7
C24  25809544.906 5 134397084.098 5
C26  24635194.266 7 128281904.874 7
C29  21547342.609 8 112202663.006 8
E02  24475178.078 7  24475178.461 8 128617927.635 7  97298632.431 8
E10  24896919.406 5  24896920.242 8 130834231.815 5  98975221.003 8
E11  23579098.805 7  23579097.137 8 123908999.081 7  93736344.686 8
E16  26160733.648 7  26160737.219 8 137475568.665 7 103999380.048 8
E25  24727753.070 7  24727756.820 8 129945214.649 7  98302718.499 8
E36  24573132.648 8  24573135.793 8 129132686.443 8  97688051.937 8
G08  22019277.984 7                  22019286.180 7 115712092.460 7                  90165301.988 7
G10  21409020.914 8                  21409026.664 7 112505161.151 8                  87666392.046 7
G16  21709675.063 7  21709680.508 5                 114085104.879 7  88897491.900 5
G18  22865491.695 5                  22865503.117 5 120158991.037 5                  93630416.724 5
G23  21020816.445 7                  21020820.855 7 110465133.889 7                  86076746.275 7
G27  20172321.313 8                  20172327.332 8 106006259.822 8                  82602500.803 8
R01  22262706.250 4                 119006940.061 4
R08  21024958.141 5  21024959.988 6 112587669.008 5  87568193.911 6
R14  21315071.836 8  21315077.898 7 113621331.200 8  88372087.937 7
R15  21255506.820 8  21255510.969 6 113582974.304 8  88342594.959 6
R17  22476505.414 7  22476511.301 7 120276341.087 7  93548302.425 7
R24  19528850.023 8  19528855.418 7 104429551.499 8  81223178.127 7
> 2025 06 15 08 51 20.0000000  0 21
C20  23684580.891 7 123331830.830 7
C24  25806662.148 5 134382070.231 5
C26  24634741.172 7 128279549.019 7
C29  21546544.594 7 112198509.247 7
E02  24473181.273 8  24473182.172 8 128607437.195 8  97290696.475 8
E10  24897294.578 5  24897295.980 8 130836206.827 5  98976715.063 8
E11  23578330.656 7  23578329.289 8 123904963.928 7  93733292.125 8
E16  26162181.039 7  26162184.805 8 137483175.956 7 104005134.888 8
E25  24728455.875 7  24728460.137 8 129948910.387 7  98305514.282 8
E36  24570066.719 8  24570070.035 8 129116575.719 8  97675864.285 8
G08  22015197.422 7                  22015205.629 7 115690649.938 7                  90148593.541 7
G10  21405775.469 8                  21405781.488 7 112488109.944 8                  87653105.396 7
G16  21710762.391 7  21710768.043 5                 114090820.336 7  88901945.500 5
G18  22866759.125 6                  22866770.637 5 120165650.493 6                  93635605.837 5
G23  21020306.617 7                  21020311.090 7 110462455.384 7                  86074659.133 7
G27  20170173.305 8                  20170178.945 7 105994970.907 8                  82593704.241 7
R08  21022856.977 5  21022862.758 6 112576436.372 5  87559457.407 6
R14  21316460.922 8  21316467.430 7 113628734.753 8  88377846.239 7
R15  21253274.313 8  21253277.840 6 113571041.924 8  88333314.257 6
R17  22472067.945 7  22472073.137 7 120252592.898 7  93529831.624 7
R24  19526805.602 8  19526809.965 7 104418614.512 8  81214671.582 7
> 2025 06 15 08 51 25.0000000  0 22
C20  23681124.625 7 123313833.057 7
C24  25803782.422 5 134367069.773 5
C26  24634292.203 7 128277207.406 7
C29  21545748.719 7 112194364.995 7
E02  24471187.602 7  24471188.367 8 128596959.851 7  97282770.432 8
E10  24897671.234 5  24897672.813 7 130838187.287 5  98978213.216 7
E11  23577564.516 7  23577562.922 8 123900936.794 7  93730245.624 8
E16  26163630.242 7  26163633.520 8 137490788.868 7 104010893.974 8
E25  24729161.094 7  24729165.348 8 129952615.970 7  98308317.522 8
E36  24567001.664 8  24567005.684 8 129100472.258 8  97663682.133 8
G08  22011119.211 7                  22011126.527 7 115669216.057 7                  90131891.838 7
G10  21402533.859 8                  21402539.855 7 112471073.491 8                  87639830.260 7
G16  21711852.773 7  21711857.770 5                 114096549.261 7  88906409.590 5
G18  22868028.672 6                  22868038.168 5 120172315.880 6                  93640799.626 5
G23  21019800.461 7                  21019804.398 7 110459793.809 7                  86072585.171 7
G27  20168027.883 8                  20168033.766 7 105983696.819 8                  82584919.236 7
R01  22252210.328 5                 118950814.83015
R08  21020765.844 5  21020770.387 6 112565227.922 5  87550739.710 6
R14  21317853.352 8  21317859.465 7 113636155.323 8  88383617.781 7
R15  21251045.047 8  21251049.078 6 113559133.486 8  88324052.111 6
R17  22467631.320 8  22467636.621 7 120228849.711 8  93511364.700 7
R24  19524762.258 8  19524767.367 7 104407690.093 8  81206174.821 7
> 2025 06 15 08 51 30.0000000  0 22
C20  23677670.344 7 123295847.706 7
C24  25800902.477 5 134352082.324 5
C26  24633845.680 7 128274879.521 7
C29  21544954.328 7 112190229.784 7
E02  24469196.016 7  24469196.973 8 128586495.116 7  97274853.934 8
E10  24898049.156 5  24898050.535 7 130840172.643 5  98979715.075 7
E11  23576799.672 7  23576797.992 8 123896917.138 7  93727204.783 8
E16  26165080.031 7  26165083.195 8 137498406.878 7 104016656.938 8
E25  24729868.047 7  24729872.313 8 129956330.944 7  98311127.853 8
E36  24563938.906 7  24563942.652 8 129084375.607 7  97651505.118 8
G08  22007041.234 7                  22007049.309 7 115647790.377 7                  90115196.505 7
G10  21399294.938 8                  21399300.766 7 112454051.364 8                  87626566.271 7
G16  21712945.352 7  21712950.277 5                 114102291.117 7  88910883.739 5
G18  22869296.023 5                  22869307.297 4 120178986.768 5                  93645997.629 4
G23  21019297.086 7                  21019301.012 7 110457148.669 7                  86070524.025 7
G27  20165885.195 8                  20165891.043 7 105972437.109 8                  82576145.429 7
R01  22246963.219 5                 118922766.686 5
R08  21018679.297 6  21018681.520 6 112554043.144 6  87542040.424 6
R14  21319248.523 8  21319254.641 7 113643592.449 8  88389402.197 7
R15  21248821.836 8  21248825.078 7 113547248.476 8  88314808.215 7
R17  22463195.758 8  22463199.867 7 120205111.069 8  93492901.297 7
R24  19522722.266 8  19522726.262 7 104396777.563 8  81197687.306 7
> 2025 06 15 08 51 35.0000000  0 23
C19  26044189.141 6 135618917.58516
C20  23674219.555 7 123277874.021 7
C24  25798028.242 5 134337107.079 5
C26  24633400.719 7 128272564.626 7
C29  21544161.273 7 112186102.825 7
E02  24467206.688 8  24467207.914 8 128576042.206 8  97266946.376 8
E10  24898427.102 5  24898429.035 7 130842162.011 5  98981220.010 7
E11  23576036.320 7  23576034.328 8 123892904.244 7  93724169.050 8
E16  26166530.492 7  26166533.668 8 137506029.239 7 104022423.180 8
E25  24730576.906 7  24730580.930 8 129960054.510 7  98313944.680 8
E36  24560876.836 7  24560880.727 8 129068284.930 7  97639332.636 8
G08  22002965.547 7                  22002973.195 7 115626372.125 7                  90098506.951 7
G10  21396058.336 8                  21396064.172 7 112437042.754 8                  87613312.814 7
G16  21714039.984 7  21714044.977 5                 114108045.186 7  88915367.426 5
G18  22870565.938 5                  22870576.852 5 120185662.328 5                  93651199.354 5
G23  21018796.633 7                  21018800.762 7 110454519.198 7                  86068475.076 7
G27  20163745.250 8                  20163750.871 7 105961190.998 8                  82567382.224 7
R01  22241715.680 5                 118894727.351 5
R08  21016595.047 6  21016596.934 6 112542881.335 6  87533359.020 6
R14  21320645.844 8  21320653.207 7 113651045.347 8  88395198.886 7
R15  21246601.539 8  21246604.879 7 113535386.071 8  88305581.895 7
R17  22458759.672 8  22458765.840 6 120181376.095 8  93474440.803 6
R24  19520683.734 8  19520687.891 7 104385876.375 8  81189208.610 7
> 2025 06 15 08 51 40.0000000  0 23
C19  26039358.508 6 135593754.608 6
C20  23670770.273 7 123259912.223 7
C24  25795155.969 5 134322144.237 5
C26  24632958.461 7 128270262.892 7
C29  21543370.508 7 112181984.308 7
E02  24465220.258 8  24465221.098 8 128565601.347 8  97259047.930 8
E10  24898806.617 5  24898808.438 7 130844155.780 5  98982728.264 7
E11  23575274.125 7  23575272.027 8 123888898.323 7  93721138.595 8
E16  26167981.672 7  26167985.008 8 137513656.096 7 104028192.832 8
E25  24731287.461 7  24731291.164 8 129963786.836 7  98316768.152 8
E36  24557816.531 7  24557820.004 8 129052200.479 7  97627164.859 8
G08  21998891.781 6                  21998899.223 7 115604961.520 6                  90081823.370 7
G10  21392824.617 8                  21392830.199 7 112420047.891 8                  87600070.072 7
G16  21715137.773 7  21715141.824 5                 114113811.646 7  88919860.752 5
G18  22871838.961 5                  22871848.512 5 120192342.729 5                  93656404.853 5
G23  21018299.125 7                  21018303.320 7 110451905.573 7                  86066438.486 7
G27  20161607.117 8                  20161613.824 7 105949958.671 8                  82558629.763 7
R01  22236475.703 6                 118866696.908 6
R08  21014513.289 6  21014517.109 6 112531742.665 6  87524695.643 6
R14  21322048.227 7  21322054.668 7 113658514.078 7  88401007.890 7
R15  21244385.836 8  21244389.324 7 113523546.656 8  88296373.445 7
R17  22454325.523 8  22454331.133 6 120157645.152 8  93455983.428 6
R24  19518647.266 8  19518650.887 7 104374986.445 8  81180738.649 7
> 2025 06 15 08 51 45.0000000  0 23
C19  26034525.055 6 135568594.334 6
C20  23667323.648 7 123241963.738 7
C24  25792284.250 5 134307195.261 5
C26  24632519.680 7 128267975.698 7
C29  21542581.109 7 112177875.669 7
E02  24463236.141 8  24463236.859 8 128555173.917 8  97251159.646 8
E10  24899187.000 5  24899188.930 7 130846155.169 5  98984240.781 7
E11  23574513.508 7  23574511.344 8 123884900.722 7  93718114.436 8
E16  26169434.477 7  26169437.488 8 137521288.914 7 104033966.988 8
E25  24731999.617 7  24732003.352 8 129967529.341 7  98319599.312 8
E36  24554757.484 7  24554760.730 8 129036123.643 7  97615002.846 8
G08  21994818.719 7                  21994826.648 7 115583559.952 7                  90065146.831 7
G10  21389593.266 8                  21389599.043 7 112403068.164 8                  87586839.118 7
G16  21716237.508 7  21716241.676 5                 114119591.781 7  88924364.754 5
G18  22873111.531 5                  22873120.828 5 120199029.455 5                  93661615.259 5
G23  21017805.086 7                  21017808.961 7 110449309.197 7                  86064415.346 7
G27  20159472.906 8                  20159479.223 8 105938741.594 8                  82549889.177 8
R01  22231233.000 6                 118838676.964 6
R08  21012437.195 6  21012441.355 5 112520628.443 6  87516051.260 5
R14  21323452.125 8  21323459.262 7 113666000.339 8  88406830.520 7
R15  21242175.008 8  21242178.543 7 113511731.465 8  88287183.855 7
R17  22449891.922 8  22449898.168 6 120133919.597 8  93437530.243 6
R24  19516613.531 8  19516617.238 7 104364109.344 8  81172278.680 7
> 2025 06 15 08 51 50.0000000  0 23
C19  26029692.688 6 135543436.444 6
C20  23663878.953 7 123224028.240 7
C24  25789416.563 5 134292259.784 5
C26  24632082.828 7 128265702.798 7
C29  21541794.383 7 112173776.600 7
E02  24461254.438 8  24461255.125 8 128544759.663 8  97243281.332 8
E10  24899568.281 5  24899570.461 7 130848160.101 5  98985757.489 7
E11  23573754.258 7  23573752.133 8 123880911.171 7  93715096.366 8
E16  26170887.656 7  26170890.996 8 137528927.348 7 104039745.407 8
E25  24732714.188 7  24732717.387 8 129971281.750 7  98322437.979 8
E36  24551699.703 8  24551702.832 8 129020054.153 8  97602846.387 8
G08  21990748.328 7                  21990755.469 7 115562167.153 7                  90048477.129 7
G10  21386364.883 8                  21386370.797 7 112386103.318 8                  87573619.763 7
G16  21717339.664 7  21717344.379 5                 114125385.313 7  88928879.196 5
G18  22874385.164 5                  22874394.699 5 120205722.131 5                  93666830.287 5
G23  21017314.023 7                  21017318.121 7 110446729.771 7                  86062405.422 7
G27  20157341.539 8                  20157347.234 8 105927539.434 8                  82541160.222 8
R01  22225992.555 5                 118810667.161 5
R08  21010366.219 7  21010371.043 5 112509538.628 7  87507425.896 5
R14  21324859.930 7  21324866.637 7 113673503.598 7  88412666.369 7
R15  21239967.977 8  21239971.762 7 113499940.414 8  88278013.048 7
R17  22445459.234 8  22445465.934 6 120110199.122 8  93419080.991 6
R24  19514582.156 8  19514585.016 7 104353244.834 8  81163828.506 7
> 2025 06 15 08 51 55.0000000  0 23
C19  26024862.516 6 135518279.233 6
C20  23660436.320 7 123206104.008 7
C24  25786550.711 5 134277336.079 5
C26  24631648.195 7 128263442.374 7
C29  21541008.820 7 112169685.324 7
E02  24459274.805 8  24459275.551 8 128534356.799 8  97235411.635 8
E10  24899950.711 5  24899952.738 7 130850168.610 5  98987276.902 7
E11  23572996.250 7  23572994.156 8 123876927.883 7  93712083.038 8
E16  26172341.828 7  26172345.316 8 137536569.641 7 104045526.729 8
E25  24733429.758 7  24733432.953 8 129975042.244 7  98325282.765 8
E36  24548642.508 8  24548645.996 8 129003990.215 8  97590694.125 8
G08  21986678.195 7                  21986685.836 7 115540781.336 7                  90031812.866 7
G10  21383138.680 8                  21383144.797 7 112369151.549 8                  87560410.588 7
G16  21718444.492 7  21718448.926 5                 114131190.528 7  88933402.729 5
G18  22875661.188 5                  22875669.352 5 120212419.012 5                  93672048.606 5
G23  21016826.117 7                  21016830.586 7 110444165.530 7                  86060407.309 7
G27  20155211.797 8                  20155218.094 8 105916350.431 8                  82532441.519 8
R01  22220757.039 6                 118782665.709 6
R08  21008299.734 7  21008303.906 5 112498471.114 7  87498817.872 5
R14  21326269.922 7  21326276.844 7 113681021.972 7  88418513.989 7
R15  21237765.516 8  21237769.422 7 113488171.417 8  88268859.378 7
R17  22441026.898 8  22441034.320 7 120086482.009 8  93400634.348 7
R24  19512551.250 8  19512555.773 7 104342391.052 8  81155386.677 7
> 2025 06 15 08 52  0.0000000  0 23
C19  26020032.281 6 135493123.837 6
C20  23656995.727 7 123188192.229 7
C24  25783686.898 5 134262425.360 5
C26  24631216.883 7 128261195.623 7
C29  21540224.703 7 112165603.060 7
E02  24457297.602 8  24457298.336 8 128523966.510 8  97227551.451 8
E10  24900333.461 5  24900335.867 7 130852181.946 5  98988799.976 7
E11  23572239.445 7  23572237.578 8 123872952.053 7  93709075.350 8
E16  26173797.367 7  26173800.531 8 137544216.959 7 104051311.856 8
E25  24734147.078 7  24734150.273 8 129978812.040 7  98328134.586 8
E36  24545587.133 8  24545590.375 8 128987933.022 8  97578546.965 8
G08  21982610.195 7                  21982618.000 7 115519403.735 7                  90015155.005 7
G10  21379916.070 8                  21379921.613 7 112352214.084 8                  87547212.570 7
G16  21719552.164 7  21719556.117 5                 114137008.541 7  88937936.229 5
G18  22876938.977 5                  22876944.875 5 120219121.303 5                  93677271.147 5
G23  21016341.609 7                  21016345.660 7 110441617.657 7                  86058421.948 7
G27  20153085.406 8                  20153091.438 8 105905175.793 8                  82523734.008 8
R01  22215519.500 6                 118754673.779 6
R08  21006239.242 7  21006241.047 5 112487427.404 7  87490228.399 5
R14  21327683.875 7  21327689.957 7 113688556.735 7  88424374.363 7
R15  21235568.008 8  21235571.547 7 113476425.932 8  88259723.998 7
R17  22436596.344 8  22436602.660 7 120062769.400 8  93382191.209 7
R24  19510524.516 8  19510528.438 7 104331549.277 8  81146954.194 7
> 2025 06 15 08 52  5.0000000  0 24
C19  26015201.461 6 135467971.051 6
C20  23653558.586 7 123170293.631 7
C24  25780825.148 5 134247528.369 5
C26  24630787.680 7 128258963.290 7
C29  21539442.508 7 112161530.527 7
E02  24455323.039 8  24455323.715 8 128513589.559 8  97219701.352 8
E10  24900718.820 5  24900720.102 7 130854200.884 5  98990327.269 7
E11  23571484.398 7  23571482.590 8 123868984.434 7  93706073.872 8
E16  26175253.539 7  26175256.879 8 137551870.040 7 104057101.345 8
E25  24734866.047 7  24734869.539 8 129982591.863 7  98330993.993 8
E36  24542533.156 8  24542536.211 8 128971883.337 8  97566405.478 8
G08  21978543.852 7                  21978552.063 7 115498035.114 7                  89998504.139 7
G10  21376695.484 8                  21376701.332 7 112335291.667 8                  87534026.267 7
G16  21720661.648 7  21720665.977 5                 114142840.115 7  88942480.308 5
G18  22878217.172 4                  22878220.918 5 120225829.699 4                  93682498.459 5
G23  21015860.070 7                  21015864.141 7 110439086.891 7                  86056449.911 7
G27  20150961.617 8                  20150967.910 8 105894016.251 8                  82515038.275 8
R01  22210284.563 6                 118726692.187 6
R08  21004180.328 7  21004183.363 5 112476408.146 7  87481657.857 5
R14  21329100.742 8  21329106.637 7 113696108.524 8  88430247.972 7
R15  21233374.094 8  21233378.293 7 113464704.685 8  88250607.482 7
R17  22432165.828 8  22432172.141 7 120039062.051 8  93363752.172 7
R23  21624791.813 5                 115678106.83515
R24  19508499.875 8  19508503.160 7 104320720.256 8  81138531.633 7
> 2025 06 15 08 52 10.0000000  0 24
C19  26010371.289 6 135442819.698 6
C20  23650123.859 7 123152407.105 7
C24  25777967.367 5 134232643.979 5
C26  24630361.016 7 128256744.190 7
C29  21538662.625 7 112157466.548 7
E02  24453350.938 8  24453351.383 8 128503224.784 8  97211860.466 8
E10  24901100.172 5  24901105.160 7 130856224.19515  98991857.90817
E11  23570730.695 7  23570728.895 8 123865023.839 7  93703077.708 8
E16  26176710.805 7  26176714.094 8 137559527.746 7 104062894.329 8
E25  24735586.961 7  24735590.457 8 129986380.565 7  98333860.120 8
E36  24539480.297 8  24539483.258 8 128955839.977 8  97554268.785 8
G08  21974479.391 7                  21974486.855 7 115476674.290 7                  89981859.334 7
G10  21373477.875 8                  21373483.668 7 112318383.134 8                  87520850.781 7
G16  21721773.625 7  21721777.945 5                 114148684.116 7  88947034.058 5
G18  22879491.031 4                  22879499.582 5 120232543.070 4                  93687729.673 5
G23  21015381.891 7                  21015385.766 7 110436572.062 7                  86054490.294 7
G27  20148840.773 8                  20148846.969 7 105882870.686 8                  82506353.421 7
R01  22205051.672 6                 118698719.850 6
R08  21002126.922 7  21002129.805 5 112465412.216 7  87473105.466 5
R14  21330520.781 8  21330525.828 7 113703676.468 8  88436134.140 7
R15  21231185.641 8  21231189.234 7 113453006.438 8  88241508.849 7
R17  22427736.039 8  22427743.215 7 120015358.854 8  93345316.352 7
R23  21626064.352 4                 115684897.128 4
R24  19506476.641 8  19506479.988 7 104309902.692 8  81130117.974 7
> 2025 06 15 08 52 15.0000000  0 22
C19  26005543.523 6 135417669.369 6
C20  23646690.781 7 123134532.185 7
C24  25775110.516 5 134217771.725 5
C26  24629936.953 7 128254537.871 7
C29  21537883.898 7 112153410.729 7
E02  24451380.570 8  24451381.281 8 128492871.753 8  97204028.460 8
E10  24901487.047 5  24901490.953 7 130858251.522 5  98993391.534 7
E11  23569977.617 7  23569976.465 8 123861069.854 7  93700086.546 8
E16  26178168.805 7  26178172.125 8 137567189.586 7 104068690.450 8
E25  24736309.586 7  24736312.984 8 129990177.660 7  98336732.597 8
E36  24536428.570 8  24536431.441 8 128939802.506 8  97542136.536 8
G08  21970416.375 7                  21970423.328 7 115455320.836 7                  89965220.283 7
G10  21370263.188 8                  21370268.473 7 112301488.047 8                  87507685.780 7
G16  21722887.945 7  21722892.215 5                 114154540.048 7  88951597.108 5
G23  21014905.852 7                  21014910.035 7 110434072.707 7                  86052542.754 7
G27  20146722.594 8                  20146728.406 7 105871738.611 8                  82497679.078 7
R01  22199819.656 6                 118670756.241 6
R08  21000078.281 7  21000080.270 5 112454439.153 7  87464570.867 5
R14  21331942.586 8  21331948.734 7 113711259.603 8  88442032.126 7
R15  21229000.297 8  21229004.039 7 113441330.812 8  88232427.815 7
R17  22423306.344 8  22423313.746 7 119991659.174 8  93326883.248 7
R24  19504454.672 8  19504459.555 7 104299096.177 8  81121712.905 7
> 2025 06 15 08 52 20.0000000  0 22
C19  26000711.984 5 135392520.804 5
C20  23643260.539 7 123116669.569 7
C24  25772256.891 5 134202912.276 5
C26  24629515.195 7 128252345.086 7
C29  21537106.305 7 112149363.710 7
E02  24449413.000 7  24449413.559 8 128482531.134 7  97196205.851 8
E10  24901876.000 5  24901877.613 7 130860283.446 5  98994928.665 7
E11  23569226.711 7  23569225.438 8 123857123.128 7  93697100.876 8
E16  26179627.727 7  26179631.051 8 137574856.257 7 104074490.207 8
E25  24737033.648 8  24737037.234 8 129993983.855 8  98339611.954 8
E36  24533377.516 8  24533380.844 8 128923771.610 8  97530009.271 8
G08  21966354.422 7                  21966361.551 7 115433975.431 7                  89948587.503 7
G10  21367051.102 8                  21367056.230 7 112284607.109 8                  87494531.804 7
G16  21724004.609 7  21724008.852 5                 114160408.576 7  88956169.970 5
G23  21014433.102 7                  21014437.598 7 110431589.521 7                  86050607.798 7
G27  20144606.906 8                  20144612.863 7 105860620.762 8                  82489015.831 7
R01  22194589.727 5                 118642802.290 5
R08  20998031.242 7  20998034.691 5 112443489.551 7  87456054.492 5
R14  21333368.484 8  21333373.953 7 113718859.210 8  88447942.920 7
R15  21226819.344 8  21226824.234 7 113429678.414 8  88223364.840 7
R17  22418878.531 8  22418885.582 7 119967963.842 8  93308453.542 7
R24  19502436.250 8  19502440.699 7 104288301.473 8  81113317.026 7
> 2025 06 15 08 52 25.0000000  0 22
C19  25995884.117 5 135367374.512 5
C20  23639832.234 7 123098819.835 7
C24  25769406.414 5 134188066.197 5
C26  24629096.797 7 128250166.247 7
C29  21536330.688 7 112145326.061 7
E02  24447447.813 8  24447448.305 8 128472203.505 8  97188393.070 8
E10  24902263.328 5  24902265.336 7 130862320.559 5  98996469.741 7
E11  23568477.125 7  23568475.879 8 123853184.224 7  93694121.117 8
E16  26181087.320 7  26181090.988 8 137582528.315 7 104080294.047 8
E25  24737759.500 7  24737763.316 8 129997799.711 7  98342498.609 8
E36  24530328.414 8  24530331.637 8 128907747.853 8  97517887.409 8
G08  21962294.383 7                  21962301.309 7 115412638.680 7                  89931961.455 7
G10  21363841.234 8                  21363846.844 7 112267740.888 8                  87481389.288 7
G16  21725124.172 7  21725128.148 5                 114166290.263 7  88960753.097 5
G23  21013963.695 7                  21013968.047 7 110429123.038 7                  86048685.866 7
G27  20142494.141 8                  20142499.730 7 105849517.679 8                  82480364.079 7
R01  22189363.508 6                 118614858.256 6
R08  20995991.258 7  20995994.375 5 112432564.090 7  87447556.894 5
R14  21334797.063 8  21334803.078 7 113726475.269 8  88453866.507 7
R15  21224643.484 8  21224647.660 7 113418049.957 8  88214320.484 7
R17  22414453.141 8  22414458.652 7 119944273.560 8  93290027.761 7
R24  19500419.430 8  19500424.660 7 104277519.145 8  81104930.771 7
> 2025 06 15 08 52 30.0000000  0 22
C19  25991053.977 5 135342229.613 5
C20  23636406.867 7 123080982.138 7
C24  25766557.211 5 134173232.698 5
C26  24628680.266 7 128248000.600 7
C29  21535556.828 7 112141296.930 7
E02  24445484.969 8  24445485.363 8 128461887.998 8  97180589.449 8
E10  24902650.969 5  24902653.750 7 130864362.048 5  98998014.097 7
E11  23567728.648 7  23567727.645 8 123849252.285 7  93691146.622 8
E16  26182548.469 7  26182551.793 8 137590204.859 7 104086101.284 8
E25  24738487.297 7  24738491.086 8 130001624.295 7  98345391.871 8
E36  24527280.328 8  24527283.617 8 128891730.354 8  97505770.286 8
G08  21958235.055 7                  21958242.582 7 115391309.708 7                  89915341.491 7
G10  21360634.398 8                  21360640.078 7 112250888.516 8                  87468257.575 7
G16  21726245.781 7  21726249.598 5                 114172184.214 7  88965345.771 5
G23  21013497.625 7                  21013501.645 7 110426672.403 7                  86046776.272 7
G27  20140384.086 8                  20140389.809 7 105838428.484 8                  82471723.160 7
R01  22184135.797 6                 118586923.578 6
R08  20993956.211 7  20993958.617 5 112421661.911 7  87439077.391 5
R14  21336229.500 8  21336234.719 7 113734107.183 8  88459802.431 7
R15  21222471.234 8  21222475.953 7 113406444.396 8  88205293.958 7
R17  22410026.195 8  22410031.379 7 119920587.275 8  93271605.088 7
R24  19498405.391 8  19498410.008 7 104266748.295 8  81096553.436 7
> 2025 06 15 08 52 35.0000000  0 22
C19  25986224.656 5 135317086.628 5
C20  23632983.906 7 123063156.863 7
C24  25763710.336 5 134158412.122 5
C26  24628267.305 6 128245848.498 6
C29  21534785.211 7 112137276.746 7
E02  24443524.016 7  24443524.793 8 128451585.016 7  97172795.312 8
E10  24903039.344 5  24903043.121 7 130866408.253 5  98999562.026 7
E11  23566981.820 7  23566980.813 8 123845327.730 7  93688177.720 8
E16  26184010.367 7  26184013.543 8 137597886.326 7 104091912.246 8
E25  24739216.961 7  24739220.621 8 130005458.085 7  98348292.095 8
E36  24524233.672 8  24524236.891 8 128875719.539 8  97493658.218 8
G08  21954178.258 7                  21954185.156 7 115369988.896 7                  89898727.882 7
G10  21357429.984 8                  21357435.961 7 112234050.413 8                  87455136.987 7
G16  21727369.977 7  21727373.594 5                 114178090.859 7  88969948.338 5
G23  21013034.297 7                  21013038.703 7 110424238.018 7                  86044879.337 7
G27  20138276.500 8                  20138282.465 7 105827353.609 8                  82463093.395 7
R01  22178910.953 6                 118558998.526 6
R08  20991925.016 7  20991926.086 5 112410783.291 7  87430616.210 5
R14  21337663.930 8  21337669.512 7 113741755.376 8  88465751.021 7
R15  21220303.992 8  21220308.621 7 113394862.288 8  88196285.670 7
R17  22405601.477 8  22405606.328 7 119896905.517 8  93253185.942 7
R24  19496393.117 8  19496398.031 7 104255989.382 8  81088185.396 7
> 2025 06 15 08 52 40.0000000  0 22
C19  25981396.133 5 135291946.277 5
C20  23629563.484 7 123045344.834 7
C24  25760867.266 5 134143605.246 5
C26  24627857.313 6 128243710.724 6
C29  21534014.438 7 112133266.210 7
E02  24441565.953 8  24441566.766 8 128441295.374 8  97165011.254 8
E10  24903429.375 5  24903433.539 7 130868459.964 5  99001114.108 7
E11  23566236.656 7  23566235.516 8 123841411.303 7  93685214.960 8
E16  26185473.484 7  26185476.355 8 137605573.468 7 104097727.494 8
E25  24739948.258 7  24739952.043 8 130009301.830 7  98351199.855 8
E36  24521187.969 8  24521191.605 8 128859716.195 8  97481551.792 8
G08  21950122.852 7                  21950129.766 7 115348677.083 7                  89882121.272 7
G10  21354228.906 8                  21354234.621 7 112217227.372 8                  87442028.124 7
G16  21728496.703 7  21728500.383 5                 114184010.917 7  88974561.364 5
G23  21012574.078 7                  21012578.891 7 110421820.656 7                  86042995.663 7
G27  20136172.156 8                  20136177.707 7 105816293.868 8                  82454475.416 7
R01  22173689.969 6                 118531083.971 6
R08  20989897.359 7  20989900.242 6 112399929.266 7  87422174.206 6
R14  21339101.789 8  21339107.434 7 113749420.413 8  88471712.688 7
R15  21218140.555 8  21218145.250 7 113383304.239 8  88187296.077 7
R17  22401175.609 8  22401181.461 7 119873228.886 8  93234770.792 7
R24  19494383.023 8  19494388.309 7 104245243.129 8  81079827.208 7
> 2025 06 15 08 52 45.0000000  0 22
C19  25976569.188 5 135266806.980 5
C20  23626144.938 7 123027544.490 7
C24  25758025.086 5 134128810.604 5
C26  24627450.047 6 128241585.728 6
C29  21533246.141 7 112129263.855 7
E02  24439610.141 7  24439610.965 8 128431017.503 7  97157236.115 8
E10  24903820.125 6  24903824.719 7 130870515.674 6  99002669.246 7
E11  23565492.578 7  23565491.453 8 123837501.459 7  93682257.188 8
E16  26186936.984 7  26186939.961 8 137613264.756 7 104103545.885 8
E25  24740681.617 7  24740685.094 8 130013153.980 7  98354113.967 8
E36  24518144.070 8  24518147.430 8 128843718.779 8  97469449.849 8
G08  21946068.859 7                  21946075.789 7 115327372.733 7                  89865520.484 7
G10  21351029.594 8                  21351035.746 7 112200417.834 8                  87428929.797 7
G16  21729625.289 7  21729629.137 5                 114189942.878 7  88979183.652 5
G23  21012116.992 7                  21012121.590 7 110419418.763 7                  86041124.052 7
G27  20134069.961 8                  20134075.680 7 105805247.693 8                  82445867.997 7
R01  22168470.648 6                 118503178.445 6
R08  20987872.867 6  20987877.352 6 112389098.053 6  87413749.935 6
R14  21340542.672 8  21340548.207 7 113757100.821 8  88477686.317 7
R15  21215981.961 7  21215986.848 7 113371768.921 7  88178324.185 7
R17  22396752.180 8  22396757.004 7 119849556.162 8  93216358.697 7
R24  19492375.992 8  19492380.605 7 104234508.076 8  81071477.739 7
> 2025 06 15 08 52 50.0000000  0 23
C19  25971741.453 6 135241669.300 6
C20  23622728.852 7 123009756.286 7
C24  25755187.719 5 134114028.581 5
C26  24627044.273 6 128239473.960 6
C29  21532479.227 7 112125270.098 7
E02  24437656.734 7  24437657.484 8 128420751.834 7  97149470.200 8
E10  24904211.477 6  24904216.734 7 130872575.764 6  99004227.671 7
E11  23564750.086 7  23564748.734 8 123833598.618 7  93679304.707 8
E16  26188401.711 7  26188404.434 8 137620960.562 7 104109367.689 8
E25  24741416.258 7  24741419.840 8 130017014.924 7  98357034.739 8
E36  24515101.422 8  24515104.469 8 128827727.699 8  97457352.700 8
G08  21942016.523 7                  21942023.324 7 115306076.271 7                  89848925.848 7
G10  21347833.727 8                  21347839.734 7 112183622.252 8                  87415842.334 7
G16  21730757.070 7  21730760.695 5                 114195887.196 7  88983815.576 5
G18  22889742.492 5                                 120286448.91315                
G23  21011663.016 7                  21011667.758 7 110417032.762 7                  86039264.810 7
G27  20131970.602 8                  20131976.480 8 105794215.518 8                  82437271.483 8
R01  22163253.352 6                 118475282.136 6
R08  20985855.359 6  20985858.863 6 112378290.170 6  87405343.770 6
R14  21341986.883 8  21341992.164 7 113764797.176 8  88483672.340 7
R15  21213827.164 8  21213832.250 7 113360256.604 8  88169370.168 7
R17  22392328.516 8  22392333.699 7 119825887.454 8  93197949.706 7
R24  19490371.063 8  19490375.148 7 104223784.425 8  81063137.127 7
> 2025 06 15 08 52 55.0000000  0 24
C19  25966914.594 6 135216533.999 6
C20  23619315.242 7 122991981.055 7
C24  25752350.852 5 134099260.082 5
C26  24626641.984 6 128237376.245 6
C29  21531713.766 7 112121285.751 7
E02  24435705.867 7  24435706.477 8 128410499.240 7  97141714.178 8
E10  24904604.602 6  24904609.734 7 130874641.077 6  99005790.044 7
E11  23564009.180 7  23564007.547 8 123829703.728 7  93676358.240 8
E16  26189867.117 7  26189869.930 8 137628661.779 7 104115193.582 8
E25  24742153.102 7  24742156.426 8 130020885.563 7  98359962.840 8
E36  24512059.883 8  24512062.863 8 128811743.821 8  97445260.994 8
G08  21937965.164 7                  21937972.473 7 115284788.550 7                  89832338.023 7
G10  21344640.602 8                  21344646.426 7 112166841.502 8                  87402766.426 7
G16  21731890.422 7  21731894.457 5                 114201844.655 7  88988457.749 5
G18  22891029.953 5                                 120293208.982 5                
G23  21011211.859 7                  21011216.777 7 110414663.495 7                  86037418.612 7
G27  20129874.047 8                  20129879.621 7 105783198.185 8                  82428686.549 7
R01  22158036.375 6                 118447396.184 6
R08  20983840.773 6  20983845.480 6 112367506.396 6  87396956.424 6
R14  21343432.984 8  21343439.574 7 113772510.047 8  88489671.199 7
R15  21211677.414 8  21211681.824 7 113348768.314 8  88160434.844 7
R17  22387905.227 8  22387911.855 6 119802223.718 8  93179544.604 6
R23  21637530.953 5                 115746247.50115
R24  19488368.281 8  19488372.469 7 104213073.249 8  81054806.222 7
> 2025 06 15 08 53  0.0000000  0 24
C19  25962088.906 5 135191400.288 5
C20  23615904.047 7 122974218.027 7
C24  25749517.984 5 134084504.162 5
C26  24626241.023 6 128235291.711 6
C29  21530950.484 7 112117310.002 7
E02  24433757.422 7  24433757.785 8 128400258.869 7  97133967.410 8
E10  24904997.695 6  24905003.598 7 130876710.771 6  99007355.754 7
E11  23563269.352 7  23563267.660 8 123825815.780 7  93673417.021 8
E16  26191333.656 7  26191336.285 8 137636367.573 7 104121022.953 8
E25  24742891.383 7  24742894.684 8 130024765.024 7  98362897.618 8
E36  24509019.297 8  24509022.438 8 128795766.324 8  97433174.127 8
G08  21933915.844 7                  21933923.203 7 115263508.754 7                  89815756.373 7
G10  21341449.727 8                  21341455.809 7 112150074.730 8                  87389701.402 7
G16  21733026.555 7  21733030.559 5                 114207814.424 7  88993109.506 5
G18  22892317.805 5                                 120299974.098 5                
G23  21010764.305 7                  21010768.840 8 110412310.127 7                  86035584.799 8
G27  20127780.164 8                  20127785.414 8 105772194.888 8                  82420112.537 8
R01  22152821.883 6                 118419519.709 6
R08  20981832.703 6  20981836.496 6 112356746.009 6  87388587.250 6
R14  21344882.609 8  21344889.508 7 113780238.654 8  88495682.301 7
R15  21209532.141 8  21209536.430 7 113337302.987 8  88151517.372 7
R17  22383484.148 7  22383490.711 6 119778564.151 7  93161142.717 6
R23  21638812.000 5                 115753096.459 5
R24  19486367.156 8  19486371.418 7 104202373.621 8  81046484.288 7
> 2025 06 15 08 53  5.0000000  0 24
C19  25957261.766 6 135166268.052 6
C20  23612495.023 7 122956467.063 7
C24  25746687.844 5 134069760.816 5
C26  24625843.172 7 128233220.313 7
C29  21530188.570 7 112113342.764 7
E02  24431811.109 7  24431811.398 8 128390030.627 7  97126229.817 8
E10  24905393.320 6  24905398.262 7 130878784.790 6  99008924.718 7
E11  23562531.156 7  23562529.113 8 123821934.791 7  93670481.078 8
E16  26192801.102 7  26192803.492 8 137644077.791 7 104126855.656 8
E25  24743631.102 7  24743634.648 8 130028653.198 7  98365838.988 8
E36  24505979.969 7  24505983.230 8 128779795.083 7  97421091.977 8
G08  21929868.055 7                  21929875.273 7 115242236.771 7                  89799180.814 7
G10  21338261.930 8                  21338267.672 7 112133321.825 8                  87376647.191 7
G16  21734164.664 7  21734168.813 5                 114213796.356 7  88997770.754 5
G18  22893605.695 5                                 120306744.038 5                
G23  21010319.516 7                  21010324.168 7 110409972.540 7                  86033763.300 7
G27  20125688.977 8                  20125694.848 8 105761205.516 8                  82411549.394 8
R01  22147609.984 6                 118391652.456 6
R08  20979827.164 6  20979831.555 6 112346008.914 6  87380236.196 6
R14  21346335.359 8  21346342.559 7 113787983.087 8  88501705.732 7
R15  21207391.063 8  21207394.926 7 113325860.743 8  88142617.827 7
R17  22379064.531 7  22379070.449 6 119754908.710 7  93142744.050 6
R23  21640088.422 5                 115759950.877 5
R24  19484368.836 8  19484372.730 7 104191685.571 8  81038171.360 7
> 2025 06 15 08 53 10.0000000  0 25
C19  25952436.648 5 135141138.800 5
C20  23609088.992 7 122938729.635 7
C24  25743857.961 5 134055031.519 5
C26  24625448.055 6 128231163.457 6
C29  21529428.906 7 112109385.468 7
E02  24429867.266 7  24429867.613 8 128379815.990 7  97118502.521 8
E10  24905788.531 6  24905794.043 7 130880864.544 6  99010498.015 7
E11  23561794.344 7  23561792.195 8 123818062.179 7  93667551.464 8
E16  26194269.109 7  26194271.809 8 137651793.902 7 104132692.824 8
E25  24744373.180 7  24744376.523 8 130032551.531 7  98368788.039 8
E36  24502942.320 8  24502945.480 8 128763831.570 8  97409015.682 8
G02  24196939.016 5                                 127155811.87715                
G08  21925822.180 7                  21925829.418 7 115220974.096 7                  89782612.509 7
G10  21335077.289 8                  21335082.957 7 112116584.302 8                  87363604.967 7
G16  21735305.297 7  21735309.754 5                 114219791.918 7  89002442.611 5
G18  22894894.320 5                                 120313520.204 5                
G23  21009878.070 7                  21009882.711 7 110407652.186 7                  86031955.234 7
G27  20123600.773 8                  20123606.641 8 105750231.537 8                  82402998.248 8
R01  22142397.117 6                 118363796.188 6
R08  20977826.391 6  20977831.133 6 112335296.396 6  87371904.245 6
R14  21347791.375 7  21347798.660 7 113795744.542 7  88507742.432 7
R15  21205254.375 8  21205258.125 7 113314442.906 8  88133737.257 7
R17  22374645.180 7  22374650.465 6 119731258.922 7  93124349.731 6
R23  21641371.789 5                 115766812.212 5
R24  19482372.211 8  19482376.352 7 104181010.464 8  81029868.496 7
> 2025 06 15 08 53 15.0000000  0 25
C19  25947612.031 5 135116012.083 5
C20  23605685.266 7 122921005.316 7
C24  25741032.492 5 134040315.816 5
C26  24625056.180 6 128229120.740 6
C29  21528670.492 7 112105437.696 7
E02  24427925.719 7  24427926.270 8 128369614.518 7  97110785.178 8
E10  24906185.961 6  24906190.855 7 130882949.618 6  99012075.353 7
E11  23561059.203 7  23561056.754 8 123814197.501 7  93664627.860 8
E16  26195738.273 7  26195741.152 8 137659515.476 7 104138534.124 8
E25  24745116.820 7  24745120.254 8 130036459.613 7  98371744.470 8
E36  24499905.984 8  24499909.098 8 128747875.341 8  97396944.899 8
G02  24192675.055 5                                 127133405.285 5                
G08  21921777.828 7                  21921784.895 7 115199720.298 7                  89766051.119 7
G10  21331894.672 8                  21331900.500 7 112099861.690 8                  87350574.366 7
G16  21736448.617 7  21736452.871 5                 114225800.709 7  89007124.787 5
G18  22896186.375 5                                 120320302.147 5                
G23  21009439.688 7                  21009444.180 7 110405348.654 7                  86030160.282 7
G27  20121515.242 8                  20121521.207 8 105739272.542 8                  82394458.763 8
R01  22137188.594 6                 118335950.420 6
R08  20975831.680 6  20975835.523 6 112324608.303 6  87363591.271 6
R14  21349250.000 7  21349257.566 7 113803522.500 7  88513791.963 7
R15  21203122.547 8  21203125.336 7 113303049.321 8  88124875.544 7
R17  22370226.328 7  22370231.246 6 119707614.168 7  93105959.368 6
R23  21642654.555 5                 115773680.252 5
R24  19480377.766 8  19480382.668 7 104170347.882 8  81021575.390 7
> 2025 06 15 08 53 20.0000000  0 25
C19  25942786.594 5 135090887.655 5
C20  23602284.258 7 122903293.870 7
C24  25738209.453 5 134025613.461 5
C26  24624667.664 6 128227091.789 6
C29  21527914.180 7 112101499.170 7
E02  24425986.867 7  24425987.465 8 128359425.933 7  97103077.588 8
E10  24906584.234 6  24906588.641 7 130885039.716 6  99013656.479 7
E11  23560325.234 7  23560322.813 8 123810340.493 7  93661710.061 8
E16  26197208.797 7  26197211.527 8 137667242.216 7 104144379.333 8
E25  24745862.336 7  24745865.781 8 130040377.143 7  98374708.037 8
E36  24496870.875 7  24496874.063 8 128731926.127 7  97384879.420 8
G02  24188410.344 5                                 127111003.494 5                
G08  21917735.125 7                  21917742.715 7 115178475.094 7                  89749496.432 7
G10  21328715.047 8                  21328721.039 7 112083153.733 8                  87337555.187 7
G16  21737593.984 7  21737598.590 5                 114231822.379 7  89011816.990 5
G18  22897476.320 5                                 120327089.763 5                
G23  21009004.305 7                  21009009.133 7 110403061.611 7                  86028378.183 7
G27  20119432.633 8                  20119438.676 8 105728328.225 8                  82385930.728 8
R01  22131981.516 6                 118308114.798 6
R08  20973838.781 6  20973843.703 6 112313944.298 6  87355297.065 6
R14  21350712.172 7  21350719.449 7 113811316.873 7  88519854.271 7
R15  21200994.766 8  21200998.137 7 113291679.413 8  88116032.265 7
R17  22365808.273 7  22365813.934 7 119683974.180 7  93087572.717 7
R23  21643940.273 5                 115780554.440 5
R24  19478385.906 8  19478390.848 7 104159697.503 8  81013291.760 7
> 2025 06 15 08 53 25.0000000  0 25
C19  25937961.711 5 135065765.087 5
C20  23598885.406 7 122885594.787 7
C24  25735387.578 5 134010923.987 5
C26  24624281.266 6 128225076.212 6
C29  21527159.578 7 112097569.401 7
E02  24424050.414 7  24424050.969 8 128349249.773 7  97095379.394 8
E10  24906983.008 6  24906987.262 7 130887134.350 6  99015241.043 7
E11  23559592.844 7  23559590.203 8 123806490.664 7  93658797.688 8
E16  26198679.719 7  26198682.766 8 137674973.648 7 104150228.092 8
E25  24746609.563 7  24746613.035 8 130044303.633 7  98377678.388 8
E36  24493836.945 7  24493840.250 8 128715983.446 7  97372818.883 8
G02  24184148.242 4                                 127088606.036 4                
G08  21913693.492 7                  21913701.445 7 115157238.036 7                  89732948.091 7
G10  21325538.688 8                  21325544.418 7 112066459.962 8                  87324547.064 7
G16  21738742.648 7  21738746.730 5                 114237856.499 7  89016518.891 5
G18  22898770.234 5                                 120333882.392 5                
G23  21008572.164 7                  21008576.969 7 110400790.618 7                  86026608.571 7
G27  20117352.625 8                  20117358.934 7 105717398.130 8                  82377413.771 7
R01  22126775.523 6                 118280288.802 6
R08  20971851.375 6  20971857.285 6 112303303.813 6  87347021.173 6
R14  21352176.883 7  21352184.246 7 113819127.304 7  88525929.053 7
R15  21198871.539 8  21198875.109 7 113280332.746 8  88107207.076 7
R17  22361392.094 7  22361397.223 6 119660338.632 7  93069189.532 6
R23  21645228.648 5                 115787434.425 5
R24  19476396.453 8  19476401.887 7 104149058.806 8  81005017.219 7
> 2025 06 15 08 53 30.0000000  0 24
C19  25933137.867 5 135040643.797 5
C20  23595489.375 7 122867907.617 7
C24  25732568.914 5 133996246.872 5
C26  24623896.758 7 128223073.501 7
C29  21526406.883 7 112093647.930 7
E02  24422116.273 7  24422116.766 8 128339085.540 7  97087690.218 8
E10  24907382.883 6  24907386.652 7 130889233.057 6  99016828.699 7
E11  23558861.281 7  23558858.895 8 123802647.542 7  93655890.392 8
E16  26200151.375 7  26200154.816 8 137682709.265 7 104156080.015 8
E25  24747358.070 7  24747361.813 8 130048238.626 7  98380655.165 8
E36  24490804.195 8  24490807.582 8 128700046.809 8  97360762.929 8
G08  21909653.758 7                  21909661.957 7 115136008.609 7                  89716405.680 7
G10  21322364.383 8                  21322370.027 7 112049779.886 8                  87311549.612 7
G16  21739892.594 7  21739896.918 5                 114243902.514 7  89021230.049 5
G18  22900063.219 4                                 120340679.566 4                
G23  21008143.055 7                  21008147.406 7 110398535.158 7                  86024851.073 7
G27  20115275.438 8                  20115281.566 8 105706481.766 8                  82368907.516 8
R01  22121569.633 5                 118252472.160 5
R08  20969867.898 6  20969874.066 6 112292686.314 6  87338763.147 6
R14  21353645.398 7  21353652.227 7 113826952.925 7  88532015.657 7
R15  21196753.234 8  21196756.176 7 113269008.973 8  88098399.694 7
R17  22356975.664 7  22356980.262 6 119636706.889 7  93050809.296 6
R23  21646517.773 5                 115794319.659 5
R24  19474409.602 8  19474414.184 7 104138431.374 8  80996751.439 7
> 2025 06 15 08 53 35.0000000  0 24
C19  25928313.180 5 135015525.407 5
C20  23592095.469 7 122850233.911 7
C24  25729753.234 5 133981583.610 5
C26  24623514.891 7 128221085.184 7
C29  21525655.820 8 112089736.263 8
E02  24420184.781 7  24420185.168 8 128328934.821 7  97080011.261 8
E10  24907783.578 6  24907787.129 7 130891337.343 6  99018420.564 7
E11  23558131.625 7  23558129.160 8 123798812.648 7  93652989.321 8
E16  26201624.008 7  26201627.957 8 137690450.616 7 104161936.286 8
E25  24748108.727 7  24748112.527 8 130052183.596 7  98383639.499 8
E36  24487772.523 7  24487776.402 8 128684117.781 7  97348712.733 8
G08  21905615.633 7                  21905623.188 7 115114788.414 7                  89699870.479 7
G10  21319193.414 8                  21319199.160 7 112033115.090 8                  87298564.057 7
G16  21741046.133 7  21741049.922 5                 114249962.001 7  89025951.721 5
G18  22901356.344 4                                 120347482.898 4                
G23  21007716.930 7                  21007721.758 8 110396296.806 7                  86023106.896 8
G27  20113200.781 8                  20113207.152 8 105695580.706 8                  82360413.187 8
R01  22116367.195 5                 118224666.320 5
R08  20967887.953 6  20967896.191 6 112282093.522 6  87330524.329 6
R14  21355117.656 7  21355123.418 7 113834795.369 7  88538115.321 7
R15  21194637.531 8  21194641.852 7 113257709.541 8  88089611.251 7
R17  22352560.586 7  22352565.133 6 119613080.667 7  93032433.379 6
R23  21647808.125 6                 115801211.746 6
R24  19472424.477 8  19472429.055 7 104127816.952 8  80988495.772 7
> 2025 06 15 08 53 40.0000000  0 23
C19  25923492.188 5 134990408.884 5
C20  23588703.227 7 122832572.674 7
C24  25726938.758 5 133966933.308 5
C26  24623134.969 7 128219110.236 7
C29  21524906.148 7 112085833.417 7
E02  24418255.641 7  24418255.914 8 128318796.568 7  97072341.735 8
E10  24908184.680 6  24908188.508 7 130893446.263 6  99020015.928 7
E11  23557403.352 7  23557400.836 8 123794984.960 7  93650093.699 8
E16  26203098.164 7  26203101.984 8 137698196.681 7 104167796.117 8
E25  24748861.414 7  24748864.922 8 130056137.566 7  98386630.634 8
E36  24484742.641 8  24484746.465 8 128668195.321 8  97336667.512 8
G08  21901578.922 7                  21901586.754 7 115093576.413 7                  89683341.640 7
G10  21316025.141 8                  21316030.625 7 112016464.524 8                  87285589.589 7
G16  21742201.828 7  21742205.453 5                 114256033.872 7  89030683.034 5
G23  21007294.219 7                  21007299.059 8 110394074.508 7                  86021375.229 8
G27  20111129.430 8                  20111135.746 7 105684693.915 8                  82351929.976 7
R01  22111165.891 4                 118196870.201 4
R08  20965914.688 6  20965924.016 6 112271524.332 6  87322303.861 6
R14  21356591.461 7  21356598.051 7 113842653.815 7  88544227.423 7
R15  21192527.953 8  21192531.852 7 113246433.422 8  88080840.928 7
R17  22348145.953 7  22348151.129 6 119589458.859 7  93014060.886 6
R23  21649097.070 5                 115808109.688 5
R24  19470442.219 8  19470446.262 7 104117214.250 8  80980249.216 7
> 2025 06 15 08 53 45.0000000  0 23
C19  25918668.258 5 134965294.578 5
C20  23585313.383 7 122814924.166 7
C24  25724128.445 5 133952296.285 5
C26  24622757.914 7 128217148.954 7
C29  21524158.461 8 112081939.654 8
E02  24416328.609 7  24416329.078 8 128308671.070 7  97064681.855 8
E10  24908586.914 6  24908590.840 7 130895560.007 6  99021614.938 7
E11  23556676.492 7  23556673.895 8 123791164.769 7  93647203.754 8
E16  26204573.617 7  26204576.961 8 137705947.687 7 104173659.688 8
E25  24749615.625 7  24749619.063 8 130060100.778 7  98389628.769 8
E36  24481714.078 7  24481717.813 8 128652279.721 7  97324627.475 8
G08  21897543.406 7                  21897551.270 7 115072372.920 7                  89666819.455 7
G10  21312858.992 8                  21312864.961 7 111999828.494 8                  87272626.445 7
G16  21743359.359 7  21743363.328 5                 114262118.466 7  89035424.271 5
G23  21006874.359 7                  21006878.816 7 110391868.527 7                  86019656.281 7
G27  20109060.836 8                  20109066.895 8 105673821.697 8                  82343458.125 8
R01  22105965.625 4                 118169084.286 4
R08  20963948.289 6  20963954.906 6 112260979.141 6  87314101.976 6
R14  21358069.422 8  21358075.406 7 113850528.224 8  88550351.943 7
R15  21190421.500 8  21190426.797 7 113235181.063 8  88072089.097 7
R17  22343732.211 7  22343737.809 6 119565841.683 7  92995692.017 6
R23  21650390.695 5                 115815013.759 5
R24  19468461.445 8  19468466.031 7 104106623.653 8  80972012.079 7
> 2025 06 15 08 53 50.0000000  0 22
C19  25913847.078 4 134940182.697 4
C20  23581926.633 7 122797288.674 7
C24  25721318.523 5 133937672.626 5
C26  24622384.766 7 128215201.562 7
C29  21523412.391 8 112078055.259 8
E02  24414404.383 8  24414404.777 8 128298558.606 8  97057031.840 8
E10  24908989.898 6  24908994.109 7 130897678.904 6  99023217.851 7
E11  23555950.813 7  23555948.473 8 123787352.355 7  93644319.691 8
E16  26206049.461 7  26206052.980 8 137713703.973 7 104179527.253 8
E25  24750371.445 8  24750375.031 8 130064073.558 8  98392634.142 8
E36  24478686.727 7  24478690.520 8 128636371.275 7  97312592.852 8
G08  21893510.336 7                  21893518.031 7 115051178.193 7                  89650304.086 7
G10  21309696.414 8                  21309701.801 7 111983207.277 8                  87259674.858 7
G16  21744519.242 7  21744523.547 5                 114268215.997 7  89040175.581 5
G23  21006457.555 7                  21006462.371 7 110389679.154 7                  86017950.274 7
G27  20106994.641 8                  20107000.660 7 105662964.327 8                  82334997.824 7
R08  20961983.844 6  20961989.957 6 112250458.134 6  87305918.947 6
R14  21359549.523 8  21359556.031 7 113858419.163 8  88556489.301 7
R15  21188320.367 8  21188325.242 7 113223952.552 8  88063355.811 7
R17  22339320.938 7  22339324.871 6 119542229.645 7  92977327.104 6
R23  21651685.102 5                 115821924.273 5
R24  19466483.531 8  19466487.801 7 104096045.343 8  80963784.483 7
> 2025 06 15 08 53 55.0000000  0 22
C19  25909020.969 4 134915073.407 4
C20  23578541.742 7 122779666.291 7
C24  25718513.297 5 133923062.545 5
C26  24622012.164 7 128213268.177 7
C29  21522668.094 8 112074180.277 8
E02  24412482.477 8  24412482.926 8 128288459.227 8  97049391.719 8
E10  24909394.102 6  24909398.387 7 130899802.979 6  99024824.683 7
E11  23555226.961 7  23555224.523 8 123783547.756 7  93641441.540 8
E16  26207526.617 7  26207530.000 8 137721465.564 7 104185398.832 8
E25  24751129.469 7  24751132.813 8 130068055.919 7  98395646.762 8
E36  24475660.883 7  24475664.598 8 128620470.031 7  97300563.670 8
G08  21889479.023 7                  21889486.641 7 115029992.313 7                  89633795.613 7
G10  21306535.664 8                  21306541.688 7 111966600.946 8                  87246734.878 7
G16  21745682.047 7  21745686.363 5                 114274326.543 7  89044937.038 5
G23  21006044.000 7                  21006048.684 7 110387506.426 7                  86016257.247 7
G27  20104931.422 8                  20104937.441 8 105652121.853 8                  82326549.154 8
R08  20960025.227 6  20960028.938 6 112239961.306 6  87297754.688 6
R14  21361033.297 7  21361039.320 7 113866326.486 7  88562639.429 7
R15  21186223.953 8  21186228.461 7 113212748.063 8  88054641.219 7
R17  22334908.727 7  22334914.184 7 119518622.551 7  92958966.033 7
R23  21652978.477 5                 115828841.089 5
R24  19464507.453 8  19464511.426 7 104085479.534 8  80955566.635 7
> 2025 06 15 08 54  0.0000000  0 22
C19  25904197.406 4 134889966.00314
C20  23575159.711 7 122762056.325 7
C24  25715709.102 4 133908465.318 4
C26  24621642.664 7 128211348.052 7
C29  21521925.813 8 112070314.037 8
E02  24410562.813 8  24410563.453 8 128278372.285 8  97041761.012 8
E10  24909799.922 6  24909803.547 7 130901931.547 6  99026434.889 7
E11  23554504.156 7  23554501.922 8 123779750.312 7  93638568.794 8
E16  26209004.242 7  26209007.871 8 137729231.740 7 104191273.879 8
E25  24751889.109 7  24751892.273 8 130072047.172 7  98398666.109 8
E36  24472636.234 7  24472639.895 8 128604575.311 7  97288539.417 8
G08  21885448.688 7                  21885456.574 7 115008814.617 7                  89617293.509 7
G10  21303378.211 8                  21303384.359 7 111950008.810 8                  87233805.955 7
G16  21746847.742 7  21746851.641 5                 114280449.404 7  89049708.085 5
G23  21005633.633 7                  21005638.332 7 110385349.679 7                  86014576.676 7
G27  20102871.016 8                  20102876.855 8 105641293.600 8                  82318111.562 8
R08  20958069.609 6  20958073.625 6 112229487.982 6  87289608.778 6
R14  21362518.430 7  21362526.160 7 113874249.547 7  88568801.769 7
R15  21184131.719 8  21184135.988 7 113201566.872 8  88045944.760 7
R17  22330497.211 7  22330502.750 7 119495019.857 7  92940608.395 7
R23  21654277.016 4                 115835763.644 4
R24  19462533.734 8  19462537.914 7 104074925.412 8  80947357.877 7
> 2025 06 15 08 54  5.0000000  0 21
C19  25899374.070 4 134864859.60314
C20  23571780.102 7 122744457.885 7
C24  25712908.734 4 133893880.085 4
C26  24621275.281 7 128209440.302 7
C29  21521185.117 8 112066455.638 8
E02  24408645.484 8  24408646.164 8 128268296.833 8  97034138.991 8
E10  24910205.289 6  24910209.309 7 130904063.706 6  99028047.841 7
E11  23553782.672 7  23553780.527 8 123775959.074 7  93635700.745 8
E16  26210482.813 7  26210486.453 8 137737001.638 7 104197151.732 8
E25  24752650.109 7  24752653.285 8 130076046.383 7  98401691.485 8
E36  24469612.844 7  24469616.258 8 128588686.186 7  97276519.405 8
G08  21881420.148 7                  21881427.883 7 114987644.188 7                  89600797.071 7
G10  21300223.711 8                  21300229.688 7 111933430.001 8                  87220887.404 7
G16  21748015.398 7  21748018.848 5                 114286583.608 7  89054487.956 5
G23  21005226.344 7                  21005230.945 7 110383207.953 7                  86012907.796 7
G27  20100813.195 8                  20100818.840 8 105630478.660 8                  82309684.341 8
R08  20956117.148 6  20956121.980 5 112219037.384 6  87281480.496 5
R14  21364007.820 7  21364015.063 7 113882187.300 7  88574975.568 7
R15  21182042.461 8  21182048.039 7 113190408.004 8  88037265.655 7
R17  22326088.422 7  22326093.559 7 119471420.552 7  92922253.396 7
R24  19460562.148 8  19460566.168 7 104064382.118 8  80939157.551 7
> 2025 06 15 08 54 10.0000000  0 21
C19  25894553.594 3 134839754.68113
C20  23568403.047 7 122726871.645 7
C24  25710109.383 5 133879307.565 5
C26  24620911.570 7 128207545.561 7
C29  21520445.891 7 112062605.751 7
E02  24406730.469 8  24406731.160 8 128258233.562 8  97026526.188 8
E10  24910612.281 6  24910615.863 7 130906200.067 6  99029663.962 7
E11  23553062.320 7  23553060.418 8 123772174.752 7  93632837.929 8
E16  26211962.422 7  26211965.883 8 137744775.865 7 104203032.871 8
E25  24753412.961 7  24753415.887 8 130080054.254 7  98404723.400 8
E36  24466590.492 7  24466593.793 8 128572803.334 7  97264504.134 8
G08  21877392.836 7                  21877400.824 7 114966481.718 7                  89584306.849 7
G10  21297071.289 8                  21297077.664 7 111916865.134 8                  87207979.716 7
G16  21749184.773 7  21749188.488 5                 114292729.832 7  89059277.209 5
G23  21004821.758 7                  21004826.098 7 110381081.962 7                  86011251.179 7
G27  20098758.172 8                  20098763.539 8 105619677.722 8                  82301268.021 8
R08  20954167.016 5  20954173.871 5 112208609.964 5  87273370.261 5
R14  21365500.844 7  21365507.125 7 113890140.323 7  88581161.242 7
R15  21179958.555 7  21179964.531 7 113179272.142 7  88028604.424 7
R17  22321678.602 7  22321683.699 7 119447825.352 7  92903901.591 7
R24  19458592.305 8  19458596.594 7 104053850.301 8  80930966.153 7
> 2025 06 15 08 54 15.0000000  0 21
C20  23565028.078 7 122709297.881 7
C24  25707314.047 4 133864747.88514
C26  24620549.133 7 128205664.133 7
C29  21519707.844 7 112058764.634 7
E02  24404818.055 8  24404818.543 8 128248182.745 8  97018922.810 8
E10  24911020.414 6  24911023.301 7 130908340.959 6  99031283.511 7
E11  23552343.594 7  23552341.688 8 123768397.523 7  93629980.475 8
E16  26213442.539 7  26213446.199 8 137752554.686 7 104208917.469 8
E25  24754177.242 7  24754180.234 8 130084071.022 7  98407762.053 8
E36  24463568.914 8  24463572.590 8 128556927.027 8  97252493.818 8
G08  21873367.172 7                  21873375.570 7 114945327.437 7                  89567823.002 7
G10  21293921.602 8                  21293928.594 7 111900314.533 8                  87195083.145 7
G16  21750356.688 7  21750360.848 5                 114298888.338 7  89064076.033 5
G23  21004420.016 7                  21004424.930 7 110378971.923 7                  86009607.005 7
G27  20096704.922 8                  20096710.781 8 105608891.044 8                  82292862.838 8
R01  22074823.398 5                 118002566.93915
R08  20952223.313 5  20952232.066 5 112198206.142 5  87265278.392 5
R14  21366996.008 8  21367002.078 7 113898109.227 8  88587359.271 7
R15  21177878.836 7  21177884.477 7 113168159.773 7  88019961.469 7
R17  22317270.203 7  22317276.051 7 119424234.586 7  92885553.230 7
R24  19456625.109 8  19456629.129 7 104043330.260 8  80922783.909 7
> 2025 06 15 08 54 20.0000000  0 21
C20  23561656.047 7 122691736.113 7
C24  25704520.195 5 133850200.738 5
C26  24620190.578 6 128203795.469 6
C29  21518971.508 7 112054931.797 7
E02  24402907.563 8  24402908.203 8 128238143.890 8  97011328.479 8
E10  24911428.008 6  24911431.488 7 130910485.881 6  99032906.103 7
E11  23551626.000 7  23551624.195 8 123764626.980 7  93627128.079 8
E16  26214923.625 7  26214927.289 8 137760337.652 7 104214805.223 8
E25  24754943.078 7  24754946.191 8 130088096.205 7  98410807.061 8
E36  24460548.680 8  24460552.512 8 128541056.771 8  97240488.080 8
G08  21869343.383 7                  21869351.633 7 114924180.937 7                  89551345.219 7
G10  21290774.766 8                  21290781.457 7 111883777.701 8                  87182197.302 7
G16  21751530.648 7  21751535.320 5                 114305058.676 7  89068884.072 5
G23  21004021.313 7                  21004026.246 8 110376877.352 7                  86007974.863 8
G27  20094655.281 8                  20094661.004 8 105598118.156 8                  82284468.385 8
R01  22069638.875 5                 117974849.866 5
R08  20950283.922 5  20950293.836 5 112187825.540 5  87257204.603 5
R14  21368493.133 7  21368499.953 7 113906093.009 7  88593568.870 7
R15  21175804.688 7  21175809.188 7 113157070.135 7  88011336.194 7
R17  22312861.711 7  22312868.289 7 119400647.695 7  92867207.885 7
R24  19454659.703 8  19454664.449 7 104032821.532 8  80914610.451 7
> 2025 06 15 08 54 25.0000000  0 21
C20  23558286.289 8 122674186.895 8
C24  25701729.914 5 133835666.48215
C26  24619834.156 6 128201940.171 6
C29  21518237.344 7 112051107.823 7
E02  24400999.570 8  24401000.250 8 128228117.552 8  97003743.615 8
E10  24911837.641 6  24911840.547 7 130912635.363 6  99034532.153 7
E11  23550909.844 7  23550908.090 8 123760863.665 7  93624281.149 8
E16  26216405.516 7  26216409.301 8 137768125.291 7 104220696.480 8
E25  24755710.695 7  24755713.820 8 130092130.362 7  98413858.858 8
E36  24457529.813 7  24457533.707 8 128525193.141 7  97228487.361 8
G08  21865320.906 7                  21865329.254 7 114903042.762 7                  89534873.918 7
G10  21287630.859 8                  21287636.938 7 111867255.176 8                  87169322.612 7
G16  21752707.563 7  21752711.910 5                 114311241.359 7  89073701.739 5
G23  21003625.680 7                  21003630.789 7 110374798.820 7                  86006355.224 7
G27  20092607.672 8                  20092613.551 8 105587359.626 8                  82276085.122 8
R01  22064454.984 6                 117947142.793 6
R08  20948348.773 5  20948361.457 5 112177468.559 5  87249149.151 5
R14  21369992.664 7  21370000.387 7 113914092.669 7  88599790.823 7
R15  21173733.422 7  21173738.281 7 113146003.944 7  88002729.158 7
R17  22308454.469 7  22308460.914 7 119377065.228 7  92848865.952 7
R24  19452696.813 8  19452701.398 7 104022324.597 8  80906446.149 7
> 2025 06 15 08 54 30.0000000  0 21
C20  23554918.828 7 122656651.305 7
C24  25698941.820 5 133821146.295 5
C26  24619481.703 6 128200099.255 6
C29  21517504.695 7 112047293.707 7
E02  24399094.484 8  24399094.926 8 128218104.811 8  96996169.045 8
E10  24912248.547 6  24912250.672 7 130914790.502 6  99036162.465 7
E11  23550195.305 7  23550193.535 8 123757108.599 7  93621440.461 8
E16  26217888.523 7  26217892.430 8 137775918.637 7 104226592.080 8
E25  24756480.055 7  24756483.352 8 130096174.511 7  98416918.219 8
E36  24454512.211 7  24454516.352 8 128509337.182 7  97216492.441 8
G08  21861299.914 6                  21861308.688 7 114881913.932 6                  89518409.894 7
G10  21284489.500 8                  21284495.980 7 111850748.041 8                  87156459.931 7
G16  21753887.344 7  21753891.461 5                 114317437.444 7  89078529.849 5
G23  21003233.359 7                  21003238.480 7 110372737.366 7                  86004748.897 7
G27  20090563.414 8                  20090568.949 7 105576616.490 8                  82267713.856 7
R01  22059276.266 6                 117919446.894 6
R08  20946420.195 5  20946432.824 5 112167136.581 5  87241113.130 5
R14  21371497.391 7  21371503.879 7 113922109.194 7  88606025.873 7
R15  21171666.102 7  21171671.855 7 113134962.183 7  87994141.136 7
R17  22304049.750 7  22304055.109 7 119353488.451 7  92830528.466 7
R24  19450737.031 8  19450741.039 7 104011840.598 8  80898291.922 7
> 2025 06 15 08 54 35.0000000  0 21
C20  23551553.070 7 122639128.327 7
C24  25696155.367 5 133806639.178 5
C26  24619130.750 6 128198271.684 6
C29  21516774.234 7 112043488.442 7
E02  24397191.094 8  24397191.930 8 128208104.624 8  96988603.962 8
E10  24912659.172 7  24912661.691 7 130916950.191 7  99037796.252 7
E11  23549482.398 7  23549480.410 8 123753360.764 7  93618605.247 8
E16  26219372.344 7  26219376.422 8 137783716.670 7 104232491.215 8
E25  24757251.250 7  24757254.645 8 130100227.648 7  98419984.366 8
E36  24451496.266 7  24451500.316 8 128493487.851 7  97204502.528 8
G08  21857280.875 7                  21857289.344 7 114860793.464 7                  89501952.397 7
G10  21281351.219 8                  21281357.730 7 111834255.249 8                  87143608.406 7
G16  21755069.016 7  21755072.930 5                 114323645.854 7  89083367.563 5
G23  21002844.266 7                  21002849.371 8 110370691.938 7                  86003155.052 8
G27  20088521.664 8                  20088527.508 7 105565887.740 8                  82259353.788 7
R01  22054096.805 6                 117891761.030 6
R08  20944495.086 4  20944509.160 5 112156828.206 4  87233095.430 5
R14  21373003.781 7  21373010.098 7 113930141.354 7  88612273.104 7
R15  21169604.297 7  21169610.074 7 113123943.869 7  87985571.346 7
R17  22299644.977 7  22299650.188 7 119329916.144 7  92812194.447 7
R24  19448778.586 8  19448782.367 7 104001368.458 8  80890146.925 7
> 2025 06 15 08 54 40.0000000  0 21
C20  23548191.117 7 122621618.520 7
C24  25693372.664 5 133792145.617 5
C26  24618783.531 6 128196457.997 6
C29  21516045.219 7 112039692.603 7
E02  24395290.680 8  24395291.430 8 128198117.547 8  96981048.804 8
E10  24913071.172 7  24913073.676 7 130919115.057 7  99039433.928 7
E11  23548770.664 7  23548768.734 8 123749620.739 7  93615775.942 8
E16  26220857.188 7  26220861.391 8 137791519.926 7 104238394.317 8
E25  24758024.086 7  24758027.727 8 130104290.322 7  98423057.738 8
E36  24448481.742 8  24448485.656 8 128477645.723 8  97192518.077 8
G08  21853263.656 6                  21853272.047 7 114839681.961 6                  89485501.890 7
G10  21278215.500 8                  21278222.074 8 111817777.434 8                  87130768.555 8
G16  21756252.555 7  21756256.551 5                 114329867.174 7  89088215.334 5
G23  21002458.227 7                  21002463.410 8 110368663.111 7                  86001574.141 8
G27  20086482.469 8                  20086489.199 7 105555173.959 8                  82251005.388 7
R01  22048917.922 6                 117864085.878 6
R08  20942576.656 5  20942592.434 4 112146543.892 5  87225096.500 4
R14  21374513.469 7  21374520.469 7 113938189.739 7  88618532.949 7
R15  21167546.664 7  21167552.195 7 113112949.673 7  87977020.308 7
R17  22295241.609 7  22295246.086 7 119306348.789 7  92793864.284 7
R24  19446822.836 8  19446826.492 7 103990908.705 8  80882011.556 7
> 2025 06 15 08 54 45.0000000  0 21
C20  23544830.336 7 122604120.387 7
C24  25690591.656 5 133777664.132 5
C26  24618438.047 6 128194656.740 6
C29  21515317.719 7 112035904.685 7
E02  24393392.195 7  24393393.188 8 128188142.077 7  96973502.430 8
E10  24913484.055 7  24913486.371 7 130921283.502 7  99041074.315 7
E11  23548059.859 7  23548058.250 8 123745886.956 7  93612951.357 8
E16  26222342.883 7  26222347.059 8 137799326.861 7 104244300.200 8
E25  24758798.898 7  24758802.316 8 130108360.969 7  98426137.146 8
E36  24445468.133 7  24445472.098 8 128461809.284 7  97180537.921 8
G08  21849247.711 7                  21849255.918 7 114818577.820 7                  89469057.101 7
G10  21275082.680 8                  21275088.836 7 111801313.029 8                  87117939.150 7
G16  21757438.477 7  21757442.484 5                 114336099.830 7  89093071.925 5
G23  21002075.305 7                  21002079.965 8 110366649.349 7                  86000004.971 8
G27  20084446.320 8                  20084452.293 7 105544473.573 8                  82242667.425 7
R01  22043742.844 5                 117836420.018 5
R08  20940667.836 5  20940677.328 4 112136282.456 5  87217115.472 4
R14  21376026.398 7  21376032.895 7 113946252.676 7  88624804.099 7
R15  21165493.445 7  21165499.211 7 113101977.940 7  87968486.750 7
R17  22290838.180 7  22290842.539 7 119282785.039 7  92775536.937 7
R24  19444868.969 8  19444872.914 7 103980459.891 8  80873884.698 7
> 2025 06 15 08 54 50.0000000  0 21
C20  23541472.586 7 122586635.390 7
C24  25687813.930 5 133763196.291 5
C26  24618094.555 6 128192869.342 6
C29  21514592.164 7 112032126.138 7
E02  24391496.578 7  24391497.375 8 128178179.714 7  96965965.968 8
E10  24913897.688 7  24913899.988 7 130923457.082 7  99042718.601 7
E11  23547351.023 7  23547349.211 8 123742160.953 7  93610132.665 8
E16  26223829.586 7  26223833.723 8 137807138.970 7 104250209.988 8
E25  24759575.297 7  24759578.750 8 130112441.110 7  98429223.733 8
E36  24442456.055 7  24442459.891 8 128445980.021 7  97168563.182 8
G08  21845234.102 7                  21845241.531 7 114797482.623 7                  89452619.279 7
G10  21271952.391 8                  21271958.590 7 111784863.526 8                  87105121.354 7
G16  21758627.102 7  21758630.480 5                 114342345.337 7  89097938.525 5
G23  21001694.734 7                  21001700.152 8 110364652.148 7                  85998448.705 8
G27  20082412.570 8                  20082418.813 7 105533788.148 8                  82234341.107 7
R01  22038567.602 5                 117808764.816 5
R08  20938761.313 5  20938763.484 3 112126045.241 5  87209153.345 3
R14  21377542.492 7  21377548.375 7 113954332.040 7  88631088.038 7
R15  21163445.234 7  21163450.461 7 113091030.318 7  87959971.931 7
R17  22286435.391 7  22286440.402 7 119259226.377 7  92757213.562 7
R24  19442917.828 8  19442921.500 7 103970023.585 8  80865767.569 7
> 2025 06 15 08 54 55.0000000  0 21
C20  23538117.414 7 122569163.215 7
C24  25685037.250 5 133748741.645 5
C26  24617753.906 6 128191095.446 6
C29  21513867.883 7 112028356.629 7
E02  24389603.148 7  24389604.016 8 128168230.083 7  96958439.137 8
E10  24914312.031 7  24914314.504 7 130925635.348 7  99044366.434 7
E11  23546643.313 7  23546641.590 8 123738442.336 7  93607319.558 8
E16  26225317.602 7  26225321.254 8 137814955.920 7 104256123.447 8
E25  24760353.453 7  24760356.945 8 130116530.357 7  98432317.202 8
E36  24439445.547 7  24439449.035 8 128430157.571 7  97156593.598 8
G08  21841221.531 7                  21841228.746 7 114776395.990 7                  89436188.124 7
G10  21268825.172 8                  21268830.938 7 111768428.604 8                  87092314.926 7
G16  21759817.641 7  21759820.930 5                 114348603.283 7  89102814.839 5
G23  21001317.859 7                  21001323.070 8 110362671.094 7                  85996905.018 8
G27  20080382.102 8                  20080388.469 7 105523117.281 8                  82226026.145 7
R01  22033395.898 6                 117781120.051 6
R08  20936854.969 5  20936852.844 4 112115832.012 5  87201209.876 4
R14  21379060.453 7  21379066.941 7 113962426.867 7  88637384.005 7
R15  21161401.445 7  21161406.348 7 113080106.195 7  87951475.387 7
R17  22282032.125 7  22282038.863 7 119235672.337 7  92738893.779 7
R24  19440968.031 8  19440971.762 7 103959599.208 8  80857659.718 7
> 2025 06 15 08 55  0.0000000  0 21
C20  23534764.805 7 122551702.737 7
C24  25682264.672 5 133734299.128 5
C26  24617415.945 6 128189333.925 6
C29  21513145.344 7 112024595.023 7
E02  24387711.844 7  24387712.891 8 128158292.064 7  96950921.094 8
E10  24914727.273 7  24914729.688 7 130927817.293 7  99046017.052 7
E11  23545936.766 7  23545935.168 8 123734729.957 7  93604511.167 8
E16  26226806.031 7  26226809.520 8 137822776.548 7 104262039.672 8
E25  24761133.578 7  24761136.656 8 130120627.618 7  98435416.737 8
E36  24436435.852 7  24436439.246 8 128414340.817 7  97144628.327 8
G08  21837210.695 7                  21837217.180 7 114755316.792 7                  89419762.770 7
G10  21265700.602 8                  21265705.938 7 111752007.122 8                  87079518.974 7
G16  21761010.195 7  21761013.906 5                 114354872.536 7  89107699.956 5
G23  21000944.344 7                  21000949.215 8 110360705.104 7                  85995373.063 8
G27  20078353.992 8                  20078360.176 7 105512459.850 8                  82217721.643 7
R01  22028226.266 5                 117753484.512 5
R08  20934951.852 5  20934949.621 4 112105641.528 5  87193283.953 4
R14  21380582.086 7  21380587.828 7 113970536.480 7  88643691.460 7
R15  21159361.648 8  21159366.762 7 113069204.678 8  87942996.427 7
R17  22277631.078 7  22277637.559 7 119212121.966 7  92720576.822 7
R24  19439020.102 8  19439024.813 7 103949185.817 8  80849560.417 7
