     3.04           OBSERVATION DATA    Mixed(MIXED)        RINEX VERSION / TYPE
cnvtToRINEX 3.14.0  convertToRINEX OPR  20250615 162930 UTC PGM / RUN BY / DATE 
----------------------------------------------------------- COMMENT             
35.1                                                        MARKER NAME         
35.1                                                        MARKER NUMBER       
GEODETIC                                                    MARKER TYPE         
GNSS Observer       Trimble                                 OBSERVER / AGENCY   
5849S10870          Unknown             5.51                REC # / TYPE / VERS 
49S10870            UNKNOWN EXT     NONE                    ANT # / TYPE        
  3913456.5798  1190448.7530  4878204.8202                  APPROX POSITION XYZ 
        1.2930        0.0000        0.0000                  ANTENNA: DELTA H/E/N
G    6 C1C C2W C2X L1C L2W L2X                              SYS / # / OBS TYPES 
R    4 C1C C2C L1C L2C                                      SYS / # / OBS TYPES 
E    4 C1X C8X L1X L8X                                      SYS / # / OBS TYPES 
C    4 C2I C7I L2I L7I                                      SYS / # / OBS TYPES 
     5.000                                                  INTERVAL            
  2025     6    15    12    35   35.0000000     GPS         TIME OF FIRST OBS   
  2025     6    15    13    15   35.0000000     GPS         TIME OF LAST OBS    
     0                                                      RCV CLOCK OFFS APPL 
  7 R02 -4 R03  5 R04  6 R11  0 R17  4 R18 -3 R19  3        GLONASS SLOT / FRQ #
G L2X -0.25000                                              SYS / PHASE SHIFT   
R L2C -0.25000                                              SYS / PHASE SHIFT   
    18                                                      LEAP SECONDS        
    25                                                      # OF SATELLITES     
   C12   481   481   481   481                              PRN / # OF OBS      
   C19   481     0   481     0                              PRN / # OF OBS      
   C21   478     0   478     0                              PRN / # OF OBS      
   C22   481     0   481     0                              PRN / # OF OBS      
   E05   481   481   481   481                              PRN / # OF OBS      
   E06   275   264   272   264                              PRN / # OF OBS      
   E09   481   481   481   481                              PRN / # OF OBS      
   E15    59    58    59    58                              PRN / # OF OBS      
   E34   481   481   481   481                              PRN / # OF OBS      
   E36   481   481   481   481                              PRN / # OF OBS      
   G01   481     0   481   481     0   481                  PRN / # OF OBS      
   G02   481   481     0   481   481     0                  PRN / # OF OBS      
   G03   481     0   481   481     0   481                  PRN / # OF OBS      
   G04   208     0   208   208     0   208                  PRN / # OF OBS      
   G08   191     0   181   188     0   181                  PRN / # OF OBS      
   G17   478     0   473   476     0   473                  PRN / # OF OBS      
   G19     3     0     0     3     0     0                  PRN / # OF OBS      
   G32   312     0   274   297     0   274                  PRN / # OF OBS      
   R02   481   481   481   481                              PRN / # OF OBS      
   R03   481   481   481   481                              PRN / # OF OBS      
   R04   412   401   411   396                              PRN / # OF OBS      
   R11    70    51    69    46                              PRN / # OF OBS      
   R17   481   481   481   481                              PRN / # OF OBS      
   R18   481   481   481   481                              PRN / # OF OBS      
   R19   481   481   481   481                              PRN / # OF OBS      
DBHZ                                                        SIGNAL STRENGTH UNIT
                                                            END OF HEADER       
>                              2  1
              *** Start of Kinematic Data ***               COMMENT             
> 2025 06 15 12 35 35.0000000  0 20
C12  22659362.164 7  22659358.883 7 117993239.10917  91240098.25217
C19  22938364.844 7                 119446082.79417
C22  21707306.891 7                 113035643.74917
E05  23356837.672 7  23356841.184 8 122741012.12417  92852790.01818
E06  25601456.836 6  25601460.930 7 134536546.23016 101776049.09417
E09  24625420.297 8  24625422.316 8 129407451.05818  97895906.01518
E34  23589274.922 8  23589277.172 8 123962474.74518  93776817.46818
E36  24252588.234 8  24252591.414 8 127448208.86118  96413754.66618
G01  20250783.211 7                  20250787.320 8 106418581.94317                  82923589.74418
G02  20815475.484 8  20815476.574 6                 109386058.86018  85235896.32816
G03  21019983.469 7                  21019989.738 7 110460751.86117                  86073345.74317
G08  23362316.563 6                  23362325.582 7 122769816.55316                  95664633.90817
G17  23195354.594 5                  23195358.516 6 121892398.74115                  94981115.37816
G32  22520837.820 6                  22520844.176 7 118347795.14016                  92219038.43717
R02  20012837.305 8  20012842.535 7 106792333.09618  83060656.44517
R03  19655939.570 8  19655944.969 7 105219784.25718  81837640.90817
R04  23168006.844 6  23168011.492 5 124063618.80216  96493934.52415
R17  20305235.992 8  20305240.648 7 108657414.98218  84511241.70917
R18  19128194.391 8  19128197.945 7 102107597.23218  79417204.67417
R19  22125796.148 6  22125798.492 6 118358077.78516  92056725.69116
> 2025 06 15 12 35 40.0000000  0 20
C12  22656254.844 7  22656251.902 7 117977059.831 7  91227587.397 7
C19  22938841.688 7                 119448569.568 7
C22  21704685.422 7                 113021996.970 7
E05  23353164.664 7  23353168.473 8 122721712.255 7  92838189.804 8
E06  25601641.898 6  25601645.469 7 134537516.785 6 101776783.320 7
E09  24624417.148 8  24624419.355 9 129402180.321 8  97891918.743 9
E34  23586893.117 8  23586895.406 9 123949958.516 8  93767349.019 9
E36  24252636.547 8  24252639.559 8 127448461.979 8  96413946.141 8
G01  20248453.766 7                  20248458.078 8 106406341.306 7                  82914051.590 8
G02  20814995.938 8  20814996.715 6                 109383537.060 8  85233931.273 6
G03  21016412.539 7                  21016419.980 7 110441991.651 7                  86058727.418 7
G08  23364333.539 7                  23364342.664 7 122780417.402 7                  95672894.290 7
G17  23191791.016 5                  23191795.680 6 121873674.407 5                  94966524.980 6
G32  22521398.578 6                  22521405.563 7 118350741.729 6                  92221334.458 7
R02  20013581.883 8  20013586.145 7 106796304.860 8  83063745.568 7
R03  19652590.867 8  19652596.426 8 105201856.276 8  81823696.899 8
R04  23162588.156 5  23162597.105 5 124034628.216 5  96471386.348 5
R17  20306456.375 8  20306461.836 7 108663950.176 8  84516324.640 7
R18  19126044.031 8  19126047.391 7 102096118.655 8  79408276.886 7
R19  22120829.844 7  22120831.555 6 118331509.874 7  92036061.819 6
>                              3  5
              *** Start of Occupation ***                   COMMENT             
35.1                                                        MARKER NAME         
35.1                                                        MARKER NUMBER       
  3913456.5798  1190448.7530  4878204.8202                  APPROX POSITION XYZ 
        1.2930        0.0000        0.0000                  ANTENNA: DELTA H/E/N
> 2025 06 15 12 35 45.0000000  0 20
C12  22653150.273 7  22653147.551 7 117960896.276 7  91215088.704 7
C19  22939322.117 7                 119451070.922 7
C22  21702068.281 7                 113008367.585 7
E05  23349495.680 7  23349498.461 8 122702426.233 7  92823600.072 8
E06  25601829.375 6  25601833.074 7 134538502.846 6 101777529.282 7
E09  24623417.328 8  24623419.746 8 129396927.411 8  97887944.949 8
E34  23584513.953 8  23584515.957 9 123937454.296 8  93757889.655 9
E36  24252686.781 8  24252690.086 8 127448727.162 8  96414146.753 8
G01  20246127.883 7                  20246132.137 8 106394117.774 7                  82904526.756 8
G02  20814519.125 8  20814520.199 6                 109381031.546 8  85231978.922 6
G03  21012845.859 7                  21012852.980 7 110423246.761 7                  86044121.007 7
G08  23366353.117 7                  23366361.695 7 122791028.185 7                  95681162.409 7
G17  23188227.133 5                  23188236.266 6 121854966.683 5                  94951947.548 6
G32  22521961.680 6                  22521969.613 7 118353706.253 6                  92223644.457 7
R02  20014330.344 8  20014334.270 7 106800298.218 8  83066851.544 7
R03  19649245.852 8  19649251.559 8 105183951.669 8  81809771.104 8
R04  23157180.813 6  23157184.820 4 124005648.695 6  96448846.734 4
R17  20307681.172 8  20307687.051 7 108670505.514 8  84521423.232 7
R18  19123897.195 8  19123901.375 7 102084663.472 8  79399367.307 7
R19  22115863.141 6  22115866.813 6 118304952.796 6  92015406.340 6
> 2025 06 15 12 35 50.0000000  0 21
C12  22650049.133 7  22650046.039 7 117944747.430 7  91202601.396 7
C19  22939804.984 7                 119453585.715 7
C21  25534613.266 6                 132965429.32016
C22  21699453.648 7                 112994754.498 7
E05  23345827.547 7  23345830.852 8 122683152.978 7  92809019.996 8
E06  25602019.805 6  25602023.402 6 134539503.267 6 101778286.076 6
E09  24622420.594 8  24622423.313 8 129391691.209 8  97883983.796 8
E34  23582136.500 8  23582138.559 8 123924960.968 8  93748438.536 8
E36  24252739.000 8  24252742.637 8 127449003.324 8  96414355.655 8
G01  20243804.555 7                  20243809.266 8 106381910.174 7                  82895014.336 8
G02  20814044.945 8  20814046.141 6                 109378541.276 8  85230038.454 6
G03  21009281.859 7                  21009288.289 7 110404516.101 7                  86029525.689 7
G08  23368374.055 7                  23368382.527 7 122801647.759 7                  95689437.395 7
G17  23184671.422 5                  23184678.926 6 121836274.607 5                  94937382.316 6
G32  22522529.156 6                  22522537.484 7 118356687.657 6                  92225967.609 7
R02  20015083.023 8  20015086.973 7 106804312.025 8  83069973.389 7
R03  19645906.422 8  19645911.305 7 105166069.807 8  81795863.007 7
R04  23151772.992 6  23151775.258 5 123976678.898 6  96426314.781 5
R17  20308909.531 8  20308915.508 7 108677079.896 8  84526536.645 7
R18  19121755.969 8  19121759.645 7 102073230.646 8  79390475.108 7
R19  22110902.227 6  22110904.809 6 118278405.446 6  91994758.377 6
> 2025 06 15 12 35 55.0000000  0 21
C12  22646951.484 7  22646947.551 7 117928613.334 7  91190125.470 7
C19  22940291.031 7                 119456114.008 7
C21  25530098.336 6                 132941922.632 6
C22  21696842.594 7                 112981157.727 7
E05  23342162.320 7  23342165.641 8 122663892.554 7  92794449.624 8
E06  25602212.641 6  25602216.434 6 134540518.026 6 101779053.731 6
E09  24621427.625 8  24621430.039 8 129386471.766 8  97880035.319 8
E34  23579761.242 8  23579763.230 8 123912478.574 8  93738995.690 8
E36  24252794.023 8  24252797.297 8 127449290.509 8  96414572.908 8
G01  20241484.703 7                  20241489.063 8 106369718.612 7                  82885514.417 8
G02  20813573.805 7  20813575.090 6                 109376066.295 7  85228109.894 6
G03  21005720.227 7                  21005726.680 7 110385799.716 7                  86014941.511 7
G08  23370395.258 7                  23370405.215 6 122812276.150 7                  95697719.227 6
G17  23181116.578 5                  23181124.090 6 121817598.091 5                  94922829.213 6
G32  22523100.063 7                  22523108.031 7 118359685.863 7                  92228303.890 7
R02  20015838.633 8  20015842.727 7 106808346.227 8  83073111.089 7
R03  19642569.383 8  19642575.063 8 105148210.543 8  81781972.471 8
R04  23146363.195 6  23146366.199 4 123947719.251 6  96403790.755 4
R17  20310141.555 8  20310147.516 7 108683673.255 8  84531664.779 7
R18  19119618.273 8  19119622.418 7 102061820.165 8  79381600.300 7
R19  22105940.023 6  22105943.270 6 118251867.854 6  91974118.069 6
> 2025 06 15 12 36  0.0000000  0 21
C12  22643854.984 7  22643851.535 7 117912493.557 7  91177660.637 7
C19  22940779.086 7                 119458655.386 7
C21  25525584.305 6                 132918424.186 6
C22  21694234.422 7                 112967576.875 7
E05  23338499.531 7  23338502.852 8 122644644.533 7  92779888.629 8
E06  25602409.117 6  25602412.148 6 134541546.789 6 101779831.968 6
E09  24620437.672 8  24620439.867 8 129381268.644 8  97876099.188 8
E34  23577388.023 8  23577389.898 8 123900006.721 8  93729560.814 8
E36  24252851.102 8  24252853.965 8 127449588.285 8  96414798.164 8
G01  20239167.961 7                  20239172.160 8 106357542.646 7                  82876026.643 8
G02  20813106.039 7  20813107.207 6                 109373606.177 7  85226192.917 6
G03  21002160.977 8                  21002167.754 7 110367097.167 8                  86000368.113 7
G08  23372419.883 7                  23372429.070 6 122822912.962 7                  95706007.627 6
G17  23177567.313 5                  23177574.789 6 121798936.926 5                  94908288.100 6
G32  22523673.695 7                  22523681.535 7 118362700.545 7                  92230653.024 7
R02  20016598.688 8  20016602.289 7 106812400.477 8  83076264.412 7
R03  19639237.148 8  19639242.586 7 105130373.651 8  81768099.308 7
R04  23140952.133 4  23140961.582 5 123918768.976 4  96381273.854 5
R17  20311377.695 8  20311382.840 7 108690285.226 8  84536807.419 7
R18  19117485.266 8  19117489.039 7 102050431.680 8  79372742.593 7
R19  22100980.047 6  22100984.941 6 118225339.679 6  91953484.991 6
> 2025 06 15 12 36  5.0000000  0 20
C12  22640762.453 7  22640758.785 7 117896388.273 7  91165207.006 7
C19  22941270.445 7                 119461209.978 7
C21  25521072.914 6                 132894934.108 6
C22  21691630.281 7                 112954012.151 7
E05  23334839.188 8  23334842.395 8 122625409.092 8  92765337.146 8
E06  25602607.492 5  25602610.500 6 134542589.625 5 101780620.849 6
E09  24619450.695 7  24619452.867 8 129376082.025 7  97872175.549 8
E34  23575016.273 8  23575018.621 8 123887545.530 8  93720134.010 8
E36  24252909.531 8  24252912.672 8 127449896.827 8  96415031.570 8
G01  20236853.758 7                  20236858.309 8 106345382.459 7                  82866551.184 8
G02  20812640.680 7  20812641.949 6                 109371161.051 7  85224287.624 6
G03  20998604.492 8                  20998611.309 7 110348408.663 8                  85985805.623 7
G08  23374444.922 7                  23374454.984 6 122833558.339 7                  95714302.698 6
G17  23174020.367 6                  23174026.785 6 121780291.056 6                  94893758.835 6
G32  22524251.063 7                  22524257.934 7 118365731.884 7                  92233015.083 7
R02  20017362.336 8  20017365.754 7 106816474.886 8  83079433.375 7
R03  19635909.352 8  19635914.832 7 105112559.247 8  81754243.684 7
R17  20312616.406 8  20312621.867 7 108696915.964 8  84541964.633 7
R18  19115355.250 8  19115359.383 7 102039065.303 8  79363902.077 7
R19  22096024.047 6  22096027.211 6 118198821.057 6  91932859.467 6
> 2025 06 15 12 36 10.0000000  0 21
C12  22637670.516 7  22637668.441 7 117880296.989 7  91152764.200 7
C19  22941762.852 7                 119463777.352 7
C21  25516563.438 6                 132871451.918 6
C22  21689028.391 7                 112940463.013 7
E05  23331180.852 7  23331184.355 8 122606185.755 7  92750794.835 8
E06  25602808.984 5  25602811.531 6 134543646.040 5 101781420.025 6
E09  24618466.977 8  24618468.910 8 129370911.414 8  97868264.013 8
E34  23572647.305 8  23572649.363 9 123875094.581 8  93710714.945 9
E36  24252970.242 8  24252973.336 8 127450215.640 8  96415272.752 8
G01  20234542.969 7                  20234547.195 8 106333237.576 7                  82857087.646 8
G02  20812177.914 8  20812179.453 6                 109368730.482 8  85222393.678 6
G03  20995051.359 8                  20995057.695 7 110329733.683 8                  85971253.706 7
G08  23376473.117 6                  23376481.922 6 122844211.757 6                  95722604.032 6
G17  23170476.117 6                  23170481.133 6 121761660.103 6                  94879241.199 6
G32  22524830.281 7                  22524837.699 7 118368779.340 7                  92235389.685 7
R02  20018129.531 8  20018133.039 7 106820568.826 8  83082617.559 7
R03  19632585.359 8  19632591.133 8 105094766.776 8  81740405.121 8
R04  23130158.359 5  23130156.012 5 123860897.20415  96336262.48215
R17  20313859.289 8  20313864.656 7 108703564.948 8  84547136.068 7
R18  19113230.203 8  19113233.992 7 102027720.563 8  79355078.387 7
R19  22091068.094 6  22091071.168 6 118172311.539 6  91912240.956 6
> 2025 06 15 12 36 15.0000000  0 21
C12  22634583.539 6  22634580.918 7 117864219.956 6  91140332.422 7
C19  22942257.875 7                 119466357.642 7
C21  25512055.977 6                 132847977.900 6
C22  21686430.055 7                 112926929.718 7
E05  23327524.945 7  23327528.652 8 122586974.697 7  92736261.808 8
E06  25603013.414 5  25603015.285 6 134544716.325 5 101782229.697 6
E09  24617485.930 8  24617488.020 8 129365756.992 8  97864364.729 8
E34  23570279.992 8  23570282.012 9 123862654.047 8  93701303.763 9
E36  24253033.008 8  24253035.949 8 127450544.936 8  96415521.860 8
G01  20232235.023 7                  20232238.672 8 106321108.199 7                  82847636.179 8
G02  20811718.148 8  20811719.512 6                 109366314.599 8  85220511.177 6
G03  20991499.711 7                  20991506.406 7 110311072.499 7                  85956712.524 7
G08  23378501.977 7                  23378511.281 6 122854873.441 7                  95730911.811 6
G17  23166933.648 6                  23166937.930 6 121743044.272 6                  94864735.367 6
G32  22525414.047 7                  22525420.391 6 118371843.108 7                  92237777.003 6
R02  20018900.195 8  20018903.824 7 106824682.703 8  83085817.233 7
R03  19629266.648 8  19629271.008 7 105076996.247 8  81726583.590 7
R04  23124753.797 5  23124754.438 6 123831975.306 5  96313767.769 6
R17  20315104.703 8  20315110.246 7 108710232.365 8  84552321.825 7
R18  19111108.969 8  19111113.348 7 102016397.675 8  79346271.686 7
R19  22086113.172 6  22086117.738 6 118145811.283 6  91891629.698 6
> 2025 06 15 12 36 20.0000000  0 21
C12  22631498.547 6  22631496.074 7 117848155.644 6  91127910.496 7
C19  22942755.563 7                 119468949.362 7
C21  25507550.156 6                 132824510.479 6
C22  21683833.195 7                 112913410.720 7
E05  23323871.508 7  23323874.977 8 122567774.447 7  92721736.956 8
E06  25603220.102 5  25603221.422 7 134545798.893 5 101783048.643 7
E09  24616507.531 8  24616509.961 8 129360617.265 8  97860476.554 8
E34  23567914.367 8  23567916.359 9 123850222.388 8  93691899.305 9
E36  24253097.273 8  24253100.305 8 127450883.194 8  96415777.749 8
G01  20229929.516 7                  20229933.449 8 106308992.797 7                  82838195.610 8
G02  20811261.047 8  20811262.496 6                 109363911.985 8  85218639.009 6
G03  20987950.656 7                  20987957.379 7 110292423.514 7                  85942180.865 7
G08  23380531.523 7                  23380541.363 6 122865541.805 7                  95739224.819 6
G17  23163394.961 6                  23163398.164 6 121724442.098 6                  94850240.169 6
G32  22525999.578 7                  22526006.555 6 118374921.602 7                  92240175.825 6
R02  20019674.367 8  20019678.730 7 106828814.951 8  83089031.180 7
R03  19625950.133 8  19625955.313 7 105059246.601 8  81712778.323 7
R04  23119354.234 5  23119356.543 6 123803061.152 5  96291279.103 6
R17  20316354.117 8  20316359.539 7 108716916.799 8  84557520.799 7
R18  19108992.063 8  19108996.117 7 102005095.125 8  79337480.827 7
R19  22081160.719 6  22081165.254 6 118119318.843 6  91871024.484 6
> 2025 06 15 12 36 25.0000000  0 21
C12  22628416.055 6  22628413.965 8 117832103.722 6  91115498.139 8
C19  22943255.023 7                 119471552.151 7
C21  25503045.461 6                 132801049.289 6
C22  21681240.234 7                 112899905.690 7
E05  23320220.133 7  23320223.313 8 122548584.658 7  92707220.017 8
E06  25603426.641 5  25603429.824 7 134546893.35915 101783876.63117
E09  24615532.406 7  24615534.641 8 129355491.876 7  97856599.234 8
E34  23565550.086 8  23565552.309 9 123837799.292 8  93682501.314 9
E36  24253162.945 8  24253166.328 8 127451230.044 8  96416040.139 8
G01  20227626.438 7                  20227630.527 8 106296891.022 7                  82828765.675 8
G02  20810805.961 8  20810807.910 6                 109361522.209 8  85216776.847 6
G03  20984404.320 7                  20984410.613 7 110273786.403 7                  85927658.453 7
G08  23382563.000 7                  23382572.602 6 122876216.561 7                  95747542.765 6
G17  23159857.148 6                  23159861.160 6 121705853.110 6                  94835755.274 6
G32  22526588.711 7                  22526595.219 7 118378014.517 7                  92242585.891 7
R02  20020452.359 8  20020456.566 7 106832964.999 8  83092259.009 7
R03  19622638.547 8  19622643.484 8 105041517.080 8  81698988.696 8
R04  23113949.375 5  23113958.715 6 123774154.631 5  96268796.359 6
R17  20317606.547 8  20317611.898 7 108723617.677 8  84562732.617 7
R18  19106877.938 8  19106882.801 7 101993812.529 8  79328705.481 7
R19  22076210.969 6  22076214.711 6 118092833.767 6  91850424.997 6
> 2025 06 15 12 36 30.0000000  0 21
C12  22625336.141 7  22625334.027 8 117816065.530 7  91103096.399 8
C19  22943757.703 7                 119474167.318 7
C21  25498542.367 6                 132777595.721 6
C22  21678649.672 7                 112886415.952 7
E05  23316570.438 8  23316573.906 8 122529406.650 8  92692711.983 8
E06  25603637.695 5  25603640.668 7 134548001.120 5 101784714.634 7
E09  24614559.813 7  24614562.262 9 129350382.128 7  97852733.750 9
E34  23563187.984 8  23563190.176 9 123825386.094 8  93673110.817 9
E36  24253230.992 8  24253234.234 8 127451586.851 8  96416310.061 8
G01  20225326.000 7                  20225330.086 8 106284804.263 7                  82819347.400 8
G02  20810354.609 8  20810355.926 6                 109359146.670 8  85214925.771 6
G03  20980860.047 7                  20980867.031 7 110255162.533 7                  85913146.352 7
G08  23384595.844 6                  23384604.887 6 122886898.980 6                  95755866.718 6
G17  23156322.320 6                  23156326.309 6 121687278.800 6                  94821281.767 6
G32  22527179.734 6                  22527187.047 7 118381123.241 6                  92245008.252 7
R02  20021232.867 8  20021237.613 7 106837134.369 8  83095501.867 7
R03  19619329.914 8  19619335.727 8 105023809.132 8  81685215.856 8
R04  23108552.070 5  23108561.906 6 123745257.015 5  96246320.487 6
R17  20318861.930 8  20318867.391 7 108730336.347 8  84567958.228 7
R18  19104768.672 8  19104772.980 7 101982551.292 8  79319946.732 7
R19  22071260.242 6  22071265.719 6 118066357.470 6  91829832.299 6
> 2025 06 15 12 36 35.0000000  0 21
C12  22622260.188 7  22622256.500 8 117800041.141 7  91090705.325 8
C19  22944262.891 7                 119476794.961 7
C21  25494039.117 6                 132754149.857 6
C22  21676061.992 8                 112872941.619 8
E05  23312923.211 8  23312926.762 8 122510240.545 8  92678212.955 8
E06  25603848.539 5  25603853.996 7 134549122.237 5 101785562.797 7
E09  24613590.508 8  24613592.879 8 129345288.165 8  97848880.201 8
E34  23560827.602 8  23560829.918 9 123812982.898 8  93663727.881 9
E36  24253300.891 8  24253304.020 8 127451953.711 8  96416587.585 8
G01  20223029.414 7                  20223033.059 8 106272732.588 7                  82809940.889 8
G02  20809904.859 8  20809906.566 6                 109356785.423 8  85213085.827 6
G03  20977319.023 7                  20977325.629 7 110236551.999 7                  85898644.629 7
G08  23386630.531 6                  23386639.762 6 122897589.165 6                  95764196.739 6
G17  23152790.148 6                  23152794.484 6 121668719.254 6                  94806819.770 6
G32  22527775.016 7                  22527782.094 7 118384247.735 7                  92247442.920 7
R02  20022018.578 8  20022022.930 7 106841323.227 8  83098759.847 7
R03  19616025.625 8  19616031.426 7 105006122.866 8  81671459.883 7
R04  23103157.797 5  23103167.930 6 123716368.493 5  96223851.628 6
R17  20320121.891 8  20320127.051 7 108737073.121 8  84573197.926 7
R18  19102662.719 8  19102667.234 7 101971311.510 8  79311204.701 7
R19  22066313.273 6  22066317.777 6 118039890.054 6  91809246.542 6
> 2025 06 15 12 36 40.0000000  0 21
C12  22619184.664 7  22619181.523 7 117784029.722 7  91078324.271 7
C19  22944769.445 7                 119479434.144 7
C21  25489537.281 6                 132730710.819 6
C22  21673476.945 7                 112859481.745 7
E05  23309278.234 8  23309281.652 8 122491085.428 8  92663722.242 8
E06  25604065.617 5  25604069.699 7 134550255.783 5 101786420.302 7
E09  24612624.242 7  24612626.391 8 129340209.040 7  97845037.866 8
E34  23558469.180 8  23558471.422 9 123800588.774 8  93654351.812 9
E36  24253372.109 8  24253375.547 8 127452329.712 8  96416872.014 8
G01  20220734.727 7                  20220738.535 8 106260675.079 7                  82800545.435 8
G02  20809457.984 7  20809459.566 6                 109354437.570 7  85211256.329 6
G03  20973778.961 7                  20973786.340 7 110217953.886 7                  85884152.592 7
G08  23388665.461 6                  23388675.289 6 122908286.210 6                  95772532.067 6
G17  23149260.422 6                  23149265.430 6 121650173.446 6                  94792368.479 6
G32  22528372.227 6                  22528379.945 7 118387387.188 6                  92249889.227 7
R02  20022806.141 8  20022811.223 7 106845530.213 8  83102031.955 7
R03  19612725.242 8  19612731.504 7 104988457.610 8  81657720.257 7
R04  23097762.664 5  23097773.980 6 123687488.115 5  96201389.200 6
R17  20321383.578 8  20321388.535 7 108743826.847 8  84578450.805 7
R18  19100561.141 8  19100565.586 7 101960092.277 8  79302478.629 7
R19  22061366.992 6  22061370.816 6 118013430.745 6  91788667.086 6
> 2025 06 15 12 36 45.0000000  0 21
C12  22616112.828 7  22616109.398 7 117768031.374 7  91065953.341 7
C19  22945278.547 7                 119482085.065 7
C21  25485038.117 6                 132707278.747 6
C22  21670895.266 7                 112846036.526 7
E05  23305635.281 8  23305638.648 8 122471941.478 8  92649239.973 8
E06  25604286.484 5  25604287.660 7 134551401.96815 101787287.32517
E09  24611660.773 8  24611662.754 8 129335144.912 8  97841206.886 8
E34  23556112.203 8  23556114.680 9 123788203.909 8  93644982.745 9
E36  24253445.750 8  24253448.832 8 127452714.995 8  96417163.472 8
G01  20218443.016 7                  20218446.660 8 106248631.926 7                  82791161.163 8
G02  20809013.555 7  20809015.094 6                 109352103.241 7  85209437.373 6
G03  20970243.438 7                  20970249.813 7 110199368.334 7                  85869670.360 7
G08  23390702.266 6                  23390712.051 6 122918990.218 6                  95780872.834 6
G17  23145732.305 6                  23145739.137 6 121631641.733 6                  94777928.150 6
G32  22528973.203 6                  22528980.277 7 118390541.699 6                  92252347.271 7
R02  20023598.609 8  20023602.891 7 106849756.020 8  83105318.681 7
R03  19609429.516 8  19609435.492 7 104970813.323 8  81643996.925 7
R04  23092373.805 5  23092383.199 6 123658616.093 5  96178933.175 6
R17  20322649.211 8  20322653.734 7 108750597.789 8  84583717.087 7
R18  19098463.398 8  19098467.906 7 101948893.710 8  79293768.633 7
R19  22056421.688 6  22056426.719 6 117986979.532 6  91768093.911 6
> 2025 06 15 12 36 50.0000000  0 21
C12  22613043.328 7  22613039.273 7 117752046.455 7  91053592.793 7
C19  22945790.484 7                 119484747.973 7
C21  25480539.766 6                 132683854.002 6
C22  21668316.008 8                 112832606.263 8
E05  23301994.391 7  23301997.816 8 122452809.011 7  92634766.389 8
E06  25604507.500 5  25604508.184 7 134552561.063 5 101788164.154 7
E09  24610700.023 8  24610702.059 8 129330096.100 8  97837387.491 8
E34  23553757.555 8  23553759.766 9 123775828.616 8  93635620.916 9
E36  24253520.898 8  24253523.977 8 127453109.882 8  96417462.193 8
G01  20216153.273 7                  20216158.133 8 106236603.436 7                  82781788.313 8
G02  20808572.109 8  20808573.594 6                 109349782.771 8  85207629.213 6
G03  20966708.734 8                  20966716.004 7 110180795.694 8                  85855198.180 7
G08  23392740.109 6                  23392750.203 6 122929701.560 6                  95789219.296 6
G17  23142208.617 5                  23142214.785 6 121613124.252 5                  94763498.955 6
G32  22529575.664 6                  22529582.703 7 118393711.586 6                  92254817.291 7
R02  20024394.578 8  20024398.391 7 106854000.593 8  83108620.024 7
R03  19606138.266 8  19606143.547 8 104953190.205 8  81630290.046 8
R04  23086984.336 6  23086991.625 6 123629752.506 6  96156483.788 6
R17  20323917.016 8  20323923.020 7 108757386.150 8  84588996.944 7
R18  19096369.039 8  19096373.617 7 101937716.244 8  79285075.045 7
R19  22051479.008 6  22051481.980 6 117960536.892 6  91747527.384 6
> 2025 06 15 12 36 55.0000000  0 21
C12  22609975.844 7  22609972.012 7 117736074.068 7  91041241.932 7
C19  22946303.430 7                 119487421.958 7
C21  25476041.586 6                 132660435.591 6
C22  21665739.867 8                 112819190.029 8
E05  23298355.273 8  23298358.930 8 122433687.049 8  92620300.751 8
E06  25604729.828 5  25604730.996 7 134553732.07815 101789050.01217
E09  24609741.609 8  24609744.098 8 129325061.638 8  97833578.948 8
E34  23551404.141 8  23551406.477 9 123763461.944 8  93626265.614 9
E36  24253597.789 8  24253600.781 8 127453513.419 8  96417767.457 8
G01  20213867.141 7                  20213871.832 8 106224588.676 7                  82772426.163 8
G02  20808133.250 8  20808134.543 6                 109347475.241 8  85205831.134 6
G03  20963176.711 8                  20963183.344 7 110162235.021 8                  85840735.334 7
G08  23394780.039 6                  23394790.152 6 122940419.166 6                  95797570.658 6
G17  23138687.531 6                  23138694.070 6 121594620.090 6                  94749080.194 6
G32  22530182.063 6                  22530188.852 7 118396895.857 6                  92257298.527 7
R02  20025193.008 8  20025197.477 7 106858262.951 8  83111935.189 7
R03  19602849.578 8  19602855.012 8 104935587.633 8  81616599.165 8
R04  23081594.227 6  23081602.012 6 123600896.740 6  96134040.476 6
R17  20325189.750 8  20325194.188 7 108764191.149 8  84594289.697 7
R18  19094279.859 8  19094283.324 7 101926558.877 8  79276397.084 7
R19  22046536.844 6  22046540.805 6 117934101.705 6  91726966.659 6
> 2025 06 15 12 37  0.0000000  0 21
C12  22606910.906 7  22606907.016 7 117720112.692 7  91028899.581 7
C19  22946818.734 7                 119490105.557 7
C21  25471543.914 6                 132637022.084 6
C22  21663165.344 8                 112805786.363 8
E05  23294717.859 8  23294721.820 8 122414574.180 8  92605842.009 8
E06  25604956.133 4  25604955.813 7 134554913.49214 101789943.72717
E09  24608786.219 8  24608788.574 8 129320040.095 8  97829780.173 8
E34  23549052.258 8  23549054.563 9 123751102.446 8  93616915.740 9
E36  24253675.773 8  24253678.941 8 127453924.153 8  96418078.183 8
G01  20211583.211 7                  20211587.922 8 106212586.181 7                  82763073.586 8
G02  20807696.484 8  20807697.582 6                 109345179.156 8  85204041.974 6
G03  20959647.086 7                  20959653.695 7 110143684.853 7                  85826280.655 7
G08  23396820.531 6                  23396830.832 6 122951141.681 6                  95805925.837 6
G17  23135169.555 6                  23135175.410 6 121576127.947 6                  94734670.735 6
G32  22530790.734 6                  22530797.098 7 118400092.995 6                  92259789.826 7
R02  20025994.398 8  20025998.742 7 106862541.573 8  83115263.003 7
R03  19599565.695 8  19599569.938 8 104918003.852 8  81602922.869 8
R04  23076205.125 6  23076213.648 6 123572047.171 6  96111601.956 6
R17  20326463.898 8  20326469.008 7 108771011.198 8  84599594.148 7
R18  19092192.930 8  19092196.914 7 101915420.041 8  79267733.552 7
R19  22041597.367 6  22041599.832 6 117907672.717 6  91706410.772 6
> 2025 06 15 12 37  5.0000000  0 20
C12  22603848.219 7  22603844.504 7 117704163.959 7  91016566.999 7
C19  22947336.320 7                 119492800.313 7
C21  25467049.719 6                 132613615.092 6
C22  21660594.242 8                 112792396.832 8
E05  23291082.773 8  23291086.762 8 122395471.968 8  92591391.322 8
E09  24607834.086 8  24607835.809 8 129315033.002 8  97825992.327 8
E34  23546701.852 8  23546704.266 9 123738751.667 8  93607572.460 9
E36  24253756.086 8  24253758.766 8 127454343.635 8  96418395.516 8
G01  20209301.992 7                  20209306.363 8 106200597.515 7                  82753731.754 8
G02  20807261.695 8  20807263.133 6                 109342896.072 8  85202262.945 6
G03  20956119.063 7                  20956126.336 7 110125146.753 7                  85811835.386 7
G08  23398862.398 7                  23398872.102 6 122961870.567 7                  95814285.993 6
G17  23131652.953 6                  23131659.816 6 121557649.259 6                  94720271.750 6
G32  22531400.000 6                  22531408.023 7 118403304.618 6                  92262292.425 7
R02  20026799.727 8  20026804.621 7 106866838.370 8  83118604.960 7
R03  19596283.867 8  19596288.934 8 104900440.459 8  81589262.487 8
R04  23070821.172 6  23070827.934 5 123543205.399 6  96089169.595 5
R17  20327740.734 8  20327746.035 7 108777847.818 8  84604911.513 7
R18  19090109.906 8  19090113.902 7 101904301.392 8  79259085.711 7
R19  22036657.625 6  22036660.488 6 117881251.194 6  91685860.810 6
> 2025 06 15 12 37 10.0000000  0 20
C12  22600787.539 7  22600784.227 7 117688228.660 7  91004244.812 7
C19  22947856.266 7                 119495507.050 7
C21  25462555.492 6                 132590215.375 6
C22  21658025.773 8                 112779022.245 8
E05  23287450.141 7  23287453.949 8 122376381.249 7  92576949.333 8
E09  24606884.195 8  24606885.898 9 129310041.193 8  97822216.060 9
E34  23544353.547 8  23544355.832 9 123726410.503 8  93598236.449 9
E36  24253837.680 8  24253840.457 8 127454772.724 8  96418720.118 8
G01  20207023.469 7                  20207027.926 8 106188623.550 7                  82744401.404 8
G02  20806829.953 8  20806831.262 6                 109340626.883 8  85200494.742 6
G03  20952594.344 7                  20952600.781 7 110106621.581 7                  85797400.189 7
G08  23400905.133 7                  23400915.379 6 122972606.747 7                  95822651.790 6
G17  23128138.742 6                  23128145.465 6 121539184.972 6                  94705884.004 6
G32  22532014.688 6                  22532022.469 7 118406531.604 6                  92264806.970 7
R02  20027608.398 8  20027612.914 7 106871153.889 8  83121961.463 7
R03  19593006.984 8  19593012.090 8 104882898.536 8  81575618.766 8
R04  23065436.266 6  23065444.090 6 123514372.215 6  96066743.874 6
R17  20329021.727 8  20329027.551 7 108784702.000 8  84610242.541 7
R18  19088030.992 8  19088034.930 7 101893203.853 8  79250454.313 7
R19  22031720.281 6  22031723.520 5 117854838.532 6  91665317.670 5
> 2025 06 15 12 37 15.0000000  0 20
C12  22597730.711 7  22597726.648 7 117672307.998 7  90991933.945 7
C19  22948378.094 7                 119498226.947 7
C21  25458064.680 6                 132566824.147 6
C22  21655460.531 7                 112765663.789 7
E05  23283819.984 7  23283823.523 8 122357303.214 7  92562516.936 8
E09  24605937.180 8  24605939.055 8 129305065.840 8  97818452.250 8
E34  23542006.984 8  23542009.398 9 123714080.082 8  93588908.564 9
E36  24253921.297 8  24253924.172 8 127455212.597 8  96419052.878 8
G01  20204748.148 7                  20204752.211 8 106176665.451 7                  82735083.406 8
G02  20806401.219 7  20806402.094 6                 109338372.707 7  85198738.237 6
G03  20949071.219 7                  20949077.875 7 110088110.468 7                  85782975.952 7
G08  23402949.531 6                  23402960.430 7 122983351.314 6                  95831024.180 7
G17  23124628.305 6                  23124634.172 6 121520736.235 6                  94691508.363 6
G32  22532632.313 6                  22532639.305 7 118409775.093 6                  92267334.345 7
R02  20028420.930 8  20028425.508 7 106875489.494 8  83125333.585 7
R03  19589734.602 8  19589739.414 8 104865379.145 8  81561992.560 8
R04  23060050.164 5  23060061.023 5 123485549.062 5  96044325.819 5
R17  20330306.945 8  20330311.762 7 108791574.837 8  84615588.067 7
R18  19085955.266 8  19085959.836 7 101882128.569 8  79241840.200 7
R19  22026783.844 6  22026788.133 6 117828435.409 6  91644781.936 6
> 2025 06 15 12 37 20.0000000  0 20
C12  22594675.148 7  22594671.656 7 117656400.025 7  90979632.892 7
C19  22948902.641 7                 119500958.023 7
C21  25453573.266 6                 132543439.469 6
C22  21652897.680 8                 112752319.528 8
E05  23280192.289 7  23280195.160 8 122338235.945 7  92548092.672 8
E09  24604993.375 8  24604994.969 8 129300105.022 8  97814699.427 8
E34  23539662.203 8  23539664.617 9 123701758.482 8  93579587.349 9
E36  24254006.648 8  24254009.594 8 127455661.277 8  96419392.303 8
G01  20202475.063 7                  20202479.258 8 106164721.258 7                  82725776.241 8
G02  20805974.477 8  20805975.223 6                 109336131.615 8  85196991.925 6
G03  20945551.469 7                  20945557.629 7 110069611.500 7                  85768561.164 7
G08  23404995.836 6                  23405006.070 7 122994102.290 6                  95839401.534 7
G17  23121121.438 6                  23121126.332 6 121502301.050 6                  94677143.321 6
G32  22533250.992 6                  22533259.574 7 118413033.075 6                  92269873.029 7
R02  20029236.992 8  20029241.840 7 106879842.845 8  83128719.493 7
R03  19586465.773 8  19586470.816 8 104847880.195 8  81548382.274 8
R04  23054669.648 5  23054680.734 5 123456733.813 5  96021914.039 5
R17  20331593.570 8  20331598.906 7 108798464.168 8  84620946.423 7
R18  19083885.000 8  19083888.961 7 101871073.597 8  79233241.872 7
R19  22021849.406 6  22021853.891 6 117802040.112 6  91624252.258 6
> 2025 06 15 12 37 25.0000000  0 21
C12  22591622.359 7  22591618.992 7 117640503.118 7  90967340.393 7
C19  22949428.477 7                 119503698.652 7
C21  25449083.695 6                 132520059.722 6
C22  21650337.867 7                 112738987.820 7
E05  23276565.336 7  23276568.551 8 122319177.738 7  92533675.270 8
E06  25606123.227 5                 134561053.91015
E09  24604051.523 8  24604053.348 9 129295157.039 8  97810956.311 9
E34  23537318.742 8  23537321.207 9 123689444.025 8  93570271.551 9
E36  24254093.305 8  24254096.359 8 127456117.147 8  96419737.151 8
G01  20200204.438 7                  20200208.758 8 106152789.350 7                  82716478.649 8
G02  20805550.258 8  20805550.941 6                 109333901.944 8  85195254.523 6
G03  20942032.836 7                  20942039.668 7 110051123.000 7                  85754154.549 7
G08  23407042.203 6                  23407052.766 7 123004858.038 6                  95847782.628 7
G17  23117615.352 6                  23117620.563 6 121483877.999 6                  94662787.681 6
G32  22533872.906 6                  22533881.699 7 118416303.928 6                  92272421.763 7
R02  20030055.766 8  20030060.836 7 106884212.537 8  83132118.148 7
R03  19583199.844 8  19583205.125 8 104830400.264 8  81534786.795 8
R04  23049292.742 5  23049301.168 5 123427924.770 5  95999507.022 5
R17  20332883.242 8  20332889.688 7 108805368.641 8  84626316.574 7
R18  19081817.625 8  19081821.582 7 101860037.217 8  79224658.025 7
R19  22016916.313 6  22016920.684 6 117775651.012 6  91603727.428 6
> 2025 06 15 12 37 30.0000000  0 21
C12  22588572.055 7  22588568.391 8 117624616.539 7  90955055.896 8
C19  22949956.336 7                 119506448.075 7
C21  25444595.375 6                 132496684.124 6
C22  21647780.133 7                 112725667.944 7
E05  23272939.797 8  23272943.484 8 122300127.889 8  92519264.190 8
E06  25606359.539 5  25606354.844 7 134562306.507 5 101795507.56917
E09  24603112.188 8  24603114.055 9 129290221.189 8  97807222.374 9
E34  23534976.633 8  23534979.074 9 123677135.989 8  93560960.601 9
E36  24254180.945 8  24254184.367 8 127456579.439 8  96420086.861 8
G01  20197936.422 7                  20197940.484 8 106140868.960 7                  82707190.044 8
G02  20805127.984 8  20805128.527 6                 109331682.980 8  85193525.466 6
G03  20938516.406 7                  20938523.520 7 110032644.282 7                  85739755.563 7
G08  23409089.891 7                  23409099.813 7 123015617.818 7                  95856166.833 7
G17  23114111.430 6                  23114116.641 6 121465466.045 6                  94648440.701 6
G32  22534498.875 6                  22534506.617 7 118419586.889 6                  92274979.933 7
R02  20030877.852 8  20030882.020 7 106888597.799 8  83135528.925 7
R03  19579937.484 8  19579943.109 8 104812938.485 8  81521205.411 8
R04  23043917.055 5  23043921.496 5 123399121.140 5  95977104.207 5
R17  20334176.758 8  20334182.156 7 108812287.327 8  84631697.773 7
R18  19079753.797 8  19079757.109 7 101849018.765 8  79216088.113 7
R19  22011983.125 6  22011988.559 6 117749267.223 6  91583206.754 6
> 2025 06 15 12 37 35.0000000  0 21
C12  22585523.266 7  22585519.547 8 117608741.590 7  90942780.382 8
C19  22950486.820 7                 119509207.563 7
C21  25440107.516 6                 132473314.056 6
C22  21645224.164 7                 112712361.170 7
E05  23269316.641 8  23269320.289 8 122281087.690 8  92504860.411 8
E06  25606592.695 5  25606595.270 7 134563570.058 5 101796463.417 7
E09  24602175.438 8  24602177.297 8 129285298.725 8  97803498.571 8
E34  23532636.188 8  23532638.422 9 123664835.689 8  93551655.501 9
E36  24254270.711 8  24254273.797 8 127457049.446 8  96420442.416 8
G01  20195670.484 7                  20195674.645 8 106128961.413 7                  82697911.437 8
G02  20804708.273 8  20804708.680 6                 109329476.004 8  85191805.745 6
G03  20935002.633 7                  20935009.355 7 110014176.601 7                  85725365.160 7
G08  23411139.031 7                  23411148.352 6 123026382.859 7                  95864555.166 6
G17  23110610.117 6                  23110614.820 5 121447066.644 6                  94634103.518 5
G32  22535123.891 6                  22535133.949 6 118422883.316 6                  92277548.604 6
R02  20031702.977 8  20031706.473 7 106892999.771 8  83138952.665 7
R03  19576679.859 8  19576684.930 8 104795496.219 8  81507639.225 8
R04  23038538.328 5  23038544.230 5 123370324.377 5  95954706.819 5
R17  20335473.297 8  20335478.582 7 108819221.556 8  84637091.027 7
R18  19077692.492 8  19077696.672 7 101838019.469 8  79207533.131 7
R19  22007052.930 6  22007057.910 7 117722890.150 6  91562691.256 7
> 2025 06 15 12 37 40.0000000  0 21
C12  22582476.469 7  22582473.238 8 117592878.041 7  90930513.699 8
C19  22951019.359 7                 119511976.902 7
C21  25435621.156 6                 132449949.277 6
C22  21642671.258 7                 112699067.282 7
E05  23265695.117 8  23265698.859 8 122262056.932 8  92490463.774 8
E06  25606833.164 5  25606837.691 7 134564844.291 5 101797427.361 7
E09  24601241.016 8  24601243.051 8 129280389.470 8  97799784.747 8
E34  23530296.570 8  23530299.168 9 123652542.892 8  93542356.079 9
E36  24254361.406 8  24254364.656 8 127457526.961 8  96420803.642 8
G01  20193406.648 8                  20193411.020 8 106117066.497 8                  82688642.657 8
G02  20804290.156 8  20804291.176 6                 109327280.822 8  85190095.203 6
G03  20931490.242 8                  20931497.305 7 109995719.788 8                  85710983.228 7
G08  23413188.094 7                  23413198.207 6 123037153.031 7                  95872947.490 6
G17  23107111.641 6                  23107115.887 5 121428679.582 6                  94619775.977 5
G32  22535755.055 6                  22535763.871 6 118426192.858 6                  92280127.409 6
R02  20032530.438 8  20032534.684 7 106897418.264 8  83142389.260 7
R03  19573424.680 8  19573430.383 8 104778073.162 8  81494087.955 8
R04  23033157.805 5  23033166.578 5 123341534.099 5  95932314.462 5
R17  20336771.609 8  20336776.969 7 108826170.933 8  84642496.092 7
R18  19075635.453 8  19075639.852 7 101827039.189 8  79198992.905 7
R19  22002122.945 6  22002128.578 7 117696519.602 6  91542180.793 7
> 2025 06 15 12 37 45.0000000  0 21
C12  22579432.930 7  22579429.457 7 117577026.339 7  90918256.161 7
C19  22951552.977 7                 119514756.489 7
C21  25431135.023 6                 132426590.136 6
C22  21640121.000 8                 112685786.694 8
E05  23262075.594 7  23262079.305 8 122243036.040 7  92476074.612 8
E06  25607075.289 5  25607082.137 7 134566129.59915 101798399.74917
E09  24600309.813 8  24600311.445 8 129275493.805 8  97796081.209 8
E34  23527958.984 8  23527961.453 9 123640258.021 8  93533062.658 9
E36  24254453.883 8  24254457.020 8 127458012.383 8  96421170.860 8
G01  20191145.703 7                  20191149.957 8 106105184.604 7                  82679384.046 8
G02  20803875.133 7  20803875.848 6                 109325097.814 7  85188394.152 6
G03  20927980.148 8                  20927987.176 7 109977274.211 8                  85696610.051 7
G08  23415238.258 6                  23415248.750 6 123047928.629 6                  95881344.045 6
G17  23103614.766 6                  23103619.047 6 121410305.268 6                  94605458.323 6
G32  22536388.492 6                  22536396.035 6 118429516.009 6                  92282716.869 6
R02  20033362.047 8  20033366.301 7 106901853.871 8  83145839.182 7
R03  19570173.383 8  19570178.863 8 104760669.625 8  81480551.879 8
R04  23027784.695 5  23027791.988 6 123312751.066 5  95909927.670 6
R17  20338073.531 8  20338078.523 7 108833136.060 8  84647913.418 7
R18  19073582.758 8  19073586.484 7 101816078.362 8  79190467.804 7
R19  21997196.719 6  21997199.590 6 117670155.970 6  91521675.769 6
> 2025 06 15 12 37 50.0000000  0 20
C12  22576391.148 7  22576387.891 8 117561185.877 7  90906007.320 8
C19  22952088.445 7                 119517545.715 7
C21  25426650.141 6                 132403236.085 6
C22  21637573.195 8                 112672518.758 8
E05  23258458.086 8  23258461.469 8 122224024.372 8  92461692.425 8
E09  24599380.219 8  24599382.320 8 129270611.088 8  97792387.473 8
E34  23525622.586 8  23525625.141 9 123627980.450 8  93523774.763 9
E36  24254547.539 8  24254550.758 8 127458505.096 8  96421543.585 8
G01  20188887.359 7                  20188891.043 8 106093315.132 7                  82670135.107 8
G02  20803461.492 8  20803462.773 6                 109322926.318 8  85186702.088 6
G03  20924472.227 8                  20924479.191 7 109958839.273 8                  85682245.174 7
G08  23417290.461 7                  23417300.156 6 123058709.105 7                  95889744.386 6
G17  23100121.781 6                  23100124.566 5 121391943.015 6                  94591150.096 5
G32  22537023.102 6                  22537030.379 6 118432852.065 6                  92285316.378 6
R02  20034195.859 8  20034200.496 7 106906305.622 8  83149301.658 7
R03  19566925.383 8  19566931.785 8 104743285.350 8  81467030.808 8
R04  23022409.125 5  23022419.402 6 123283974.427 5  95887545.901 6
R17  20339377.109 8  20339383.070 7 108840116.303 8  84653342.488 7
R18  19071533.313 8  19071536.992 7 101805136.355 8  79181957.342 7
R19  21992268.852 7  21992272.723 6 117643798.605 7  91501175.635 6
> 2025 06 15 12 37 55.0000000  0 20
C12  22573350.789 7  22573348.082 8 117545358.474 7  90893768.556 8
C19  22952626.000 7                 119520346.410 7
C21  25422165.164 6                 132379888.970 6
C22  21635028.055 8                 112659265.377 8
E05  23254842.250 8  23254845.727 8 122205023.838 8  92447318.646 8
E09  24598453.734 8  24598455.996 8 129265743.209 8  97788704.940 8
E34  23523287.945 8  23523290.512 9 123615712.048 8  93514493.793 9
E36  24254643.164 8  24254646.188 8 127459006.962 8  96421923.243 8
G01  20186630.891 7                  20186635.680 8 106081459.943 7                  82660897.315 8
G02  20803050.977 8  20803052.047 6                 109320768.225 8  85185020.461 6
G03  20920966.500 8                  20920973.477 7 109940416.837 8                  85667890.042 7
G08  23419343.766 7                  23419353.574 7 123069496.228 7                  95898149.901 7
G17  23096629.211 6                  23096632.746 5 121373594.850 6                  94576852.861 5
G32  22537661.344 6                  22537667.563 6 118436202.902 6                  92287927.391 6
R02  20035033.563 8  20035038.422 7 106910775.673 8  83152778.329 7
R03  19563682.148 8  19563687.965 8 104725921.952 8  81453525.935 8
R04  23017036.063 5  23017045.523 6 123255205.938 5  95865170.490 6
R17  20340685.039 8  20340690.602 7 108847113.445 8  84658784.701 7
R18  19069485.992 8  19069490.461 7 101794214.961 8  79173462.938 7
R19  21987340.219 6  21987347.078 6 117617449.499 6  91480681.912 6
> 2025 06 15 12 38  0.0000000  0 21
C12  22570313.813 7  22570311.281 8 117529543.721 7  90881539.605 8
C19  22953165.898 7                 119523158.117 7
C21  25417683.844 6                 132356548.322 6
C22  21632485.680 8                 112646026.071 8
E05  23251228.359 8  23251232.000 8 122186033.974 8  92432952.940 8
E06  25607825.148 4                 134570049.95414
E09  24597530.148 8  24597532.414 8 129260889.703 8  97785033.310 8
E34  23520955.125 8  23520957.547 9 123603452.360 8  93505219.426 9
E36  24254740.484 8  24254743.363 8 127459517.549 8  96422309.483 8
G01  20184378.156 7                  20184382.129 8 106069618.597 7                  82651670.296 8
G02  20802643.094 8  20802644.035 6                 109318623.118 8  85183348.952 6
G03  20917463.117 8                  20917470.305 7 109922006.456 8                  85653544.297 7
G08  23421396.750 6                  23421407.172 7 123080289.577 6                  95906560.292 7
G17  23093140.148 6                  23093143.621 6 121355260.142 6                  94562566.139 6
G32  22538301.523 6                  22538307.824 6 118439568.046 6                  92290549.589 6
R02  20035875.016 8  20035879.262 7 106915263.447 8  83156268.819 7
R03  19560442.539 8  19560447.863 8 104708578.990 8  81440036.962 8
R04  23011668.055 5  23011675.301 5 123226445.448 5  95842801.229 5
R17  20341995.672 8  20342001.855 7 108854127.061 8  84664239.728 7
R18  19067444.344 8  19067448.453 7 101783313.843 8  79164984.305 7
R19  21982416.492 6  21982422.539 6 117591108.209 6  91460194.237 6
> 2025 06 15 12 38  5.0000000  0 21
C12  22567279.563 7  22567276.344 8 117513740.985 7  90869319.932 8
C19  22953708.195 7                 119525980.172 7
C21  25413201.055 6                 132333213.527 6
C22  21629945.938 8                 112632800.224 8
E05  23247617.141 8  23247620.191 8 122167054.130 8  92418594.820 8
E06  25608078.992 5  25608082.383 7 134571381.464 5 101802374.76417
E09  24596609.281 8  24596611.500 8 129256049.914 8  97781372.027 8
E34  23518623.664 8  23518626.156 9 123591200.758 8  93495951.170 9
E36  24254839.016 8  24254842.012 8 127460036.149 8  96422701.800 8
G01  20182126.648 7                  20182131.203 8 106057790.461 7                  82642453.560 8
G02  20802237.172 8  20802238.320 6                 109316490.313 8  85181687.018 6
G03  20913961.242 7                  20913969.148 7 109903607.482 7                  85639207.441 7
G08  23423451.609 6                  23423462.227 7 123091088.497 6                  95914975.046 7
G17  23089653.648 6                  23089658.234 6 121336938.396 6                  94548289.475 6
G32  22538944.359 6                  22538951.000 6 118442946.805 6                  92293182.416 6
R02  20036719.094 8  20036722.852 7 106919768.241 8  83159772.559 7
R03  19557206.164 8  19557211.957 7 104691255.837 8  81426563.410 7
R04  23006299.477 5  23006304.820 5 123197692.130 5  95820437.577 5
R17  20343309.102 8  20343314.684 7 108861156.396 8  84669706.981 7
R18  19065405.914 8  19065409.918 7 101772432.285 8  79156520.863 7
R19  21977495.555 6  21977500.301 6 117564774.123 6  91439712.132 6
> 2025 06 15 12 38 10.0000000  0 21
C12  22564246.461 7  22564243.668 8 117497951.051 7  90857110.146 8
C19  22954251.688 7                 119528813.393 7
C21  25408721.531 6                 132309885.384 6
C22  21627408.320 8                 112619588.604 8
E05  23244007.016 8  23244010.523 8 122148085.111 8  92404244.896 8
E06  25608335.016 5  25608337.715 7 134572724.932 5 101803391.047 7
E09  24595690.969 8  24595693.320 8 129251224.618 8  97777721.731 8
E34  23516293.852 8  23516296.434 8 123578958.021 8  93486689.627 8
E36  24254939.359 8  24254942.355 8 127460563.619 8  96423100.825 8
G01  20179878.891 7                  20179883.145 8 106045976.323 7                  82633247.722 8
G02  20801833.328 8  20801834.816 6                 109314370.605 8  85180035.290 6
G03  20910463.219 8                  20910469.695 7 109885220.691 8                  85624880.071 7
G08  23425507.633 6                  23425518.027 7 123101893.733 6                  95923394.687 7
G17  23086168.602 6                  23086174.766 5 121318630.323 6                  94534023.450 5
G32  22539589.875 6                  22539597.211 6 118446340.072 6                  92295826.514 6
R02  20037566.438 8  20037569.875 7 106924290.780 8  83163290.102 7
R03  19553974.398 8  19553979.875 8 104673953.281 8  81413105.854 8
R04  23000933.250 5  23000937.254 5 123168946.915 5  95798080.310 5
R17  20344625.930 8  20344631.773 7 108868202.466 8  84675187.252 7
R18  19063370.945 8  19063375.340 7 101761571.124 8  79148073.308 7
R19  21972573.156 7  21972578.434 6 117538447.870 7  91419236.208 6
> 2025 06 15 12 38 15.0000000  0 21
C12  22561216.266 7  22561213.316 8 117482172.195 7  90844908.942 8
C19  22954797.758 7                 119531656.049 7
C21  25404243.180 6                 132286562.187 6
C22  21624874.133 7                 112606389.496 7
E05  23240399.305 8  23240402.574 8 122129125.211 8  92389901.868 8
E06  25608592.906 6  25608595.355 7 134574078.700 6 101804415.169 7
E09  24594775.164 8  24594777.520 8 129246412.124 8  97774081.125 8
E34  23513965.609 8  23513968.098 9 123566722.465 8  93477433.513 9
E36  24255041.414 8  24255044.125 8 127461098.212 8  96423505.245 8
G01  20177633.266 8                  20177637.551 8 106034174.487 8                  82624051.489 8
G02  20801432.625 8  20801433.602 6                 109312262.274 8  85178392.443 6
G03  20906965.797 7                  20906972.926 7 109866844.427 7                  85610560.918 7
G08  23427564.898 7                  23427574.887 7 123112703.673 7                  95931817.990 7
G17  23082686.125 5                  23082693.988 6 121300334.357 5                  94519766.920 6
G32  22540237.438 6                  22540245.141 6 118449746.077 6                  92298480.548 6
R02  20038417.336 8  20038421.129 7 106928829.600 8  83166820.290 7
R03  19550745.023 8  19550750.566 7 104656669.781 8  81399663.141 7
R04  22995566.422 6  22995568.430 5 123140208.041 6  95775727.835 5
R17  20345945.172 8  20345950.930 7 108875263.303 8  84680679.025 7
R18  19061340.055 8  19061344.105 7 101750728.680 8  79139640.297 7
R19  21967653.242 6  21967657.625 6 117512127.965 6  91398765.175 6
> 2025 06 15 12 38 20.0000000  0 21
C12  22558188.344 7  22558185.434 8 117466405.867 7  90832717.424 8
C19  22955346.023 7                 119534509.478 7
C21  25399766.805 6                 132263245.262 6
C22  21622342.539 7                 112593204.318 7
E05  23236793.750 8  23236796.645 8 122110175.822 8  92375566.786 8
E06  25608852.352 6  25608855.391 7 134575444.196 6 101805448.172 7
E09  24593862.031 8  24593864.469 9 129241613.822 8  97770451.238 9
E34  23511638.773 8  23511641.352 9 123554495.459 8  93468183.860 9
E36  24255144.438 8  24255147.477 8 127461641.332 8  96423916.117 8
G01  20175390.164 7                  20175394.121 8 106022386.317 7                  82614865.903 8
G02  20801033.852 8  20801034.820 6                 109310166.715 8  85176759.529 6
G03  20903471.164 7                  20903478.254 7 109848480.039 7                  85596251.011 7
G08  23429623.156 7                  23429633.285 7 123123519.572 7                  95940245.931 7
G17  23079208.461 5                  23079215.613 6 121282051.844 5                  94505520.801 6
G32  22540887.125 5                  22540896.242 7 118453166.224 5                  92301145.592 7
R02  20039271.219 8  20039275.008 7 106933385.757 8  83170363.972 7
R03  19547520.383 8  19547525.988 8 104639406.556 8  81386236.194 8
R04  22990197.945 5  22990204.137 5 123111477.073 5  95753381.570 5
R17  20347267.109 8  20347273.332 7 108882340.412 8  84686183.428 7
R18  19059312.820 8  19059317.145 7 101739906.365 8  79131222.917 7
R19  21962735.914 7  21962739.477 7 117485815.628 7  91378300.018 7
> 2025 06 15 12 38 25.0000000  0 21
C12  22555163.055 7  22555159.750 8 117450651.399 7  90820535.070 8
C19  22955895.758 7                 119537373.112 7
C21  25395290.234 6                 132239934.140 6
C22  21619812.898 7                 112580032.421 7
E05  23233189.391 8  23233192.672 8 122091236.326 8  92361239.194 8
E06  25609115.016 6  25609117.492 7 134576820.726 6 101806489.525 7
E09  24592952.172 8  24592953.949 8 129236829.074 8  97766831.605 8
E34  23509313.500 8  23509316.164 8 123542276.388 8  93458940.217 8
E36  24255249.406 8  24255252.359 8 127462192.364 8  96424332.964 8
G01  20173148.641 7                  20173153.355 8 106010611.219 7                  82605690.516 8
G02  20800637.031 7  20800638.316 6                 109308083.352 7  85175136.129 6
G03  20899978.539 8                  20899985.859 7 109830126.909 8                  85581949.874 7
G08  23431682.398 7                  23431692.559 7 123134340.813 7                  95948678.051 7
G17  23075732.789 6                  23075739.371 6 121263782.077 6                  94491284.619 6
G32  22541541.930 6                  22541549.965 7 118456599.836 6                  92303821.104 7
R02  20040128.117 8  20040131.688 7 106937958.734 8  83173920.740 7
R03  19544299.555 8  19544304.332 8 104622162.938 8  81372824.496 8
R04  22984837.117 6  22984840.184 5 123082753.040 6  95731040.681 5
R17  20348594.344 8  20348599.527 7 108889433.219 8  84691700.011 7
R18  19057289.281 8  19057293.465 7 101729103.477 8  79122820.679 7
R19  21957817.172 7  21957822.188 7 117459510.359 7  91357840.370 7
> 2025 06 15 12 38 30.0000000  0 21
C12  22552139.930 7  22552136.711 8 117434908.316 7  90808361.529 8
C19  22956446.938 7                 119540246.422 7
C21  25390813.609 6                 132216628.163 6
C22  21617285.250 8                 112566873.380 8
E05  23229586.719 7  23229590.406 8 122072306.248 7  92346918.727 8
E06  25609378.484 6  25609381.613 7 134578207.843 6 101807538.877 7
E09  24592044.063 8  24592045.930 8 129232057.383 8  97763221.852 8
E34  23506989.898 8  23506992.352 9 123530064.786 8  93449702.220 9
E36  24255355.977 8  24255358.676 8 127462750.788 8  96424755.411 8
G01  20170910.719 7                  20170915.137 8 105998848.687 7                  82596524.912 8
G02  20800242.711 7  20800244.242 6                 109306011.670 7  85173521.826 6
G03  20896488.820 8                  20896495.094 7 109811784.575 8                  85567657.155 7
G08  23433742.070 6                  23433752.797 6 123145166.909 6                  95957113.950 6
G17  23072258.148 6                  23072264.715 6 121245524.767 6                  94477058.142 6
G32  22542195.242 5                  22542205.906 6 118460046.425 5                  92306506.725 6
R02  20040987.742 8  20040992.305 7 106942548.100 8  83177490.231 7
R03  19541081.945 8  19541087.488 8 104604938.553 8  81359427.762 8
R04  22979478.086 6  22979477.031 5 123054035.694 6  95708704.998 5
R17  20349922.648 8  20349927.086 7 108896541.121 8  84697228.353 7
R18  19055268.805 8  19055273.309 7 101718319.622 8  79114433.242 7
R19  21952899.992 7  21952905.109 7 117433211.687 7  91337385.860 7
> 2025 06 15 12 38 35.0000000  0 21
C12  22549119.406 7  22549115.480 8 117419177.339 7  90796197.346 8
C19  22957001.234 7                 119543130.038 7
C21  25386339.383 6                 132193328.144 6
C22  21614760.578 7                 112553727.736 7
E05  23225986.039 8  23225990.074 8 122053386.228 8  92332605.873 8
E06  25609644.086 6  25609647.895 7 134579606.230 6 101808596.728 7
E09  24591138.367 8  24591140.547 8 129227299.396 8  97759622.473 8
E34  23504667.719 8  23504670.094 9 123517861.269 8  93440470.343 9
E36  24255464.000 8  24255466.512 8 127463317.254 8  96425183.937 8
G01  20168675.281 7                  20168679.547 8 105987099.394 7                  82587369.605 8
G02  20799851.000 7  20799852.250 6                 109303952.274 7  85171917.089 6
G03  20893000.289 8                  20893007.176 7 109793453.685 8                  85553373.341 7
G08  23435804.172 7                  23435813.699 7 123155998.480 7                  95965554.125 7
G17  23068786.180 6                  23068792.578 6 121227280.382 6                  94462841.700 6
G32  22542856.258 5                  22542863.871 6 118463506.669 5                  92309202.988 6
R02  20041850.867 8  20041855.941 7 106947154.481 8  83181072.961 7
R03  19537867.648 8  19537872.887 8 104587734.068 8  81346046.500 8
R04  22974110.352 5  22974115.152 5 123025325.719 5  95686375.043 5
R17  20351252.797 8  20351258.379 7 108903664.692 8  84702768.905 7
R18  19053252.703 8  19053256.684 7 101707555.418 8  79106061.075 7
R19  21947986.039 7  21947990.762 7 117406920.125 7  91316936.890 7
> 2025 06 15 12 38 40.0000000  0 21
C12  22546099.586 7  22546096.316 8 117403457.385 7  90784041.672 8
C19  22957557.070 7                 119546022.948 7
C21  25381865.758 6                 132170032.979 6
C22  21612238.797 7                 112540594.552 7
E05  23222387.516 8  23222391.422 8 122034475.279 8  92318299.870 8
E06  25609911.703 6  25609915.945 7 134581014.813 6 101809662.274 7
E09  24590235.438 8  24590237.598 9 129222554.096 8  97756032.679 9
E34  23502346.805 8  23502349.188 8 123505664.848 8  93431243.835 8
E36  24255572.969 8  24255575.695 8 127463890.795 8  96425617.809 8
G01  20166441.219 7                  20166445.605 8 105975362.316 7                  82578223.842 8
G02  20799461.414 7  20799462.418 6                 109301904.152 7  85170321.167 6
G03  20889513.797 8                  20889520.797 7 109775133.203 8                  85539097.640 7
G08  23437866.016 6                  23437875.957 6 123166834.519 6                  95973997.786 6
G17  23065316.672 6                  23065323.211 5 121209047.902 6                  94448634.643 5
G32  22543517.375 6                  22543524.926 6 118466979.433 6                  92311909.082 6
R02  20042715.945 8  20042721.953 7 106951776.806 8  83184668.103 7
R03  19534657.492 8  19534662.711 7 104570548.291 8  81332679.775 7
R04  22968751.883 5  22968754.918 4 122996622.083 5  95664049.987 4
R17  20352587.570 8  20352592.254 7 108910803.007 8  84708320.924 7
R18  19051239.844 8  19051243.340 7 101696809.782 8  79097703.367 7
R19  21943073.570 7  21943077.246 7 117380634.797 7  91296492.767 7
> 2025 06 15 12 38 45.0000000  0 21
C12  22543083.563 7  22543079.480 7 117387748.722 7  90771894.747 7
C19  22958114.422 7                 119548925.368 7
C21  25377393.289 6                 132146742.894 6
C22  21609719.156 7                 112527474.030 7
E05  23218791.047 8  23218794.484 8 122015573.603 8  92304000.875 8
E06  25610182.602 6  25610185.953 7 134582433.781 6 101810735.670 7
E09  24589335.094 8  24589337.074 8 129217821.691 8  97752452.646 8
E34  23500026.883 8  23500029.625 9 123493475.739 8  93422022.846 9
E36  24255683.203 8  24255686.250 8 127464471.563 8  96426057.157 8
G01  20164210.391 7                  20164214.715 8 105963637.713 7                  82569087.794 8
G02  20799073.508 7  20799074.781 6                 109299867.586 7  85168734.222 6
G03  20886029.625 8                  20886036.793 7 109756823.354 8                  85524830.253 7
G08  23439929.039 6                  23439939.027 6 123177675.262 6                  95982445.062 6
G17  23061849.688 6                  23061855.992 6 121190827.646 6                  94434437.058 6
G32  22544180.852 6                  22544187.871 6 118470465.004 6                  92314625.158 6
R02  20043587.289 8  20043591.328 7 106956415.283 8  83188275.790 7
R03  19531449.961 8  19531455.609 7 104553381.846 8  81319328.107 7
R04  22963399.844 5  22963396.344 5 122967924.921 5  95641729.977 5
R17  20353923.516 8  20353929.352 7 108917956.372 8  84713884.640 7
R18  19049229.484 8  19049234.211 7 101686083.040 8  79089360.344 7
R19  21938160.898 7  21938164.047 7 117354355.851 7  91276053.571 7
> 2025 06 15 12 38 50.0000000  0 21
C12  22540068.578 7  22540065.301 8 117372051.256 7  90759756.479 8
C19  22958673.555 7                 119551837.187 7
C21  25372921.641 5                 132123457.861 5
C22  21607201.547 8                 112514366.100 8
E05  23215195.859 8  23215199.352 8 121996681.146 8  92289708.853 8
E06  25610454.617 6  25610457.848 7 134583863.022 6 101811816.871 7
E09  24588437.328 8  24588438.969 9 129213102.110 8  97748882.313 9
E34  23497708.906 8  23497711.500 9 123481293.864 8  93412807.340 9
E36  24255794.773 8  24255798.188 8 127465059.516 8  96426501.937 8
G01  20161981.898 7                  20161986.258 8 105951925.454 7                  82559961.372 8
G02  20798687.852 7  20798689.605 6                 109297842.427 7  85167156.181 6
G03  20882547.547 8                  20882554.715 7 109738524.077 8                  85510571.070 7
G08  23441992.813 7                  23442002.762 6 123188520.571 7                  95990895.935 6
G17  23058386.688 6                  23058390.418 6 121172619.644 6                  94420248.946 6
G32  22544846.672 6                  22544853.656 6 118473963.315 6                  92317351.100 6
R02  20044458.461 8  20044463.434 7 106961069.719 8  83191895.928 7
R03  19528246.641 8  19528252.305 8 104536234.199 8  81305991.036 8
R04  22958044.570 6  22958039.047 5 122939234.178 6  95619415.030 5
R17  20355263.914 8  20355268.773 7 108925124.594 8  84719459.896 7
R18  19047223.992 8  19047227.719 7 101675375.076 8  79081031.945 7
R19  21933248.727 7  21933252.207 7 117328083.348 7  91255619.449 7
> 2025 06 15 12 38 55.0000000  0 21
C12  22537056.063 7  22537053.305 7 117356364.574 7  90747626.549 7
C19  22959234.844 7                 119554757.974 7
C21  25368451.961 6                 132100177.429 6
C22  21604686.570 8                 112501270.299 8
E05  23211602.539 8  23211605.879 8 121977797.440 8  92275423.469 8
E06  25610728.406 6  25610731.742 7 134585302.157 6 101812905.547 7
E09  24587541.664 8  24587543.176 9 129208394.892 8  97745321.334 9
E34  23495392.352 8  23495394.637 9 123469118.791 8  93403596.975 9
E36  24255908.281 8  24255911.371 8 127465654.187 8  96426951.809 8
G01  20159755.039 8                  20159759.504 8 105940225.156 8                  82550844.257 8
G02  20798305.609 7  20798306.148 6                 109295828.271 7  85165586.700 6
G03  20879067.273 8                  20879074.543 7 109720234.940 8                  85496319.793 7
G08  23444057.289 7                  23444067.313 6 123199369.987 7                  95999349.983 6
G17  23054923.875 6                  23054927.949 6 121154423.306 6                  94406069.983 6
G32  22545514.836 7                  22545522.121 6 118477473.868 7                  92320086.602 6
R02  20045333.492 8  20045338.516 7 106965739.646 8  83195528.077 7
R03  19525047.375 8  19525052.707 8 104519105.145 8  81292668.463 8
R04  22952685.539 5  22952682.605 5 122910549.352 5  95597104.656 5
R17  20356605.641 8  20356611.090 7 108932307.129 8  84725046.300 7
R18  19045221.016 8  19045225.316 7 101664685.455 8  79072717.791 7
R19  21928338.617 7  21928342.207 7 117301816.860 7  91235189.920 7
> 2025 06 15 12 39  0.0000000  0 21
C12  22534046.281 7  22534043.277 7 117340689.799 7  90735505.828 7
C19  22959797.453 7                 119557688.852 7
C21  25363980.875 6                 132076902.669 6
C22  21602174.242 8                 112488187.754 8
E05  23208011.852 8  23208014.324 8 121958923.634 8  92261145.570 8
E06  25611004.359 5  25611007.691 7 134586752.262 5 101814002.528 7
E09  24586648.438 8  24586649.957 8 129203701.130 8  97741770.547 8
E34  23493076.914 8  23493079.277 9 123456951.612 8  93394392.585 9
E36  24256023.023 8  24256026.066 8 127466256.706 8  96427407.607 8
G01  20157530.641 7                  20157535.238 8 105928537.888 7                  82541737.282 8
G02  20797923.875 7  20797925.465 6                 109293826.231 7  85164026.668 6
G03  20875588.695 8                  20875596.340 7 109701957.031 8                  85482077.262 7
G08  23446123.625 7                  23446132.938 7 123210224.641 7                  96007808.144 7
G17  23051462.016 6                  23051467.820 6 121136239.649 6                  94391900.991 6
G32  22546186.539 7                  22546192.648 6 118480997.759 7                  92322832.517 6
R02  20046212.484 8  20046216.559 7 106970426.389 8  83199173.309 7
R03  19521850.781 8  19521856.777 8 104501995.737 8  81279361.158 8
R04  22947324.969 5  22947325.645 4 122881871.962 5  95574799.952 4
R17  20357951.594 8  20357956.086 7 108939505.152 8  84730644.759 7
R18  19043222.625 8  19043226.176 7 101654015.305 8  79064418.785 7
R19  21923430.992 7  21923433.125 7 117275557.325 7  91214765.843 7
> 2025 06 15 12 39  5.0000000  0 21
C12  22531038.273 7  22531035.281 7 117325028.171 7  90723395.248 7
C19  22960362.586 7                 119560631.047 7
C21  25359511.656 5                 132053634.947 5
C22  21599665.016 8                 112475119.737 8
E05  23204421.844 8  23204424.887 8 121940060.980 8  92246876.106 8
E06  25611282.813 5  25611285.875 7 134588214.595 5 101815108.753 7
E09  24585758.242 8  24585759.586 9 129199022.153 8  97738230.940 9
E34  23490762.961 8  23490765.703 9 123444793.638 8  93385195.154 9
E36  24256139.297 8  24256142.523 8 127466868.353 8  96427870.310 8
G01  20155309.852 7                  20155314.059 8 105916864.955 7                  82532641.491 8
G02  20797545.391 7  20797546.730 6                 109291837.571 7  85162477.065 6
G03  20872112.969 7                  20872120.477 7 109683691.654 7                  85467844.513 7
G08  23448189.852 6                  23448199.754 6 123221085.761 6                  96016271.330 6
G17  23048004.508 6                  23048010.023 5 121118070.104 6                  94377742.947 5
G32  22546858.445 7                  22546865.848 6 118484536.298 7                  92325589.793 6
R02  20047094.922 8  20047098.223 7 106975131.051 8  83202832.511 7
R03  19518659.320 8  19518664.453 8 104484907.280 8  81266070.116 8
R04  22941968.438 5  22941972.828 5 122853202.887 5  95552501.831 5
R17  20359299.797 8  20359304.637 7 108946719.956 8  84736256.277 7
R18  19041228.172 8  19041230.785 7 101643365.957 8  79056135.955 7
R19  21918523.977 7  21918525.895 7 117249306.209 7  91194348.311 7
> 2025 06 15 12 39 10.0000000  0 21
C12  22528033.406 7  22528030.031 7 117309378.113 7  90711293.650 7
C19  22960929.234 7                 119563582.961 7
C21  25355044.898 6                 132030372.532 6
C22  21597157.953 7                 112462064.610 7
E05  23200833.828 8  23200837.281 8 121921207.891 8  92232613.879 8
E06  25611562.016 5  25611565.945 7 134589687.556 5 101816223.005 7
E09  24584869.781 8  24584871.699 9 129194356.290 8  97734701.251 9
E34  23488451.195 8  23488453.551 9 123432643.249 8  93376003.466 9
E36  24256256.922 8  24256260.355 8 127467487.498 8  96428338.685 8
G01  20153091.133 7                  20153095.012 8 105905204.738 7                  82523555.614 8
G02  20797168.867 7  20797170.645 6                 109289860.662 7  85160936.619 6
G03  20868639.273 7                  20868646.504 7 109665437.141 7                  85453620.229 7
G08  23450257.406 6                  23450267.625 7 123231951.754 6                  96024738.330 7
G17  23044548.180 6                  23044554.199 5 121099913.002 6                  94363594.563 5
G32  22547534.820 7                  22547540.641 6 118488087.823 7                  92328357.174 6
R02  20047978.867 8  20047982.762 7 106979851.828 8  83206504.200 7
R03  19515470.445 8  19515475.465 7 104467838.273 8  81252794.222 7
R04  22936612.258 5  22936619.008 5 122824540.663 5  95530209.149 5
R17  20360650.680 8  20360655.609 7 108953949.936 8  84741879.568 7
R18  19039235.578 8  19039239.695 7 101632735.752 8  79047868.016 7
R19  21913615.156 7  21913619.195 7 117223061.801 7  91173935.987 7
> 2025 06 15 12 39 15.0000000  0 20
C12  22525030.773 7  22525026.559 7 117293739.200 7  90699200.637 7
C19  22961497.906 7                 119566544.185 7
C21  25350577.797 6                 132007115.156 6
C22  21594653.211 7                 112449022.004 7
E05  23197248.461 8  23197251.422 8 121902363.983 8  92218358.599 8
E06  25611843.516 5  25611848.031 7 134591170.65815 101817345.02517
E09  24583984.320 8  24583986.258 9 129189703.179 8  97731181.198 9
E34  23486140.469 8  23486142.758 9 123420500.026 8  93366817.203 9
E36  24256375.898 8  24256379.590 8 127468113.767 8  96428812.447 8
G01  20150874.109 8                  20150878.563 8 105893556.869 8                  82514479.358 8
G02  20796795.523 7  20796796.664 6                 109287895.130 7  85159405.019 6
G03  20865167.570 7                  20865174.898 7 109647193.185 7                  85439404.170 7
G08  23452326.133 7                  23452336.152 7 123242822.202 7                  96033208.784 7
G17  23041096.125 6                  23041101.445 5 121081768.091 6                  94349455.680 5
G32  22548211.977 7                  22548218.859 6 118491651.937 7                  92331134.376 6
R02  20048866.406 8  20048870.707 7 106984588.637 8  83210188.404 7
R03  19512285.781 8  19512290.898 8 104450788.074 8  81239532.973 8
R17  20362003.477 8  20362009.492 7 108961194.645 8  84747514.371 7
R18  19037248.719 8  19037252.035 7 101622124.296 8  79039614.674 7
R19  21908713.484 7  21908714.406 6 117196823.907 7  91153528.777 6
> 2025 06 15 12 39 20.0000000  0 20
C12  22522028.023 7  22522025.629 7 117278112.180 7  90687116.826 7
C19  22962068.820 7                 119569515.396 7
C21  25346111.891 6                 131983863.467 6
C22  21592150.820 7                 112435992.618 7
E05  23193664.078 8  23193667.414 8 121883529.934 8  92204110.773 8
E06  25612126.508 5  25612132.211 7 134592664.74315 101818475.29117
E09  24583101.500 8  24583103.379 9 129185063.493 8  97727671.297 9
E34  23483830.859 8  23483833.527 9 123408364.694 8  93357636.901 9
E36  24256496.484 8  24256500.230 8 127468747.803 8  96429292.088 8
G01  20148660.039 7                  20148664.809 8 105881921.994 7                  82505413.220 8
G02  20796423.563 7  20796425.074 6                 109285941.630 7  85157882.819 6
G03  20861697.352 7                  20861705.469 7 109628960.403 7                  85425196.828 7
G08  23454395.930 7                  23454406.176 7 123253697.785 7                  96041683.246 7
G17  23037645.727 6                  23037650.324 5 121063635.960 6                  94335326.785 5
G32  22548893.789 7                  22548899.590 6 118495229.320 7                  92333921.944 6
R02  20049756.297 8  20049761.172 7 106989342.033 8  83213885.493 7
R03  19509103.766 8  19509109.254 8 104433757.584 8  81226287.055 8
R17  20363360.656 8  20363365.637 7 108968454.718 8  84753161.049 7
R18  19035264.336 8  19035267.559 7 101611532.313 8  79031376.466 7
R19  21903809.609 7  21903810.453 7 117170592.919 7  91133126.893 7
> 2025 06 15 12 39 25.0000000  0 20
C12  22519029.930 7  22519026.785 8 117262497.396 7  90675042.485 8
C19  22962641.477 7                 119572496.928 7
C21  25341648.758 5                 131960617.738 5
C22  21589651.250 7                 112422976.787 7
E05  23190082.250 7  23190085.355 8 121864706.104 7  92189870.677 8
E06  25612414.906 5  25612418.539 7 134594170.04715 101819614.06917
E09  24582221.094 8  24582223.125 9 129180437.576 8  97724171.819 9
E34  23481523.688 8  23481525.793 8 123396237.608 8  93348462.836 8
E36  24256618.672 8  24256622.422 8 127469390.011 8  96429777.905 8
G01  20146448.805 7                  20146453.156 8 105870300.543 7                  82496357.533 8
G02  20796054.156 7  20796055.813 6                 109284000.565 7  85156370.299 6
G03  20858230.641 7                  20858237.934 7 109610739.224 7                  85410998.494 7
G08  23456466.734 7                  23456476.473 7 123264578.809 7                  96050161.955 7
G17  23034197.578 6                  23034202.473 5 121045516.976 6                  94321208.133 5
G32  22549577.219 7                  22549583.152 6 118498820.278 7                  92336720.075 6
R02  20050650.984 8  20050655.340 7 106994112.140 8  83217595.574 7
R03  19505927.102 8  19505931.238 8 104416747.236 8  81213056.784 8
R17  20364719.875 8  20364725.602 7 108975730.652 8  84758820.088 7
R18  19033283.844 8  19033286.930 7 101600960.207 8  79023153.714 7
R19  21898907.266 7  21898909.027 7 117144369.431 7  91112730.856 7
> 2025 06 15 12 39 30.0000000  0 20
C12  22516034.391 7  22516030.277 8 117246893.614 7  90662976.658 8
C19  22963216.078 7                 119575487.584 7
C21  25337185.672 6                 131937376.952 6
C22  21587153.789 8                 112409973.346 8
E05  23186501.867 8  23186504.988 8 121845891.326 8  92175637.427 8
E06  25612704.781 4  25612706.746 7 134595685.33614 101820760.36317
E09  24581343.250 8  24581345.238 8 129175824.210 8  97720681.837 8
E34  23479217.234 8  23479219.438 8 123384117.561 8  93339294.104 8
E36  24256742.508 8  24256745.930 8 127470039.152 8  96430268.972 8
G01  20144239.477 7                  20144244.137 8 105858691.261 7                  82487311.342 8
G02  20795687.180 7  20795688.508 6                 109282070.721 7  85154866.518 6
G03  20854765.148 7                  20854772.258 7 109592528.415 7                  85396808.273 7
G08  23458537.211 7                  23458547.512 7 123275464.089 7                  96058643.977 7
G17  23030752.313 6                  23030756.988 5 121027409.900 6                  94307098.833 5
G32  22550263.055 7                  22550268.871 6 118502423.658 7                  92339527.857 6
R02  20051548.219 8  20051552.285 7 106998898.184 8  83221317.994 7
R03  19502751.539 8  19502757.148 7 104399755.667 8  81199841.122 7
R17  20366082.500 8  20366088.141 7 108983021.146 8  84764490.481 7
R18  19031306.586 8  19031310.414 7 101590406.682 8  79014945.403 7
R19  21894004.656 7  21894007.789 6 117118152.220 7  91092339.706 6
> 2025 06 15 12 39 35.0000000  0 21
C12  22513039.828 7  22513035.609 8 117231301.522 7  90650919.868 8
C19  22963791.914 7                 119578487.989 7
C21  25332722.727 6                 131914141.568 6
C22  21584659.430 7                 112396982.848 7
E05  23182922.961 8  23182926.492 8 121827086.189 8  92161411.467 8
E06  25612993.492 4  25612997.035 7 134597211.36014 101821914.78117
E09  24580467.719 8  24580469.898 8 129171224.027 8  97717201.827 8
E34  23476912.531 8  23476914.543 8 123372005.163 8  93330131.147 8
E36  24256867.617 8  24256870.871 8 127470695.860 8  96430765.756 8
G01  20142032.539 7                  20142036.957 8 105847094.785 7                  82478275.123 8
G02  20795321.969 7  20795323.598 6                 109280152.663 7  85153371.923 6
G03  20851302.063 8                  20851309.566 7 109574328.573 8                  85382626.585 7
G08  23460610.500 7                  23460619.867 7 123286354.266 7                  96067129.808 7
G17  23027308.461 6                  23027314.895 5 121009315.616 6                  94292999.342 5
G32  22550950.523 7                  22550957.945 6 118506040.032 7                  92342345.816 6
R02  20052448.266 8  20052451.832 7 107003700.327 8  83225052.989 7
R03  19499581.117 8  19499586.957 8 104382783.543 8  81186640.596 8
R04  22909870.844 5  22909876.156 4 122681332.65015  95418825.33714
R17  20367448.477 8  20367453.199 7 108990326.793 8  84770172.677 7
R18  19029333.117 8  19029337.129 7 101579872.363 8  79006752.047 7
R19  21889105.531 7  21889107.785 6 117091941.868 7  91071953.900 6
> 2025 06 15 12 39 40.0000000  0 20
C12  22510047.547 7  22510043.840 8 117215721.151 7  90638872.134 8
C19  22964370.031 7                 119581498.139 7
C21  25328262.352 6                 131890911.691 6
C22  21582167.641 7                 112384005.349 7
E05  23179346.805 8  23179349.816 8 121808290.753 8  92147192.851 8
E09  24579594.633 8  24579597.000 8 129166637.051 8  97713731.802 8
E34  23474608.664 8  23474611.125 9 123359900.448 8  93320974.022 9
E36  24256993.898 8  24256997.238 8 127471360.153 8  96431268.289 8
G01  20139828.492 7                  20139832.969 8 105835511.141 7                  82469248.898 8
G02  20794959.297 7  20794960.859 6                 109278246.460 7  85151886.582 6
G03  20847840.508 8                  20847848.141 7 109556139.773 8                  85368453.493 7
G08  23462683.750 7                  23462693.113 7 123297249.320 7                  96075619.440 7
G17  23023868.266 6                  23023872.988 5 120991233.814 6                  94278909.596 5
G32  22551641.281 7                  22551648.723 6 118509669.458 7                  92345173.911 6
R02  20053351.727 8  20053354.934 7 107008518.737 8  83228800.676 7
R03  19496414.633 8  19496420.066 8 104365830.834 8  81173455.160 8
R04  22904526.000 5  22904530.035 4 122652711.803 5  95396564.770 4
R17  20368816.180 8  20368821.352 7 108997647.610 8  84775866.614 7
R18  19027363.313 8  19027367.363 7 101569357.350 8  78998573.702 7
R19  21884206.219 7  21884209.527 7 117065738.394 7  91051573.438 7
> 2025 06 15 12 39 45.0000000  0 20
C12  22507057.430 7  22507053.906 8 117200151.980 7  90626833.071 8
C19  22964950.289 7                 119584517.564 7
C21  25323802.617 6                 131867686.860 6
C22  21579677.422 7                 112371040.404 7
E05  23175771.539 7  23175774.852 8 121789504.508 7  92132981.192 8
E09  24578724.430 8  24578726.520 8 129162062.767 8  97710271.395 8
E34  23472306.445 8  23472309.074 9 123347802.961 8  93311822.346 9
E36  24257122.008 8  24257124.992 8 127472031.550 8  96431776.193 8
G01  20137626.281 7                  20137631.129 8 105823939.855 7                  82460232.336 8
G02  20794599.102 7  20794600.320 6                 109276351.678 7  85150410.114 6
G03  20844381.852 7                  20844388.699 7 109537961.502 7                  85354288.567 7
G08  23464758.680 7                  23464767.414 7 123308148.747 7                  96084112.473 7
G17  23020429.094 5                  23020434.133 6 120973164.228 5                  94264829.392 6
G32  22552334.438 7                  22552342.027 6 118513311.396 7                  92348011.776 6
R02  20054256.789 8  20054261.410 7 107013353.112 8  83232560.750 7
R03  19493251.484 8  19493256.617 7 104348897.276 8  81160284.626 7
R04  22899182.570 5  22899186.844 5 122624097.563 5  95374309.153 5
R17  20370187.563 8  20370192.176 7 109004983.127 8  84781572.018 7
R18  19025397.125 8  19025400.832 7 101558861.146 8  78990410.016 7
R19  21879309.836 7  21879312.434 7 117039541.490 7  91031198.114 7
> 2025 06 15 12 39 50.0000000  0 20
C12  22504070.273 7  22504066.203 8 117184594.581 7  90614803.092 8
C19  22965532.016 7                 119587546.764 7
C21  25319344.086 6                 131844467.583 6
C22  21577190.227 7                 112358088.507 7
E05  23172198.977 7  23172201.766 8 121770728.016 7  92118776.915 8
E09  24577856.133 8  24577858.563 8 129157501.749 8  97706821.005 8
E34  23470005.789 8  23470008.453 9 123335713.204 8  93302676.530 9
E36  24257251.000 8  24257254.203 8 127472710.583 8  96432289.872 8
G01  20135427.250 7                  20135431.441 8 105812381.475 7                  82451225.816 8
G02  20794240.438 7  20794241.992 6                 109274468.787 7  85148942.923 6
G03  20840924.164 8                  20840931.828 7 109519794.302 8                  85340132.329 7
G08  23466832.500 7                  23466842.852 7 123319053.051 7                  96092609.313 7
G17  23016993.039 5                  23016998.520 6 120955107.297 5                  94250759.098 6
G32  22553030.500 7                  22553038.297 6 118516966.397 7                  92350859.849 6
R02  20055165.352 8  20055170.672 7 107018203.596 8  83236333.333 7
R03  19490091.164 8  19490096.660 8 104331982.987 8  81147129.071 8
R04  22893845.070 5  22893846.133 5 122595490.411 5  95352059.276 5
R17  20371560.211 8  20371565.898 7 109012333.746 8  84787289.171 7
R18  19023434.867 8  19023438.109 7 101548384.319 8  78982261.359 7
R19  21874411.273 7  21874416.945 7 117013351.616 7  91010828.172 7
> 2025 06 15 12 39 55.0000000  0 20
C12  22501085.227 7  22501080.598 8 117169048.768 7  90602782.085 8
C19  22966115.477 7                 119590585.521 7
C21  25314885.477 6                 131821253.639 6
C22  21574705.195 7                 112345149.452 7
E05  23168626.906 8  23168630.527 8 121751961.031 8  92104579.832 8
E09  24576990.828 8  24576993.105 8 129152953.742 8  97703380.465 8
E34  23467706.781 8  23467709.242 9 123323630.965 8  93293536.390 9
E36  24257381.641 8  24257384.789 8 127473397.048 8  96432809.169 8
G01  20133229.461 7                  20133234.551 8 105800835.784 7                  82442229.155 8
G02  20793884.344 7  20793886.051 6                 109272597.534 7  85147484.799 6
G03  20837469.273 7                  20837476.910 7 109501637.949 7                  85325984.540 7
G08  23468909.195 7                  23468918.547 7 123329962.042 7                  96101109.797 7
G17  23013559.602 6                  23013564.980 5 120937062.945 6                  94236698.563 5
G32  22553727.133 7                  22553735.820 6 118520634.201 7                  92353717.862 6
R02  20056077.461 8  20056082.020 7 107023070.271 8  83240118.504 7
R03  19486935.008 8  19486940.000 8 104315088.058 8  81133988.579 8
R04  22888501.750 5  22888507.016 5 122566890.063 5  95329814.632 5
R17  20372936.680 8  20372942.152 7 109019699.528 8  84793018.075 7
R18  19021476.016 8  19021479.344 7 101537926.587 8  78974127.559 7
R19  21869517.414 7  21869521.922 6 116987168.531 7  90990463.552 6
> 2025 06 15 12 40  0.0000000  0 20
C12  22498102.555 7  22498097.617 8 117153514.981 7  90590770.398 8
C19  22966701.000 7                 119593634.369 7
C21  25310428.977 6                 131798045.592 6
C22  21572223.070 8                 112332223.745 8
E05  23165057.648 7  23165061.246 8 121733204.134 7  92090390.366 8
E09  24576127.477 8  24576130.180 8 129148419.288 8  97699950.177 8
E34  23465409.070 8  23465411.617 8 123311556.801 8  93284402.358 8
E36  24257514.141 8  24257516.926 8 127474091.426 8  96433334.459 8
G01  20131035.313 7                  20131039.887 8 105789303.293 7                  82433242.813 8
G02  20793530.641 7  20793532.328 6                 109270738.537 7  85146036.227 6
G03  20834016.414 7                  20834023.648 7 109483492.959 7                  85311845.587 7
G08  23470985.531 7                  23470995.371 7 123340876.184 7                  96109614.317 7
G17  23010126.258 5                  23010133.660 5 120919031.524 5                  94222648.106 5
G32  22554427.961 7                  22554436.305 6 118524315.334 7                  92356586.303 6
R02  20056992.914 8  20056997.637 7 107027953.619 8  83243916.657 7
R03  19483781.641 8  19483787.582 8 104298212.906 8  81120863.481 8
R04  22883158.492 5  22883166.074 5 122538297.063 5  95307575.832 5
R17  20374316.211 8  20374321.898 7 109027080.783 8  84798759.039 7
R18  19019520.484 8  19019523.797 7 101527488.593 8  78966009.105 7
R19  21864623.688 7  21864628.418 7 116960992.910 7  90970104.728 7
> 2025 06 15 12 40  5.0000000  0 20
C12  22495120.008 7  22495116.840 8 117137991.595 7  90578766.729 8
C19  22967288.063 7                 119596691.524 7
C21  25305972.398 6                 131774841.688 6
C22  21569742.844 7                 112319309.688 7
E05  23161490.367 7  23161493.484 8 121714455.569 7  92076207.215 8
E09  24575266.711 7  24575269.574 8 129143896.618 7  97696528.808 8
E34  23463112.672 8  23463115.172 9 123299488.941 8  93275273.107 9
E36  24257647.367 8  24257650.234 8 127474792.010 8  96433864.443 8
G01  20128842.813 7                  20128847.207 8 105777782.307 7                  82424265.433 8
G02  20793178.711 7  20793180.379 6                 109268890.009 7  85144595.813 6
G03  20830565.367 7                  20830572.738 7 109465357.655 7                  85297714.182 7
G08  23473062.656 7                  23473072.863 7 123351793.794 7                  96118121.519 7
G17  23006695.070 5                  23006704.133 6 120901011.602 5                  94208606.597 6
G32  22555130.297 7                  22555139.031 6 118528008.082 7                  92359463.765 6
R02  20057911.766 8  20057915.035 7 107032851.503 8  83247726.122 7
R03  19480634.898 8  19480638.953 8 104281356.058 8  81107752.582 8
R04  22877819.930 5  22877828.715 6 122509709.806 5  95285341.231 6
R17  20375698.828 8  20375703.891 7 109034475.645 8  84804510.600 7
R18  19017567.875 8  19017572.184 7 101517068.530 8  78957904.619 7
R19  21859732.328 7  21859736.684 7 116934822.851 7  90949750.266 7
> 2025 06 15 12 40 10.0000000  0 20
C12  22492141.422 7  22492137.828 8 117122479.990 7  90566772.175 8
C19  22967877.180 7                 119599758.446 7
C21  25301518.211 6                 131751643.408 6
C22  21567265.914 7                 112306408.687 7
E05  23157924.273 7  23157927.629 8 121695716.760 7  92062031.446 8
E06  25615082.898 5  25615086.172 7 134608182.85615 101830216.50517
E09  24574409.125 7  24574411.516 8 129139387.188 7  97693117.451 8
E34  23460817.789 8  23460820.215 9 123287428.855 8  93266149.736 9
E36  24257781.781 8  24257785.035 8 127475500.224 8  96434400.202 8
G01  20126652.766 8                  20126657.516 8 105766274.232 8                  82415298.104 8
G02  20792829.336 7  20792830.793 6                 109267053.364 7  85143164.646 6
G03  20827116.625 7                  20827124.000 7 109447233.438 7                  85283591.420 7
G08  23475141.836 7                  23475152.016 7 123362716.188 7                  96126632.439 7
G32  22555836.063 7                  22555843.914 6 118531713.836 7                  92362351.382 6
R02  20058832.367 8  20058836.266 7 107037765.821 8  83251548.363 7
R03  19477488.492 8  19477493.367 8 104264518.706 8  81094656.870 8
R04  22872481.578 4  22872491.883 6 122481129.797 4  95263112.382 6
R17  20377083.922 8  20377088.801 7 109041885.733 8  84810273.983 7
R18  19015619.398 8  19015623.645 7 101506667.813 8  78949815.174 7
R19  21854840.664 7  21854845.859 7 116908659.800 7  90929401.215 7
> 2025 06 15 12 40 15.0000000  0 21
C12  22489164.289 7  22489161.941 8 117106981.260 7  90554787.586 8
C19  22968467.805 7                 119602836.137 7
C21  25297064.391 6                 131728451.741 6
C22  21564790.516 8                 112293521.776 8
E05  23154360.516 7  23154363.820 8 121676988.783 7  92047863.864 8
E06  25615389.867 6  25615392.598 7 134609793.485 6 101831434.926 7
E09  24573554.039 8  24573556.074 8 129134892.031 8  97689716.891 8
E34  23458524.789 8  23458526.906 9 123275377.580 8  93257033.020 9
E36  24257918.281 8  24257921.473 8 127476217.117 8  96434942.528 8
G01  20124465.688 7                  20124470.313 8 105754780.122 7                  82406341.646 8
G02  20792482.617 7  20792483.879 6                 109265229.646 7  85141743.565 6
G03  20823669.844 7                  20823677.297 7 109429121.304 7                  85269478.082 7
G08  23477221.680 7                  23477231.188 7 123373644.510 7                  96135147.992 7
G17  22999847.383 5                                 120865011.79515                
G32  22556544.281 7                  22556552.125 6 118535433.643 7                  92365249.944 6
R02  20059755.297 8  20059760.383 7 107042697.489 8  83255384.108 7
R03  19474346.531 8  19474352.199 8 104247702.117 8  81081577.304 8
R04  22867145.961 4  22867154.965 6 122452557.803 4  95240889.771 6
R17  20378470.664 8  20378476.352 7 109049312.089 8  84816050.042 7
R18  19013674.523 8  19013679.090 7 101496287.574 8  78941741.665 7
R19  21849954.250 7  21849956.441 7 116882505.010 7  90909058.603 7
> 2025 06 15 12 40 20.0000000  0 21
C12  22486190.430 7  22486187.762 7 117091494.492 7  90542812.248 7
C19  22969060.367 7                 119605923.775 7
C21  25292611.844 6                 131705265.866 6
C22  21562317.953 7                 112280648.148 7
E05  23150798.406 8  23150801.918 8 121658270.794 8  92033703.837 8
E06  25615697.828 6  25615701.266 7 134611414.985 6 101832661.578 7
E09  24572701.445 8  24572703.152 8 129130410.311 8  97686326.504 8
E34  23456232.969 8  23456235.121 8 123263334.278 8  93247922.344 8
E36  24258056.133 8  24258059.410 8 127476941.849 8  96435490.789 8
G01  20122281.234 7                  20122285.324 8 105743299.176 7                  82397395.439 8
G02  20792138.156 7  20792139.316 6                 109263418.057 7  85140331.940 6
G03  20820225.750 7                  20820232.570 7 109411020.540 7                  85255373.596 7
G08  23479302.195 7                  23479311.984 7 123384577.874 7                  96143667.475 7
G17  22996423.172 4                  22996433.289 6 120847031.314 4                  94166548.30016
G32  22557254.461 7                  22557261.770 6 118539166.656 7                  92368158.761 6
R02  20060682.188 8  20060687.465 7 107047645.501 8  83259232.562 7
R03  19471208.883 8  19471214.844 8 104230905.321 8  81068513.132 8
R04  22861818.922 5  22861820.926 6 122423993.453 5  95218672.961 6
R17  20379861.883 8  20379867.523 7 109056753.889 8  84821838.095 7
R18  19011733.992 8  19011738.152 7 101485926.954 8  78933683.395 7
R19  21845065.305 6  21845068.164 7 116856357.447 6  90888721.629 7
> 2025 06 15 12 40 25.0000000  0 21
C12  22483219.172 7  22483215.746 7 117076019.561 7  90530846.045 7
C19  22969655.031 7                 119609021.159 7
C21  25288159.359 6                 131682085.563 6
C22  21559848.648 7                 112267787.571 7
E05  23147238.313 7  23147241.852 8 121639562.597 7  92019551.223 8
E06  25616008.383 6  25616011.891 7 134613047.184 6 101833896.318 7
E09  24571850.938 8  24571852.777 8 129125941.809 8  97682946.116 8
E34  23453942.617 8  23453944.859 9 123251298.760 8  93238817.549 9
E36  24258195.484 8  24258198.813 8 127477674.247 8  96436044.828 8
G01  20120098.633 7                  20120102.934 8 105731831.156 7                  82388459.314 8
G02  20791795.156 7  20791796.801 6                 109261618.367 7  85138929.569 6
G03  20816783.477 8                  20816790.070 7 109392930.849 8                  85241277.744 7
G08  23481383.578 7                  23481393.082 7 123395516.052 7                  96152190.708 7
G17  22993002.055 5                  22993014.141 6 120829063.543 5                  94152547.497 6
G32  22557967.398 7                  22557975.059 6 118542912.688 7                  92371077.701 6
R02  20061613.133 8  20061618.668 7 107052609.732 8  83263093.577 7
R03  19468074.375 8  19468080.191 8 104214127.836 8  81055463.987 8
R04  22856490.242 6  22856489.184 6 122395436.015 6  95196461.681 6
R17  20381254.570 8  20381261.086 7 109064210.724 8  84827637.846 7
R18  19009797.461 8  19009801.035 7 101475585.753 8  78925640.249 7
R19  21840178.023 6  21840181.297 7 116830216.926 6  90868390.109 7
> 2025 06 15 12 40 30.0000000  0 21
C12  22480250.203 7  22480246.176 7 117060556.737 7  90518889.218 7
C19  22970251.766 7                 119612128.568 7
C21  25283709.883 6                 131658911.226 6
C22  21557381.359 7                 112254940.377 7
E05  23143680.102 7  23143683.742 8 121620864.502 7  92005406.258 8
E06  25616321.758 6  25616324.535 7 134614690.351 6 101835139.363 7
E09  24571002.953 8  24571004.934 8 129121486.823 8  97679575.958 8
E34  23451654.219 8  23451656.098 9 123239271.330 8  93229718.875 9
E36  24258336.531 8  24258339.734 8 127478414.595 8  96436604.887 8
G01  20117918.695 7                  20117923.332 8 105720376.383 7                  82379533.522 8
G02  20791455.742 7  20791456.641 6                 109259830.881 7  85137536.720 6
G03  20813342.969 8                  20813350.336 7 109374852.587 8                  85227190.782 7
G08  23483465.492 7                  23483475.449 7 123406459.359 7                  96160717.936 7
G17  22989589.523 5                  22989597.441 6 120811108.962 5                  94138556.908 6
G32  22558683.016 7                  22558690.090 6 118546671.996 7                  92374007.026 6
R02  20062546.836 8  20062551.563 7 107057590.497 8  83266967.512 7
R03  19464944.828 8  19464949.555 8 104197370.393 8  81042430.422 8
R04  22851161.461 5  22851157.793 6 122366886.037 5  95174256.230 6
R17  20382651.086 8  20382656.867 7 109071683.145 8  84833449.732 7
R18  19007863.094 8  19007867.270 7 101465264.299 8  78917612.458 7
R19  21835292.727 6  21835296.035 7 116804083.907 6  90848064.458 7
> 2025 06 15 12 40 35.0000000  0 21
C12  22477282.148 7  22477278.699 8 117045105.045 7  90506940.988 8
C19  22970849.992 7                 119615244.945 7
C21  25279258.961 6                 131635741.726 6
C22  21554916.727 7                 112242105.492 7
E05  23140123.445 8  23140127.352 8 121602175.475 8  91991268.125 8
E06  25616636.359 6  25616639.074 7 134616343.392 6 101836389.877 7
E09  24570156.891 7  24570159.496 8 129117044.340 7  97676215.240 8
E34  23449366.484 8  23449368.645 9 123227250.919 8  93220625.520 9
E36  24258478.422 8  24258481.875 8 127479161.816 8  96437170.149 8
G01  20115741.367 7                  20115745.707 8 105708933.814 7                  82370617.252 8
G02  20791117.188 8  20791118.414 6                 109258054.519 8  85136152.550 6
G03  20809904.914 8                  20809911.824 7 109356784.673 8                  85213111.881 7
G08  23485549.484 7                  23485558.793 7 123417406.690 7                  96169248.295 7
G17  22986176.008 5                  22986183.191 6 120793166.457 5                  94124575.767 6
G32  22559400.688 7                  22559407.434 6 118550443.449 7                  92376945.842 6
R02  20063483.000 8  20063487.617 7 107062586.632 8  83270853.396 7
R03  19461818.063 8  19461822.930 8 104180631.850 8  81029411.566 8
R04  22845826.680 5  22845828.344 6 122338342.656 5  95152055.869 6
R17  20384050.742 8  20384055.793 7 109079169.804 8  84839272.677 7
R18  19005933.367 8  19005937.227 7 101454961.543 8  78909599.217 7
R19  21830409.734 6  21830412.043 7 116777957.309 6  90827743.807 7
> 2025 06 15 12 40 40.0000000  0 20
C12  22474316.648 7  22474313.828 7 117029665.226 7  90495001.939 7
C19  22971450.344 7                 119618371.093 7
C21  25274811.109 6                 131612577.936 6
C22  21552454.773 7                 112229283.742 7
E05  23136569.328 8  23136572.805 8 121583496.347 8  91977137.496 8
E06  25616952.836 6  25616955.715 7 134618007.175 6 101837648.503 7
E09  24569314.672 7  24569316.594 8 129112615.104 7  97672864.558 8
E34  23447080.625 8  23447082.750 9 123215238.357 8  93211538.099 9
E36  24258622.281 8  24258625.520 8 127479916.723 8  96437741.231 8
G01  20113566.141 7                  20113570.938 8 105697504.262 7                  82361711.093 8
G02  20790781.047 7  20790782.422 6                 109256290.107 7  85134777.679 6
G03  20806469.203 8                  20806475.727 7 109338727.928 8                  85199041.705 7
G08  23487632.586 7                  23487643.188 7 123428358.864 7                  96177782.437 7
G17  22982763.117 5                  22982771.246 6 120775236.716 5                  94110604.539 6
G32  22560121.797 7                  22560127.969 6 118554227.998 7                  92379894.808 6
R02  20064422.391 8  20064426.973 7 107067599.023 8  83274751.926 7
R03  19458694.430 8  19458699.473 8 104163912.831 8  81016407.893 8
R17  20385452.703 8  20385458.020 7 109086671.737 8  84845107.512 7
R18  19004006.555 8  19004010.848 7 101444678.287 8  78901601.125 7
R19  21825526.789 6  21825529.223 7 116751837.956 6  90807428.730 7
> 2025 06 15 12 40 45.0000000  0 20
C12  22471354.688 7  22471350.527 7 117014236.687 7  90483071.624 7
C19  22972052.875 7                 119621506.340 7
C21  25270363.938 6                 131589419.155 6
C22  21549994.492 7                 112216474.507 7
E05  23133016.922 7  23133020.027 8 121564826.426 7  91963013.833 8
E06  25617272.172 6  25617274.215 7 134619680.991 6 101838914.717 7
E09  24568473.797 7  24568476.121 8 129108198.526 7  97669523.438 8
E34  23444795.930 8  23444798.176 9 123203233.017 8  93202456.138 9
E36  24258767.453 8  24258770.539 8 127480678.699 8  96438317.647 8
G01  20111393.563 7                  20111398.266 8 105686087.077 7                  82352814.581 8
G02  20790448.094 7  20790448.848 6                 109254537.072 7  85133411.688 6
G03  20803034.430 8                  20803041.438 7 109320681.717 8                  85184979.709 7
G08  23489717.727 6                  23489728.301 7 123439315.244 6                  96186319.842 7
G17  22979354.766 5                  22979361.105 6 120757319.256 5                  94096642.857 6
G32  22560843.813 7                  22560850.277 6 118558024.876 7                  92382853.434 6
R02  20065364.727 8  20065369.848 7 107072626.868 8  83278662.450 7
R03  19455574.211 8  19455579.824 8 104147212.759 8  81003418.966 8
R17  20386858.258 8  20386862.660 7 109094188.317 8  84850953.709 7
R18  19002084.203 8  19002087.672 7 101434413.906 8  78893617.681 7
R19  21820645.828 6  21820647.293 6 116725725.146 6  90787118.765 6
> 2025 06 15 12 40 50.0000000  0 21
C12  22468394.727 7  22468389.676 8 116998819.598 7  90471150.151 8
C19  22972657.063 7                 119624650.888 7
C21  25265917.461 6                 131566265.632 6
C22  21547536.977 7                 112203677.923 7
E05  23129465.234 7  23129469.043 8 121546165.942 7  91948897.307 8
E06  25617591.234 6  25617594.750 7 134621365.064 6 101840188.679 7
E09  24567635.844 7  24567638.102 8 129103794.767 7  97666192.012 8
E34  23442512.805 8  23442515.066 8 123191235.065 8  93193379.769 8
E36  24258913.836 8  24258916.898 8 127481447.911 8  96438899.548 8
G01  20109224.117 7                  20109228.121 8 105674682.501 7                  82343927.914 8
G02  20790116.617 7  20790117.406 6                 109252795.586 7  85132054.669 6
G03  20799602.195 7                  20799609.426 7 109302646.236 7                  85170926.110 7
G08  23491803.281 7                  23491814.035 7 123450276.001 7                  96194860.688 7
G17  22975942.656 4                                                                
G32  22561568.219 7                  22561574.793 6 118561834.333 7                  92385821.820 6
R02  20066308.914 8  20066314.766 7 107077670.510 8  83282585.291 7
R03  19452458.016 8  19452463.719 8 104130532.028 8  80990445.059 8
R04  22829838.453 4  22829845.508 6 122252754.24514  95085487.25416
R17  20388264.352 8  20388270.117 7 109101719.539 8  84856811.320 7
R18  19000164.828 8  19000168.672 7 101424168.531 8  78885649.058 7
R19  21815763.727 6  21815767.059 6 116699619.059 6  90766814.117 6
> 2025 06 15 12 40 55.0000000  0 21
C12  22465435.117 7  22465431.469 8 116983414.670 7  90459238.095 8
C19  22973262.992 7                 119627805.376 7
C21  25261470.094 6                 131543118.019 6
C22  21545082.195 7                 112190894.684 7
E05  23125916.102 7  23125919.957 8 121527515.552 7  91934788.430 8
E06  25617914.727 6  25617917.254 7 134623059.966 6 101841470.847 7
E09  24566800.445 7  24566802.684 8 129099404.444 7  97662870.771 8
E34  23440231.266 8  23440233.465 9 123179245.167 8  93184309.486 9
E36  24259061.711 8  24259064.762 8 127482225.001 8  96439487.412 8
G01  20107056.227 8                  20107060.379 8 105663291.109 8                  82335051.511 8
G02  20789787.711 8  20789788.570 6                 109251066.207 8  85130707.112 6
G03  20796172.352 7                  20796179.641 7 109284622.132 7                  85156881.348 7
G08  23493890.797 7                  23493900.914 7 123461241.768 7                  96203405.387 7
G17  22972546.313 4                  22972549.914 6 120721522.41614                  94068749.13016
G32  22562294.930 7                  22562302.414 5 118565656.912 7                  92388800.412 5
R02  20067257.156 8  20067262.621 7 107082730.578 8  83286520.900 7
R03  19449346.859 8  19449351.305 8 104113870.996 8  80977486.479 8
R04  22824515.492 5  22824520.367 6 122224238.866 5  95063308.706 6
R17  20389675.289 8  20389680.719 7 109109266.078 8  84862680.860 7
R18  18998248.508 8  18998253.039 7 101413942.871 8  78877695.804 7
R19  21810883.375 6  21810888.680 6 116673520.495 6  90746515.206 6
> 2025 06 15 12 41  0.0000000  0 21
C12  22462479.445 7  22462475.227 8 116968020.558 7  90447334.410 8
C19  22973870.727 7                 119630968.503 7
C21  25257026.828 6                 131519975.001 6
C22  21542629.313 7                 112178123.464 7
E05  23122368.758 7  23122372.520 8 121508873.897 7  91920686.164 8
E06  25618238.953 6  25618241.531 7 134624764.456 6 101842760.281 7
E09  24565967.445 7  24565969.598 8 129095026.264 7  97659558.701 8
E34  23437950.523 8  23437953.141 9 123167262.023 8  93175244.316 9
E36  24259210.555 8  24259213.941 8 127483008.700 8  96440080.271 8
G01  20104890.813 8                  20104894.691 8 105651911.662 8                  82326184.415 8
G02  20789460.258 8  20789461.461 6                 109249347.699 8  85129368.011 6
G03  20792744.391 7                  20792751.477 7 109266608.139 7                  85142844.446 7
G08  23495977.398 7                  23495988.273 7 123472211.171 7                  96211952.958 7
G17  22969141.242 5                  22969146.855 6 120703642.212 5                  94054816.579 6
G32  22563026.250 7                  22563031.715 6 118569491.333 7                  92391788.297 6
R02  20068208.156 8  20068214.148 7 107087805.584 8  83290468.134 7
R03  19446237.063 8  19446242.383 8 104097228.582 8  80964542.396 8
R04  22819192.547 5  22819196.871 6 122195729.909 5  95041135.137 6
R17  20391087.852 8  20391092.969 7 109116826.647 8  84868561.285 7
R18  18996336.711 8  18996341.000 7 101403735.684 8  78869756.859 7
R19  21806006.219 6  21806011.051 7 116647428.083 6  90726221.142 7
> 2025 06 15 12 41  5.0000000  0 21
C12  22459526.109 7  22459521.012 8 116952637.123 7  90435438.967 8
C19  22974479.695 7                 119634140.090 7
C21  25252583.680 6                 131496836.383 6
C22  21540179.250 7                 112165364.092 7
E05  23118823.164 7  23118826.738 8 121490240.894 7  91906590.445 8
E06  25618564.180 6  25618567.680 7 134626478.258 6 101844056.772 7
E09  24565136.359 7  24565138.777 8 129090660.075 7  97656255.707 8
E34  23435671.742 8  23435674.059 9 123155285.444 8  93166184.113 9
E36  24259361.023 8  24259364.293 8 127483798.777 8  96440677.948 8
G01  20102727.547 7                  20102731.781 8 105640543.956 7                  82317326.468 8
G02  20789135.148 8  20789136.684 6                 109247639.822 8  85128037.188 6
G03  20789318.438 7                  20789325.832 7 109248603.965 7                  85128815.256 7
G08  23498066.672 7                  23498076.453 7 123483184.094 7                  96220503.281 7
G17  22965738.070 5                  22965746.137 6 120685773.73915                  94040893.12916
G32  22563757.078 7                  22563763.488 6 118573337.496 7                  92394785.269 6
R02  20069162.742 8  20069167.895 7 107092895.446 8  83294426.893 7
R03  19443131.891 8  19443136.910 8 104080604.518 8  80951612.549 8
R04  22813866.578 5  22813873.793 5 122167226.842 5  95018966.128 5
R17  20392503.203 8  20392508.465 7 109124401.074 8  84874452.483 7
R18  18994428.492 8  18994432.043 7 101393546.706 8  78861832.092 7
R19  21801129.094 6  21801134.539 6 116621341.508 6  90705931.612 6
> 2025 06 15 12 41 10.0000000  0 21
C12  22456573.797 7  22456569.625 8 116937266.942 7  90423553.755 8
C19  22975090.180 7                 119637322.673 7
C21  25248140.719 6                 131473704.808 6
C22  21537732.039 7                 112152619.152 7
E05  23115279.578 8  23115283.059 8 121471619.126 8  91892503.204 8
E06  25618892.430 6  25618896.082 7 134628204.106 6 101845362.347 7
E09  24564308.539 7  24564310.660 8 129086308.437 7  97652963.720 8
E34  23433394.227 8  23433396.734 8 123143318.073 8  93157130.881 8
E36  24259512.516 8  24259516.332 8 127484597.884 8  96441282.465 8
G01  20100567.039 7                  20100571.340 8 105629190.610 7                  82308479.698 8
G02  20788812.438 7  20788814.223 6                 109245945.230 7  85126716.721 6
G03  20785894.031 7                  20785901.992 7 109230612.345 7                  85114795.825 7
G08  23500155.883 7                  23500165.270 7 123494163.087 7                  96229058.300 7
G17  22962343.172 6                  22962348.996 6 120667919.500 6                  94026980.675 6
G32  22564491.914 6                  22564498.160 6 118577197.902 6                  92397793.401 6
R02  20070120.602 8  20070125.117 7 107098002.819 8  83298399.265 7
R03  19440030.195 8  19440035.012 8 104064001.537 8  80938699.115 8
R04  22808546.172 5  22808553.000 5 122138732.562 5  94996803.908 5
R17  20393921.375 8  20393926.457 7 109131992.102 8  84880356.609 7
R18  18992523.406 8  18992527.082 7 101383378.655 8  78853923.606 7
R19  21796254.758 6  21796259.141 7 116595263.628 6  90685648.875 7
> 2025 06 15 12 41 15.0000000  0 21
C12  22453624.680 7  22453620.324 8 116921909.617 7  90411678.506 8
C19  22975703.742 7                 119640515.882 7
C21  25243701.031 6                 131450579.850 6
C22  21535287.203 7                 112139888.239 7
E05  23111737.992 8  23111741.512 8 121453008.174 8  91878424.143 8
E06  25619221.617 6  25619226.695 7 134629941.453 6 101846676.646 7
E09  24563483.305 7  24563485.207 8 129081970.976 7  97649682.469 8
E34  23431118.602 8  23431121.117 9 123131359.470 8  93148084.268 9
E36  24259666.531 8  24259670.035 8 127485405.578 8  96441893.474 8
G01  20098408.813 7                  20098413.145 8 105617851.217 7                  82299643.812 8
G02  20788492.609 7  20788494.473 6                 109244263.513 7  85125406.289 6
G03  20782473.180 7                  20782480.574 7 109212632.833 7                  85100785.828 7
G08  23502244.797 6                  23502255.465 7 123505147.741 6                  96237617.766 7
G17  22958948.414 5                  22958954.723 6 120650079.174 5                  94013079.094 6
G32  22565228.281 7                  22565235.668 6 118581072.154 7                  92400812.278 6
R02  20071081.086 8  20071085.188 7 107103127.193 8  83302384.905 7
R03  19436932.570 8  19436937.480 8 104047419.034 8  80925801.628 8
R04  22803226.070 5  22803233.035 5 122110246.561 5  94974648.128 5
R17  20395343.055 8  20395348.266 7 109139599.146 8  84886273.200 7
R18  18990621.859 8  18990626.336 7 101373231.040 8  78846031.022 7
R19  21791381.773 7  21791386.777 7 116569194.004 7  90665372.489 7
> 2025 06 15 12 41 20.0000000  0 21
C12  22750470.477 7  22750466.500 8 118467664.880 7  91606954.525 8
C19  23276110.695 7                 121204815.689 7
C21  25539054.242 6                 132988562.769 6
C22  21832637.484 8                 113688270.551 8
E05  23407991.414 8  23407994.871 8 123009830.411 8  93056150.060 8
E06  25919345.594 6  25919351.617 7 136207108.750 6 103039793.440 7
E09  24862452.914 7  24862454.887 8 130653067.168 7  98838206.521 8
E34  23728637.336 8  23728639.809 9 124694830.668 8  94330840.084 9
E36  24559613.969 8  24559617.512 8 129061640.376 8  97634304.851 8
G01  20396046.859 7                  20396051.230 8 107181946.709 7                  83518419.525 8
G02  21087967.086 7  21087969.438 6                 110818013.639 7  86351705.080 6
G03  21078846.859 7                  21078854.313 7 110770087.635 7                  86314386.981 7
G08  23804128.016 6                  23804139.121 7 125091554.516 6                  97473778.853 7
G17  23255349.813 6                  23255354.551 6 122207674.790 6                  95226789.936 6
G32  22865760.586 6                  22865768.211 6 120160378.145 6                  93631440.331 6
R02  20371836.180 8  20371840.391 7 108708016.155 8  84550631.861 7
R03  19733631.758 8  19733635.957 7 105635671.735 8  82161109.281 7
R04  23097704.953 6  23097706.070 5 123687148.063 6  96201127.104 5
R17  20696558.586 8  20696564.938 7 110751469.277 8  86139949.995 7
R18  19288518.023 8  19288522.070 7 102963417.104 8  80082842.413 7
R19  22086303.094 7  22086307.691 7 118146824.006 7  91892418.088 7
> 2025 06 15 12 41 25.0000000  0 21
C12  22747526.461 7  22747521.645 8 118452331.720 7  91595097.964 8
C19  23276728.063 7                 121208028.529 7
C21  25534614.969 6                 132965449.530 6
C22  21830197.484 8                 113675566.187 8
E05  23404453.883 8  23404457.160 8 122991239.576 8  93042086.217 8
E06  25919680.273 5  25919686.316 7 136208867.688 5 103041124.014 7
E09  24861632.023 7  24861634.660 8 130648756.438 7  98834945.478 8
E34  23726365.094 8  23726367.172 8 124682888.071 8  94321805.579 8
E36  24559771.063 8  24559774.195 8 129062463.710 8  97634927.693 8
G01  20393893.281 7                  20393898.172 8 107170633.697 7                  83509604.188 8
G02  21087651.859 7  21087653.980 6                 110816356.081 7  86350413.476 6
G03  21075430.531 8                  21075437.602 7 110752130.770 8                  86300394.647 7
G08  23806221.008 7                  23806230.781 7 125102548.906 7                  97482345.888 7
G17  23251960.039 6                  23251963.898 6 122189860.541 6                  95212908.624 6
G32  22866502.391 6                  22866510.824 7 120164278.546 6                  93634479.591 7
R02  20372802.336 8  20372807.070 7 108713172.922 8  84554642.660 7
R03  19730540.477 8  19730545.699 7 105619129.157 8  82148242.869 7
R04  23092387.133 6  23092391.277 5 123658676.910 6  96178982.975 5
R17  20697986.188 8  20697992.414 7 110759106.823 8  86145890.291 7
R18  19286624.102 8  19286628.254 7 102953308.883 8  80074980.449 7
R19  22081432.820 7  22081437.102 7 118120769.374 7  91872153.395 7
> 2025 06 15 12 41 30.0000000  0 21
C12  22744583.836 7  22744579.359 8 118437010.470 7  91583250.593 8
C19  23277346.352 7                 121211250.991 7
C21  25530177.797 6                 132942341.916 6
C22  21827760.383 7                 113662874.855 7
E05  23400918.203 8  23400921.336 8 122972658.583 8  93028029.820 8
E06  25920018.188 5  25920023.047 7 136210637.16715 103042462.58017
E09  24860814.172 7  24860816.859 8 130644458.878 7  98831694.405 8
E34  23724093.719 8  23724096.082 9 124670953.278 8  94312776.992 9
E36  24559929.148 8  24559932.277 8 129063294.667 8  97635556.290 8
G01  20391743.242 7                  20391747.723 8 107159333.655 7                  83500798.966 8
G02  21087339.000 7  21087340.863 6                 110814710.422 7  86349131.131 6
G03  21072015.547 8                  21072021.855 7 110734185.080 8                  86286410.971 7
G08  23808314.203 7                  23808324.266 7 125113547.939 7                  97490916.544 7
G17  23248570.625 5                  23248576.531 6 122172059.116 5                  95199037.435 6
G32  22867247.625 6                  22867255.277 7 120168191.730 6                  93637528.800 7
R02  20373771.984 8  20373776.254 7 108718345.706 8  84558665.976 7
R03  19727454.336 8  19727459.195 7 105602606.011 8  82135391.544 7
R04  23087068.570 6  23087076.473 5 123630213.112 6  96156844.530 5
R17  20699417.383 8  20699422.441 7 110766759.411 8  86151842.276 7
R18  19284734.719 8  19284738.410 7 102943220.179 8  80067133.674 7
R19  22076564.156 7  22076567.938 7 118094722.037 7  91851894.360 7
> 2025 06 15 12 41 35.0000000  0 21
C12  22741643.523 7  22741639.703 8 118421701.736 7  91571412.911 8
C19  23277967.008 7                 121214483.624 7
C21  25525741.656 6                 132919240.567 6
C22  21825325.938 7                 113650197.174 7
E05  23397384.094 8  23397387.461 8 122954088.039 8  93013981.326 8
E06  25920358.813 5  25920361.887 7 136212417.834 5 103043809.644 7
E09  24859999.109 7  24860001.738 8 130640175.073 7  98828453.728 8
E34  23721824.367 8  23721826.609 9 124659026.890 8  94303754.761 9
E36  24560088.953 8  24560091.969 8 129064133.838 8  97636191.113 8
G01  20389595.664 7                  20389599.938 8 107148047.227 7                  83492004.348 8
G02  21087028.031 7  21087030.117 6                 110813077.250 7  86347858.532 6
G03  21068602.875 8                  21068609.418 7 110716251.052 8                  86272436.413 7
G08  23810407.664 6                  23810418.781 7 125124552.236 6                  97499491.305 7
G17  23245187.578 6                  23245191.844 6 122154271.264 6                  95185176.701 6
G32  22867995.742 6                  22868002.766 6 120172118.452 6                  93640588.555 6
R02  20374743.758 8  20374748.938 7 108723535.099 8  84562702.182 7
R03  19724370.844 8  19724376.598 8 105586102.994 8  82122555.858 8
R04  23081750.625 6  23081762.926 5 123601757.244 6  96134712.203 5
R17  20700849.703 8  20700855.590 7 110774427.652 8  86157806.459 7
R18  19282847.844 8  19282851.945 7 102933151.579 8  80059302.547 7
R19  22071696.398 7  22071699.094 7 118068682.606 7  91831641.517 7
> 2025 06 15 12 41 40.0000000  0 21
C12  22738706.539 7  22738702.355 8 118406405.446 7  91559584.859 8
C19  23278589.742 7                 121217726.444 7
C21  25521306.273 6                 132896145.505 6
C22  21822893.789 7                 113637533.143 7
E05  23393852.258 8  23393855.566 8 122935527.945 8  92999940.750 8
E06  25920698.820 5  25920702.910 7 136214209.524 5 103045165.085 7
E09  24859186.508 8  24859189.152 8 130635904.992 8  98825223.453 8
E34  23719556.617 8  23719558.723 9 124647108.897 8  94294738.873 9
E36  24560250.461 8  24560253.215 8 129064981.179 8  97636832.125 8
G01  20387450.586 7                  20387454.930 8 107136774.358 7                  83483220.302 8
G02  21086719.422 7  21086721.387 6                 110811456.535 7  86346595.634 6
G03  21065192.406 8                  21065199.191 7 110698328.766 8                  86258470.990 7
G08  23812502.008 6                  23812513.656 7 125135561.728 6                  97508070.138 7
G17  23241805.227 6                  23241809.262 6 122136496.870 6                  95171326.570 6
G32  22868746.547 7                  22868752.434 7 120176058.502 7                  93643658.734 7
R02  20375720.398 8  20375724.398 7 108728741.001 8  84566751.202 7
R03  19721292.297 8  19721296.855 8 105569620.363 8  82109736.032 8
R04  23076441.422 5  23076450.152 5 123573309.485 5  96112586.197 5
R17  20702286.063 8  20702291.918 7 110782111.459 8  86163782.763 7
R18  19280965.711 8  19280969.395 7 102923103.097 8  80051487.074 7
R19  22066829.672 7  22066832.879 6 118042651.122 7  91811394.829 6
> 2025 06 15 12 41 45.0000000  0 21
C12  22735770.969 7  22735767.258 8 118391120.645 7  91547765.697 8
C19  23279214.375 7                 121220978.358 7
C21  25516872.508 6                 132873055.620 6
C22  21820463.836 7                 113624881.681 7
E05  23390322.133 8  23390325.410 8 122916977.241 8  92985907.279 8
E06  25921041.938 5  25921045.848 7 136216011.298 5 103046528.130 7
E09  24858376.656 8  24858379.008 8 130631647.600 8  98822002.758 8
E34  23717290.102 8  23717292.148 9 124635198.241 8  94285728.534 9
E36  24560412.828 8  24560415.816 8 129065835.680 8  97637478.543 8
G01  20385307.547 7                  20385312.109 8 107125514.014 7                  83474446.001 8
G02  21086413.672 8  21086414.539 6                 110809847.220 8  86345341.624 6
G03  21061783.484 7                  21061790.000 7 110680417.104 7                  86244513.860 7
G08  23814598.867 6                  23814609.184 7 125146575.308 6                  97516652.137 7
G17  23238425.156 6                  23238428.504 6 122118734.839 6                  95157486.021 6
G32  22869497.711 7                  22869504.449 6 120180010.863 7                  93646738.490 6
R02  20376698.219 8  20376702.590 7 108733962.237 8  84570812.144 7
R03  19718217.602 8  19718221.430 8 105553156.918 8  82096931.125 8
R04  23071131.445 6  23071138.523 5 123544868.396 6  96090465.331 5
R17  20703723.953 8  20703729.938 7 110789809.867 8  86169770.407 7
R18  19279086.727 8  19279090.348 7 102913073.631 8  80043686.377 7
R19  22061964.703 7  22061968.234 7 118016626.438 7  91791153.412 7
> 2025 06 15 12 41 50.0000000  0 21
C12  22732837.797 7  22732834.027 8 118375847.448 7  91535955.476 8
C19  23279839.789 7                 121224239.526 7
C21  25512438.664 6                 132849971.074 6
C22  21818036.797 7                 113612242.955 7
E05  23386794.250 7  23386797.102 8 122898436.087 7  92971881.025 8
E06  25921386.984 5  25921390.734 7 136217823.247 5 103047898.840 7
E09  24857568.555 7  24857571.262 8 130627403.030 7  98818791.765 8
E34  23715025.047 8  23715027.063 9 124623295.075 8  94276723.871 9
E36  24560576.555 8  24560579.820 8 129066697.451 8  97638130.458 8
G01  20383167.875 8                  20383171.754 8 107114266.372 8                  83465681.609 8
G02  21086109.414 8  21086110.293 6                 110808249.416 8  86344096.585 6
G03  21058377.773 7                  21058383.359 7 110662516.319 7                  86230565.217 7
G08  23816694.914 6                  23816705.676 7 125157593.190 6                  97525237.478 7
G17  23235046.820 6                  23235050.676 6 122100985.452 6                  95143655.348 6
G32  22870252.297 7                  22870259.227 6 120183975.659 7                  93649827.986 6
R02  20377679.688 8  20377683.914 7 108739199.231 8  84574885.356 7
R03  19715145.188 8  19715150.313 8 105536712.857 8  82084141.318 8
R04  23065818.055 5  23065827.289 5 123516434.315 5  96068349.956 5
R17  20705165.984 8  20705171.957 7 110797522.850 8  86175769.384 7
R18  19277211.781 8  19277215.262 7 102903063.428 8  80035900.651 7
R19  22057101.148 7  22057103.988 7 117990608.743 7  91770917.437 7
> 2025 06 15 12 41 55.0000000  0 21
C12  22729907.000 7  22729902.859 8 118360584.716 7  91524153.370 8
C19  23280467.891 7                 121227508.810 7
C21  25508005.828 6                 132826890.763 6
C22  21815611.188 7                 113599615.813 7
E05  23383267.102 7  23383270.367 8 122879903.337 7  92957861.134 8
E06  25921733.453 5  25921737.297 7 136219644.243 5 103049276.443 7
E09  24856763.742 8  24856765.746 8 130623170.114 8  98815589.597 8
E34  23712761.039 8  23712763.176 9 124611398.243 8  94267724.002 9
E36  24560742.242 8  24560745.008 8 129067565.354 8  97638787.012 8
G01  20381029.266 7                  20381033.723 8 107103030.242 7                  83456926.188 8
G02  21085807.461 8  21085807.980 6                 110806662.021 8  86342859.659 6
G03  21054972.258 7                  21054979.301 7 110644625.168 7                  86216624.053 7
G08  23818792.625 6                  23818803.156 7 125168614.117 6                  97533825.203 7
G17  23231671.797 6                  23231674.988 6 122083247.479 6                  95129833.584 6
G32  22871008.594 7                  22871016.168 6 120187951.803 7                  93652926.279 6
R02  20378663.977 8  20378668.289 7 108744450.649 8  84578969.790 7
R03  19712076.539 8  19712081.113 8 105520286.865 8  82071365.543 8
R04  23060508.281 5  23060517.445 5 123488006.244 5  96046239.337 5
R17  20706609.633 8  20706615.336 7 110805249.296 8  86181778.851 7
R18  19275339.883 8  19275343.227 7 102893071.231 8  80028128.942 7
R19  22052238.375 7  22052241.828 7 117964596.903 7  91750685.976 7
> 2025 06 15 12 42  0.0000000  0 21
C12  22726977.344 7  22726974.184 8 118345333.072 7  91512359.832 8
C19  23281097.484 7                 121230786.770 7
C21  25503573.984 6                 132803815.289 6
C22  21813189.031 7                 113587000.889 7
E05  23379742.281 8  23379745.375 8 122861379.606 8  92943848.067 8
E06  25922080.102 5  25922085.680 7 136221474.905 5 103050661.313 7
E09  24855960.438 8  24855962.539 8 130618949.467 8  98812396.713 8
E34  23710498.258 8  23710500.617 9 124599508.377 8  94258729.395 9
E36  24560908.305 8  24560911.477 8 129068440.018 8  97639448.685 8
G01  20378893.047 7                  20378897.324 8 107091806.278 7                  83448180.229 8
G02  21085507.180 7  21085508.203 6                 110805085.631 7  86341631.296 6
G03  21051569.797 7                  21051576.656 7 110626744.271 7                  86202690.892 7
G08  23820891.461 6                  23820901.215 7 125179638.848 6                  97542415.879 7
G17  23228299.539 6                  23228301.719 5 122065521.575 6                  95116021.194 5
G32  22871766.078 6                  22871774.773 6 120191939.882 6                  93656033.854 6
R02  20379651.391 8  20379655.145 7 108749717.035 8  84583065.846 7
R03  19709011.922 8  19709016.199 7 105503879.501 8  82058604.279 7
R04  23055203.852 6  23055209.801 5 123459584.560 6  96024133.609 5
R17  20708056.070 8  20708061.559 7 110812989.867 8  86187799.262 7
R18  19273471.211 8  19273474.645 7 102883097.693 8  80020371.753 7
R19  22047376.820 7  22047379.469 6 117938591.566 7  91730459.591 6
> 2025 06 15 12 42  5.0000000  0 21
C12  22724051.547 7  22724047.406 8 118330093.521 7  91500575.662 8
C19  23281729.289 7                 121234074.413 7
C21  25499143.945 6                 132780745.623 6
C22  21810768.875 7                 113574399.144 7
E05  23376219.109 8  23376222.266 8 122842865.900 8  92929842.581 8
E06  25922431.789 5  25922436.020 7 136223316.259 5 103052054.287 7
E09  24855159.852 8  24855161.844 8 130614742.109 8  98809213.874 8
E34  23708237.367 8  23708239.563 9 124587626.490 8  94249740.824 9
E36  24561076.289 8  24561079.434 8 129069322.416 8  97640116.205 8
G01  20376759.977 7                  20376764.438 8 107080595.466 7                  83439444.537 8
G02  21085209.797 7  21085210.398 6                 110803521.279 7  86340412.318 6
G03  21048169.438 7                  21048176.164 7 110608874.696 7                  86188766.566 7
G08  23822989.938 6                  23822999.980 7 125190668.224 6                  97551010.157 7
G17  23224929.344 6                  23224931.086 6 122047808.787 6                  95102219.045 6
G32  22872528.188 7                  22872535.441 6 120195940.868 7                  93659151.513 6
R02  20380640.617 8  20380644.848 7 108754999.366 8  84587174.358 7
R03  19705950.797 8  19705955.156 8 105487492.191 8  82045858.574 8
R04  23049895.383 5  23049903.461 4 123431170.463 5  96002033.917 4
R17  20709505.531 8  20709511.133 7 110820745.482 8  86193831.416 7
R18  19271606.023 8  19271609.945 7 102873143.865 8  80012629.908 7
R19  22042517.391 7  22042519.730 6 117912593.764 7  91710239.098 6
> 2025 06 15 12 42 10.0000000  0 21
C12  22721126.766 7  22721123.121 8 118314865.154 7  91488800.141 8
C19  23282361.680 7                 121237370.822 7
C21  25494714.258 6                 132757680.857 6
C22  21808351.063 7                 113561809.685 7
E05  23372697.789 8  23372700.910 8 122824361.311 8  92915843.988 8
E06  25922784.828 5  25922788.203 7 136225167.301 5 103053454.583 7
E09  24854361.422 8  24854363.496 8 130610547.081 8  98806040.361 8
E34  23705978.148 8  23705979.852 8 124575751.625 8  94240757.567 8
E36  24561245.164 8  24561248.668 8 129070211.637 8  97640788.886 8
G01  20374628.820 7                  20374633.148 8 107069396.879 7                  83430718.374 8
G02  21084914.133 7  21084914.699 6                 110801968.008 7  86339201.969 6
G03  21044770.617 7                  21044777.695 7 110591015.450 7                  86174850.267 7
G08  23825088.008 6                  23825099.449 7 125201701.335 6                  97559607.370 7
G17  23221559.758 6                  23221563.777 6 122030108.150 6                  95088426.351 6
G32  22873292.641 6                  22873298.402 6 120199953.773 6                  93662278.471 6
R02  20381632.992 8  20381637.539 7 108760296.792 8  84591294.555 7
R03  19702892.023 8  19702897.195 8 105471123.420 8  82033127.320 8
R04  23044591.586 5  23044600.484 5 123402762.884 5  95979939.117 5
R17  20710958.094 8  20710962.941 7 110828515.313 8  86199874.611 7
R18  19269745.219 8  19269748.840 7 102863208.828 8  80004902.657 7
R19  22037659.438 7  22037661.699 7 117886602.549 7  91690023.725 7
> 2025 06 15 12 42 15.0000000  0 21
C12  22718205.211 7  22718200.828 8 118299647.595 7  91477032.979 8
C19  23282996.852 7                 121240675.602 7
C21  25490284.688 6                 132734620.663 6
C22  21805936.102 7                 113549232.136 7
E05  23369178.734 8  23369181.285 8 122805865.483 8  92901852.005 8
E06  25923138.922 6  25923141.973 7 136227027.693 6 103054861.927 7
E09  24853565.445 8  24853567.430 8 130606364.043 8  98802875.921 8
E34  23703718.914 8  23703721.340 9 124563883.463 8  94231779.379 9
E36  24561415.609 8  24561419.148 8 129071107.321 8  97641466.462 8
G01  20372500.320 7                  20372504.555 8 107058210.184 7                  83422001.473 8
G02  21084620.633 8  21084621.246 6                 110800425.466 8  86337999.988 6
G03  21041374.844 8                  21041381.160 7 110573166.218 8                  86160941.790 7
G08  23827189.430 6                  23827199.574 7 125212737.850 6                  97568207.251 7
G17  23218194.406 6                  23218198.371 6 122012419.445 6                  95074642.902 6
G32  22874059.039 7                  22874064.723 5 120203978.298 7                  93665414.449 5
R02  20382629.430 8  20382633.625 7 108765608.954 8  84595426.246 7
R03  19699837.773 8  19699842.969 8 105454773.460 8  82020410.693 8
R04  23039287.938 5  23039296.320 5 123374361.607 5  95957849.238 5
R17  20712411.773 8  20712417.789 7 110836298.866 8  86205928.461 7
R18  19267887.555 8  19267891.043 7 102853292.162 8  79997189.695 7
R19  22032800.688 7  22032802.777 6 117860617.476 7  91669813.163 6
> 2025 06 15 12 42 20.0000000  0 21
C12  22715283.883 7  22715281.035 8 118284440.746 7  91465274.076 8
C19  23283633.352 7                 121243988.641 7
C21  25485856.516 6                 132711564.984 6
C22  21803522.789 7                 113536666.359 7
E05  23365660.773 7  23365663.238 8 122787378.284 7  92887866.568 8
E06  25923494.875 6  25923497.512 7 136228897.200 6 103056276.202 7
E09  24852771.672 8  24852773.691 8 130602192.833 8  98799720.426 8
E34  23701461.813 8  23701464.184 9 124552021.837 8  94222806.135 9
E36  24561587.484 8  24561590.762 8 129072009.289 8  97642148.795 8
G01  20370373.852 7                  20370378.457 8 107047035.215 7                  83413293.728 8
G02  21084329.156 7  21084329.785 6                 110798893.495 7  86336806.245 6
G03  21037980.195 8                  21037986.375 7 110555326.856 8                  86147041.008 7
G08  23829289.734 6                  23829300.887 7 125223777.614 6                  97576809.635 7
G17  23214828.461 6                  23214833.652 6 121994742.324 6                  95060868.528 6
G32  22874827.133 7                  22874833.027 5 120208014.254 7                  93668559.364 5
R02  20383626.586 8  20383631.219 7 108770935.505 8  84599569.107 7
R03  19696787.727 8  19696791.750 7 105438441.652 8  82007708.180 7
R04  23033993.359 6  23033994.086 5 123345966.414 6  95935764.104 5
R17  20713868.367 8  20713875.109 7 110844096.070 8  86211992.913 7
R18  19266033.094 8  19266036.758 7 102843393.779 8  79989490.941 7
R19  22027943.359 7  22027946.996 7 117834638.574 7  91649607.340 7
> 2025 06 15 12 42 25.0000000  0 21
C12  22712366.461 7  22712362.855 8 118269245.575 7  91453524.211 8
C19  23284271.477 7                 121247310.858 7
C21  25481431.039 6                 132688514.566 6
C22  21801112.602 7                 113524113.337 7
E05  23362144.641 7  23362147.008 8 122768900.648 7  92873888.373 8
E06  25923852.391 6  25923855.133 7 136230776.908 6 103057698.203 7
E09  24851980.406 7  24851982.391 8 130598034.423 7  98796574.615 8
E34  23699206.125 8  23699208.414 9 124540167.734 8  94213838.584 9
E36  24561760.664 8  24561763.797 8 129072918.563 8  97642836.645 8
G01  20368249.734 7                  20368254.305 8 107035872.973 7                  83404595.877 8
G02  21084040.086 8  21084040.785 6                 110797373.072 8  86335621.504 6
G03  21034587.023 8                  21034593.555 7 110537498.357 8                  86133148.668 7
G08  23831391.656 6                  23831402.223 7 125234821.549 6                  97585415.275 7
G17  23211467.859 6                  23211472.359 6 121977077.857 6                  95047104.062 6
G32  22875596.242 7                  22875603.629 5 120212062.576 7                  93671713.897 5
R02  20384627.086 8  20384632.859 7 108776277.618 8  84603724.066 7
R03  19693739.672 8  19693744.777 7 105422129.190 8  81995020.729 7
R04  23028695.945 6  23028692.313 4 123317578.309 6  95913684.584 4
R17  20715328.305 8  20715334.961 7 110851907.914 8  86218068.787 7
R18  19264183.602 8  19264186.266 7 102833514.647 8  79981807.172 7
R19  22023089.992 7  22023091.820 6 117808666.762 7  91629407.031 6
> 2025 06 15 12 42 30.0000000  0 21
C12  22709450.234 7  22709446.656 7 118254062.315 7  91441783.540 7
C19  23284911.344 7                 121250642.521 7
C21  25477007.289 6                 132665469.880 6
C22  21798704.320 7                 113511573.346 7
E05  23358630.031 7  23358632.715 8 122750432.919 7  92859917.678 8
E06  25924212.305 6  25924214.758 7 136232667.059 6 103059128.078 7
E09  24851191.938 8  24851193.504 8 130593889.102 8  98793438.704 8
E34  23696951.719 8  23696954.094 9 124528321.429 8  94204876.940 9
E36  24561935.344 8  24561938.223 8 129073835.390 8  97643530.220 8
G01  20366127.867 7                  20366132.172 8 107024723.754 7                  83395908.160 8
G02  21083752.531 7  21083753.633 6                 110795864.481 7  86334445.978 6
G03  21031196.969 7                  21031203.293 7 110519680.946 7                  86119264.979 7
G08  23833494.461 6                  23833504.121 6 125245869.924 6                  97594024.392 6
G17  23208107.805 6                  23208113.703 6 121959426.287 6                  95033349.610 6
G32  22876368.141 7                  22876375.270 5 120216123.624 7                  93674878.336 5
R02  20385631.641 8  20385637.223 7 108781635.438 8  84607891.246 7
R03  19690696.625 8  19690701.621 8 105405836.522 8  81982348.659 8
R04  23023384.742 5  23023393.242 5 123289197.663 5  95891610.798 5
R17  20716791.367 8  20716797.352 7 110859734.615 8  86224156.209 7
R18  19262335.578 8  19262338.766 7 102823655.083 8  79974138.612 7
R19  22018235.125 7  22018238.242 7 117782702.396 7  91609212.531 7
> 2025 06 15 12 42 35.0000000  0 21
C12  22706537.742 7  22706533.406 7 118238891.958 7  91430052.883 7
C19  23285553.281 7                 121253984.650 7
C21  25472583.234 6                 132642431.845 6
C22  21796298.742 7                 113499047.309 7
E05  23355117.344 8  23355120.508 8 122731976.023 8  92845955.174 8
E06  25924573.781 6  25924576.613 7 136234568.571 6 103060566.559 7
E09  24850405.484 8  24850407.355 8 130589757.813 8  98790313.408 8
E34  23694699.305 8  23694701.492 9 124516483.907 8  94195921.933 9
E36  24562111.156 8  24562114.313 8 129074760.753 8  97644230.240 8
G01  20364008.719 7                  20364013.402 8 107013588.482 7                  83387231.328 8
G02  21083468.078 7  21083468.980 6                 110794368.735 7  86333280.452 6
G03  21027808.664 8                  21027814.805 7 110501875.648 8                  86105390.721 7
G08  23835597.906 6                  23835607.590 6 125256923.737 6                  97602637.713 6
G17  23204751.117 6                  23204757.016 6 121941788.679 6                  95019605.987 6
G32  22877143.852 7                  22877150.930 6 120220198.266 7                  93678053.372 6
R02  20386638.570 8  20386643.918 7 108787010.037 8  84612071.494 7
R03  19687655.969 8  19687661.375 8 105389564.197 8  81969692.405 8
R04  23018086.078 6  23018095.008 5 123260825.389 6  95869543.519 5
R17  20718257.961 8  20718262.953 7 110867577.118 8  86230255.932 7
R18  19260492.320 8  19260496.105 7 102813816.056 8  79966486.042 7
R19  22013382.422 7  22013385.770 6 117756746.433 7  91589024.616 6
> 2025 06 15 12 42 40.0000000  0 21
C12  22703626.461 7  22703621.941 7 118223732.254 7  91418330.424 7
C19  23286196.078 7                 121257334.849 7
C21  25468158.961 6                 132619398.114 6
C22  21793894.844 7                 113486532.939 7
E05  23351606.953 8  23351609.879 8 122713527.661 8  92831999.111 8
E06  25924937.813 6  25924940.184 7 136236479.135 6 103062011.899 7
E09  24849621.758 8  24849623.426 8 130585638.210 8  98787196.955 8
E34  23692448.047 8  23692450.156 9 124504652.813 8  94186971.799 9
E36  24562288.500 8  24562291.582 8 129075692.319 8  97644934.959 8
G01  20361892.078 7                  20361896.766 8 107002464.863 7                  83378563.577 8
G02  21083185.227 8  21083185.988 6                 110792883.407 8  86332123.062 6
G03  21024421.305 7                  21024428.469 7 110484080.098 7                  86091524.071 7
G08  23837702.164 6                  23837712.148 6 125267980.562 6                  97611253.404 6
G17  23201398.344 6                  23201403.066 6 121924162.673 6                  95005871.427 6
G32  22877922.234 7                  22877928.395 6 120224284.167 7                  93681237.179 6
R02  20387649.836 8  20387653.809 7 108792398.940 8  84616262.843 7
R03  19684619.883 8  19684624.988 8 105373310.298 8  81957050.491 8
R04  23012784.078 5  23012799.395 4 123232459.021 5  95847480.831 4
R17  20719725.336 8  20719730.555 7 110875433.174 8  86236366.160 7
R18  19258653.055 8  19258656.043 7 102803995.218 8  79958847.624 7
R19  22008529.820 7  22008535.391 7 117730796.478 7  91568841.342 7
> 2025 06 15 12 42 45.0000000  0 21
C12  22700716.602 7  22700712.758 8 118208583.448 7  91406616.377 8
C19  23286840.461 7                 121260693.425 7
C21  25463735.859 6                 132596369.056 6
C22  21791493.727 7                 113474030.540 7
E05  23348097.953 8  23348100.953 8 122695088.139 8  92818049.743 8
E06  25925303.352 6  25925305.637 7 136238398.999 6 103063464.274 7
E09  24848840.047 8  24848841.762 8 130581530.595 8  98784089.566 8
E34  23690198.063 8  23690200.016 9 124492828.460 8  94178026.751 9
E36  24562466.797 8  24562470.078 8 129076630.360 8  97645644.572 8
G01  20359777.922 7                  20359781.996 8 106991353.180 7                  83369905.132 8
G02  21082905.258 7  21082905.676 6                 110791408.851 7  86330974.054 6
G03  21021037.242 7                  21021043.910 7 110466294.611 7                  86077665.237 7
G08  23839807.422 6                  23839816.742 7 125279040.785 6                  97619871.721 7
G17  23198047.008 6                  23198051.984 6 121906548.555 6                  94992146.140 6
G32  22878700.703 6                  22878709.031 6 120228381.666 6                  93684430.057 6
R02  20388661.883 8  20388666.523 7 108797802.507 8  84620465.627 7
R03  19681586.695 8  19681592.102 8 105357074.979 8  81944423.032 8
R04  23007491.164 6  23007502.238 4 123204099.227 6  95825423.158 4
R17  20721195.672 8  20721202.105 7 110883302.946 8  86242487.096 7
R18  19256815.906 8  19256819.500 7 102794192.862 8  79951223.576 7
R19  22003680.258 7  22003685.172 7 117704852.895 7  91548662.983 7
> 2025 06 15 12 42 50.0000000  0 21
C12  22697809.148 7  22697805.781 8 118193446.151 7  91394911.260 8
C19  23287487.461 7                 121264060.970 7
C21  25459314.875 6                 132573345.211 6
C22  21789095.883 7                 113461540.677 7
E05  23344591.055 7  23344593.770 8 122676658.008 7  92804107.479 8
E06  25925669.359 6  25925673.000 7 136240328.833 6 103064924.207 7
E09  24848060.930 8  24848062.508 8 130577435.576 8  98780991.725 8
E34  23687949.469 8  23687951.297 9 124481011.459 8  94169087.268 9
E36  24562647.172 8  24562649.898 8 129077575.496 8  97646359.556 8
G01  20357665.469 7                  20357670.199 8 106980254.066 7                  83361256.449 8
G02  21082625.656 7  21082627.063 6                 110789945.647 7  86329833.888 6
G03  21017654.742 7                  21017661.398 7 110448519.786 7                  86063814.740 7
G08  23841912.156 6                  23841922.613 7 125290104.918 6                  97628493.100 7
G17  23194697.055 6                  23194703.145 7 121888947.016 6                  94978430.697 7
G32  22879483.938 7                  22879490.762 6 120232491.343 7                  93687632.401 6
R02  20389676.961 8  20389681.910 7 108803221.131 8  84624680.133 7
R03  19678557.453 8  19678562.574 8 105340858.883 8  81931810.510 8
R04  23002211.523 6  23002208.531 5 123175746.330 6  95803371.004 5
R17  20722668.820 8  20722675.438 7 110891187.120 8  86248619.213 7
R18  19254983.305 8  19254987.039 7 102784409.601 8  79943614.384 7
R19  21998832.242 7  21998836.023 6 117678916.429 7  91528490.162 6
> 2025 06 15 12 42 55.0000000  0 21
C12  22694903.594 7  22694901.176 8 118178320.961 7  91383215.515 8
C19  23288136.344 7                 121267438.057 7
C21  25454893.617 6                 132550327.238 6
C22  21786699.602 7                 113449063.985 7
E05  23341085.734 8  23341088.516 8 122658237.982 8  92790172.854 8
E06  25926037.094 6  25926042.301 7 136242269.192 6 103066392.072 7
E09  24847283.992 8  24847285.793 8 130573353.767 8  98777903.871 8
E34  23685702.055 8  23685704.102 9 124469202.427 8  94160153.817 9
E36  24562827.625 8  24562831.207 8 129078528.345 8  97647080.371 8
G01  20355556.383 7                  20355560.852 8 106969168.133 7                  83352618.062 8
G02  21082350.203 7  21082351.063 6                 110788494.420 7  86328703.066 6
G03  21014274.531 7                  21014281.273 7 110430756.250 7                  86049973.042 7
G08  23844018.266 6                  23844028.641 7 125301173.614 6                  97637118.012 7
G17  23191349.422 6                  23191355.949 7 121871358.538 6                  94964725.410 7
G32  22880269.492 7                  22880274.879 6 120236613.778 7                  93690844.656 6
R02  20390695.375 8  20390700.766 7 108808655.595 8  84628906.954 7
R03  19675531.961 8  19675536.820 8 105324662.465 8  81919213.293 8
R04  22996914.414 6  22996916.438 5 123147401.005 6  95781324.803 5
R17  20724145.000 8  20724151.328 7 110899086.248 8  86254762.984 7
R18  19253154.516 8  19253157.953 7 102774646.095 8  79936020.548 7
R19  21993987.352 7  21993988.746 6 117652987.438 7  91508323.212 6
> 2025 06 15 12 43  0.0000000  0 21
C12  22692001.414 7  22691998.531 8 118163207.168 7  91371528.574 8
C19  23288787.242 7                 121270823.978 7
C21  25450475.258 6                 132527314.373 6
C22  21784305.688 7                 113436599.742 7
E05  23337582.195 8  23337585.020 8 122639827.264 8  92776245.271 8
E06  25926408.977 6  25926413.391 7 136244219.339 6 103067867.360 7
E09  24846509.516 8  24846511.461 8 130569284.395 8  98774825.427 8
E34  23683456.289 8  23683458.289 9 124457400.632 8  94151225.840 9
E36  24563010.891 8  24563013.848 8 129079488.158 8  97647806.457 8
G01  20353448.789 7                  20353453.500 8 106958094.604 7                  83343989.346 8
G02  21082076.141 7  21082077.188 6                 110787054.389 7  86327580.962 6
G03  21010896.016 7                  21010902.980 7 110413003.271 7                  86036139.532 7
G08  23846124.859 6                  23846135.816 7 125312246.106 6                  97645745.925 7
G17  23188004.336 5                  23188011.215 6 121853782.553 5                  94951029.803 6
G32  22881055.391 7                  22881061.824 6 120240748.227 7                  93694066.259 6
R02  20391716.813 8  20391721.730 7 108814105.318 8  84633145.570 7
R03  19672510.422 8  19672515.148 8 105308485.063 8  81906630.882 8
R04  22991612.523 5  22991624.953 4 123119062.690 5  95759283.781 4
R17  20725623.781 8  20725630.172 7 110906999.644 8  86260917.834 7
R18  19251329.367 8  19251332.324 7 102764901.537 8  79928441.446 7
R19  21989138.461 7  21989142.465 6 117627065.297 7  91488161.593 6
> 2025 06 15 12 43  5.0000000  0 21
C12  22689100.555 7  22689098.383 8 118148104.770 7  91359850.449 8
C19  23289439.234 7                 121274218.659 7
C21  25446057.102 6                 132504306.613 6
C22  21781914.297 7                 113424147.857 7
E05  23334080.633 8  23334083.289 8 122621425.813 8  92762324.704 8
E06  25926781.969 6  25926786.441 7 136246179.206 6 103069349.979 7
E09  24845737.523 8  24845739.492 8 130565227.440 8  98771756.369 8
E34  23681211.781 8  23681213.855 9 124445606.027 8  94142303.288 9
E36  24563194.789 8  24563197.789 8 129080454.880 8  97648537.764 8
G01  20351343.906 7                  20351349.203 8 106947033.489 7                  83335370.293 8
G02  21081804.031 8  21081805.082 6                 110785625.535 8  86326467.575 6
G03  21007519.438 7                  21007526.496 7 110395260.790 7                  86022314.227 7
G08  23848232.969 6                  23848243.039 6 125323322.261 6                  97654376.685 6
G17  23184661.961 6                  23184669.055 7 121836218.882 6                  94937343.858 7
G32  22881844.328 7                  22881850.934 6 120244894.628 7                  93697297.159 6
R02  20392740.695 8  20392745.957 7 108819569.993 8  84637395.867 7
R03  19669490.672 8  19669496.543 8 105292326.641 8  81894063.214 8
R04  22986323.008 6  22986333.738 5 123090731.168 6  95737248.278 5
R17  20727104.773 8  20727111.258 7 110914927.120 8  86267083.644 7
R18  19249507.242 8  19249511.008 7 102755175.968 8  79920877.107 7
R19  21984294.141 6  21984298.125 6 117601150.017 6  91468005.279 6
> 2025 06 15 12 43 10.0000000  0 21
C12  22686203.305 7  22686200.242 8 118133014.725 7  91348181.875 8
C19  23290092.898 7                 121277623.084 7
C21  25441638.406 6                 132481304.936 6
C22  21779525.461 7                 113411709.354 7
E05  23330580.547 8  23330583.555 8 122603034.619 8  92748411.905 8
E06  25927157.672 6  25927161.586 7 136248149.871 6 103070840.759 7
E09  24844968.203 8  24844970.125 8 130561183.898 8  98768697.448 8
E34  23678968.555 8  23678970.938 9 124433819.587 8  94133386.931 9
E36  24563380.672 8  24563383.285 8 129081429.514 8  97649275.063 8
G01  20349241.852 8                  20349246.648 8 106935985.763 8                  83326761.671 8
G02  21081534.719 7  21081535.906 6                 110784208.869 7  86325363.680 6
G03  21004145.516 7                  21004152.109 7 110377529.798 7                  86008497.890 7
G08  23850341.875 5                  23850352.129 6 125334403.142 5                  97663011.125 6
G17  23181323.789 5                  23181328.684 6 121818668.598 5                  94923668.306 6
G32  22882634.555 6                  22882642.543 6 120249053.959 6                  93700538.198 6
R02  20393767.625 8  20393773.102 7 108825050.555 8  84641658.541 7
R03  19666476.555 8  19666482.043 8 105276188.410 8  81881511.256 8
R04  22981032.547 5  22981046.535 4 123062407.502 5  95715218.757 4
R17  20728588.773 8  20728596.570 7 110922869.729 8  86273261.232 7
R18  19247689.219 8  19247692.770 7 102745470.341 8  79913328.286 7
R19  21979450.734 6  21979455.063 6 117575242.594 6  91447855.037 6
> 2025 06 15 12 43 15.0000000  0 21
C12  22683307.305 7  22683304.664 8 118117936.854 7  91336522.711 8
C19  23290747.867 7                 121281037.115 7
C21  25437222.734 6                 132458309.091 6
C22  21777139.578 7                 113399284.055 7
E05  23327082.141 8  23327085.672 8 122584653.577 8  92734506.775 8
E06  25927533.969 6  25927538.563 7 136250131.060 6 103072339.492 7
E09  24844200.883 8  24844203.219 8 130557153.574 8  98765648.542 8
E34  23676727.492 8  23676729.609 8 124422041.182 8  94124476.645 8
E36  24563567.625 8  24563570.180 8 129082411.892 8  97650018.222 8
G01  20347142.078 7                  20347146.543 8 106924951.289 7                  83318163.375 8
G02  21081267.672 8  21081268.984 6                 110782804.235 8  86324269.156 6
G03  21000773.234 7                  21000780.805 7 110359810.151 7                  85994690.397 7
G08  23852451.047 6                  23852461.555 6 125345488.501 6                  97671649.089 6
G17  23177987.328 6                  23177991.941 7 121801131.503 6                  94910003.063 7
G32  22883429.477 6                  22883436.859 6 120253226.039 6                  93703789.168 6
R02  20394796.836 8  20394803.051 7 108830547.000 8  84645933.537 7
R03  19663464.375 8  19663470.539 8 105260070.083 8  81868974.807 8
R04  22975744.500 5  22975760.590 5 123034091.582 5  95693195.294 5
R17  20730077.305 8  20730083.258 7 110930827.463 8  86279450.563 7
R18  19245874.773 8  19245877.625 7 102735784.531 8  79905794.876 7
R19  21974609.008 6  21974613.180 7 117549342.986 6  91427710.903 7
> 2025 06 15 12 43 20.0000000  0 21
C12  22680414.742 7  22680411.918 8 118102870.865 7  91324872.744 8
C19  23291405.063 7                 121284460.353 7
C21  25432807.219 6                 132435318.941 6
C22  21774756.117 7                 113386871.616 7
E05  23323586.203 8  23323589.742 8 122566282.292 8  92720609.041 8
E06  25927914.000 6  25927917.555 7 136252122.407 6 103073845.938 7
E09  24843436.594 7  24843438.727 8 130553136.119 7  98762609.362 8
E34  23674487.250 8  23674489.723 8 124410270.444 8  94115572.159 8
E36  24563755.781 8  24563758.512 8 129083401.658 8  97650766.977 8
G01  20345044.664 7                  20345049.516 8 106913929.670 7                  83309575.107 8
G02  21081002.672 8  21081003.801 6                 110781411.227 8  86323183.694 6
G03  20997404.000 7                  20997410.336 7 110342101.474 7                  85980891.436 7
G08  23854562.250 6                  23854571.824 6 125356578.182 6                  97680290.361 6
G17  23174651.859 5                  23174657.328 7 121783607.251 5                  94896347.830 7
G32  22884226.266 6                  22884232.891 6 120257410.516 6                  93707049.809 6
R02  20395830.578 8  20395835.629 7 108836058.823 8  84650220.499 7
R03  19660456.711 8  19660462.867 7 105243971.178 8  81856453.446 7
R04  22970456.602 5  22970474.824 5 123005782.949 5  95671177.499 5
R17  20731567.125 8  20731572.785 7 110938799.793 8  86285651.249 7
R18  19244063.633 8  19244067.074 7 102726118.157 8  79898276.583 7
R19  21969769.563 7  21969773.418 7 117523450.716 7  91407572.495 7
> 2025 06 15 12 43 25.0000000  0 21
C12  22677524.492 7  22677521.348 8 118087817.318 7  91313232.400 8
C19  23292063.195 7                 121287893.416 7
C21  25428393.914 6                 132412334.849 6
C22  21772375.203 7                 113374472.631 7
E05  23320093.398 8  23320095.801 8 122547921.393 8  92706719.146 8
E06  25928296.086 6  25928298.633 7 136254124.551 6 103075360.543 7
E09  24842674.820 8  24842676.820 8 130549132.156 8  98759580.380 8
E34  23672249.000 8  23672251.430 9 124398507.994 8  94106673.946 9
E36  24563945.328 8  24563948.402 8 129084399.422 8  97651521.773 8
G01  20342950.359 7                  20342954.680 8 106902921.580 7                  83300997.383 8
G02  21080740.320 8  21080741.156 6                 110780030.503 8  86322107.798 6
G03  20994036.063 7                  20994042.781 7 110324404.441 7                  85967101.534 7
G08  23856673.820 6                  23856683.074 6 125367672.526 6                  97688935.292 6
G17  23171318.148 5                  23171324.832 6 121766096.575 5                  94882703.164 6
G32  22885024.609 7                  22885031.738 6 120261607.980 7                  93710320.563 6
R02  20396867.352 8  20396871.445 7 108841586.599 8  84654519.859 7
R03  19657453.641 8  19657459.715 8 105227892.235 8  81843947.583 8
R04  22965172.742 5  22965188.656 5 122977482.307 5  95649165.783 5
R17  20733060.453 8  20733065.246 7 110946787.403 8  86291863.812 7
R18  19242256.953 8  19242259.828 7 102716471.931 8  79890773.966 7
R19  21964930.367 7  21964934.441 7 117497566.530 7  91387440.381 7
> 2025 06 15 12 43 30.0000000  0 21
C12  22674635.766 7  22674632.660 8 118072775.143 7  91301600.836 8
C19  23292723.789 7                 121291335.164 7
C21  25423981.195 6                 132389355.852 6
C22  21769996.273 7                 113362086.026 7
E05  23316601.414 8  23316603.539 8 122529569.786 8  92692836.278 8
E06  25928679.688 6  25928681.590 7 136256136.371 6 103076882.457 7
E09  24841915.445 8  24841917.215 8 130545140.536 8  98756560.743 8
E34  23670011.945 8  23670014.457 9 124386752.708 8  94097781.153 9
E36  24564136.641 8  24564139.574 8 129085404.073 8  97652281.782 8
G01  20340858.031 7                  20340862.129 8 106891925.857 7                  83292429.277 8
G02  21080479.375 7  21080480.477 6                 110778660.896 7  86321040.567 6
G03  20990670.711 7                  20990677.508 7 110306717.861 7                  85953319.806 7
G08  23858784.625 6                  23858794.742 6 125378770.540 6                  97697583.039 6
G17  23167988.727 5                  23167994.504 6 121748598.247 5                  94869068.048 6
G32  22885826.156 7                  22885832.875 6 120265817.329 7                  93713600.607 6
R02  20397906.219 8  20397910.379 7 108847129.229 8  84658830.842 7
R03  19654453.852 8  19654459.578 8 105211832.590 8  81831456.763 8
R04  22959888.281 5  22959901.813 4 122949188.660 5  95627159.662 4
R17  20734555.461 8  20734560.660 7 110954789.014 8  86298087.259 7
R18  19240453.516 8  19240456.633 7 102706844.640 8  79883286.052 7
R19  21960093.531 7  21960097.738 7 117471689.277 7  91367313.637 7
> 2025 06 15 12 43 35.0000000  0 21
C12  22671749.703 7  22671746.363 8 118057745.351 7  91289978.862 8
C19  23293386.883 7                 121294786.598 7
C21  25419570.281 6                 132366382.959 6
C22  21767620.023 7                 113349712.746 7
E05  23313110.469 8  23313113.301 8 122511228.472 8  92678961.204 8
E06  25929064.141 6  25929066.621 7 136258158.806 6 103078412.423 7
E09  24841158.258 8  24841160.160 8 130541162.267 8  98753551.224 8
E34  23667776.938 8  23667779.086 8 124375005.603 8  94088894.542 8
E36  24564329.367 8  24564332.250 8 129086416.601 8  97653047.743 8
G01  20338767.883 8                  20338772.363 8 106880943.525 8                  83283871.626 8
G02  21080220.906 8  21080222.277 6                 110777303.469 8  86319982.828 6
G03  20987306.680 7                  20987313.762 7 110289042.779 7                  85939547.019 7
G08  23860899.609 6                  23860907.512 6 125389873.174 6                  97706234.418 6
G17  23164662.711 6                  23164666.984 6 121731113.238 6                  94855443.406 6
G32  22886628.906 7                  22886636.723 6 120270039.543 7                  93716890.644 6
R02  20398947.977 8  20398951.656 7 108852687.656 8  84663154.060 7
R03  19651457.172 8  19651462.828 8 105195792.743 8  81818981.357 8
R04  22954608.883 5  22954614.207 5 122920902.660 5  95605159.433 5
R17  20736053.570 8  20736059.094 7 110962805.771 8  86304322.508 7
R18  19238653.773 8  19238657.195 7 102697237.346 8  79875813.701 7
R19  21955256.938 7  21955262.055 7 117445819.844 7  91347192.969 7
> 2025 06 15 12 43 40.0000000  0 20
C12  22668865.367 7  22668862.098 8 118042727.839 7  91278366.359 8
C19  23294051.836 7                 121298247.604 7
C21  25415159.133 6                 132343416.055 6
C22  21765246.492 7                 113337352.730 7
E05  23309622.086 8  23309624.992 8 122492897.342 8  92665093.831 8
E06  25929450.516 6  25929453.719 7 136260191.895 6 103079950.424 7
E09  24840403.344 8  24840405.633 8 130537197.275 8  98750551.739 8
E34  23665542.727 8  23665545.234 8 124363266.597 8  94080014.061 8
E36  24564523.383 8  24564526.445 8 129087436.929 8  97653819.621 8
G01  20336679.797 7                  20336684.816 8 106869974.499 7                  83275324.329 8
G02  21079964.695 8  21079966.113 6                 110775958.105 8  86318934.492 6
G03  20983945.906 7                  20983952.961 7 110271379.103 7                  85925783.105 7
G08  23863011.969 6                  23863021.199 6 125400980.322 6                  97714889.292 6
G17  23161336.172 5                  23161342.098 6 121713641.655 5                  94841829.156 6
G32  22887434.906 7                  22887442.770 6 120274274.529 7                  93720190.634 6
R02  20399992.258 8  20399996.586 7 108858262.027 8  84667489.665 7
R03  19648464.961 8  19648470.645 7 105179773.043 8  81806521.596 7
R17  20737553.961 8  20737560.020 7 110970837.429 8  86310569.342 7
R18  19236857.289 8  19236861.352 7 102687649.925 8  79868356.832 7
R19  21950422.438 7  21950427.391 7 117419958.379 7  91327078.509 7
> 2025 06 15 12 43 45.0000000  0 20
C12  22665983.133 7  22665980.277 8 118027722.308 7  91266763.130 8
C19  23294719.078 7                 121301717.840 7
C21  25410749.570 6                 132320454.782 6
C22  21762875.836 7                 113325005.633 7
E05  23306135.750 8  23306138.590 8 122474576.067 8  92651233.914 8
E06  25929838.367 6  25929842.691 7 136262235.186 6 103081496.114 7
E09  24839651.625 8  24839653.523 8 130533245.182 8  98747561.994 8
E34  23663310.523 8  23663312.832 8 124351535.335 8  94071139.444 8
E36  24564718.859 8  24564722.027 8 129088464.682 8  97654597.105 8
G01  20334595.555 7                  20334600.125 8 106859018.466 7                  83266787.150 8
G02  21079711.023 8  21079712.195 6                 110774624.447 8  86317895.282 6
G03  20980586.500 7                  20980593.488 7 110253726.506 7                  85912027.819 7
G08  23865126.086 6                  23865135.910 6 125412091.658 6                  97723547.428 6
G17  23158014.406 6                  23158019.941 6 121696182.999 6                  94828225.024 6
G32  22888242.359 7                  22888250.773 6 120278521.949 7                  93723500.274 6
R02  20401039.266 8  20401044.543 7 108863851.657 8  84671837.134 7
R03  19645476.625 8  19645481.809 8 105163773.018 8  81794077.118 8
R17  20739057.570 8  20739063.820 7 110978883.779 8  86316827.605 7
R18  19235064.961 8  19235068.609 7 102678082.064 8  79860915.162 7
R19  21945590.531 7  21945594.004 7 117394104.403 7  91306969.879 7
> 2025 06 15 12 43 50.0000000  0 20
C12  22663104.445 7  22663101.000 8 118012728.676 7  91255169.105 8
C19  23295388.164 7                 121305197.272 7
C21  25406340.289 6                 132297499.214 6
C22  21760506.359 7                 113312671.443 7
E05  23302651.172 8  23302654.055 8 122456264.640 8  92637381.439 8
E06  25930229.359 6  25930233.543 7 136264288.673 6 103083049.539 7
E09  24838902.227 8  24838903.895 8 130529305.995 8  98744582.024 8
E34  23661079.664 8  23661081.922 8 124339811.807 8  94062270.676 8
E36  24564915.969 8  24564919.016 8 129089499.877 8  97655380.223 8
G01  20332512.914 7                  20332517.336 8 106848075.368 7                  83258260.067 8
G02  21079459.602 8  21079460.637 6                 110773302.493 8  86316865.199 6
G03  20977230.203 7                  20977236.402 7 110236084.936 7                  85898281.139 7
G08  23867241.258 6                  23867250.969 6 125423207.106 6                  97732208.776 6
G17  23154695.828 6                  23154699.719 6 121678737.331 6                  94814630.946 6
G32  22889052.938 7                  22889061.078 6 120282781.713 7                  93726819.566 6
R02  20402089.625 8  20402094.672 7 108869456.933 8  84676196.799 7
R03  19642490.477 8  19642496.367 8 105147792.460 8  81781647.810 8
R17  20740563.813 8  20740569.863 7 110986944.733 8  86323097.210 7
R18  19233276.750 8  19233280.133 7 102668533.761 8  79853488.713 7
R19  21940759.422 7  21940762.465 7 117368257.865 7  91286867.002 7
> 2025 06 15 12 43 55.0000000  0 20
C12  22660227.000 7  22660223.656 8 117997746.909 7  91243584.259 8
C19  23296057.891 7                 121308685.810 7
C21  25401933.578 6                 132274549.168 6
C22  21758140.719 7                 113300350.065 7
E05  23299169.063 8  23299171.406 8 122437962.992 8  92623536.366 8
E06  25930621.984 6  25930626.234 7 136266352.192 6 103084610.575 7
E09  24838155.000 8  24838156.707 8 130525379.596 8  98741611.734 8
E34  23658850.188 8  23658852.477 9 124328095.932 8  94053407.697 9
E36  24565114.594 8  24565117.434 8 129090542.412 8  97656168.894 8
G01  20330433.125 7                  20330437.672 8 106837145.137 7                  83249742.998 8
G02  21079210.117 8  21079211.270 6                 110771992.171 8  86315844.155 6
G03  20973874.383 7                  20973881.426 7 110218454.354 7                  85884543.041 7
G08  23869357.977 6                  23869367.414 6 125434326.604 6                  97740873.299 6
G17  23151379.094 6                  23151382.848 6 121661304.472 6                  94801046.938 6
G32  22889866.391 6                  22889874.457 6 120287053.799 6                  93730148.502 6
R02  20403142.641 8  20403147.539 7 108875077.318 8  84680568.176 7
R03  19639509.000 8  19639514.711 8 105131831.414 8  81769233.678 8
R17  20742073.352 8  20742079.270 7 110995020.313 8  86329378.220 7
R18  19231491.180 8  19231495.035 7 102659004.928 8  79846077.390 7
R19  21935928.469 7  21935932.418 7 117342418.763 7  91266769.938 7
> 2025 06 15 12 44  0.0000000  0 20
C12  22657351.141 7  22657348.738 8 117982775.701 7  91232007.571 8
C19  23296730.125 7                 121312182.116 7
C21  25397526.914 6                 132251603.315 6
C22  21755777.008 7                 113288040.162 7
E05  23295687.680 8  23295690.340 8 122419669.776 8  92609697.684 8
E06  25931015.969 6  25931020.570 7 136268424.474 6 103086178.250 7
E09  24837410.297 8  24837411.672 8 130521464.668 8  98738650.104 8
E34  23656621.570 8  23656624.215 8 124316386.372 8  94044549.486 8
E36  24565313.945 8  24565317.008 8 129091590.948 8  97656962.095 8
G01  20328355.945 7                  20328359.777 8 106826226.460 7                  83241234.943 8
G02  21078963.227 8  21078964.020 6                 110770692.092 8  86314831.105 6
G03  20970521.781 7                  20970528.551 7 110200833.378 7                  85870812.417 7
G08  23871474.977 6                  23871483.422 6 125445448.785 6                  97749539.907 6
G17  23148063.664 6                  23148067.430 6 121643883.229 6                  94787471.950 6
G32  22890681.602 7                  22890689.852 6 120291336.762 7                  93733485.887 6
R02  20404199.281 8  20404203.258 7 108880711.442 8  84684950.273 7
R03  19636531.922 8  19636535.988 8 105115888.496 8  81756833.604 8
R17  20743586.047 8  20743590.574 7 111003108.976 8  86335669.393 7
R18  19229710.234 8  19229712.863 7 102649494.175 8  79838680.152 7
R19  21931099.953 7  21931102.641 7 117316585.699 7  91246677.585 7
> 2025 06 15 12 44  5.0000000  0 20
C12  22654479.266 7  22654475.605 8 117967814.747 7  91220438.832 8
C19  23297402.484 7                 121315685.949 7
C21  25393122.781 6                 132228661.433 6
C22  21753414.422 7                 113275741.457 7
E05  23292207.781 8  23292210.852 8 122401384.693 8  92595865.146 8
E06  25931411.586 6  25931416.453 7 136270505.238 6 103087752.322 7
E09  24836667.195 8  24836668.797 8 130517560.871 8  98735696.901 8
E34  23654394.438 8  23654397.109 9 124304682.826 8  94035695.842 9
E36  24565514.453 8  24565517.605 8 129092645.188 8  97657759.614 8
G01  20326280.195 7                  20326284.391 8 106815319.021 7                  83232735.645 8
G02  21078717.117 8  21078718.324 6                 110769401.953 8  86313825.796 6
G03  20967170.164 7                  20967177.012 7 110183221.745 7                  85857089.065 7
G08  23873592.328 6                  23873600.016 6 125456573.350 6                  97758208.363 6
G17  23144751.031 6                  23144754.391 6 121626473.237 6                  94773905.744 6
G32  22891498.906 7                  22891507.242 6 120295630.379 7                  93736831.562 6
R02  20405258.016 8  20405261.707 7 108886359.365 8  84689343.108 7
R03  19633556.305 8  19633561.074 8 105099963.197 8  81744447.269 8
R17  20745099.766 8  20745105.004 7 111011210.401 8  86341970.498 7
R18  19227930.828 8  19227934.547 7 102640001.213 8  79831296.746 7
R19  21926272.266 7  21926274.652 7 117290758.462 7  91226589.716 7
> 2025 06 15 12 44 10.0000000  0 21
C12  22651608.852 7  22651604.480 7 117952864.761 7  91208878.553 7
C19  23298076.727 7                 121319197.964 7
C21  25388718.148 7                 132205724.284 7
C22  21751055.664 7                 113263454.707 7
E05  23288730.516 8  23288733.043 8 122383108.522 8  92582039.342 8
E06  25931809.422 6  25931814.023 7 136272595.192 6 103089333.334 7
E09  24835926.656 8  24835928.215 8 130513668.998 8  98732752.724 8
E34  23652169.234 8  23652171.277 8 124292986.067 8  94026847.321 8
E36  24565715.992 8  24565719.406 8 129093705.884 8  97658562.024 8
G01  20324206.633 7                  20324210.750 8 106804423.576 7                  83224245.688 8
G02  21078473.570 8  21078474.973 6                 110768122.534 8  86312828.847 6
G03  20963821.703 8                  20963827.719 7 110165620.214 8                  85843373.603 7
G08  23875709.789 6                  23875718.082 6 125467700.979 6                  97766879.195 6
G17  23141439.984 6                  23141443.590 6 121609075.335 6                  94760348.888 6
G32  22892317.852 7                  22892326.523 6 120299935.381 7                  93740186.102 6
R02  20406319.203 8  20406322.855 7 108892021.437 8  84693746.925 7
R03  19630585.172 8  19630589.250 7 105084056.824 8  81732075.665 7
R04  22917692.320 4  22917679.684 6 122723097.04214  95451331.56916
R17  20746615.844 8  20746621.379 7 111019325.387 8  86348282.145 7
R18  19226156.250 8  19226159.969 7 102630526.924 8  79823927.860 7
R19  21921445.000 7  21921447.590 7 117264937.808 7  91206506.996 7
> 2025 06 15 12 44 15.0000000  0 20
C12  22648739.336 7  22648736.227 8 117937927.787 7  91197328.349 8
C19  23298753.016 7                 121322720.088 7
C21  25384314.430 6                 132182793.745 6
C22  21748698.516 7                 113251181.809 7
E05  23285254.742 8  23285257.289 8 122364843.179 8  92568221.733 8
E06  25932209.922 6  25932213.652 7 136274696.261 6 103090922.775 7
E09  24835188.320 8  24835190.297 8 130509790.952 8  98729819.012 8
E34  23649944.969 8  23649947.137 9 124281298.047 8  94018005.410 9
E36  24565919.969 8  24565922.770 8 129094774.979 8  97659370.777 8
G01  20322135.672 8                  20322140.168 8 106793542.088 8                  83215766.609 8
G02  21078232.602 8  21078233.895 6                 110766855.812 8  86311841.798 6
G03  20960474.469 8                  20960480.406 7 110148030.692 8                  85829667.490 7
G08  23877827.695 6                  23877836.215 6 125478833.709 6                  97775554.024 6
G17  23138130.875 5                  23138135.707 6 121591691.399 5                  94746802.918 6
G32  22893139.273 7                  22893148.102 6 120304253.667 7                  93743550.991 6
R02  20407383.438 8  20407387.109 7 108897699.781 8  84698163.431 7
R03  19627616.922 8  19627622.215 7 105068170.684 8  81719719.798 7
R17  20748134.742 8  20748140.332 7 111027456.019 8  86354605.966 7
R18  19224385.430 8  19224388.336 7 102621073.174 8  79816574.951 7
R19  21916619.133 7  21916621.605 7 117239125.756 7  91186430.938 7
> 2025 06 15 12 44 20.0000000  0 20
C12  22645873.273 7  22645869.895 8 117923002.172 7  91185786.914 8
C19  23299431.383 7                 121326250.818 7
C21  25379911.945 6                 132159868.320 6
C22  21746344.234 7                 113238921.218 7
E05  23281780.859 8  23281783.266 8 122346587.154 8  92554411.187 8
E06  25932610.977 6  25932615.078 7 136276806.877 6 103092519.426 7
E09  24834452.953 7  24834454.754 8 130505925.186 7  98726894.583 8
E34  23647721.672 8  23647724.344 9 124269617.189 8  94009168.919 9
E36  24566124.539 8  24566127.492 8 129095850.914 8  97660184.707 8
G01  20320068.102 7                  20320071.648 8 106782673.018 7                  83207297.216 8
G02  21077993.586 8  21077994.594 6                 110765600.220 8  86310863.408 6
G03  20957128.813 8                  20957135.277 7 110130451.662 8                  85815969.544 7
G08  23879947.172 6                  23879955.746 6 125489969.874 6                  97784231.519 6
G17  23134824.891 5                  23134830.020 6 121574319.861 5                  94733266.716 6
G32  22893963.367 6                  22893971.449 6 120308583.713 6                  93746925.055 6
R02  20408449.930 8  20408453.883 7 108903392.906 8  84702591.402 7
R03  19624652.969 8  19624657.961 7 105052303.844 8  81707378.914 7
R17  20749657.070 8  20749662.570 7 111035600.479 8  86360940.523 7
R18  19222618.211 8  19222621.324 7 102611638.425 8  79809236.794 7
R19  21911795.492 7  21911798.512 7 117213320.738 7  91166360.389 7
> 2025 06 15 12 44 25.0000000  0 20
C12  22643008.609 7  22643005.883 8 117908088.964 7  91174255.078 8
C19  23300111.047 7                 121329791.125 7
C21  25375510.977 7                 132136949.010 7
C22  21743992.820 7                 113226673.980 7
E05  23278308.609 8  23278311.164 8 122328341.434 8  92540608.428 8
E06  25933014.648 6  25933018.602 7 136278928.078 6 103094124.069 7
E09  24833719.438 7  24833721.715 8 130502072.730 7  98723980.228 8
E34  23645500.898 8  23645503.121 9 124257944.530 8  94000338.625 9
E36  24566330.891 8  24566333.688 8 129096934.702 8  97661004.581 8
G01  20318001.992 7                  20318006.191 8 106771817.359 7                  83198838.269 8
G02  21077757.469 8  21077757.910 6                 110764356.722 8  86309894.443 6
G03  20953786.086 8                  20953791.949 7 110112884.145 8                  85802280.591 7
G08  23882065.930 5                  23882075.988 6 125501110.558 5                  97792912.563 6
G17  23131520.055 5                  23131526.387 6 121556961.747 5                  94719740.868 6
G32  22894791.133 7                  22894798.027 5 120312926.465 7                  93750309.018 5
R02  20409519.500 8  20409523.426 7 108909101.663 8  84707031.578 7
R03  19621692.844 8  19621697.742 7 105036456.927 8  81695053.549 7
R17  20751182.063 8  20751187.375 7 111043759.959 8  86367286.757 7
R18  19220853.977 8  19220857.063 7 102602223.709 8  79801914.242 7
R19  21906971.672 7  21906976.227 7 117187523.756 7  91146296.084 7
> 2025 06 15 12 44 30.0000000  0 20
C12  22640147.305 7  22640144.504 8 117893187.727 7  91162732.496 8
C19  23300792.734 7                 121333340.500 7
C21  25371111.438 7                 132114035.300 7
C22  21741642.953 7                 113214439.574 7
E05  23274838.453 8  23274841.000 8 122310105.540 8  92526813.097 8
E06  25933420.383 6  25933424.059 7 136281059.352 6 103095736.362 7
E09  24832989.141 7  24832991.109 8 130498233.069 7  98721075.547 8
E34  23643281.367 8  23643283.332 9 124246279.573 8  93991514.164 9
E36  24566538.508 8  24566541.320 8 129098025.868 8  97661830.032 8
G01  20315938.492 8                  20315942.805 8 106760974.627 8                  83190389.379 8
G02  21077522.953 8  21077523.609 6                 110763124.861 8  86308934.561 6
G03  20950444.930 8                  20950451.398 7 110095327.623 8                  85788600.184 7
G08  23884183.563 5                  23884197.289 6 125512255.115 5                  97801596.656 6
G17  23128218.992 5                  23128225.695 6 121539616.767 5                  94706225.285 6
G32  22895618.727 7                  22895626.137 5 120317281.440 7                  93753702.530 5
R02  20410591.875 8  20410595.906 7 108914825.573 8  84711483.487 7
R03  19618736.258 8  19618740.809 8 105020629.596 8  81682743.388 8
R17  20752709.570 8  20752714.816 7 111051934.043 8  86373644.366 7
R18  19219094.148 8  19219097.652 7 102592828.510 8  79794606.861 7
R19  21902150.227 7  21902154.887 7 117161734.360 7  91126237.685 7
> 2025 06 15 12 44 35.0000000  0 20
C12  22637288.031 7  22637284.789 8 117878297.719 7  91151218.604 8
C19  23301476.406 7                 121336898.249 7
C21  25366711.352 7                 132091126.513 7
C22  21739295.836 7                 113202217.311 7
E05  23271370.203 8  23271372.535 8 122291878.773 8  92513024.668 8
E06  25933827.969 6  25933831.398 7 136283199.966 6 103097355.729 7
E09  24832260.883 8  24832262.805 8 130494405.473 8  98718180.004 8
E34  23641062.617 8  23641064.902 9 124234621.577 8  93982694.969 9
E36  24566747.336 8  24566750.211 8 129099123.663 8  97662660.505 8
G01  20313877.578 8                  20313881.594 8 106750144.108 8                  83181950.013 8
G02  21077290.313 8  21077291.176 6                 110761903.893 8  86307983.156 6
G03  20947105.836 8                  20947111.840 7 110077781.405 8                  85774927.815 7
G08  23886306.141 5                  23886318.203 6 125523402.918 5                  97810283.262 6
G17  23124923.500 6                  23124928.094 6 121522283.868 6                  94692719.161 6
G32  22896449.602 7                  22896457.305 5 120321647.917 7                  93757105.006 5
R02  20411667.578 8  20411671.563 7 108920564.126 8  84715946.813 7
R03  19615782.172 8  19615787.887 8 105004821.026 8  81670447.854 8
R17  20754238.352 8  20754245.094 7 111060121.753 8  86380012.593 7
R18  19217337.773 8  19217340.953 7 102583452.142 8  79787314.134 7
R19  21897332.570 7  21897335.133 7 117135951.748 7  91106184.540 7
> 2025 06 15 12 44 40.0000000  0 20
C12  22634431.555 7  22634427.336 8 117863417.735 7  91139712.465 8
C19  23302161.141 7                 121340463.123 7
C21  25362312.266 7                 132068221.468 7
C22  21736951.023 7                 113190005.948 7
E05  23267903.281 8  23267905.609 8 122273659.924 8  92499242.239 8
E06  25934236.180 6  25934240.258 7 136285348.739 6 103098981.264 7
E09  24831534.328 8  24831536.551 8 130490588.729 8  98715292.653 8
E34  23638845.406 8  23638847.539 9 124222969.388 8  93973880.165 9
E36  24566957.188 8  24566960.121 8 129100226.872 8  97663495.068 8
G01  20311818.750 7                  20311822.945 8 106739324.607 7                  83173519.236 8
G02  21077059.984 8  21077060.754 6                 110760692.626 8  86307039.307 6
G03  20943768.109 7                  20943774.727 7 110060244.255 7                  85761262.532 7
G08  23888428.625 5                  23888439.605 6 125534552.853 5                  97818971.507 6
G17  23121626.992 6                  23121631.441 6 121504962.082 6                  94679221.670 6
G32  22897283.352 7                  22897289.656 5 120326024.679 7                  93760515.505 5
R02  20412746.141 8  20412749.594 7 108926315.507 8  84720420.083 7
R03  19612832.523 8  19612838.125 8 104989030.123 8  81658166.027 8
R17  20755770.586 8  20755777.039 7 111068321.974 8  86386390.535 7
R18  19215583.828 8  19215588.031 7 102574093.374 8  79780035.094 7
R19  21892512.961 7  21892516.172 7 117110174.813 7  91086135.822 7
> 2025 06 15 12 44 45.0000000  0 20
C12  22631575.727 7  22631572.035 8 117848548.789 7  91128214.853 8
C19  23302847.109 7                 121344036.088 7
C21  25357915.477 7                 132045321.063 7
C22  21734608.055 7                 113177806.474 7
E05  23264437.742 8  23264440.449 8 122255449.951 8  92485466.526 8
E06  25934648.844 6  25934650.859 7 136287506.591 6 103100613.628 7
E09  24830810.594 7  24830812.488 8 130486783.812 7  98712414.265 8
E34  23636629.219 8  23636631.465 9 124211323.928 8  93965070.450 9
E36  24567168.344 8  24567171.316 8 129101336.487 8  97664334.470 8
G01  20309762.289 8                  20309766.199 8 106728517.080 8                  83165097.780 8
G02  21076831.438 8  21076832.285 6                 110759491.997 8  86306103.750 6
G03  20940433.742 7                  20940440.059 7 110042717.171 7                  85747605.080 7
G08  23890550.836 5                  23890561.789 6 125545705.702 5                  97827662.031 6
G17  23118333.797 6                  23118337.340 6 121487652.316 6                  94665733.598 6
G32  22898117.641 6                  22898121.898 5 120330412.687 6                  93763934.714 5
R02  20413825.734 8  20413829.949 7 108932081.223 8  84724904.516 7
R03  19609886.445 8  19609891.488 8 104973257.721 8  81645898.599 8
R17  20757305.555 7  20757311.766 7 111076535.664 7  86392778.924 7
R18  19213835.516 8  19213837.840 7 102564753.166 8  79772770.480 7
R19  21887695.055 7  21887698.512 7 117084404.434 7  91066092.220 7
> 2025 06 15 12 44 50.0000000  0 20
C12  22628722.109 7  22628719.121 8 117833692.325 7  91116726.892 8
C19  23303535.688 7                 121347618.621 7
C21  25353518.281 7                 132022426.824 7
C22  21732268.148 7                 113165620.360 7
E05  23260974.625 8  23260977.273 8 122237250.345 8  92471698.642 8
E06  25935062.438 6  25935063.512 7 136289674.973 6 103102253.986 7
E09  24830088.797 8  24830090.961 8 130482992.201 8  98709545.924 8
E34  23634414.398 8  23634416.961 8 124199686.702 8  93956266.967 8
E36  24567381.234 8  24567383.988 8 129102453.982 8  97665179.837 8
G01  20307707.945 7                  20307712.070 8 106717723.008 7                  83156686.822 8
G02  21076605.219 8  21076606.012 6                 110758303.513 8  86305177.671 6
G03  20937100.594 8                  20937106.934 7 110025201.635 8                  85733956.606 7
G08  23892674.945 5                  23892685.320 6 125556863.093 5                  97836355.993 6
G17  23115041.641 6                  23115046.262 6 121470356.158 6                  94652256.038 6
G32  22898955.844 6                  22898960.879 5 120334813.434 6                  93767363.806 5
R02  20414909.664 8  20414913.316 7 108937862.652 8  84729401.188 7
R03  19606944.391 8  19606948.383 8 104957505.567 8  81633646.912 8
R17  20758844.039 8  20758849.684 7 111084764.293 8  86399178.949 7
R18  19212088.813 8  19212092.176 7 102555433.007 8  79765521.488 7
R19  21882877.586 7  21882882.148 7 117058642.208 7  91046054.953 7
> 2025 06 15 12 44 55.0000000  0 20
C12  22625871.422 7  22625868.273 8 117818847.454 7  91105247.915 8
C19  23304225.570 7                 121351209.835 7
C21  25349122.734 7                 131999537.890 7
C22  21729929.844 7                 113153446.729 7
E05  23257512.703 8  23257515.859 8 122219060.223 8  92457937.948 8
E06  25935476.984 6  25935477.910 7 136291853.044 6 103103901.691 7
E09  24829369.680 8  24829371.793 8 130479212.988 8  98706686.985 8
E34  23632201.203 8  23632203.891 9 124188056.829 8  93947469.047 9
E36  24567594.406 8  24567598.023 8 129103578.433 8  97666030.474 8
G01  20305656.258 8                  20305660.727 8 106706941.543 8                  83148285.685 8
G02  21076381.164 8  21076381.887 6                 110757126.303 8  86304260.360 6
G03  20933769.234 8                  20933775.801 7 110007696.769 8                  85720316.454 7
G08  23894799.750 5                  23894809.402 6 125568023.919 5                  97845052.729 6
G17  23111753.289 6                  23111757.223 6 121453072.575 6                  94638788.307 6
G32  22899794.906 6                  22899800.965 5 120339225.991 6                  93770802.215 5
R02  20415995.547 8  20415999.805 7 108943658.693 8  84733909.202 7
R03  19604004.680 8  19604009.555 8 104941772.518 8  81621410.113 8
R17  20760383.570 8  20760389.945 7 111093007.101 8  86405590.032 7
R18  19210346.227 8  19210349.531 7 102546132.103 8  79758287.445 7
R19  21878064.828 7  21878067.828 7 117032887.244 7  91026023.303 7
> 2025 06 15 12 45  0.0000000  0 20
C12  22623023.688 7  22623019.746 8 117804015.972 7  91093779.257 8
C19  23304916.391 7                 121354811.476 7
C21  25344727.602 6                 131976655.985 6
C22  21727595.141 7                 113141287.338 7
E05  23254053.383 8  23254056.543 8 122200881.384 8  92444185.786 8
E06  25935892.570 6  25935894.379 7 136294042.516 6 103105558.019 7
E09  24828653.055 8  24828655.230 8 130475447.950 8  98703838.757 8
E34  23629990.086 8  23629992.520 8 124176436.087 8  93938678.038 8
E36  24567810.023 8  24567813.742 8 129104711.688 8  97666887.762 8
G01  20303607.383 8                  20303611.883 8 106696174.428 8                  83139895.729 8
G02  21076159.344 8  21076160.375 6                 110755962.106 8  86303353.189 6
G03  20930440.359 8                  20930447.039 7 109990204.313 8                  85706685.974 7
G08  23896925.281 5                  23896933.375 6 125579190.079 5                  97853753.616 6
G17  23108464.797 6                  23108470.832 6 121435803.438 6                  94625331.916 6
G32  22900635.922 6                  22900644.363 5 120343652.120 6                  93774251.137 5
R02  20417084.477 8  20417089.188 7 108949471.215 8  84738430.053 7
R03  19601069.563 8  19601074.363 7 104926060.443 8  81609189.622 7
R17  20761927.063 8  20761933.355 7 111101265.584 8  86412013.288 7
R18  19208607.813 8  19208611.016 7 102536852.173 8  79751069.749 7
R19  21873251.000 7  21873255.285 7 117007141.244 7  91005998.668 7
> 2025 06 15 12 45  5.0000000  0 21
C12  22620178.063 7  22620174.125 8 117789197.070 7  91082320.350 8
C19  23305609.492 7                 121358422.762 7
C21  25340334.984 6                 131953780.335 6
C22  21725263.008 8                 113129141.390 8
E05  23250596.211 8  23250599.254 8 122182713.018 8  92430441.554 8
E06  25936309.992 6  25936312.980 7 136296242.652 6 103107222.424 7
E09  24827939.305 8  24827941.355 8 130471696.294 8  98701000.658 8
E34  23627780.289 8  23627782.719 9 124164823.666 8  93929893.316 9
E36  24568027.422 8  24568030.961 8 129105852.896 8  97667751.068 8
G01  20301560.711 8                  20301565.250 8 106685420.873 8                  83131516.348 8
G02  21075940.164 8  21075941.344 6                 110754810.108 8  86302455.520 6
G03  20927114.164 8                  20927120.563 7 109972723.505 8                  85693064.560 7
G08  23899049.492 5                  23899059.406 6 125590360.753 5                  97862457.984 6
G17  23105182.617 6                  23105187.516 6 121418547.961 6                  94611886.089 6
G32  22901480.828 6                  22901489.227 5 120348090.902 6                  93777709.906 5
R02  20418176.797 8  20418181.070 7 108955299.613 8  84742963.249 7
R03  19598137.516 8  19598143.211 7 104910368.588 8  81596984.844 7
R04  22859795.938 5  22859763.484 5 122412964.04015
R17  20763473.453 8  20763479.484 7 111109539.192 8  86418448.280 7
R18  19206873.453 8  19206876.754 7 102527592.474 8  79743867.750 7
R19  21868439.977 7  21868444.445 7 116981403.688 7  90985980.564 7
> 2025 06 15 12 45 10.0000000  0 21
C12  22617334.617 7  22617330.656 8 117774389.911 7  91070870.521 8
C19  23306304.031 7                 121362042.786 7
C21  25335943.453 6                 131930910.127 6
C22  21722932.383 8                 113117008.034 8
E05  23247140.781 8  23247143.676 8 122164554.270 8  92416704.594 8
E06  25936730.523 6  25936733.652 7 136298452.462 6 103108894.155 7
E09  24827227.797 8  24827229.789 8 130467957.161 8  98698172.039 8
E34  23625571.930 8  23625574.352 9 124153218.745 8  93921114.272 9
E36  24568246.148 8  24568249.547 8 129107001.216 8  97668619.759 8
G01  20299517.234 8                  20299521.199 8 106674680.073 8                  83123146.890 8
G02  21075723.500 8  21075724.781 6                 110753669.493 8  86301566.729 6
G03  20923789.273 8                  20923796.098 7 109955253.492 8                  85679451.573 7
G08  23901174.969 5                  23901185.801 6 125601535.067 5                  97871165.183 6
G17  23101900.180 5                  23101906.719 7 121401305.275 5                  94598450.277 7
G32  22902329.219 6                  22902335.891 5 120352541.739 6                  93781178.030 5
R02  20419272.383 8  20419276.211 7 108961142.577 8  84747507.777 7
R03  19595210.141 8  19595215.898 8 104894696.196 8  81584795.215 8
R04  22854541.750 4  22854508.871 5 122384816.472 4  95188212.41115
R17  20765022.484 8  20765028.215 7 111117826.904 8  86424894.269 7
R18  19205142.656 8  19205145.277 7 102518352.122 8  79736680.801 7
R19  21863629.617 7  21863634.148 7 116955673.644 7  90965968.306 7
> 2025 06 15 12 45 15.0000000  0 20
C12  22614493.055 7  22614489.121 8 117759595.424 7  91059430.491 8
C19  23307001.164 7                 121365672.463 7
C21  25331552.719 6                 131908046.172 6
C22  21720604.625 8                 113104888.163 8
E05  23243686.883 8  23243690.125 8 122146406.090 8  92402975.620 8
E06  25937152.047 6  25937156.105 7 136300672.949 6 103110573.962 7
E09  24826518.789 8  24826520.840 8 130464231.447 8  98695353.562 8
E34  23623365.609 8  23623367.629 8 124141622.197 8  93912341.568 8
E36  24568466.297 8  24568469.605 8 129108157.521 8  97669494.492 8
G01  20297475.750 7                  20297480.168 8 106663952.900 7                  83114788.056 8
G02  21075508.656 8  21075509.875 6                 110752541.166 8  86300687.521 6
G03  20920466.336 7                  20920474.078 7 109937795.169 7                  85665847.698 7
G08  23903302.313 5                  23903313.031 6 125612713.908 5                  97879875.954 6
G17  23098621.641 6                  23098628.262 6 121384076.255 6                  94585025.054 6
G32  22903178.578 6                  22903185.398 5 120357005.299 6                  93784656.136 5
R02  20420370.383 8  20420373.922 7 108967001.336 8  84752064.592 7
R03  19592286.305 8  19592291.805 8 104879043.865 8  81572621.171 8
R17  20766574.625 8  20766579.945 7 111126129.682 8  86431351.977 7
R18  19203415.344 8  19203418.941 7 102509132.062 8  79729509.633 7
R19  21858820.563 7  21858825.555 7 116929951.870 7  90945962.502 7
> 2025 06 15 12 45 20.0000000  0 20
C12  22611654.125 7  22611650.484 8 117744811.987 7  91047999.006 8
C19  23307700.047 7                 121369310.157 7
C21  25327162.367 6                 131885187.015 6
C22  21718279.445 8                 113092780.184 8
E05  23240235.234 8  23240238.297 8 122128266.815 8  92389253.383 8
E06  25937576.453 6  25937580.473 7 136302902.516 6 103112260.653 7
E09  24825812.328 8  24825814.125 8 130460517.521 8  98692543.986 8
E34  23621159.852 8  23621162.191 8 124130032.415 8  93903573.982 8
E36  24568687.844 8  24568690.887 8 129109320.230 8  97670374.071 8
G01  20295436.781 7                  20295440.988 8 106653237.715 7                  83106438.558 8
G02  21075296.016 8  21075297.172 6                 110751423.493 8  86299816.599 6
G03  20917146.773 8                  20917153.531 7 109920346.904 8                  85652251.639 7
G08  23905431.719 5                  23905441.223 6 125623895.590 5                  97888588.912 6
G17  23095346.086 6                  23095351.117 6 121366859.404 6                  94571609.337 6
G32  22904030.039 6                  22904036.637 6 120361480.021 6                  93788142.886 6
R02  20421470.266 8  20421474.512 7 108972874.170 8  84756632.366 7
R03  19589365.742 8  19589370.984 8 104863410.186 8  81560461.653 8
R17  20768128.922 8  20768134.574 7 111134445.825 8  86437820.086 7
R18  19201692.000 8  19201694.848 7 102499930.568 8  79722352.932 7
R19  21854014.875 7  21854018.754 7 116904236.836 7  90925961.893 7
> 2025 06 15 12 45 25.0000000  0 20
C12  22608816.859 7  22608813.969 8 117730039.536 7  91036576.024 8
C19  23308401.375 7                 121372955.834 7
C21  25322773.695 6                 131862332.492 6
C22  21715956.836 7                 113080684.017 7
E05  23236785.336 8  23236788.172 8 122110136.417 8  92375537.862 8
E06  25938002.383 6  25938006.445 7 136305141.073 6 103113954.095 7
E09  24825107.813 8  24825109.688 9 130456815.333 8  98689743.302 9
E34  23618955.469 8  23618957.996 9 124118449.363 8  93894811.481 9
E36  24568909.750 8  24568913.371 8 129110489.275 8  97671258.449 8
G01  20293399.406 7                  20293404.277 8 106642534.504 7                  83098098.402 8
G02  21075085.172 7  21075086.484 6                 110750316.422 7  86298953.938 6
G03  20913827.992 7                  20913835.137 7 109902908.654 7                  85638663.410 7
G08  23907557.578 5                  23907569.785 6 125635080.082 5                  97897304.109 6
G17  23092072.539 6                  23092077.027 6 121349654.583 6                  94558202.964 6
G32  22904883.484 6                  22904890.059 6 120365965.854 6                  93791638.384 6
R02  20422573.797 8  20422578.477 7 108978760.973 8  84761210.973 7
R03  19586448.680 8  19586454.285 7 104847795.071 8  81548316.586 7
R17  20769686.406 8  20769691.066 7 111142775.306 8  86444298.573 7
R18  19199970.891 8  19199974.277 7 102490747.672 8  79715210.670 7
R19  21849208.945 7  21849212.340 7 116878528.417 7  90905966.473 7
> 2025 06 15 12 45 30.0000000  0 20
C12  22605982.211 7  22605979.430 8 117715278.986 7  91025162.240 8
C19  23309103.211 7                 121376610.386 7
C21  25318384.813 6                 131839483.542 6
C22  21713636.000 7                 113068600.585 7
E05  23233337.508 8  23233339.922 8 122092015.770 8  92361829.728 8
E06  25938430.906 6  25938434.348 7 136307389.488 6 103115655.001 7
E09  24824405.609 8  24824407.609 8 130453125.773 8  98686952.179 8
E34  23616752.563 8  23616755.266 9 124106873.924 8  93886054.741 9
E36  24569133.906 8  24569137.230 8 129111665.540 8  97672148.272 8
G01  20291365.078 7                  20291370.004 8 106631844.167 7                  83089768.270 8
G02  21074876.930 7  21074878.043 6                 110749220.861 7  86298100.256 6
G03  20910511.602 7                  20910518.836 7 109885481.348 7                  85625083.705 7
G08  23909687.109 5                  23909698.266 6 125646268.382 5                  97906022.249 6
G17  23088799.281 5                  23088805.844 6 121332462.715 5                  94544806.709 6
G32  22905738.953 6                  22905746.289 6 120370463.679 6                  93795143.168 6
R02  20423679.797 8  20423684.125 7 108984662.654 8  84765801.174 7
R03  19583535.469 8  19583540.031 7 104832199.425 8  81536186.641 7
R17  20771244.117 8  20771250.715 7 111151119.009 8  86450788.133 7
R18  19198254.094 8  19198257.785 7 102481584.319 8  79708083.631 7
R19  21844404.578 7  21844408.266 7 116852827.585 7  90885976.985 7
> 2025 06 15 12 45 35.0000000  0 20
C12  22603150.391 7  22603147.176 8 117700530.329 7  91013757.657 8
C19  23309806.055 7                 121380273.754 7
C21  25313997.609 6                 131816640.164 6
C22  21711317.609 7                 113056529.839 7
E05  23229891.164 8  23229893.582 8 122073904.902 8  92348128.988 8
E06  25938860.805 6  25938864.309 7 136309647.736 6 103117363.332 7
E09  24823705.422 8  24823707.895 8 130449448.791 8  98684170.577 8
E34  23614551.539 8  23614553.965 8 124095306.095 8  93877303.748 8
E36  24569358.852 8  24569362.398 8 129112849.018 8  97673043.555 8
G01  20289333.547 7                  20289337.914 8 106621166.651 7                  83081448.141 8
G02  21074670.500 8  21074672.008 6                 110748136.738 8  86297255.484 6
G03  20907197.680 7                  20907204.980 7 109868064.949 7                  85611512.501 7
G08  23911813.539 5                  23911827.883 6 125657460.277 5                  97914743.205 6
G17  23085529.977 5                  23085536.879 6 121315283.740 5                  94531420.542 6
G32  22906597.805 6                  22906604.926 6 120374973.452 6                  93798657.228 6
R02  20424788.922 8  20424792.395 7 108990579.044 8  84770402.803 7
R03  19580625.867 8  19580630.695 8 104816623.411 8  81524071.956 8
R17  20772807.320 8  20772811.996 7 111159476.920 8  86457288.682 7
R18  19196540.852 8  19196545.137 7 102472440.447 8  79700971.724 7
R19  21839599.531 7  21839604.852 7 116827134.353 7  90865993.384 7
> 2025 06 15 12 45 40.0000000  0 20
C12  22600319.945 7  22600316.590 8 117685793.161 7  91002361.942 8
C19  23310511.461 7                 121383945.550 7
C21  25309610.688 6                 131793801.933 6
C22  21709002.898 8                 113044471.404 8
E05  23226446.375 8  23226449.027 8 122055803.402 8  92334435.330 8
E06  25939291.352 5  25939296.063 7 136311915.426 5 103119078.819 7
E09  24823008.633 8  24823010.496 8 130445784.030 8  98681398.210 8
E34  23612351.547 8  23612354.059 9 124083745.492 8  93868558.224 9
E36  24569585.320 8  24569588.930 8 129114039.316 8  97673944.003 8
G01  20287303.727 7                  20287308.488 8 106610501.602 7                  83073137.714 8
G02  21074466.453 8  21074468.035 6                 110747063.693 8  86296419.341 6
G03  20903885.813 7                  20903892.813 7 109850659.086 7                  85597949.493 7
G08  23913946.047 5                  23913958.867 6 125668655.455 5                  97923466.691 6
G17  23082266.023 6                  23082270.086 6 121298117.415 6                  94518044.145 6
G32  22907457.047 6                  22907465.422 6 120379494.759 6                  93802180.354 6
R02  20425900.016 8  20425904.184 7 108996510.029 8  84775015.779 7
R03  19577719.547 8  19577724.641 8 104801066.376 8  81511972.054 8
R17  20774371.227 8  20774376.387 7 111167848.697 8  86463800.049 7
R18  19194832.477 8  19194835.918 7 102463315.639 8  79693874.653 7
R19  21834799.094 7  21834802.797 7 116801448.438 7  90846015.452 7
> 2025 06 15 12 45 45.0000000  0 20
C12  22597492.391 7  22597489.102 8 117671067.964 7  90990975.472 8
C19  23311217.938 7                 121387626.144 7
C21  25305226.336 6                 131770969.208 6
C22  21706688.953 8                 113032425.660 8
E05  23223003.500 8  23223006.285 8 122037711.658 8  92320749.045 8
E06  25939725.023 5  25939729.594 7 136314192.917 5 103120801.716 7
E09  24822313.570 8  24822315.527 8 130442131.850 8  98678635.354 8
E34  23610153.313 8  23610155.590 8 124072192.450 8  93859818.429 8
E36  24569813.430 8  24569816.785 8 129115236.781 8  97674849.860 8
G01  20285276.531 7                  20285281.234 8 106599849.404 7                  83064837.285 8
G02  21074263.758 8  21074265.926 6                 110746002.093 8  86295592.108 6
G03  20900575.117 8                  20900582.449 7 109833264.086 8                  85584394.948 7
G08  23916080.563 5                  23916090.148 6 125679854.267 5                  97932193.026 6
G17  23078999.930 6                  23079005.863 6 121280963.955 6                  94504677.850 6
G32  22908319.625 6                  22908328.309 6 120384027.981 6                  93805712.756 6
R02  20427014.961 8  20427018.258 7 109002455.669 8  84779640.156 7
R03  19574817.500 8  19574821.813 7 104785528.645 8  81499887.156 7
R17  20775937.961 8  20775943.539 7 111176234.481 8  86470322.339 7
R18  19193126.047 8  19193130.039 7 102454210.318 8  79686792.749 7
R19  21829999.789 7  21830002.336 7 116775770.105 7  90826043.437 7
> 2025 06 15 12 45 50.0000000  0 20
C12  22594666.719 7  22594663.016 8 117656353.384 7  90979597.229 8
C19  23311925.992 7                 121391314.326 7
C21  25300843.406 6                 131748140.826 6
C22  21704377.867 7                 113020391.405 7
E05  23219562.344 8  23219565.184 8 122019628.455 8  92307069.232 8
E06  25940161.656 5  25940164.602 7 136316478.921 5 103122531.077 7
E09  24821620.984 8  24821622.684 8 130438491.019 8  98675881.089 8
E34  23607956.367 8  23607958.336 9 124060645.809 8  93851083.470 9
E36  24570042.531 8  24570045.746 8 129116440.237 8  97675760.274 8
G01  20283251.664 7                  20283256.695 8 106589208.815 7                  83056545.924 8
G02  21074064.281 8  21074065.891 6                 110744950.729 8  86294772.870 6
G03  20897267.195 7                  20897273.984 7 109815878.787 7                  85570847.967 7
G08  23918209.992 5                  23918221.910 6 125691055.420 5                  97940921.173 6
G17  23075737.602 5                  23075744.078 6 121263822.236 5                  94491320.712 6
G32  22909184.797 6                  22909192.531 6 120388571.927 6                  93809253.503 6
R02  20428131.297 8  20428135.098 7 109008414.728 8  84784274.985 7
R03  19571917.758 8  19571923.527 7 104770009.396 8  81487816.646 7
R17  20777507.328 8  20777513.090 7 111184633.260 8  86476854.724 7
R18  19191423.844 8  19191427.828 7 102445123.237 8  79679725.037 7
R19  21825201.133 7  21825202.641 7 116750098.191 7  90806076.413 7
> 2025 06 15 12 45 55.0000000  0 21
C12  22591842.672 7  22591839.258 8 117641649.880 7  90968227.532 8
C19  23312635.469 7                 121395010.418 7
C21  25296461.125 6                 131725317.144 6
C22  21702069.219 8                 113008368.913 8
E05  23216123.570 8  23216125.742 8 122001554.135 8  92293396.127 8
E06  25940598.539 5  25940601.285 7 136318773.872 5 103124267.220 7
E09  24820930.227 8  24820932.043 8 130434861.868 8  98673135.657 8
E34  23605760.109 8  23605762.305 9 124049105.879 8  93842353.584 9
E36  24570272.883 8  24570275.988 8 129117649.993 8  97676675.434 8
G01  20281229.523 7                  20281234.461 8 106578580.221 7                  83048263.891 8
G02  21073866.445 8  21073867.879 6                 110743909.932 8  86293961.850 6
G03  20893960.461 7                  20893967.676 7 109798503.485 7                  85557308.777 7
G08  23920340.383 5                  23920353.305 6 125702259.399 5                  97949651.524 6
G17  23072477.492 6                  23072484.035 6 121246692.663 6                  94477972.999 6
G32  22910051.906 6                  22910059.469 6 120393126.806 6                  93812802.758 6
R02  20429250.906 8  20429254.703 7 109014387.786 8  84788920.685 7
R03  19569021.930 8  19569027.059 7 104754508.448 8  81475760.328 7
R04  22807253.398 5  22807260.883 5 122131816.44115  94991436.14115
R17  20779079.891 8  20779085.148 7 111193045.352 8  86483397.443 7
R18  19189724.461 8  19189728.832 7 102436054.768 8  79672671.775 7
R19  21820402.484 7  21820405.566 7 116724432.954 7  90786114.560 7
> 2025 06 15 12 46  0.0000000  0 21
C12  22589020.734 7  22589017.742 8 117626958.384 7  90956867.156 8
C19  23313346.273 7                 121398715.449 7
C21  25292079.664 6                 131702499.151 6
C22  21699763.430 8                 112996359.275 8
E05  23212685.016 8  23212688.152 8 121983489.754 8  92279730.556 8
E06  25941036.211 6  25941039.813 7 136321078.757 6 103126010.854 7
E09  24820241.484 8  24820243.863 8 130431245.438 8  98670399.851 8
E34  23603565.641 8  23603567.813 8 124037573.713 8  93833629.582 8
E36  24570504.695 8  24570507.609 8 129118867.083 8  97677596.151 8
G01  20279209.094 7                  20279213.777 8 106567964.614 7                  83039991.984 8
G02  21073670.586 8  21073671.609 6                 110742880.763 8  86293159.896 6
G03  20890656.672 7                  20890663.449 7 109781139.264 7                  85543778.209 7
G08  23922471.188 5                                                                
G17  23069220.289 6                  23069226.629 6 121229576.235 6                  94464635.543 6
G32  22910919.945 6                  22910929.852 6 120397693.867 6                  93816361.467 6
R02  20430372.695 8  20430376.887 7 109020375.754 8  84793578.000 7
R03  19566130.766 8  19566135.336 8 104739027.282 8  81463719.434 8
R04  22802008.320 5  22802018.719 6 122103740.567 5  94969599.479 6
R17  20780654.516 8  20780659.836 7 111201471.629 8  86489951.167 7
R18  19188029.953 8  19188033.266 7 102427005.933 8  79665633.786 7
R19  21815605.984 7  21815608.340 7 116698775.577 7  90766158.837 7
> 2025 06 15 12 46  5.0000000  0 21
C12  22586201.547 7  22586198.828 8 117612279.085 7  90945516.191 8
C19  23314059.773 7                 121402429.468 7
C21  25287698.969 6                 131679686.979 6
C22  21697459.078 8                 112984362.585 8
E05  23209249.727 8  23209252.426 8 121965435.390 8  92266072.553 8
E06  25941476.266 6  25941480.273 7 136323393.715 6 103127762.075 7
E09  24819555.898 8  24819558.113 9 130427641.847 8  98667673.749 9
E34  23601372.414 8  23601374.828 8 124026049.405 8  93824911.523 8
E36  24570737.594 8  24570740.621 8 129120091.636 8  97678522.510 8
G01  20277191.094 7                  20277196.520 8 106557362.141 7                  83031730.320 8
G02  21073476.422 8  21073478.133 6                 110741863.285 8  86292367.048 6
G03  20887353.703 7                  20887361.496 7 109763786.211 7                  85530256.357 7
G08  23924606.531 5                  23924620.145 6 125724678.61315                  97967121.02216
G17  23065967.258 6                  23065973.043 6 121212472.960 6                  94451308.293 6
G32  22911792.641 6                  22911799.953 6 120402272.904 6                  93819929.541 6
R02  20431497.141 8  20431502.105 7 109026378.450 8  84798246.752 7
R03  19563241.836 8  19563246.918 8 104723565.628 8  81451693.701 8
R04  22796766.141 5  22796777.473 6 122075672.534 5  94947768.792 6
R17  20782231.320 8  20782237.375 7 111209912.331 8  86496516.156 7
R18  19186339.047 8  19186342.125 7 102417976.926 8  79658611.211 7
R19  21810812.086 7  21810813.609 7 116673126.085 7  90746209.231 7
> 2025 06 15 12 46 10.0000000  0 21
C12  22583385.297 7  22583381.801 8 117597611.449 7  90934174.246 8
C19  23314774.977 7                 121406152.016 7
C21  25283319.484 7                 131656880.150 7
C22  21695157.500 7                 112972378.314 7
E05  23205815.656 8  23205818.535 8 121947390.557 8  92252421.774 8
E06  25941919.594 6  25941922.590 7 136325718.190 6 103129520.528 7
E09  24818871.984 8  24818874.699 8 130424050.542 8  98664956.945 8
E34  23599181.039 8  23599183.199 9 124014532.453 8  93816199.020 9
E36  24570971.750 8  24570974.895 8 129121323.109 8  97679454.109 8
G01  20275176.672 7                  20275181.375 8 106546772.275 7                  83023478.485 8
G02  21073285.125 8  21073286.543 6                 110740857.005 8  86291582.938 6
G03  20884053.477 7                  20884060.906 7 109746443.789 7                  85516742.784 7
G08  23926741.555 5                  23926754.488 6 125735893.491 5                  97975859.873 6
G17  23062715.117 6                  23062720.820 6 121195382.495 6                  94437991.061 6
G32  22912665.953 5                  22912673.000 6 120406863.615 5                  93823506.665 6
R02  20432625.477 8  20432629.797 7 109032395.951 8  84802927.008 7
R03  19560357.836 8  19560362.074 8 104708123.293 8  81439683.004 8
R04  22791524.797 5  22791537.742 6 122047611.781 5  94925943.827 6
R17  20783810.305 8  20783817.113 7 111218366.959 8  86503091.963 7
R18  19184650.727 8  19184654.516 7 102408967.131 8  79651603.604 7
R19  21806017.148 7  21806019.867 7 116647484.080 7  90726265.427 7
> 2025 06 15 12 46 15.0000000  0 21
C12  22580570.813 7  22580567.754 8 117582956.591 7  90922842.188 8
C19  23315491.438 7                 121409884.123 7
C21  25278939.852 6                 131634079.706 6
C22  21692859.656 7                 112960407.585 7
E05  23202383.602 8  23202386.699 8 121929356.349 8  92238779.026 8
E06  25942364.492 6  25942366.891 7 136328053.253 6 103131286.967 7
E09  24818191.438 7  24818193.840 8 130420472.648 7  98662250.289 8
E34  23596991.023 8  23596993.219 9 124003023.971 8  93807492.924 9
E36  24571207.594 8  24571210.754 8 129122562.604 8  97680391.780 8
G01  20273164.211 8                  20273169.180 8 106536196.104 8                  83015237.333 8
G02  21073095.805 8  21073097.391 6                 110739863.019 8  86290808.396 6
G03  20880755.555 7                  20880763.059 7 109729113.132 7                  85503238.390 7
G08  23928872.102 4                  23928889.043 6 125747112.65814                  97984602.02116
G17  23059464.430 6                  23059470.840 6 121178305.907 6                  94424684.604 6
G32  22913541.555 6                  22913548.777 6 120411467.042 6                  93827093.720 6
R02  20433755.820 8  20433759.711 7 109038428.778 8  84807619.198 7
R03  19557475.734 8  19557481.469 8 104692701.307 8  81427688.146 8
R04  22786285.688 5  22786298.484 6 122019559.545 5  94904125.460 6
R17  20785393.602 8  20785399.320 7 111226836.383 8  86509679.304 7
R18  19182966.813 8  19182970.457 7 102399977.733 8  79644611.846 7
R19  21801226.266 7  21801227.695 7 116621850.687 7  90706328.338 7
> 2025 06 15 12 46 20.0000000  0 21
C12  22577758.641 7  22577755.535 8 117568313.928 7  90911519.540 8
C19  23316209.820 7                 121413625.229 7
C21  25274562.188 6                 131611285.168 6
C22  21690563.031 7                 112948449.765 7
E05  23198954.336 8  23198956.840 8 121911332.203 8  92225143.882 8
E06  25942810.219 6  25942813.051 7 136330398.328 6 103133060.983 7
E09  24817513.297 8  24817515.430 9 130416907.562 8  98659553.314 9
E34  23594802.508 8  23594804.727 8 123991523.354 8  93798792.789 8
E36  24571444.563 8  24571448.016 8 129123809.552 8  97681335.085 8
G01  20271153.813 7                  20271158.727 8 106525633.090 7                  83007006.397 8
G02  21072909.109 8  21072910.613 6                 110738880.759 8  86290042.996 6
G03  20877459.641 7                  20877467.328 7 109711793.666 7                  85489742.720 7
G08  23931013.758 5                  23931024.566 6 125758335.696 5                  97993347.248 6
G17  23056218.469 6                  23056223.820 6 121161242.387 6                  94411388.437 6
G32  22914419.352 5                  22914427.102 6 120416082.529 5                  93830690.272 6
R02  20434889.250 8  20434893.656 7 109044476.499 8  84812322.983 7
R03  19554598.555 8  19554603.734 8 104677298.938 8  81415708.520 8
R04  22781047.438 5  22781061.703 5 121991515.216 5  94882313.296 5
R17  20786979.242 8  20786985.023 7 111235320.269 8  86516277.851 7
R18  19181286.563 8  19181290.172 7 102391008.097 8  79637635.461 7
R19  21796436.672 7  21796437.527 7 116596225.197 7  90686397.424 7
> 2025 06 15 12 46 25.0000000  0 21
C12  22574949.016 7  22574946.035 8 117553683.001 7  90900205.985 8
C19  23316930.000 7                 121417374.837 7
C21  25270185.359 6                 131588495.911 6
C22  21688268.703 7                 112936504.417 7
E05  23195526.492 8  23195528.801 8 121893317.640 8  92211515.990 8
E06  25943258.195 6  25943261.055 7 136332752.917 6 103134842.193 7
E09  24816837.227 8  24816839.336 8 130413354.776 8  98656865.658 8
E34  23592615.406 8  23592617.668 8 123980030.139 8  93790098.246 8
E36  24571683.656 8  24571686.605 8 129125063.459 8  97682283.656 8
G01  20269146.383 7                  20269151.305 8 106515082.712 7                  82998785.317 8
G02  21072724.211 8  21072725.906 6                 110737909.698 8  86289286.327 6
G03  20874165.797 7                  20874173.738 7 109694484.884 7                  85476255.357 7
G08  23933150.336 5                  23933161.016 6 125769562.055 5                  98002095.061 6
G17  23052971.031 5                  23052978.805 6 121144191.854 5                  94398102.347 6
G32  22915299.367 5                  22915307.211 5 120420709.479 5                  93834295.742 5
R02  20436025.070 8  20436029.270 7 109050538.712 8  84817038.032 7
R03  19551724.250 8  19551730.328 8 104661915.984 8  81403744.009 8
R04  22775814.695 5  22775827.215 6 121963478.323 5  94860506.813 6
R17  20788568.125 8  20788573.238 7 111243818.087 8  86522887.237 7
R18  19179609.406 8  19179613.055 7 102382057.780 8  79630674.106 7
R19  21791646.445 7  21791648.375 7 116570607.227 7  90666472.385 7
> 2025 06 15 12 46 30.0000000  0 21
C12  22572141.828 7  22572138.523 8 117539064.063 7  90888901.705 8
C19  23317651.469 7                 121421133.196 7
C21  25265809.570 6                 131565712.362 6
C22  21685977.047 7                 112924571.839 7
E05  23192100.195 8  23192102.676 8 121875312.938 8  92197895.553 8
E06  25943707.633 6  25943710.914 7 136335117.334 6 103136630.852 7
E09  24816163.914 8  24816165.664 8 130409814.575 8  98654187.520 8
E34  23590429.477 8  23590432.070 9 123968544.602 8  93781409.521 9
E36  24571923.703 8  24571926.586 8 129126324.628 8  97683237.712 8
G01  20267141.328 7                  20267145.934 8 106504545.306 7                  82990574.348 8
G02  21072542.414 8  21072543.199 6                 110736950.171 8  86288538.630 6
G03  20870873.992 7                  20870881.875 7 109677187.069 7                  85462776.556 7
G08  23935287.266 5                  23935297.660 5 125780792.021 5                  98010845.677 5
G17  23049731.227 5                  23049736.832 6 121127154.285 5                  94384826.297 6
G32  22916183.578 6                  22916190.258 5 120425348.547 6                  93837910.571 5
R02  20437164.375 8  20437167.777 7 109056615.616 8  84821764.534 7
R03  19548854.820 8  19548860.695 8 104646552.357 8  81391794.532 8
R04  22770582.258 6  22770592.148 6 121935449.194 6  94838706.354 6
R17  20790159.008 8  20790163.773 7 111252330.002 8  86529507.599 7
R18  19177936.469 8  19177940.340 7 102373127.129 8  79623728.042 7
R19  21786858.516 7  21786861.156 7 116544997.111 7  90646553.403 7
> 2025 06 15 12 46 35.0000000  0 20
C12  22569336.273 7  22569333.746 8 117524457.420 7  90877606.934 8
C19  23318375.391 7                 121424900.635 7
C21  25261435.484 6                 131542934.700 6
C22  21683687.852 7                 112912652.254 7
E05  23188675.969 8  23188678.480 8 121857318.380 8  92184282.793 8
E06  25944160.023 6  25944162.777 7 136337491.783 6 103138427.131 7
E09  24815492.422 8  24815494.391 8 130406287.263 8  98651519.141 8
E34  23588245.898 8  23588247.992 8 123957067.048 8  93772726.828 8
E36  24572165.273 8  24572167.941 8 129127593.291 8  97684197.445 8
G01  20265138.359 7                  20265143.195 8 106494021.088 7                  82982373.669 8
G02  21072361.063 8  21072362.938 6                 110736002.393 8  86287800.096 6
G03  20867584.336 7                  20867592.547 7 109659900.542 7                  85449306.553 7
G08  23937426.578 5                  23937435.266 6 125792025.773 5                  98019599.200 6
G32  22917068.008 5                  22917075.363 5 120429999.774 5                  93841534.870 5
R02  20438305.445 8  20438310.098 7 109062707.430 8  84826502.591 7
R03  19545988.336 8  19545993.855 8 104631208.590 8  81379860.488 8
R04  22765349.859 6  22765359.578 6 121907427.883 6  94816912.041 6
R17  20791751.086 8  20791757.297 7 111260856.341 8  86536139.181 7
R18  19176267.102 8  19176270.941 7 102364216.325 8  79616797.409 7
R19  21782071.883 7  21782075.324 7 116519395.075 7  90626640.716 7
> 2025 06 15 12 46 40.0000000  0 21
C12  22566533.641 7  22566530.668 8 117509861.860 7  90866320.737 8
C19  23319101.055 7                 121428675.888 7
C21  25257062.688 6                 131520161.801 6
C22  21681401.531 7                 112900744.482 7
E05  23185253.242 8  23185255.973 8 121839332.749 8  92170676.790 8
E06  25944613.172 6  25944616.523 7 136339875.080 6 103140230.063 7
E09  24814823.617 8  24814825.348 8 130402771.608 8  98648859.569 8
E34  23586062.695 8  23586065.172 9 123945596.234 8  93764049.236 9
E36  24572407.992 8  24572410.645 8 129128868.262 8  97685161.950 8
G01  20263138.125 7                  20263142.426 8 106483508.908 7                  82974182.354 8
G02  21072183.063 8  21072184.441 6                 110735065.181 8  86287069.804 6
G03  20864297.266 7                  20864304.695 7 109642624.052 7                  85435844.344 7
G08  23939563.344 5                  23939573.672 5 125803262.224 5                  98028354.860 5
G17  23043249.703 4                                 121093116.30014                
G32  22917955.195 5                  22917962.965 5 120434661.815 5                  93845167.595 5
R02  20439450.195 8  20439453.734 7 109068813.033 8  84831251.399 7
R03  19543125.984 8  19543131.320 8 104615883.508 8  81367940.985 8
R04  22760123.609 6  22760128.223 6 121879413.255 6  94795122.891 6
R17  20793347.195 8  20793352.645 7 111269395.786 8  86542780.963 7
R18  19174601.461 8  19174605.250 7 102355324.183 8  79609881.315 7
R19  21777287.508 7  21777290.113 7 116493799.945 7  90606733.403 7
> 2025 06 15 12 46 45.0000000  0 21
C12  22563733.438 7  22563730.313 8 117495278.376 7  90855043.845 8
C19  23319827.453 7                 121432459.938 7
C21  25252689.570 6                 131497394.561 6
C22  21679116.656 7                 112888849.472 7
E05  23181832.164 8  23181835.309 8 121821357.019 8  92157078.276 8
E06  25945068.016 6  25945072.004 7 136342268.153 6 103142040.432 7
E09  24814156.781 8  24814158.680 8 130399268.570 8  98646209.538 8
E34  23583881.789 8  23583883.848 9 123934133.154 8  93755377.492 9
E36  24572652.352 8  24572654.633 8 129130150.504 8  97686131.950 8
G01  20261140.516 7                  20261144.500 8 106473009.687 7                  82966001.135 8
G02  21072007.063 8  21072008.176 6                 110734139.501 8  86286348.495 6
G03  20861011.602 7                  20861019.414 7 109625358.580 7                  85422390.725 7
G08  23941703.109 5                  23941712.195 5 125814502.246 5                  98037113.237 5
G17  23040020.844 5                  23040024.773 6 121076117.532 5                  94345045.76416
G32  22918844.086 5                  22918851.023 5 120439335.817 5                  93848809.661 5
R02  20440596.492 8  20440600.902 7 109074933.293 8  84836011.600 7
R03  19540266.914 8  19540272.121 8 104600577.982 8  81356036.683 8
R04  22754894.070 6  22754898.770 6 121851406.487 6  94773339.992 6
R17  20794946.258 8  20794951.156 7 111277949.395 8  86549433.742 7
R18  19172939.016 8  19172942.996 7 102346451.720 8  79602980.494 7
R19  21772503.625 7  21772506.938 7 116468212.699 7  90586832.242 7
> 2025 06 15 12 46 50.0000000  0 21
C12  22560935.531 7  22560932.453 8 117480708.869 7  90843777.793 8
C19  23320556.047 7                 121436254.657 7
C21  25248319.313 6                 131474634.939 6
C22  21676834.938 7                 112876969.150 7
E05  23178414.086 8  23178416.887 8 121803393.148 8  92143488.725 8
E06  25945524.602 5  25945529.758 7 136344673.038 5 103143859.713 7
E09  24813493.586 8  24813494.805 8 130395780.078 8  98643570.492 8
E34  23581701.945 8  23581704.313 9 123922679.704 8  93746713.030 9
E36  24572897.414 8  24572900.434 8 129131441.936 8  97687108.904 8
G01  20259145.031 7                  20259149.582 8 106462525.382 7                  82957831.554 8
G02  21071833.648 8  21071834.438 6                 110733227.247 8  86285637.647 6
G03  20857728.070 7                  20857736.488 7 109608106.072 7                  85408947.224 7
G08  23943843.266 5                  23943852.590 5 125825747.631 5                  98045875.969 5
G17  23036786.406 5                  23036792.641 6 121059133.632 5                  94331811.718 6
G32  22919735.477 5                  22919743.023 6 120444023.553 5                  93852462.389 6
R02  20441747.070 8  20441751.145 7 109081070.183 8  84840784.741 7
R03  19537410.633 8  19537416.684 8 104585294.042 8  81344149.184 8
R04  22749665.406 6  22749672.488 5 121823409.351 6  94751564.456 5
R17  20796545.953 8  20796552.941 7 111286519.096 8  86556099.091 7
R18  19171281.148 8  19171285.137 7 102337600.822 8  79596096.464 7
R19  21767720.484 7  21767725.367 7 116442635.140 7  90566938.597 7
> 2025 06 15 12 46 55.0000000  0 21
C12  22558140.266 7  22558137.145 8 117466151.328 7  90832520.982 8
C19  23321286.023 7                 121440058.025 7
C21  25243949.813 6                 131451880.885 6
C22  21674556.672 7                 112865101.475 7
E05  23174997.352 8  23175000.289 8 121785439.064 8  92129906.576 8
E06  25945985.453 5  25945989.328 7 136347087.521 5 103145686.223 7
E09  24812832.023 8  24812833.297 8 130392304.057 8  98640940.897 8
E34  23579523.633 8  23579526.219 9 123911233.886 8  93738054.343 9
E36  24573144.297 8  24573147.563 8 129132740.513 8  97688091.257 8
G01  20257152.672 7                  20257156.730 8 106452053.942 7                  82949671.986 8
G02  21071661.961 8  21071662.813 6                 110732326.423 8  86284935.704 6
G03  20854447.602 7                  20854454.977 7 109590864.479 7                  85395512.209 7
G08  23945983.156 5                  23945993.500 5 125836996.563 5                  98054641.303 5
G17  23033559.406 6                  23033563.863 6 121042162.854 6                  94318587.789 6
G32  22920633.508 6                  22920638.047 5 120448723.063 6                  93856124.383 5
R02  20442899.250 8  20442903.570 7 109087221.459 8  84845569.066 7
R03  19534560.031 8  19534565.164 7 104570029.776 8  81332276.984 7
R04  22744430.680 5  22744446.250 5 121795419.948 5  94729794.994 5
R17  20798151.070 8  20798156.660 7 111295102.826 8  86562775.302 7
R18  19169626.625 8  19169630.707 7 102328769.444 8  79589227.632 7
R19  21762941.563 7  21762945.359 7 116417065.531 7  90547051.123 7
> 2025 06 15 12 47  0.0000000  0 21
C12  22555346.156 7  22555343.539 8 117451605.618 7  90821273.333 8
C19  23322018.078 7                 121443869.888 7
C21  25239581.195 6                 131429132.291 6
C22  21672279.898 7                 112853246.309 7
E05  23171582.867 8  23171585.555 8 121767494.647 8  92116331.757 8
E06  25946445.703 5  25946450.531 7 136349511.563 5 103147519.967 7
E09  24812172.945 8  24812174.195 8 130388840.380 8  98638320.653 8
E34  23577347.141 8  23577349.582 9 123899795.521 8  93729401.303 9
E36  24573393.344 8  24573395.996 8 129134046.105 8  97689078.926 8
G01  20255162.406 7                  20255166.797 8 106441595.237 7                  82941522.329 8
G02  21071491.977 8  21071493.699 6                 110731436.871 8  86284242.544 6
G03  20851168.477 7                  20851176.270 7 109573633.608 7                  85382085.540 7
G08  23948123.055 5                  23948134.699 5 125848248.714 5                  98063409.230 5
G17  23030331.625 6                  23030336.910 6 121025205.147 6                  94305373.999 6
G32  22921528.477 5                  22921534.734 6 120453434.052 5                  93859795.290 6
R02  20444054.188 8  20444059.168 7 109093387.181 8  84850364.627 7
R03  19531711.578 8  19531717.328 8 104554784.631 8  81320419.657 8
R04  22739209.813 5  22739219.520 5 121767438.033 5  94708031.252 5
R17  20799757.469 8  20799763.750 7 111303700.513 8  86569462.368 7
R18  19167976.070 8  19167980.008 7 102319957.491 8  79582373.912 7
R19  21758163.680 7  21758166.844 7 116391503.484 7  90527169.556 7
> 2025 06 15 12 47  5.0000000  0 20
C12  22552555.148 7  22552552.156 8 117437071.313 7  90810034.453 8
C19  23322751.930 7                 121447689.830 7
C21  25235213.797 7                 131406388.766 7
C22  21670005.039 7                 112841403.235 7
E05  23168170.320 8  23168172.574 8 121749559.498 8  92102763.932 8
E06  25946909.094 5  25946913.449 7 136351944.702 5 103149360.602 7
E09  24811515.430 8  24811517.270 8 130385388.605 8  98635709.415 8
E34  23575171.813 8  23575174.313 9 123888364.240 8  93720753.616 9
E36  24573642.891 8  24573645.695 8 129135358.280 8  97690071.568 8
G01  20253174.078 7                  20253178.914 8 106431148.855 7                  82933382.312 8
G02  21071325.617 8  21071326.484 6                 110730558.138 8  86283557.818 6
G03  20847892.016 7                  20847899.078 7 109556413.146 7                  85368666.983 7
G08  23950264.531 5                  23950276.875 5 125859503.726 5                  98072179.390 5
G17  23027107.891 6                  23027112.004 6 121008259.909 6                  94292169.896 6
G32  22922426.930 6                  22922433.309 6 120458156.311 6                  93863474.889 6
R02  20445212.688 8  20445216.973 7 109099566.829 8  84855171.028 7
R03  19528868.367 8  19528872.879 7 104539558.446 8  81308577.069 7
R17  20801367.148 8  20801373.273 7 111312311.564 8  86576159.843 7
R18  19166329.531 8  19166332.945 7 102311164.591 8  79575534.972 7
R19  21753386.031 7  21753389.672 7 116365948.693 7  90507293.615 7
> 2025 06 15 12 47 10.0000000  0 20
C12  22549766.305 7  22549763.473 8 117422548.843 7  90798804.775 8
C19  23323486.727 7                 121451518.229 7
C21  25230847.508 7                 131383650.664 7
C22  21667733.211 7                 112829572.660 7
E05  23164758.617 8  23164761.449 8 121731633.994 8  92089203.420 8
E06  25947374.125 5  25947378.223 7 136354387.334 5 103151208.408 7
E09  24810860.898 8  24810862.789 8 130381949.167 8  98633107.501 8
E34  23572998.172 8  23573000.379 8 123876940.396 8  93712111.562 8
E36  24573893.883 8  24573896.770 8 129136677.447 8  97691069.500 8
G01  20251188.961 7                  20251193.566 8 106420715.242 7                  82925252.218 8
G02  21071160.398 7  21071161.625 6                 110729690.670 7  86282881.863 6
G03  20844617.227 7                  20844624.348 7 109539203.383 7                  85355256.802 7
G08  23952409.453 5                  23952419.137 5 125870761.989 5                  98080952.049 5
G17  23023885.930 6                  23023890.160 6 120991327.482 6                  94278975.786 6
G32  22923329.281 6                  22923335.121 5 120462890.051 6                  93867163.533 5
R02  20446373.102 8  20446377.668 7 109105760.730 8  84859988.531 7
R03  19526026.367 8  19526032.375 8 104524351.394 8  81296749.373 8
R17  20802978.570 8  20802984.484 7 111320936.386 8  86582868.032 7
R18  19164685.414 8  19164688.879 7 102302391.015 8  79568711.067 7
R19  21748609.656 7  21748614.363 6 116340401.529 7  90487423.607 6
> 2025 06 15 12 47 15.0000000  0 21
C12  22546979.516 7  22546976.262 8 117408037.456 7  90787583.638 8
C19  23324223.766 7                 121455354.361 7
C21  25226480.727 6                 131360917.281 6
C22  21665463.930 7                 112817753.837 7
E05  23161349.453 8  23161352.016 8 121713717.413 8  92075649.648 8
E06  25947841.813 5  25947844.484 7 136356838.727 5 103153062.856 7
E09  24810208.078 8  24810210.504 8 130378521.290 8  98630514.337 8
E34  23570825.328 8  23570827.809 8 123865523.323 8  93703474.611 8
E36  24574145.828 8  24574148.930 8 129138002.851 8  97692072.167 8
G01  20249205.711 7                  20249210.141 8 106410293.604 7                  82917131.452 8
G02  21070997.695 8  21070998.602 6                 110728833.708 8  86282214.109 6
G03  20841343.875 7                  20841351.309 7 109522003.670 7                  85341854.450 7
G08  23954550.781 5                  23954560.113 4 125882022.691 5                  98089726.561 4
G17  23020667.531 6                  23020669.586 6 120974407.438 6                  94265791.284 6
G32  22924230.875 6                  22924237.094 5 120467634.520 6                  93870860.531 5
R02  20447536.930 8  20447540.949 7 109111968.295 8  84864816.613 7
R03  19523190.133 8  19523194.617 8 104509163.211 8  81284936.345 8
R04  22723542.609 6  22723548.496 6 121683538.31316  94642773.65116
R17  20804593.508 8  20804599.074 7 111329574.215 8  86589586.316 7
R18  19163045.578 8  19163049.176 7 102293636.130 8  79561901.704 7
R19  21743835.711 7  21743839.773 7 116314861.380 7  90467559.097 7
> 2025 06 15 12 47 20.0000000  0 20
C12  22544194.664 7  22544192.262 8 117393538.312 7  90776371.984 8
C19  23324961.523 7                 121459199.342 7
C21  25222117.688 7                 131338189.746 7
C22  21663196.445 7                 112805947.927 7
E05  23157941.594 8  23157944.480 8 121695810.888 8  92062103.499 8
E06  25948309.961 6  25948312.418 7 136359299.896 6 103154924.721 7
E09  24809558.477 7  24809560.594 8 130375106.146 7  98627930.798 8
E34  23568654.508 8  23568656.594 9 123854114.079 8  93694843.595 9
E36  24574399.211 8  24574402.500 8 129139335.641 8  97693080.410 8
G01  20247225.055 8                  20247229.785 8 106399885.108 8                  82909020.940 8
G02  21070835.875 8  21070837.742 6                 110727988.383 8  86281555.424 6
G03  20838073.531 7                  20838080.262 7 109504815.104 7                  85328460.779 7
G08  23956694.242 5                  23956702.988 5 125893287.088 5                  98098503.884 5
G17  23017446.219 5                  23017453.090 6 120957500.524 5                  94252617.148 6
G32  22925136.266 6                  22925142.203 6 120472391.018 6                  93874566.896 6
R02  20448703.195 8  20448708.004 7 109118190.337 8  84869655.976 7
R03  19520355.406 8  19520361.258 8 104493994.598 8  81273138.544 8
R17  20806209.516 8  20806215.273 7 111338226.305 8  86596315.703 7
R18  19161409.367 8  19161412.848 7 102284901.090 8  79555107.781 7
R19  21739064.039 7  21739066.715 7 116289329.367 7  90447700.888 7
> 2025 06 15 12 47 25.0000000  0 20
C12  22541413.164 7  22541410.238 8 117379052.105 7  90765170.348 8
C19  23325701.695 7                 121463053.852 7
C21  25217753.805 7                 131315468.774 7
C22  21660931.000 7                 112794155.614 7
E05  23154536.664 8  23154538.973 8 121677915.169 8  92048565.516 8
E06  25948780.875 6  25948782.598 7 136361771.736 6 103156794.649 7
E09  24808911.453 7  24808913.305 8 130371704.418 7  98625357.410 8
E34  23566485.289 8  23566487.164 8 123842713.441 8  93686219.091 8
E36  24574654.484 8  24574657.637 8 129140676.538 8  97694094.786 8
G01  20245247.070 8                  20245251.789 8 106389490.455 8                  82900921.230 8
G02  21070677.805 8  21070679.570 6                 110727155.463 8  86280906.379 6
G03  20834803.797 7                  20834811.680 7 109487638.442 7                  85315076.347 7
G08  23958840.430 6                  23958849.129 5 125904555.803 6                  98107284.639 5
G17  23014231.820 5                  23014238.090 6 120940607.687 5                  94239453.859 6
G32  22926043.438 6                  22926050.469 6 120477160.082 6                  93878283.037 6
R02  20449871.914 8  20449876.508 7 109124427.920 8  84874507.408 7
R03  19517526.094 8  19517531.379 8 104478846.555 8  81261356.734 8
R17  20807830.242 8  20807835.207 7 111346893.266 8  86603056.622 7
R18  19159776.828 8  19159780.203 7 102276186.589 8  79548329.833 7
R19  21734292.813 7  21734295.598 7 116263806.235 7  90427849.542 7
> 2025 06 15 12 47 30.0000000  0 21
C12  22538633.914 7  22538630.813 8 117364577.847 7  90753977.945 8
C19  23326443.633 7                 121466916.903 7
C21  25213392.023 7                 131292753.306 7
C22  21658669.633 7                 112782375.842 7
E05  23151133.352 8  23151135.449 8 121660029.200 8  92035034.913 8
E06  25949251.500 6  25949254.473 7 136364253.055 6 103158671.753 7
E09  24808266.523 8  24808268.313 8 130368315.072 8  98622793.384 8
E34  23564317.203 8  23564319.043 8 123831320.369 8  93677600.301 8
E36  24574910.789 8  24574914.180 8 129142024.475 8  97695114.491 8
G01  20243271.625 8                  20243276.004 8 106379108.624 8                  82892831.490 8
G02  21070521.500 8  21070523.359 6                 110726333.846 8  86280266.164 6
G03  20831537.422 7                  20831545.387 7 109470472.623 7                  85301700.378 7
G08  23960984.250 5                  23960994.371 5 125915827.757 5                  98116067.968 5
G17  23011018.969 5                  23011025.797 6 120923727.872 5                  94226300.841 6
G32  22926954.078 6                  22926960.707 6 120481940.756 6                  93882008.251 6
R02  20451042.664 8  20451047.629 7 109130679.950 8  84879370.098 7
R03  19514700.055 8  19514705.070 7 104463717.764 8  81249589.882 7
R04  22707890.555 5  22707894.402 5 121599700.53315  94577579.47815
R17  20809451.180 8  20809457.676 7 111355574.048 8  86609808.382 7
R18  19158147.352 8  19158151.164 7 102267491.599 8  79541567.076 7
R19  21729522.016 7  21729525.879 7 116238290.904 7  90408004.281 7
> 2025 06 15 12 47 35.0000000  0 20
C12  22535855.805 7  22535853.391 8 117350115.155 7  90742794.455 8
C19  23327187.344 7                 121470788.082 7
C21  25209029.289 6                 131270043.066 6
C22  21656409.492 7                 112770608.317 7
E05  23147731.016 8  23147733.684 8 121642152.658 8  92021511.428 8
E06  25949724.922 6  25949728.527 7 136366743.621 6 103160555.831 7
E09  24807623.672 8  24807625.641 8 130364937.760 8  98620238.453 8
E34  23562150.336 8  23562152.430 8 123819934.485 8  93668986.952 8
E36  24575168.742 8  24575172.004 8 129143379.148 8  97696139.295 8
G01  20241299.094 8                  20241302.801 8 106368739.310 8                  82884751.509 8
G02  21070367.227 8  21070368.863 6                 110725523.188 8  86279634.479 6
G03  20828273.367 7                  20828280.840 7 109453317.264 7                  85288332.583 7
G08  23963129.484 5                  23963140.559 5 125927102.585 5                  98124853.584 5
G32  22927864.258 5                  22927871.750 6 120486732.701 5                  93885742.231 6
R02  20452217.500 8  20452222.340 7 109136945.824 8  84884243.539 7
R03  19511877.625 8  19511882.711 7 104448608.104 8  81237837.942 7
R04  22702672.930 5  22702678.906 5 121571771.609 5  94555857.132 5
R17  20811075.914 8  20811082.156 7 111364268.391 8  86616570.625 7
R18  19156522.461 8  19156525.980 7 102258815.742 8  79534819.189 7
R19  21724753.805 7  21724757.645 7 116212782.943 7  90388164.784 7
> 2025 06 15 12 47 40.0000000  0 21
C12  22533081.586 7  22533078.121 8 117335664.350 7  90731620.183 8
C19  23327933.133 7                 121474667.697 7
C21  25204669.422 6                 131247338.315 6
C22  21654151.922 7                 112758853.287 7
E05  23144330.922 8  23144333.758 8 121624285.816 8  92007995.282 8
E06  25950201.180 5  25950204.363 7 136369243.655 5 103162447.046 7
E09  24806983.953 8  24806985.281 8 130361572.721 8  98617692.825 8
E34  23559984.969 8  23559987.156 8 123808556.097 8  93660379.291 8
E36  24575428.523 8  24575431.129 8 129144740.783 8  97697169.360 8
G01  20239327.695 8                  20239331.996 8 106358382.730 8                  82876681.438 8
G02  21070215.047 7  21070216.906 6                 110724723.811 7  86279011.585 6
G03  20825010.758 7                  20825017.824 7 109436172.723 7                  85274973.236 7
G08  23965275.977 5                  23965287.355 5 125938380.560 5                  98133641.658 5
G17  23004603.906 5                                 120890006.55615                
G32  22928778.297 5                  22928785.684 6 120491536.021 5                  93889485.125 6
R02  20453394.484 8  20453398.957 7 109143225.996 8  84889128.082 7
R03  19509058.047 8  19509063.375 7 104433517.707 8  81226100.996 7
R04  22697454.469 5                 121543850.317 5
R17  20812703.508 8  20812709.695 7 111372976.464 8  86623343.552 7
R18  19154900.844 8  19154904.797 7 102250159.392 8  79528086.467 7
R19  21719987.570 7  21719990.992 7 116187282.779 7  90368331.325 7
> 2025 06 15 12 47 45.0000000  0 21
C12  22530308.406 7  22530305.078 8 117321225.200 7  90720454.932 8
C19  23328679.984 7                 121478555.474 7
C21  25200309.852 6                 131224638.836 6
C22  21651897.211 8                 112747110.499 8
E05  23140933.172 8  23140935.711 8 121606428.431 8  91994486.281 8
E06  25950678.742 5  25950681.938 7 136371752.873 5 103164345.253 7
E09  24806345.203 8  24806347.219 8 130358219.741 8  98615156.315 8
E34  23557820.688 8  23557823.270 8 123797184.998 8  93651777.120 8
E36  24575688.555 8  24575691.555 8 129146109.194 8  97698204.549 8
G01  20237359.203 8                  20237363.285 8 106348038.690 8                  82868621.150 8
G02  21070065.172 8  21070066.531 6                 110723935.407 8  86278397.252 6
G03  20821750.391 7                  20821757.461 7 109419038.709 7                  85261622.026 7
G08  23967423.242 5                  23967434.469 5 125949661.478 5                  98142431.924 5
G17  23001398.258 5                  23001402.801 5 120873165.144 5                  94186886.32915
G32  22929689.984 4                                                                
R02  20454575.148 8  20454578.223 7 109149519.913 8  84894023.369 7
R03  19506243.023 8  19506247.781 7 104418446.250 8  81214378.750 7
R04  22692243.734 5  22692254.465 6 121515936.348 5  94512427.74616
R17  20814334.594 8  20814339.430 7 111381698.067 8  86630126.984 7
R18  19153282.586 8  19153286.039 7 102241522.212 8  79521368.659 7
R19  21715222.781 8  21715225.031 7 116161790.120 8  90348503.678 7
> 2025 06 15 12 47 50.0000000  0 20
C12  22527537.617 7  22527534.680 8 117306799.005 7  90709299.670 8
C19  23329428.180 7                 121482452.730 7
C21  25195952.203 6                 131201945.866 6
C22  21649644.805 7                 112735381.309 7
E05  23137536.531 8  23137539.633 8 121588581.820 8  91980985.448 8
E06  25951159.383 5  25951161.492 7 136374272.643 5 103166251.420 7
E09  24805709.633 8  24805711.730 8 130354880.125 8  98612629.927 8
E34  23555658.672 8  23555661.004 9 123785822.428 8  93643181.423 9
E36  24575950.797 8  24575953.484 8 129147485.680 8  97699245.840 8
G01  20235393.469 7                  20235398.027 8 106337708.507 7                  82860571.643 8
G02  21069917.516 8  21069918.867 6                 110723159.329 8  86277792.517 6
G03  20818492.602 7                  20818499.578 7 109401916.572 7                  85248280.122 7
G08  23969571.719 5                  23969581.641 5 125960946.665 5                  98151225.563 5
G17  22998197.195 5                  22998201.484 5 120856337.744 5                  94173774.104 5
R02  20455756.250 8  20455760.293 7 109155829.148 8  84898930.562 7
R03  19503430.563 8  19503435.922 7 104403395.376 8  81202672.529 7
R04  22687029.445 4  22687044.539 6 121488031.114 4  94490723.666 6
R17  20815967.016 8  20815971.840 7 111390434.468 8  86636921.936 7
R18  19151668.820 8  19151672.379 7 102232905.613 8  79514666.862 7
R19  21710457.883 8  21710460.879 7 116136306.375 8  90328682.985 7
> 2025 06 15 12 47 55.0000000  0 19
C12  22524769.641 7  22524766.918 8 117292384.758 7  90698153.682 8
C19  23330178.836 7                 121486358.474 7
C21  25191595.258 6                 131179258.502 6
C22  21647394.367 8                 112723664.708 8
E05  23134142.313 8  23134145.313 8 121570745.025 8  91967492.042 8
E06  25951640.672 5  25951642.820 7 136376801.850 5 103168164.768 7
E09  24805076.438 7  24805078.523 8 130351552.872 7  98610112.880 8
E34  23553498.055 8  23553500.188 9 123774467.470 8  93634591.471 9
E36  24576213.953 8  24576216.805 8 129148869.234 8  97700292.476 8
G01  20233430.125 7                  20233434.215 8 106327391.168 7                  82852532.156 8
G02  21069772.258 8  21069773.473 6                 110722394.612 8  86277196.624 6
G03  20815236.258 7                  20815243.348 7 109384805.313 7                  85234946.667 7
G08  23971717.297 5                  23971729.727 4 125972235.043 5                  98160021.675 4
G17  22994997.727 5                  22995002.516 5 120839523.449 5                  94160672.003 5
R02  20456942.086 8  20456945.887 7 109162152.839 8  84903849.012 7
R03  19500623.656 8  19500628.125 7 104388364.023 8  81190981.461 7
R17  20817601.734 8  20817607.934 7 111399184.704 8  86643727.697 7
R18  19150057.922 8  19150061.246 7 102224308.550 8  79507980.277 7
R19  21705695.859 7  21705698.805 7 116110830.568 7  90308868.490 7
> 2025 06 15 12 48  0.0000000  0 20
C12  22522004.570 7  22522001.035 8 117277982.959 7  90687017.292 8
C19  23330929.938 7                 121490273.158 7
C21  25187240.023 6                 131156577.161 6
C22  21645147.172 7                 112711961.123 7
E05  23130750.125 8  23130753.012 8 121552918.469 8  91954006.374 8
E06  25952125.305 5  25952126.000 7 136379341.092 5 103170085.646 7
E09  24804445.859 7  24804447.793 8 130348238.455 7  98607605.548 8
E34  23551338.688 8  23551340.984 9 123763120.545 8  93626007.592 9
E36  24576478.641 8  24576481.469 8 129150260.296 8  97701344.793 8
G01  20231469.125 7                  20231473.082 8 106317087.138 7                  82844503.072 8
G02  21069629.031 8  21069630.070 6                 110721641.659 8  86276609.910 6
G03  20811982.180 8                  20811989.375 7 109367705.386 8                  85221622.063 7
G08  23973866.672 5                  23973877.953 5 125983527.150 5                  98168820.693 5
G17  22991800.883 5                  22991805.664 5 120822722.619 5                  94147580.399 5
G32  22932453.898 5                                                                
R02  20458129.281 8  20458133.340 7 109168491.088 8  84908778.750 7
R03  19497818.617 8  19497823.605 7 104373352.456 8  81179305.805 7
R17  20819239.961 8  20819245.238 7 111407949.238 8  86650544.553 7
R18  19148450.547 8  19148455.027 7 102215731.511 8  79501309.234 7
R19  21700934.047 7  21700937.230 7 116085363.129 7  90289060.498 7
> 2025 06 15 12 48  5.0000000  0 20
C12  22519240.195 7  22519237.637 8 117263593.212 7  90675890.228 8
C19  23331682.992 7                 121494196.388 7
C21  25182885.297 6                 131133901.501 6
C22  21642902.516 8                 112700270.209 8
E05  23127360.000 8  23127362.598 8 121535101.845 8  91940528.229 8
E06  25952610.148 5  25952611.281 7 136381889.959 5 103172013.839 7
E09  24803817.203 7  24803819.465 8 130344936.503 7  98605107.651 8
E34  23549180.656 8  23549183.211 8 123751781.313 8  93617429.540 8
E36  24576744.820 8  24576747.582 8 129151658.525 8  97702402.539 8
G01  20229511.164 7                  20229515.188 8 106306796.100 7                  82836484.074 8
G02  21069487.805 8  21069489.355 6                 110720900.158 8  86276032.109 6
G03  20808729.852 8                  20808737.191 7 109350616.412 8                  85208306.004 7
G08  23976016.320 5                  23976026.184 4 125994822.469 5                  98177622.293 4
G17  22988605.391 5                  22988611.172 5 120805935.049 5                  94134499.182 5
G32  22933379.953 5                  22933389.629 5 120515727.57315                  93908393.26215
R02  20459320.000 8  20459324.375 7 109174843.581 8  84913719.574 7
R03  19495017.867 8  19495022.980 7 104358360.730 8  81167645.574 7
R17  20820879.891 8  20820886.711 7 111416727.563 8  86657372.130 7
R18  19146847.883 8  19146851.875 7 102207174.146 8  79494653.509 7
R19  21696175.805 8  21696177.957 7 116059903.618 8  90269258.669 7
> 2025 06 15 12 48 10.0000000  0 20
C12  22516478.320 7  22516476.059 8 117249215.076 7  90664772.135 8
C19  23332438.188 7                 121498127.608 7
C21  25178532.109 6                 131111231.009 6
C22  21640659.305 8                 112688591.442 8
E05  23123971.469 8  23123973.984 8 121517294.557 8  91927057.134 8
E06  25953095.922 5  25953098.078 7 136384447.801 5 103173948.847 7
E09  24803191.070 7  24803193.367 8 130341646.439 7  98602618.742 8
E34  23547024.398 8  23547026.746 9 123740449.220 8  93608856.892 9
E36  24577011.766 8  24577014.934 8 129153063.374 8  97703465.302 8
G01  20227555.109 7                  20227558.859 8 106296517.438 7                  82828474.748 8
G02  21069348.461 8  21069350.410 6                 110720169.521 8  86275462.778 6
G03  20805480.219 7                  20805487.383 7 109333537.883 7                  85194998.045 7
G08  23978163.844 4                  23978175.512 4 126006120.491 4                  98186425.908 4
G17  22985412.609 5                  22985418.809 6 120789160.082 5                  94121427.839 6
G32  22934308.742 5                  22934317.184 5 120520601.002 5                  93912190.734 5
R02  20460512.406 8  20460517.422 7 109181209.978 8  84918671.231 7
R03  19492220.680 8  19492226.023 8 104343387.546 8  81155999.786 8
R17  20822523.078 8  20822529.750 8 111425519.299 8  86664210.122 8
R18  19145248.727 8  19145251.836 7 102198635.884 8  79488012.637 7
R19  21691417.461 8  21691420.660 7 116034451.656 8  90249462.726 7
> 2025 06 15 12 48 15.0000000  0 20
C12  22513720.555 7  22513717.652 8 117234850.309 7  90653664.391 8
C19  23333194.508 7                 121502068.724 7
C21  25174179.383 6                 131088567.542 6
C22  21638419.273 8                 112676926.689 8
E05  23120584.930 8  23120587.449 8 121499498.576 8  91913594.595 8
E06  25953578.422 4  25953587.188 7 136387016.72614 103175892.14717
E09  24802567.523 7  24802569.945 8 130338370.163 7  98600140.264 8
E34  23544870.297 8  23544872.063 8 123729126.192 8  93600291.095 8
E36  24577280.516 8  24577283.938 8 129154476.738 8  97704534.491 8
G01  20225601.727 7                  20225605.836 8 106286253.155 7                  82820476.612 8
G02  21069211.766 8  21069213.938 6                 110719451.719 8  86274903.445 6
G03  20802232.391 7                  20802239.453 7 109316471.678 7                  85181699.719 7
G08  23980317.352 5                  23980325.617 5 126017423.188 5                  98195233.238 5
G17  22982222.750 5                  22982228.957 6 120772399.586 5                  94108367.768 6
G32  22935239.555 5                  22935246.707 5 120525487.242 5                  93915998.207 5
R02  20461707.891 8  20461713.156 7 109187591.969 8  84923634.975 7
R03  19489427.797 8  19489432.852 7 104328435.515 8  81144370.426 7
R17  20824168.945 8  20824175.578 7 111434326.286 8  86671059.983 7
R18  19143653.227 8  19143656.680 7 102190118.662 8  79481388.117 7
R19  21686661.203 8  21686664.547 7 116009009.125 8  90229674.069 7
> 2025 06 15 12 48 20.0000000  0 19
C12  22510963.477 7  22510961.637 8 117220497.669 7  90642566.019 8
C19  23333952.539 7                 121506018.369 7
C21  25169828.516 6                 131065909.776 6
C22  21636181.664 7                 112665274.582 7
E05  23117200.367 8  23117202.855 8 121481712.446 8  91900139.514 8
E09  24801947.102 7  24801948.816 8 130335106.345 7  98597671.199 8
E34  23542716.500 8  23542718.820 8 123717810.831 8  93591731.099 8
E36  24577550.930 8  24577554.234 8 129155897.244 8  97705609.085 8
G01  20223650.977 7                  20223655.121 8 106276001.801 7                  82812488.535 8
G02  21069077.383 8  21069079.535 6                 110718745.235 8  86274352.942 6
G03  20798987.406 7                  20798993.883 7 109299416.447 7                  85168409.946 7
G08  23982468.031 5                  23982477.418 5 126028729.114 5                  98204043.021 5
G17  22979036.008 5                  22979042.211 6 120755652.366 5                  94095318.017 6
G32  22936173.125 6                  22936178.762 5 120530385.186 6                  93919814.795 5
R02  20462907.469 8  20462911.520 7 109193988.152 8  84928609.773 7
R03  19486637.031 8  19486643.277 7 104313502.830 8  81132756.122 7
R17  20825816.789 8  20825823.129 7 111443147.109 8  86677920.626 7
R18  19142060.961 8  19142064.859 7 102181621.108 8  79474778.901 7
R19  21681906.234 8  21681909.973 7 115983574.706 8  90209891.796 7
> 2025 06 15 12 48 25.0000000  0 19
C12  22508209.836 7  22508207.434 8 117206156.935 7  90631476.861 8
C19  23334713.125 7                 121509976.315 7
C21  25165478.672 6                 131043257.465 6
C22  21633946.484 8                 112653634.947 8
E05  23113817.547 8  23113820.141 8 121463936.048 8  91886691.807 8
E09  24801328.938 7  24801330.039 8 130331854.764 7  98595211.392 8
E34  23540564.625 8  23540567.035 8 123706502.979 8  93583176.781 8
E36  24577822.391 8  24577825.906 8 129157324.713 8  97706688.958 8
G01  20221702.883 8                  20221706.699 8 106265763.252 8                  82804510.449 8
G02  21068945.680 8  21068947.129 6                 110718049.987 8  86273811.186 6
G03  20795743.594 7                  20795750.781 7 109282371.997 7                  85155128.585 7
G08  23984620.547 5                  23984631.328 5 126040038.024 5                  98212855.120 5
G17  22975853.742 5                  22975857.754 6 120738918.163 5                  94082278.370 6
G32  22937105.438 5                  22937112.141 5 120535294.471 5                  93923640.257 5
R02  20464108.859 8  20464112.902 7 109200398.448 8  84933595.563 7
R03  19483851.141 8  19483857.793 8 104298589.624 8  81121156.982 8
R17  20827467.336 8  20827473.230 7 111451981.574 8  86684791.856 7
R18  19140473.016 8  19140476.246 7 102173142.996 8  79468184.821 7
R19  21677152.938 8  21677156.813 7 115958148.067 8  90190115.529 7
> 2025 06 15 12 48 30.0000000  0 19
C12  22505458.313 7  22505456.305 8 117191830.332 7  90620398.628 8
C19  23335475.266 7                 121513944.804 7
C21  25161129.477 6                 131020612.947 6
C22  21631714.000 7                 112642010.018 7
E05  23110437.094 8  23110439.656 8 121446171.634 8  91873253.159 8
E09  24800712.055 8  24800713.957 8 130328617.621 8  98592762.521 8
E34  23538414.977 8  23538417.098 9 123695204.867 8  93574629.827 9
E36  24578095.969 8  24578099.289 8 129158761.379 8  97707775.775 8
G01  20219757.414 8                  20219761.469 8 106255539.719 8                  82796544.055 8
G02  21068815.609 8  21068817.652 6                 110717368.172 8  86273279.896 6
G03  20792502.609 7                  20792509.332 7 109265340.563 7                  85141857.312 7
G08  23986773.656 5                  23986785.516 5 126051352.260 5                  98221671.357 5
G17  22972673.109 6                  22972676.777 6 120722199.311 6                  94069250.695 6
G32  22938043.477 6                  22938047.176 4 120540217.411 6                  93927476.247 4
R02  20465313.109 8  20465317.383 7 109206825.083 8  84938594.076 7
R03  19481070.500 8  19481075.898 7 104283698.097 8  81109574.681 7
R17  20829121.563 8  20829127.574 7 111460831.887 8  86691675.424 7
R18  19138889.164 8  19138892.414 7 102164686.640 8  79461607.660 7
R19  21672401.570 7  21672405.625 7 115932731.655 7  90170347.226 7
> 2025 06 15 12 48 35.0000000  0 20
C12  22502709.672 7  22502707.219 8 117177515.990 7  90609329.890 8
C19  23336239.633 7                 121517921.957 7
C21  25156781.461 6                 130997974.277 6
C22  21629484.141 8                 112630397.906 8
E05  23107058.063 8  23107061.145 8 121428417.300 8  91859822.129 8
E06  25955558.719 5                 136397366.90915
E09  24800098.328 7  24800100.383 8 130325393.072 7  98590323.186 8
E34  23536265.969 8  23536268.672 9 123683914.615 8  93566088.826 9
E36  24578370.688 8  24578374.023 8 129160205.370 8  97708868.137 8
G01  20217814.109 8                  20217818.527 8 106245329.325 8                  82788587.902 8
G02  21068687.539 7  21068689.832 6                 110716697.951 7  86272757.639 6
G03  20789263.766 7                  20789270.172 7 109248320.269 7                  85128594.734 7
G08  23988927.750 5                  23988939.926 5 126062669.899 5                  98230490.312 5
G17  22969493.484 6                  22969498.059 6 120705493.805 6                  94056233.401 6
G32  22938982.664 6                  22938986.008 5 120545151.955 6                  93931321.267 5
R02  20466519.391 8  20466524.473 7 109213266.029 8  84943603.699 7
R03  19478292.109 8  19478297.273 7 104268826.252 8  81098007.694 7
R17  20830777.805 8  20830784.379 7 111469696.229 8  86698569.915 7
R18  19137308.938 8  19137311.664 7 102156250.218 8  79455046.009 7
R19  21667651.742 8  21667655.941 7 115907323.472 8  90150585.302 7
> 2025 06 15 12 48 40.0000000  0 20
C12  22499963.070 7  22499960.305 8 117163210.629 7  90598268.078 8
C19  23337004.891 7                 121521904.410 7
C21  25152434.406 6                 130975338.097 6
C22  21627255.539 8                 112618795.274 8
E05  23103680.750 8  23103683.875 8 121410669.703 8  91846396.191 8
E06  25956057.242 6  25956060.113 7 136399982.229 6 103185725.75417
E09  24799486.750 7  24799488.543 8 130322177.747 7  98587890.809 8
E34  23534118.922 8  23534121.059 9 123672628.838 8  93557551.220 9
E36  24578646.055 8  24578649.543 8 129161653.288 8  97709963.471 8
G01  20215872.898 8                  20215877.121 8 106235128.722 8                  82780639.394 8
G02  21068561.859 8  21068563.801 6                 110716035.896 8  86272241.752 6
G03  20786026.234 7                  20786032.832 7 109231307.768 7                  85115338.259 7
G08  23991081.297 5                  23991093.750 4 126073987.510 5                  98239309.182 4
G17  22966316.531 6                  22966320.828 6 120688798.322 6                  94043223.927 6
G32  22939922.250 5                  22939928.020 5 120550094.858 5                  93935172.843 5
R02  20467728.578 8  20467733.688 7 109219717.876 8  84948621.756 7
R03  19475516.039 8  19475522.355 7 104253970.531 8  81086453.240 7
R17  20832437.797 8  20832442.660 7 111478571.158 8  86705472.624 7
R18  19135731.719 8  19135734.520 7 102147830.213 8  79448497.109 7
R19  21662901.930 7  21662906.520 7 115881920.098 7  90130827.173 7
> 2025 06 15 12 48 45.0000000  0 20
C12  22497217.414 7  22497214.840 8 117148915.290 7  90587214.020 8
C19  23337770.734 7                 121525893.246 7
C21  25148088.211 6                 130952705.580 6
C22  21625029.758 8                 112607203.227 8
E05  23100305.523 8  23100308.129 8 121392929.930 8  91832976.168 8
E06  25956555.609 6  25956559.020 7 136402604.995 6 103187709.838 7
E09  24798876.359 8  24798878.688 8 130318972.707 8  98585466.221 8
E34  23531972.219 8  23531974.523 8 123661348.689 8  93549017.853 8
E36  24578922.617 8  24578926.070 8 129163106.245 8  97711062.615 8
G01  20213934.055 7                  20213938.270 8 106224938.989 7                  82772699.335 8
G02  21068437.742 7  21068439.273 6                 110715383.118 7  86271733.085 6
G03  20782790.531 7                  20782796.992 7 109214304.155 7                  85102088.696 7
G08  23993236.500 5                  23993247.898 5 126085306.131 5                  98248128.831 5
G17  22963141.836 6                  22963145.684 6 120672113.925 6                  94030223.104 6
G32  22940864.313 5                  22940870.160 5 120555047.152 5                  93939031.818 5
R02  20468940.008 8  20468945.016 7 109226181.920 8  84953649.342 7
R03  19472744.555 8  19472749.883 7 104239132.409 8  81074912.480 7
R17  20834096.938 8  20834103.098 7 111487457.763 8  86712384.407 7
R18  19134157.813 8  19134160.785 7 102139427.717 8  79441961.823 7
R19  21658153.531 7  21658158.785 7 115856522.801 7  90111073.722 7
> 2025 06 15 12 48 50.0000000  0 20
C12  22494473.148 7  22494471.598 8 117134630.319 7  90576167.976 8
C19  23338538.117 7                 121529888.843 7
C21  25143743.008 6                 130930077.021 6
C22  21622805.023 7                 112595622.125 7
E05  23096931.070 8  23096933.941 8 121375198.337 8  91819562.335 8
E06  25957056.383 6  25957059.527 7 136405235.530 6 103189699.824 7
E09  24798268.625 7  24798270.859 8 130315778.303 7  98583049.681 8
E34  23529827.086 8  23529829.141 8 123650074.466 8  93540488.981 8
E36  24579200.391 8  24579203.598 8 129164564.601 8  97712165.843 8
G01  20211997.242 7                  20212001.582 8 106214760.484 7                  82764768.031 8
G02  21068315.688 8  21068316.813 6                 110714739.979 8  86271231.934 6
G03  20779556.813 7                  20779563.102 7 109197309.759 7                  85088846.303 7
G08  23995390.195 5                  23995401.816 4 126096626.210 5                  98256949.711 4
G17  22959967.430 5                  22959973.063 6 120655441.030 5                  94017231.267 6
G32  22941809.086 5                  22941815.457 5 120560009.166 5                  93942898.335 5
R02  20470153.836 8  20470158.816 7 109232658.227 8  84958686.473 7
R03  19469976.289 8  19469981.383 7 104224311.884 8  81063385.407 7
R17  20835760.141 8  20835766.715 7 111496356.348 8  86719305.520 7
R18  19132586.211 8  19132590.215 7 102131043.212 8  79435440.555 7
R19  21653407.391 7  21653411.750 7 115831131.896 7  90091325.218 7
> 2025 06 15 12 48 55.0000000  0 20
C12  22491732.758 7  22491730.039 8 117120355.619 7  90565129.882 8
C19  23339307.023 7                 121533891.004 7
C21  25139398.305 6                 130907452.307 6
C22  21620583.305 7                 112584051.758 7
E05  23093558.500 8  23093561.281 8 121357474.794 8  91806154.603 8
E06  25957558.063 6  25957561.504 7 136407873.664 6 103191695.564 7
E09  24797662.750 7  24797665.070 8 130312594.431 7  98580641.097 8
E34  23527682.602 8  23527684.816 8 123638806.070 8  93531964.520 8
E36  24579479.172 8  24579482.098 8 129166028.197 8  97713273.041 8
G01  20210061.992 7                  20210066.559 8 106204593.089 7                  82756845.384 8
G02  21068194.719 7  21068196.043 6                 110714106.318 7  86270738.182 6
G03  20776324.523 7                  20776330.813 7 109180324.430 7                  85075610.986 7
G08  23997544.461 5                  23997555.703 4 126107947.544 5                  98265771.462 4
G17  22956797.789 5                  22956802.395 6 120638779.538 5                  94004248.314 6
G32  22942756.430 6                  22942761.363 5 120564980.825 6                  93946772.337 5
R02  20471370.406 8  20471374.051 7 109239146.723 8  84963733.080 7
R03  19467211.633 8  19467216.258 7 104209509.108 8  81051872.134 7
R17  20837424.734 8  20837431.410 7 111505266.793 8  86726235.876 7
R18  19131018.938 8  19131022.480 7 102122676.438 8  79428933.074 7
R19  21648662.867 7  21648666.660 7 115805747.174 7  90071581.569 7
> 2025 06 15 12 49  0.0000000  0 20
C12  22488994.477 7  22488991.023 8 117106093.601 7  90554101.582 8
C19  23340077.688 7                 121537902.108 7
C21  25135054.242 6                 130884833.824 6
C22  21618364.453 8                 112572494.566 8
E05  23090187.992 8  23090190.570 8 121339761.684 8  91792754.750 8
E06  25958062.234 6  25958065.164 7 136410521.841 6 103193698.871 7
E09  24797059.625 7  24797061.680 8 130309423.462 7  98578242.267 8
E34  23525539.656 8  23525542.051 8 123627545.896 8  93523446.267 8
E36  24579759.328 8  24579762.098 8 129167499.438 8  97714386.018 8
G01  20208130.797 8                  20208134.344 8 106194439.180 8                  82748933.266 8
G02  21068076.430 7  21068077.965 6                 110713484.586 7  86270253.705 6
G03  20773095.445 8                  20773100.930 7 109163350.626 8                  85062384.648 7
G08  23999698.977 5                  23999709.391 4 126119272.485 5                  98274596.068 4
G17  22953629.016 5                  22953634.531 6 120622131.868 5                  93991276.078 6
G32  22943702.180 5                  22943709.957 5 120569964.424 5                  93950655.668 5
R02  20472589.086 8  20472593.051 7 109245650.002 8  84968791.168 7
R03  19464449.445 8  19464454.680 7 104194726.402 8  81040374.476 7
R17  20839094.430 8  20839099.566 7 111514191.537 8  86733177.298 7
R18  19129454.875 8  19129459.047 7 102114329.883 8  79422441.295 7
R19  21643919.219 7  21643923.090 7 115780371.148 7  90051844.688 7
> 2025 06 15 12 49  5.0000000  0 20
C12  22486258.063 7  22486254.242 8 117091843.605 7  90543082.580 8
C19  23340848.633 7                 121541921.570 7
C21  25130712.523 6                 130862220.949 6
C22  21616147.180 8                 112560949.919 8
E05  23086818.773 8  23086821.727 8 121322058.424 8  91779362.361 8
E06  25958568.125 5  25958570.559 7 136413179.438 5 103195709.276 7
E09  24796459.125 7  24796460.582 8 130306264.774 7  98575852.725 8
E34  23523398.945 8  23523400.781 8 123616293.302 8  93514933.761 8
E36  24580040.477 8  24580043.457 8 129168977.701 8  97715504.310 8
G01  20206200.609 8                  20206204.645 8 106184298.183 8                  82741031.191 8
G02  21067960.367 8  21067961.762 6                 110712874.155 8  86269778.043 6
G03  20769867.195 8                  20769872.922 7 109146387.701 8                  85049166.767 7
G08  24001853.648 5                  24001863.441 4 126130600.460 5                  98283423.016 4
G17  22950464.289 5                                                                
G32  22944653.266 6                  22944660.883 5 120574959.388 6                  93954547.753 5
R02  20473810.117 8  20473814.047 7 109252167.176 8  84973860.091 7
R03  19461691.406 8  19461697.070 7 104179963.097 8  81028891.915 7
R17  20840764.063 8  20840769.895 7 111523129.900 8  86740129.337 7
R18  19127895.281 8  19127898.688 7 102106002.961 8  79415964.808 7
R19  21639176.109 7  21639180.449 7 115755003.254 7  90032114.099 7
> 2025 06 15 12 49 10.0000000  0 21
C12  22483522.695 7  22483519.898 8 117077605.391 7  90532072.690 8
C19  23341622.031 7                 121545949.063 7
C21  25126371.859 6                 130839613.443 6
C22  21613932.516 8                 112549417.572 8
E05  23083451.789 8  23083454.707 8 121304364.744 8  91765977.229 8
E06  25959074.297 5  25959077.738 7 136415846.115 5 103197726.582 7
E09  24795859.852 7  24795861.754 8 130303118.054 7  98573472.253 8
E34  23521258.781 8  23521260.883 9 123605048.067 8  93506426.813 9
E36  24580322.641 8  24580326.070 8 129170462.715 8  97716627.709 8
G01  20204273.078 8                  20204277.055 8 106174169.807 8                  82733138.943 8
G02  21067846.203 8  21067847.676 6                 110712274.736 8  86269310.964 6
G03  20766640.922 7                  20766646.809 7 109129435.378 7                  85035957.162 7
G08  24004006.898 4                  24004021.195 5 126141931.154 4                  98292252.090 5
G17  22947300.125 5                  22947306.352 6 120588875.53215                  93965362.12916
G32  22945604.750 5                  22945614.219 6 120579965.461 5                  93958448.563 6
R02  20475033.156 8  20475038.191 7 109258698.021 8  84978939.630 7
R03  19458936.969 8  19458942.801 7 104165219.128 8  81017424.374 7
R04  22603873.898 4                 121042773.62914
R17  20842436.539 8  20842442.738 7 111532081.586 8  86747091.763 7
R18  19126339.148 8  19126342.496 7 102097695.350 8  79409503.342 7
R19  21634434.273 7  21634439.750 7 115729643.128 7  90012389.578 7
> 2025 06 15 12 49 15.0000000  0 20
C12  22480791.227 7  22480788.148 8 117063378.494 7  90521071.566 8
C19  23342396.328 7                 121549984.141 7
C21  25122030.984 6                 130817010.886 6
C22  21611719.969 8                 112537897.028 8
E05  23080086.406 8  23080089.402 8 121286680.178 8  91752598.980 8
E09  24795263.359 7  24795265.121 8 130299982.892 7  98571100.522 8
E34  23519120.227 8  23519122.246 8 123593809.699 8  93497925.060 8
E36  24580606.633 8  24580609.859 8 129171954.035 8  97717755.874 8
G01  20202348.578 8                  20202351.938 8 106164053.589 8                  82725256.180 8
G02  21067734.164 8  21067735.613 6                 110711685.847 8  86268852.096 6
G03  20763416.336 7                  20763422.875 7 109112493.218 7                  85022755.493 7
G08  24006164.484 4                  24006180.883 5 126153264.056 4                  98301082.954 5
G17  22944140.164 5                  22944145.945 6 120572266.276 5                  93952419.817 6
G32  22946559.273 5                  22946568.859 6 120584982.086 5                  93962357.660 6
R02  20476260.484 8  20476264.352 7 109265242.188 8  84984029.533 7
R03  19456186.852 8  19456191.805 7 104150493.634 8  81005971.218 7
R04  22598684.633 4  22598680.582 4 121014995.948 4  94122715.49414
R17  20844112.023 8  20844118.172 7 111541046.130 8  86754064.171 7
R18  19124785.930 8  19124789.961 7 102089406.593 8  79403056.547 7
R19  21629695.328 7  21629700.535 7 115704290.438 7  89992670.824 7
> 2025 06 15 12 49 20.0000000  0 19
C12  22478061.227 7  22478057.734 8 117049162.354 7  90510078.742 8
C19  23343172.781 7                 121554026.236 7
C21  25117690.680 6                 130794412.583 6
C22  21609509.508 7                 112526387.697 7
E05  23076723.148 8  23076725.715 8 121269004.122 8  91739227.175 8
E09  24794668.609 7  24794670.488 8 130296858.657 7  98568737.056 8
E34  23516982.445 8  23516984.828 8 123582577.608 8  93489428.059 8
E36  24580891.953 8  24580894.781 8 129173451.048 8  97718888.345 8
G01  20200425.195 8                  20200429.168 8 106153948.973 8                  82717382.446 8
G02  21067623.453 8  21067625.586 6                 110711106.925 8  86268400.976 6
G03  20760194.289 7                  20760201.199 7 109095560.587 7                  85009561.267 7
G08  24008321.469 4                  24008338.883 5 126164598.58414                  98309915.11715
G17  22940981.828 5                  22940987.500 6 120555668.914 5                  93939486.834 6
G32  22947518.109 6                  22947526.066 6 120590008.737 6                  93966274.540 6
R02  20477488.891 8  20477493.238 7 109271799.066 8  84989129.337 7
R03  19453439.078 8  19453444.891 7 104135786.398 8  80994532.279 7
R17  20845789.352 8  20845795.199 7 111550022.886 8  86761046.094 7
R18  19123236.430 8  19123240.809 7 102081136.152 8  79396623.972 7
R19  21624957.523 7  21624962.043 7 115678944.387 7  89972957.211 7
> 2025 06 15 12 49 25.0000000  0 19
C12  22475333.141 7  22475330.148 8 117034959.995 7  90499096.575 8
C19  23343951.398 7                 121558078.311 7
C21  25113351.633 6                 130771821.682 6
C22  21607301.773 7                 112514892.632 7
E05  23073361.391 8  23073364.207 8 121251339.665 8  91725864.136 8
E09  24794076.570 7  24794078.590 8 130293748.379 7  98566384.159 8
E34  23514847.211 8  23514849.191 8 123571354.855 8  93480938.114 8
E36  24581178.469 8  24581181.305 8 129174956.796 8  97720027.432 8
G01  20198505.305 7                  20198509.156 8 106143858.946 7                  82709520.091 8
G02  21067515.734 8  21067517.930 6                 110710541.018 8  86267960.003 6
G03  20756974.500 7                  20756981.145 7 109078640.562 7                  84996376.846 7
G08  24010478.688 4                  24010496.875 5 126175937.896 4                  98318750.928 5
G17  22937826.836 6                  22937831.777 6 120539086.476 6                  93926565.439 6
G32  22948477.867 6                  22948485.105 6 120595048.442 6                  93970201.598 6
R02  20478720.586 8  20478725.063 7 109278371.420 8  84994241.138 7
R03  19450695.695 8  19450701.250 8 104121100.207 8  80983109.677 8
R17  20847470.336 8  20847475.984 7 111559015.139 8  86768040.064 7
R18  19121691.594 8  19121695.434 7 102072887.081 8  79390208.026 7
R19  21620221.461 8  21620225.793 7 115653608.172 8  89953251.269 7
> 2025 06 15 12 49 30.0000000  0 19
C12  22472608.766 7  22472605.512 8 117020771.837 7  90488125.395 8
C19  23344731.516 7                 121562140.870 7
C21  25109015.258 6                 130749238.534 6
C22  21605097.180 8                 112503412.281 8
E05  23070002.500 8  23070005.078 8 121233687.264 8  91712510.222 8
E09  24793487.234 7  24793489.461 8 130290652.546 7  98564042.191 8
E34  23512713.461 8  23512715.426 9 123560141.920 8  93472455.604 9
E36  24581466.180 8  24581469.613 8 129176471.748 8  97721173.484 8
G01  20196587.938 8                  20196591.898 8 106133784.021 8                  82701669.515 8
G02  21067410.914 8  21067413.016 6                 110709988.545 8  86267529.498 6
G03  20753758.227 7                  20753763.156 7 109061733.657 7                  84983202.639 7
G08  24012638.672 5                  24012657.148 5 126187282.429 5                  98327590.800 5
G17  22934674.320 6                  22934678.895 6 120522519.363 6                  93913656.013 6
G32  22949438.484 6                  22949447.293 5 120600101.608 6                  93974139.118 5
R02  20479955.945 8  20479959.668 7 109284959.910 8  84999365.521 7
R03  19447956.305 8  19447961.742 7 104106435.780 8  80971704.005 7
R17  20849153.969 8  20849159.172 7 111568023.113 8  86775046.246 7
R18  19120149.773 8  19120153.523 7 102064659.891 8  79383809.090 7
R19  21615486.984 7  21615491.418 7 115628282.250 7  89933553.359 7
> 2025 06 15 12 49 35.0000000  0 20
C12  22469886.609 7  22469883.313 8 117006595.376 7  90477163.271 8
C19  23345513.281 7                 121566211.215 7
C21  25104679.852 6                 130726660.617 6
C22  21602894.828 7                 112491944.010 7
E05  23066645.086 8  23066647.715 8 121216044.281 8  91699163.418 8
E09  24792900.313 7  24792902.578 8 130287568.527 7  98561709.147 8
E34  23510581.055 8  23510582.973 8 123548936.154 8  93463978.513 8
E36  24581755.930 8  24581759.133 8 129177993.270 8  97722324.492 8
G01  20194673.250 7                  20194677.266 8 106123721.566 7                  82693828.639 8
G02  21067308.023 7  21067310.137 6                 110709446.913 7  86267107.442 6
G03  20750541.813 7                  20750548.379 7 109044837.177 7                  84970036.562 7
G08  24014800.063 5                  24014819.441 4 126198629.310 5                  98336432.548 4
G17  22931524.469 6                  22931529.051 6 120505965.014 6                  93900756.527 6
G32  22950402.539 6                  22950410.645 5 120605165.671 6                  93978085.153 5
R02  20481192.797 8  20481196.727 7 109291561.827 8  85004500.359 7
R03  19445219.281 8  19445225.473 7 104091790.422 8  80960313.197 7
R04  22577951.859 5                 120903956.16415
R17  20850839.094 8  20850844.754 7 111577044.386 8  86782062.755 7
R18  19118612.164 8  19118616.371 7 102056451.889 8  79377425.091 7
R19  21610754.852 8  21610758.574 7 115602964.076 8  89913861.471 7
> 2025 06 15 12 49 40.0000000  0 20
C12  22467166.500 7  22467163.391 8 116992432.125 7  90466211.352 8
C19  23346296.773 7                 121570291.000 7
C21  25100344.633 6                 130704089.528 6
C22  21600695.195 7                 112480489.433 7
E05  23063289.914 8  23063292.492 8 121198412.335 8  91685824.963 8
E09  24792316.281 7  24792318.266 8 130284497.918 7  98559386.252 8
E34  23508450.422 8  23508452.281 8 123537739.171 8  93455508.067 8
E36  24582046.859 8  24582050.227 8 129179522.972 8  97723481.699 8
G01  20192760.820 8                  20192764.988 8 106113673.188 8                  82685998.746 8
G02  21067207.383 7  21067209.523 6                 110708917.672 7  86266695.043 6
G03  20747329.203 7                  20747335.230 7 109027952.751 7                  84956879.863 7
G08  24016958.008 5                  24016980.719 5 126209980.353 5                  98345277.560 5
G17  22928376.875 6                  22928380.934 6 120489425.091 6                  93887868.253 6
G32  22951369.133 6                  22951376.371 5 120610242.117 6                  93982040.836 5
R02  20482432.055 8  20482437.105 7 109298178.906 8  85009646.991 7
R03  19442488.836 8  19442493.914 7 104077165.605 8  80948938.328 7
R04  22572772.961 4  22572767.051 4 120876221.247 4
R17  20852527.859 8  20852533.352 7 111586080.240 8  86789090.618 7
R18  19117079.195 8  19117081.902 7 102048264.705 8  79371057.281 7
R19  21606022.828 7  21606027.426 7 115577655.171 7  89894176.778 7
> 2025 06 15 12 49 45.0000000  0 20
C12  22464449.906 7  22464445.676 7 116978281.349 7  90455269.079 7
C19  23347081.766 7                 121574379.457 7
C21  25096009.891 6                 130681524.525 6
C22  21598498.180 7                 112469047.790 7
E05  23059936.758 8  23059939.188 8 121180790.644 8  91672494.279 8
E09  24791734.359 7  24791736.387 8 130281439.938 7  98557072.901 8
E34  23506321.188 8  23506323.086 9 123526550.212 8  93447043.688 9
E36  24582339.547 8  24582342.699 8 129181060.098 8  97724644.520 8
G01  20190850.805 8                  20190855.789 8 106103638.139 8                  82678179.237 8
G02  21067108.703 7  21067111.223 6                 110708400.112 7  86266291.749 6
G03  20744118.063 8                  20744124.625 7 109011079.628 8                  84943731.973 7
G08  24019120.680 5                  24019141.023 4 126221334.630 5                  98354125.013 4
G17  22925231.820 6                  22925236.719 6 120472898.791 6                  93874990.608 6
G32  22952337.539 6                  22952343.797 5 120615330.270 6                  93986005.616 5
R02  20483674.828 8  20483679.953 7 109304810.260 8  85014804.672 7
R03  19439760.734 8  19439765.438 7 104062560.694 8  80937578.945 7
R04  22567583.102 5  22567589.250 5 120848494.958 5  93993211.29415
R17  20854218.586 7  20854224.750 7 111595130.131 7  86796129.396 7
R18  19115548.672 8  19115552.039 7 102040097.547 8  79364705.045 7
R19  21601293.289 8  21601297.770 7 115552354.932 8  89874498.809 7
> 2025 06 15 12 49 50.0000000  0 20
C12  22461733.805 7  22461730.508 7 116964141.234 7  90444335.035 7
C19  23347868.523 7                 121578474.688 7
C21  25091676.047 6                 130658963.644 6
C22  21596302.867 7                 112457617.227 7
E05  23056584.859 8  23056587.504 8 121163177.364 8  91659169.971 8
E09  24791154.398 8  24791156.555 8 130278392.715 8  98554767.695 8
E34  23504193.313 8  23504195.063 9 123515367.395 8  93438583.961 9
E36  24582633.055 8  24582636.293 8 129182602.750 8  97725811.521 8
G01  20188943.805 8                  20188947.770 8 106093614.530 8                  82670368.632 8
G02  21067012.242 7  21067014.328 6                 110707892.329 7  86265896.076 6
G03  20740909.703 8                  20740915.305 7 108994215.915 8                  84930591.443 7
G08  24021282.977 5                  24021301.938 4 126232690.430 5                  98362973.667 4
G17  22922089.234 6                  22922093.895 7 120456384.186 6                  93862122.104 7
G32  22953307.508 6                  22953314.000 5 120620428.199 6                  93989977.994 5
R02  20484920.688 8  20484925.070 7 109311453.937 8  85019971.956 7
R03  19437035.016 8  19437040.449 7 104047973.865 8  80926233.653 7
R04  22562401.547 5  22562414.258 5 120820775.004 5  93971651.273 5
R17  20855911.859 7  20855918.188 7 111604192.047 7  86803177.548 7
R18  19114022.547 8  19114025.781 7 102031948.562 8  79358366.947 7
R19  21596565.680 7  21596568.473 7 115527061.384 7  89854826.031 7
> 2025 06 15 12 49 55.0000000  0 19
C12  22459020.805 7  22459017.262 8 116950013.348 7  90433410.458 8
C19  23348656.570 7                 121582578.303 7
C21  25087344.133 6                 130636408.570 6
C22  21594110.445 7                 112446199.323 7
E05  23053234.680 8  23053237.688 8 121145574.121 8  91645853.239 8
E09  24790577.414 7  24790579.113 8 130275357.857 7  98552471.835 8
E34  23502066.844 8  23502068.516 9 123504192.349 8  93430130.121 9
E36  24582927.586 8  24582931.188 8 129184152.553 8  97726983.934 8
G01  20187038.711 7                  20187043.160 8 106083604.001 7                  82662568.199 8
G02  21066917.508 7  21066919.910 6                 110707395.968 7  86265509.299 6
G03  20737702.867 7                  20737708.441 7 108977363.258 7                  84917459.512 7
G08  24023440.758 5                  24023464.746 4 126244049.244 5                  98371824.696 4
G17  22918949.555 6                  22918954.082 7 120439882.977 6                  93849264.031 7
G32  22954279.008 6                  22954286.379 5 120625537.536 6                  93993959.287 5
R02  20486168.289 8  20486172.680 7 109318111.383 8  85025149.955 7
R03  19434314.273 8  19434319.570 8 104033406.374 8  80914903.381 8
R17  20857608.328 7  20857614.492 7 111613267.598 7  86810236.309 7
R18  19112499.781 8  19112503.309 7 102023819.342 8  79352044.221 7
R19  21591838.555 7  21591841.676 7 115501776.217 7  89835159.848 7
> 2025 06 15 12 50  0.0000000  0 19
C12  22456310.539 7  22456306.301 8 116935896.926 7  90422494.739 8
C19  23349446.188 7                 121586689.507 7
C21  25083014.859 6                 130613858.496 6
C22  21591919.313 8                 112434793.300 8
E05  23049886.336 8  23049889.672 8 121127980.089 8  91632543.484 8
E09  24790001.906 8  24790003.777 8 130272334.541 8  98550184.713 8
E34  23499941.391 8  23499943.281 9 123493024.273 8  93421681.548 9
E36  24583223.648 8  24583227.297 8 129185708.713 8  97728161.142 8
G01  20185135.969 7                  20185140.445 8 106073605.734 7                  82654777.346 8
G02  21066825.039 7  21066827.324 6                 110706910.208 7  86265130.778 6
G03  20734497.406 8                  20734503.652 7 108960520.832 8                  84904335.537 7
G08  24025605.453 5                  24025626.984 4 126255410.224 5                  98380677.413 4
G17  22915811.945 6                  22915816.734 7 120423394.337 6                  93836415.727 7
G32  22955252.172 6                  22955260.430 5 120630657.398 6                  93997948.771 5
R02  20487418.344 8  20487422.621 7 109324782.187 8  85030338.376 7
R03  19431595.883 8  19431601.539 7 104018857.804 8  80903587.816 7
R17  20859307.242 8  20859312.793 7 111622356.075 8  86817305.091 7
R18  19110980.102 8  19110983.773 7 102015709.113 8  79345736.255 7
R19  21587112.961 7  21587116.734 7 115476498.664 7  89815499.527 7
> 2025 06 15 12 50  5.0000000  0 20
C12  22453601.531 7  22453597.996 8 116921792.458 7  90411588.280 8
C19  23350237.047 7                 121590808.746 7
C21  25078685.719 6                 130591313.948 6
C22  21589731.672 7                 112423399.669 7
E05  23046540.352 8  23046543.516 8 121110395.800 8  91619241.093 8
E09  24789429.016 8  24789430.805 8 130269323.288 8  98547906.729 8
E34  23497817.734 8  23497819.484 8 123481863.683 8  93413238.635 8
E36  24583521.195 8  24583524.660 8 129187271.722 8  97729343.550 8
G01  20183235.852 8                  20183240.008 8 106063620.254 8                  82646996.447 8
G02  21066735.008 7  21066736.742 6                 110706435.541 7  86264760.906 6
G03  20731294.781 8                  20731300.535 7 108943689.148 8                  84891219.959 7
G08  24027769.547 5                  24027789.891 4 126266773.946 5                  98389532.260 4
G17  22912676.555 6                  22912680.602 7 120406918.839 6                  93823577.652 7
G32  22956228.563 5                  22956236.090 5 120635788.282 5                  94001946.860 5
R02  20488670.031 8  20488675.219 7 109331466.500 8  85035537.274 7
R03  19428881.422 8  19428887.098 8 104004328.631 8  80892287.371 8
R04  22546886.672 5  22546893.355 5 120737662.00315  93907007.79715
R17  20861009.109 8  20861013.336 7 111631457.904 8  86824384.259 7
R18  19109464.625 8  19109468.199 7 102007618.425 8  79339443.484 7
R19  21582388.164 7  21582393.395 7 115451229.113 7  89795845.449 7
> 2025 06 15 12 50 10.0000000  0 21
C12  22450894.336 7  22450891.770 8 116907699.565 7  90400690.766 8
C19  23351029.570 7                 121594935.686 7
C21  25074357.719 6                 130568774.565 6
C22  21587546.266 8                 112412018.035 8
E05  23043196.344 8  23043199.172 8 121092820.866 8  91605945.775 8
E06  25965307.719 5                 136448768.93015
E09  24788858.258 8  24788860.059 8 130266323.695 8  98545637.562 8
E34  23495695.148 8  23495697.039 8 123470710.191 8  93404801.092 8
E36  24583820.102 8  24583823.305 8 129188841.188 8  97730530.839 8
G01  20181338.352 7                  20181342.574 8 106053647.162 7                  82639225.196 8
G02  21066647.188 8  21066648.336 6                 110705971.575 8  86264399.365 6
G03  20728093.445 7                  20728099.652 7 108926867.845 7                  84878112.473 7
G08  24029932.227 5                  24029954.801 4 126278140.018 5                  98398388.895 4
G17  22909543.766 6                  22909548.238 6 120390456.023 6                  93810749.475 6
G32  22957206.367 5                  22957215.277 6 120640929.874 5                  94005953.349 6
R02  20489925.602 8  20489930.664 7 109338164.350 8  85040746.721 7
R03  19426171.516 8  19426176.555 7 103989818.170 8  80881001.444 7
R04  22541727.438 5  22541720.629 5 120709972.574 5  93885471.687 5
R17  20862711.766 8  20862716.316 7 111640572.734 8  86831473.566 7
R18  19107952.398 8  19107956.023 7 101999546.819 8  79333165.602 7
R19  21577665.359 7  21577670.320 7 115425967.313 7  89776197.387 7
> 2025 06 15 12 50 15.0000000  0 20
C12  22448189.734 7  22448186.730 8 116893614.524 7  90389799.318 8
C19  23351823.070 7                 121599066.521 7
C21  25070030.117 6                 130546236.560 6
C22  21585361.742 8                 112400644.634 8
E05  23039853.063 8  23039855.852 8 121075251.522 8  91592654.681 8
E06  25965834.945 5  25965838.020 7 136451552.636 5 103224596.09917
E09  24788288.984 8  24788290.777 8 130263331.992 8  98543374.358 8
E34  23493573.078 8  23493575.242 8 123459560.006 8  93396366.054 8
E36  24584119.398 8  24584122.426 8 129190413.340 8  97731720.154 8
G01  20179441.906 7                  20179446.066 8 106043682.696 7                  82631460.681 8
G02  21066560.125 8  21066561.340 6                 110705514.546 8  86264043.234 6
G03  20724894.031 7                  20724899.742 7 108910053.134 7                  84865010.098 7
G08  24032094.641 5                  24032117.336 4 126289504.504 5                  98407244.369 4
G17  22906413.039 6                  22906417.035 6 120374002.166 6                  93797928.279 6
G32  22958185.961 5                  22958195.020 6 120646078.302 5                  94009965.154 6
R02  20491182.258 8  20491187.266 7 109344871.326 8  85045963.246 7
R03  19423463.320 8  19423469.102 7 103975323.063 8  80869727.489 7
R17  20864416.250 8  20864421.844 7 111649696.559 8  86838569.887 7
R18  19106443.156 8  19106446.320 7 101991490.611 8  79326899.650 7
R19  21572944.477 7  21572948.953 7 115400709.299 7  89756552.276 7
> 2025 06 15 12 50 20.0000000  0 21
C12  22445486.820 7  22445483.727 8 116879540.241 7  90378916.199 8
C19  23352617.969 7                 121603204.230 7
C21  25065702.055 6                 130523702.915 6
C22  21583180.227 8                 112389282.423 8
E05  23036511.484 8  23036514.117 8 121057690.716 8  91579370.064 8
E06  25966366.969 5  25966369.246 7 136454344.312 5 103226707.980 7
E09  24787721.602 8  24787723.586 8 130260351.140 8  98541119.368 8
E34  23491452.438 8  23491454.617 9 123448416.125 8  93387935.780 9
E36  24584419.430 8  24584422.656 8 129191991.165 8  97732913.754 8
G01  20177548.180 7                  20177552.004 8 106033729.827 7                  82623705.196 8
G02  21066474.273 8  21066476.059 6                 110705067.439 8  86263694.842 6
G03  20721696.109 7                  20721701.984 7 108893247.982 7                  84851915.166 7
G08  24034256.148 5                  24034281.500 3 126300870.604 5                  98416101.011 3
G17  22903284.148 6                  22903288.301 7 120357560.233 6                  93785116.378 7
G32  22959166.445 5                  22959176.152 6 120651236.709 5                  94013984.602 6
R02  20492441.703 8  20492446.234 7 109351590.522 8  85051189.264 7
R03  19420758.828 8  19420764.098 8 103960845.841 8  80858467.445 8
R04  22531397.875 5  22531379.410 4 120654607.50515  93842410.36914
R17  20866122.367 8  20866129.238 7 111658832.451 8  86845675.578 7
R18  19104937.430 8  19104940.758 7 101983452.686 8  79320647.916 7
R19  21568224.859 8  21568228.801 7 115375458.142 8  89736912.503 7
> 2025 06 15 12 50 25.0000000  0 21
C12  22442786.156 7  22442782.980 8 116865477.770 7  90368042.209 8
C19  23353413.664 7                 121607349.729 7
C21  25061375.430 6                 130501174.567 6
C22  21580999.883 7                 112377932.371 7
E05  23033171.578 8  23033174.188 8 121040139.433 8  91566092.640 8
E06  25966900.633 5  25966902.172 7 136457144.77615 103228826.52317
E09  24787156.438 8  24787158.590 8 130257382.075 8  98538873.293 8
E34  23489333.094 8  23489335.387 8 123437279.484 8  93379510.989 8
E36  24584720.906 8  24584724.152 8 129193575.559 8  97734112.341 8
G01  20175656.836 8                  20175660.742 8 106023789.481 8                  82615959.486 8
G02  21066391.500 7  21066393.305 6                 110704631.152 7  86263354.878 6
G03  20718499.633 7                  20718506.016 7 108876453.344 7                  84838828.415 7
G08  24036419.992 5                  24036447.238 4 126312239.016 5                  98424959.457 4
G17  22900157.578 6                  22900162.418 7 120341131.215 6                  93772314.521 7
G32  22960149.648 5                  22960159.605 6 120656405.89915                  94018012.47916
R02  20493702.781 8  20493708.754 7 109358323.391 8  85056425.920 7
R03  19418058.797 8  19418063.734 7 103946387.932 8  80847222.394 7
R04  22526218.453 5  22526209.703 4 120626935.939 5  93820887.922 4
R17  20867833.773 8  20867838.754 7 111667981.517 8  86852791.508 7
R18  19103434.961 8  19103438.457 7 101975433.974 8  79314411.140 7
R19  21563505.625 8  21563509.402 7 115350214.902 8  89717278.880 7
> 2025 06 15 12 50 30.0000000  0 20
C12  22440088.328 7  22440085.098 7 116851427.794 7  90357177.880 7
C19  23354211.125 7                 121611503.759 7
C21  25057050.438 6                 130478652.272 6
C22  21578823.117 7                 112366595.179 7
E05  23029833.453 8  23029836.215 8 121022598.438 8  91552822.996 8
E06  25967431.453 5  25967436.941 7 136459954.895 5 103230952.355 7
E09  24786593.734 8  24786595.980 8 130254425.549 8  98536636.706 8
E34  23487215.594 8  23487217.684 8 123426150.864 8  93371092.259 8
E36  24585024.531 8  24585027.020 8 129195167.320 8  97735316.497 8
G01  20173767.211 7                  20173771.598 8 106013862.457 7                  82608224.148 8
G02  21066311.148 8  21066312.621 6                 110704206.486 8  86263023.966 6
G03  20715306.188 7                  20715312.152 7 108859669.971 7                  84825750.478 7
G08  24038581.500 5                  24038613.301 4 126323610.551 5                  98433820.354 4
G17  22897033.750 7                  22897038.848 7 120324715.813 7                  93759523.293 7
G32  22961137.547 5                  22961144.969 6 120661586.576 5                  94022049.337 6
R02  20494967.688 8  20494973.109 7 109365070.026 8  85061673.299 7
R03  19415361.047 8  19415366.750 8 103931949.742 8  80835992.688 8
R17  20869546.117 8  20869551.133 7 111677144.307 8  86859918.105 7
R18  19101936.750 8  19101940.293 7 101967435.342 8  79308189.980 7
R19  21558788.172 8  21558792.152 7 115324980.324 8  89697652.012 7
> 2025 06 15 12 50 35.0000000  0 21
C12  22437392.016 7  22437389.441 8 116837390.996 7  90346323.744 8
C19  23355010.984 7                 121615666.980 7
C21  25052726.141 6                 130456136.676 6
C22  21576648.398 7                 112355271.543 7
E05  23026497.297 8  23026500.316 8 121005068.396 8  91539561.641 8
E06  25967965.500 5  25967973.613 7 136462775.289 5 103233085.942 7
E09  24786033.758 8  24786035.859 8 130251482.272 8  98534410.134 8
E34  23485099.789 8  23485101.617 8 123415030.942 8  93362680.111 8
E36  24585328.859 8  24585331.434 8 129196767.115 8  97736526.733 8
G01  20171880.594 7                  20171884.988 8 106003949.427 7                  82600499.710 8
G02  21066232.422 8  21066234.293 6                 110703794.085 8  86262702.611 6
G03  20712114.805 7                  20712120.512 7 108842898.548 7                  84812681.846 7
G08  24040744.992 4                  24040779.789 3 126334985.886 4                  98442684.260 3
G17  22893912.484 7                  22893918.070 7 120308314.771 7                  93746743.268 7
G32  22962128.094 5                  22962132.875 6 120666779.36215                  94026095.63016
R02  20496234.844 8  20496239.500 7 109371831.438 8  85066932.173 7
R03  19412668.523 8  19412673.219 8 103917532.144 8  80824779.001 8
R04  22515867.711 5  22515885.699 3 120571619.06315  93777863.41313
R17  20871261.180 8  20871265.840 7 111686321.713 8  86867056.052 7
R18  19100441.961 8  19100445.734 7 101959457.485 8  79301984.993 7
R19  21554072.664 7  21554076.398 7 115299755.229 7  89678032.506 7
> 2025 06 15 12 50 40.0000000  0 21
C12  22434699.305 7  22434696.496 8 116823366.859 7  90335479.396 8
C19  23355812.555 7                 121619838.910 7
C21  25048402.703 6                 130433627.313 6
C22  21574476.813 7                 112343960.949 7
E05  23023163.711 8  23023166.438 8 120987548.827 8  91526308.204 8
E06  25968504.781 5  25968512.129 7 136465605.416 5 103235226.907 7
E09  24785476.195 8  24785478.156 8 130248551.696 8  98532193.171 8
E34  23482985.250 8  23482987.129 8 123403919.208 8  93354274.148 8
E36  24585634.672 8  24585637.293 8 129198374.468 8  97737742.676 8
G01  20169997.523 7                  20170001.410 8 105994049.910 7                  82592785.793 8
G02  21066156.352 8  21066158.035 6                 110703393.478 8  86262390.445 6
G03  20708925.273 7                  20708931.590 7 108826138.607 7                  84799622.133 7
G08  24042908.672 4                  24042947.012 3 126346364.61314                  98451550.80013
G17  22890792.859 6                  22890799.313 7 120291927.516 6                  93733973.984 7
G32  22963119.234 5                  22963123.102 6 120671983.824 5                  94030150.998 6
R02  20497504.930 8  20497509.605 7 109378607.147 8  85072202.156 7
R03  19409978.672 8  19409983.223 7 103903134.548 8  80813580.873 7
R04  22510704.414 5  22510728.348 3 120543973.698 5  93756361.146 3
R17  20872978.070 8  20872983.820 7 111695513.046 8  86874204.837 7
R18  19098951.922 8  19098954.980 7 101951499.862 8  79295795.738 7
R19  21549359.016 8  21549362.273 7 115274539.019 8  89658419.936 7
> 2025 06 15 12 50 45.0000000  0 21
C12  22432007.602 7  22432005.227 8 116809354.942 7  90324644.483 8
C19  23356615.445 7                 121624019.028 7
C21  25044081.383 6                 130411123.690 6
C22  21572307.031 7                 112332662.946 7
E05  23019831.477 8  23019834.473 8 120970039.208 8  91513062.306 8
E06  25969045.492 4  25969052.324 7 136468444.77914 103237374.87717
E09  24784920.977 8  24784922.805 8 130245633.343 8  98529985.455 8
E34  23480872.422 8  23480874.102 8 123392815.166 8  93345874.020 8
E36  24585942.117 8  24585944.492 8 129199988.850 8  97738963.943 8
G01  20168115.898 7                  20168120.078 8 105984163.394 7                  82585082.036 8
G02  21066082.617 8  21066083.813 6                 110703004.158 8  86262087.070 6
G03  20705738.266 7                  20705744.035 7 108809389.618 7                  84786570.988 7
G08  24045076.602 4                                 126357746.132 4                
G17  22887678.594 6                  22887683.438 6 120275553.635 6                  93721215.140 6
G32  22964112.914 6                  22964115.879 6 120677199.436 6                  94034215.119 6
R02  20498777.141 8  20498781.754 7 109385396.505 8  85077482.771 7
R03  19407292.828 8  19407297.711 8 103888756.469 8  80802397.942 8
R04  22505543.602 5                 120516336.485 5
R17  20874697.469 8  20874703.746 7 111704717.856 8  86881364.136 7
R18  19097464.555 8  19097467.949 7 101943561.996 8  79289621.852 7
R19  21544646.477 8  21544649.855 7 115249331.203 8  89638813.855 7
> 2025 06 15 12 50 50.0000000  0 21
C12  22429319.672 7  22429316.832 8 116795355.727 7  90313819.403 8
C19  23357420.414 7                 121628207.767 7
C21  25039760.617 6                 130388626.277 6
C22  21570139.945 8                 112321377.923 8
E05  23016501.664 8  23016504.512 8 120952540.007 8  91499824.290 8
E06  25969589.203 5  25969594.441 7 136471294.01115 103239530.26017
E09  24784368.273 8  24784369.813 8 130242727.637 8  98527787.309 8
E34  23478760.828 8  23478762.637 8 123381719.277 8  93337480.052 8
E36  24586250.477 8  24586253.129 8 129201610.700 8  97740190.861 8
G01  20166236.547 7                  20166241.199 8 105974290.320 7                  82577388.734 8
G02  21066010.602 8  21066011.820 6                 110702626.589 8  86261792.859 6
G03  20702553.398 7                  20702559.473 7 108792652.044 7                  84773528.731 7
G08  24047243.688 4                                 126369130.89114                
G17  22884564.086 6                  22884570.145 6 120259193.511 6                  93708467.024 6
G32  22965105.484 5                  22965111.066 6 120682426.609 5                  94038288.272 6
R02  20500052.180 8  20500057.102 7 109392200.012 8  85082774.384 7
R03  19404610.211 8  19404615.480 8 103874398.323 8  80791230.505 8
R04  22500390.609 6  22500411.688 4 120488707.913 6
R17  20876420.680 8  20876426.105 7 111713936.555 8  86888534.209 7
R18  19095981.664 8  19095984.949 7 101935644.351 8  79283463.692 7
R19  21539935.461 8  21539939.145 7 115224132.254 8  89619214.669 7
> 2025 06 15 12 50 55.0000000  0 21
C12  22426634.125 7  22426630.688 8 116781368.001 7  90303003.234 8
C19  23358226.039 7                 121632404.041 7
C21  25035441.930 6                 130366133.941 6
C22  21567975.586 8                 112310104.804 8
E05  23013173.453 8  23013176.281 8 120935050.127 8  91486593.320 8
E06  25970134.523 4                                
E09  24783817.617 8  24783819.043 8 130239833.472 8  98525597.883 8
E34  23476650.602 8  23476652.496 9 123370630.424 8  93329091.396 9
E36  24586560.211 8  24586562.973 8 129203238.902 8  97741422.585 8
G01  20164360.445 7                  20164365.051 8 105964429.600 7                  82569705.044 8
G02  21065940.602 8  21065942.094 6                 110702259.635 8  86261506.911 6
G03  20699369.938 7                  20699376.234 7 108775924.729 7                  84760494.462 7
G08  24049414.969 4                                 126380517.691 4                
G17  22881453.008 6                  22881459.391 7 120242846.129 6                  93695728.800 7
G32  22966101.180 5                  22966107.992 6 120687664.297 5                  94042369.626 6
R02  20501329.547 8  20501334.484 7 109399016.513 8  85088076.114 7
R03  19401931.109 8  19401936.246 8 103860059.004 8  80780077.714 8
R04  22495231.719 6  22495253.445 3 120461086.737 6  93691938.41213
R17  20878146.352 8  20878151.699 7 111723168.136 8  86895714.309 7
R18  19094501.461 8  19094505.410 7 101927745.781 8  79277320.349 7
R19  21535227.117 8  21535229.844 7 115198941.076 8  89599621.544 7
> 2025 06 15 12 51  0.0000000  0 20
C12  22423950.719 7  22423947.125 7 116767392.830 7  90292196.747 7
C19  23359033.070 7                 121636608.770 7
C21  25031123.797 6                 130343647.661 6
C22  21565813.000 8                 112298844.574 8
E05  23009846.898 8  23009850.035 8 120917570.544 8  91473370.139 8
E09  24783269.266 8  24783270.652 8 130236951.820 8  98523417.928 8
E34  23474542.289 8  23474543.875 8 123359549.570 8  93320708.811 8
E36  24586871.023 8  24586874.238 8 129204874.462 8  97742659.870 8
G01  20162486.375 7                  20162490.879 8 105954582.215 7                  82562031.754 8
G02  21065873.164 8  21065874.250 6                 110701904.261 8  86261229.986 6
G03  20696188.539 7                  20696195.000 7 108759208.701 7                  84747469.007 7
G08  24051583.734 4                                 126391907.70414                
G17  22878344.781 6                  22878351.152 7 120226512.416 6                  93683001.217 7
G32  22967101.469 5                  22967107.039 6 120692913.462 5                  94046459.873 6
R02  20502609.078 8  20502614.602 7 109405846.945 8  85093388.670 7
R03  19399256.172 8  19399261.430 8 103845739.528 8  80768940.354 8
R04  22490071.516 6                 120433473.985 6
R17  20879873.938 8  20879879.473 7 111732413.328 8  86902904.997 7
R18  19093026.500 8  19093029.188 7 101919867.306 8  79271192.621 7
R19  21530519.016 8  21530522.406 7 115173758.667 8  89580035.237 7
> 2025 06 15 12 51  5.0000000  0 20
C12  22421269.016 7  22421265.555 7 116753431.652 7  90281401.078 7
C19  23359842.531 7                 121640823.413 7
C21  25026807.633 6                 130321168.945 6
C22  21563653.164 8                 112287598.650 8
E05  23006522.688 8  23006526.004 8 120900102.721 8  91460155.851 8
E09  24782723.148 8  24782724.938 8 130234084.119 8  98521248.528 8
E34  23472435.273 8  23472437.055 9 123348478.211 8  93312333.402 9
E36  24587184.305 8  24587187.156 8 129206518.835 8  97743903.828 8
G01  20160614.969 7                  20160620.039 8 105944749.599 7                  82554369.984 8
G02  21065807.469 8  21065809.098 6                 110701561.938 8  86260963.244 6
G03  20693010.094 7                  20693016.430 7 108742505.452 7                  84734453.491 7
G08  24053751.219 4                                 126403302.228 4                
G17  22875239.828 6                  22875245.957 7 120210193.902 6                  93670285.498 7
G32  22968100.875 5                  22968109.344 6 120698175.475 5                  94050560.184 6
R02  20503891.625 7  20503897.445 7 109412692.892 7  85098713.259 7
R03  19396585.219 8  19396590.004 8 103831441.413 8  80757819.588 8
R04  22484915.938 6                 120405871.238 6
R17  20881603.617 8  20881609.520 7 111741673.861 8  86910107.613 7
R18  19091553.680 8  19091557.906 7 101912010.355 8  79265081.673 7
R19  21525812.234 8  21525816.906 7 115148586.464 8  89560456.865 7
