     3.04           OBSERVATION DATA    Mixed(MIXED)        RINEX VERSION / TYPE
cnvtToRINEX 3.14.0  convertToRINEX OPR  20250615 162946 UTC PGM / RUN BY / DATE 
----------------------------------------------------------- COMMENT             
36                                                          MARKER NAME         
36                                                          MARKER NUMBER       
GEODETIC                                                    MARKER TYPE         
GNSS Observer       Trimble                                 OBSERVER / AGENCY   
5849S10870          Geo Explorer 3      5.51                REC # / TYPE / VERS 
49S10870            UNKNOWN EXT     NONE                    ANT # / TYPE        
  3913236.6273  1190474.6715  4878391.7025                  APPROX POSITION XYZ 
        1.3400        0.0000        0.0000                  ANTENNA: DELTA H/E/N
G    6 C1C C2W C2X L1C L2W L2X                              SYS / # / OBS TYPES 
R    4 C1C C2C L1C L2C                                      SYS / # / OBS TYPES 
E    4 C1X C8X L1X L8X                                      SYS / # / OBS TYPES 
C    4 C2I C7I L2I L7I                                      SYS / # / OBS TYPES 
     5.000                                                  INTERVAL            
  2025     6    15    11    44   25.0000000     GPS         TIME OF FIRST OBS   
  2025     6    15    12    24   45.0000000     GPS         TIME OF LAST OBS    
     0                                                      RCV CLOCK OFFS APPL 
  5 R01  1 R02 -4 R03  5 R17  4 R18 -3                      GLONASS SLOT / FRQ #
G L2X -0.25000                                              SYS / PHASE SHIFT   
R L2C -0.25000                                              SYS / PHASE SHIFT   
    18                                                      LEAP SECONDS        
    25                                                      # OF SATELLITES     
   C12   485   485   485   485                              PRN / # OF OBS      
   C19   485     0   485     0                              PRN / # OF OBS      
   C20    22     0    21     0                              PRN / # OF OBS      
   C21    50     0    49     0                              PRN / # OF OBS      
   C22   485     0   485     0                              PRN / # OF OBS      
   E04   118   108   114   108                              PRN / # OF OBS      
   E05   296   293   295   293                              PRN / # OF OBS      
   E06   468   461   463   461                              PRN / # OF OBS      
   E09   485   485   485   485                              PRN / # OF OBS      
   E30   135   134   134   134                              PRN / # OF OBS      
   E34   485   485   485   485                              PRN / # OF OBS      
   E36   485   485   485   485                              PRN / # OF OBS      
   G01   485     0   485   485     0   485                  PRN / # OF OBS      
   G02   485   485     0   485   485     0                  PRN / # OF OBS      
   G03   461     0   436   439     0   435                  PRN / # OF OBS      
   G08   479     0   469   470     0   469                  PRN / # OF OBS      
   G10   104     0    50    78     0    47                  PRN / # OF OBS      
   G14    26     0     7    20     0     7                  PRN / # OF OBS      
   G17    53     0    22    44     0    22                  PRN / # OF OBS      
   G32   483     0   476   481     0   476                  PRN / # OF OBS      
   R01   216     0   216     0                              PRN / # OF OBS      
   R02   485   485   485   485                              PRN / # OF OBS      
   R03   485   485   485   485                              PRN / # OF OBS      
   R17   485   485   485   485                              PRN / # OF OBS      
   R18   485   485   485   485                              PRN / # OF OBS      
DBHZ                                                        SIGNAL STRENGTH UNIT
                                                            END OF HEADER       
>                              2  1
              *** Start of Kinematic Data ***               COMMENT             
> 2025 06 15 11 44 25.0000000  0 18
C12  24087620.086 6  24087616.699 7 125430564.17216  96990863.31917
C19  22239965.547 7                 115809332.36217
C22  22937124.406 7                 119439625.69917
E06  25093489.852 6  25093491.855 7 131867178.00616  99756677.58817
E09  24900611.398 8  24900612.672 8 130853597.48318  98989901.86818
E30  26927154.172 5  26927157.418 6 141503174.88415 107046226.43216
E34  24466414.195 8  24466417.395 8 128571874.92018  97263799.10718
E36  23666493.320 8  23666496.133 9 124368262.26818  94083792.43119
G01  21261266.648 7                  21261270.977 8 111728706.38517                  87061351.85118
G02  20699924.555 8  20699925.883 6                 108778832.97218  84762866.49916
G03  22740302.172 5                                                                
G08  21578024.234 7                  21578031.770 7 113393280.48017                  88358332.16117
G32  21892031.477 8                  21892039.051 7 115043400.96418                  89644342.94217
R01  21647697.219 7                 115719345.44417
R02  19424014.633 8  19424019.457 7 103650269.35918  80617001.27317
R03  21493223.773 6  21493228.387 6 115054898.37816  89487605.97616
R17  19315245.055 8  19315248.703 7 103359769.90118  80390995.20817
R18  20208357.516 8  20208361.766 7 107873584.62918  83901979.01417
> 2025 06 15 11 44 30.0000000  0 18
C12  24083601.125 6  24083597.680 7 125409632.758 6  96974677.822 7
C19  22239106.258 7                 115804857.440 7
C22  22933215.055 7                 119419268.770 7
E06  25092334.656 6  25092336.145 7 131861105.265 6  99752083.624 7
E09  24898148.641 8  24898150.578 8 130840658.332 8  98980113.490 8
E30  26927197.695 4  26927203.156 6 141503414.82414 107046407.97416
E34  24463403.961 8  24463407.383 8 128556057.048 8  97251833.006 8
E36  23665783.773 8  23665786.344 9 124364532.282 8  94080970.726 9
G01  21257802.797 7                  21257807.668 8 111710505.184 7                  87047169.101 8
G02  20698227.391 8  20698228.672 6                 108769915.125 8  84755917.529 6
G08  21579107.734 7                  21579115.547 7 113398976.706 7                  88362770.754 7
G10  23163879.648 5                                                                
G32  21890870.852 8                  21890877.188 7 115037298.183 8                  89639587.528 7
R01  21649602.375 7                 115729527.220 7
R02  19422494.008 8  19422499.480 7 103642156.182 8  80610691.014 7
R03  21488152.711 6  21488157.668 6 115027753.229 6  89466493.101 6
R17  19314637.844 8  19314642.938 7 103356528.921 8  80388474.440 7
R18  20204556.867 8  20204561.566 7 107853299.354 8  83886201.570 7
>                              3  5
              *** Start of Occupation ***                   COMMENT             
36                                                          MARKER NAME         
36                                                          MARKER NUMBER       
  3913236.6273  1190474.6715  4878391.7025                  APPROX POSITION XYZ 
        1.3400        0.0000        0.0000                  ANTENNA: DELTA H/E/N
> 2025 06 15 11 44 35.0000000  0 18
C12  24079583.023 6  24079579.551 7 125388709.725 6  96958498.830 7
C19  22238249.977 7                 115800398.977 7
C22  22929308.125 7                 119398924.492 7
E06  25091181.141 6  25091183.566 7 131855048.241 6  99747501.562 7
E09  24895689.234 7  24895691.305 8 130827734.427 7  98970336.656 8
E30  26927245.672 5  26927251.461 6 141503668.40615 107046599.93116
E34  24460395.633 8  24460398.824 8 128540246.798 8  97239872.653 8
E36  23665075.750 8  23665078.453 9 124360811.894 8  94078156.271 9
G01  21254341.258 7                  21254346.293 8 111692315.047 7                  87032994.963 8
G02  20696533.211 8  20696534.223 7                 108761010.286 8  84748978.691 7
G08  21580194.461 7                  21580202.191 7 113404687.500 7                  88367220.741 7
G10  23165193.172 5                  23165200.887 5 121733930.019 5                  94857626.98515
G32  21889712.992 8                  21889719.715 7 115031214.839 8                  89634847.271 7
R01  21651509.508 7                 115739723.501 7
R02  19420978.070 8  19420983.730 7 103634068.464 8  80604400.557 7
R03  21483084.281 6  21483090.020 6 115000622.466 6  89445391.469 6
R17  19314035.898 8  19314041.109 7 103353307.598 8  80385968.964 7
R18  20200760.016 8  20200764.285 7 107833027.894 8  83870434.901 7
> 2025 06 15 11 44 40.0000000  0 19
C12  24075566.922 6  24075563.660 6 125367796.194 6  96942327.191 6
C19  22237397.594 7                 115795957.906 7
C22  22925403.992 7                 119378593.839 7
E06  25090031.797 6  25090033.988 6 131849008.036 6  99742932.164 6
E09  24893232.773 7  24893235.188 8 130814826.829 7  98960572.155 8
E30  26927298.844 5  26927302.359 6 141503936.503 5 107046802.781 6
E34  24457389.094 8  24457391.879 8 128524445.198 8  97227918.846 8
E36  23664369.836 8  23664372.441 8 124357102.106 8  94075349.840 8
G01  21250881.719 7                  21250886.762 8 111674136.997 7                  87018830.261 8
G02  20694841.148 8  20694842.156 7                 108752119.470 8  84742050.784 7
G03  22726670.906 5                                                                
G08  21581284.586 7                  21581291.957 7 113410413.940 7                  88371682.888 7
G10  23166505.242 4                                                                
G32  21888559.461 8                  21888565.855 7 115025151.988 8                  89630122.966 7
R01  21653419.000 7                 115749935.191 7
R02  19419467.930 8  19419472.391 7 103626007.374 8  80598130.828 7
R03  21478019.672 7  21478024.016 6 114973507.108 7  89424301.702 6
R17  19313438.266 8  19313442.969 7 103350107.029 8  80383479.634 7
R18  20196965.148 8  20196969.273 7 107812771.327 8  83854679.787 7
> 2025 06 15 11 44 45.0000000  0 19
C12  24071552.555 6  24071549.152 6 125346891.283 6  96926162.172 6
C19  22236547.398 7                 115791533.554 7
C22  22921501.633 7                 119358276.042 7
E06  25088884.703 6  25088887.605 6 131842983.840 6  99738374.850 6
E09  24890779.914 8  24890781.926 8 130801934.733 8  98950819.373 8
E30  26927352.938 6  26927356.000 6 141504218.397 6 107047016.039 6
E34  24454383.469 8  24454386.430 8 128508651.484 8  97215970.992 8
E36  23663665.461 8  23663668.387 8 124353402.135 8  94072550.824 8
G01  21247424.258 7                  21247429.527 8 111655970.232 7                  87004674.347 8
G02  20693151.711 8  20693152.949 7                 108743241.893 8  84735133.188 7
G03  22722112.180 5                                                                
G08  21582376.570 7                  21582384.750 7 113416155.181 7                  88376156.581 7
G10  23167829.664 5                  23167834.680 4 121747771.21215                  94868412.33614
G32  21887409.883 8                  21887415.863 7 115019108.820 8                  89625413.994 7
R01  21655332.992 6                 115760161.729 6
R02  19417962.344 8  19417966.785 7 103617971.833 8  80591880.946 7
R03  21472955.211 6  21472960.984 6 114946406.471 6  89403223.526 6
R17  19312843.523 8  19312848.465 7 103346926.410 8  80381005.794 7
R18  20193173.711 8  20193177.293 7 107792528.834 8  83838935.611 7
> 2025 06 15 11 44 50.0000000  0 19
C12  24067539.102 6  24067535.461 6 125325994.592 6  96910003.524 6
C19  22235700.773 7                 115787125.362 7
C22  22917602.453 7                 119337970.615 7
E06  25087741.563 6  25087744.176 6 131836975.113 6  99733829.294 6
E09  24888328.875 7  24888331.582 8 130789057.665 7  98941077.963 8
E30  26927409.570 6  26927412.328 6 141504513.576 6 107047239.289 6
E34  24451379.625 8  24451382.289 8 128492865.122 8  97204028.718 8
E36  23662963.227 8  23662966.082 8 124349711.466 8  94069758.858 8
G01  21243968.844 7                  21243974.477 8 111637814.279 7                  86990526.876 8
G02  20691464.734 8  20691466.145 7                 108734377.063 8  84728225.517 7
G03  22717567.883 5                                                                
G08  21583472.891 7                  21583479.641 7 113421910.739 7                  88380641.430 7
G10  23169153.523 5                                 121754703.662 5                
G32  21886263.469 8                  21886268.820 7 115013084.854 8                  89620719.980 7
R01  21657248.148 6                 115770402.260 6
R02  19416461.344 8  19416465.383 7 103609961.355 8  80585650.564 7
R03  21467895.633 6  21467901.688 6 114919319.811 6  89382156.155 6
R17  19312253.289 8  19312257.793 7 103343765.198 8  80378547.064 7
R18  20189383.258 8  20189388.180 7 107772299.946 8  83823202.023 7
> 2025 06 15 11 44 55.0000000  0 19
C12  24063527.430 6  24063524.297 6 125305104.858 6  96893850.278 6
C19  22234856.719 7                 115782732.065 7
C22  22913704.719 7                 119317676.392 7
E06  25086599.805 6  25086603.395 6 131830980.538 6  99729294.478 6
E09  24885882.094 8  24885883.840 8 130776194.366 8  98931346.967 8
E30  26927468.391 6  26927471.035 6 141504820.818 6 107047471.681 6
E34  24448376.313 8  24448379.426 8 128477084.891 8  97192091.075 8
E36  23662262.484 8  23662265.344 8 124346028.876 8  94066972.998 8
G01  21240516.367 7                  21240521.641 8 111619667.931 7                  86976386.870 8
G02  20689779.805 8  20689781.906 7                 108725523.708 8  84721326.800 7
G03  22713031.172 5                                 119357892.04015                
G08  21584570.695 8                  21584577.625 7 113427679.357 8                  88385136.464 7
G10  23170472.344 5                                 121761642.210 5                
G32  21885120.680 8                  21885126.176 7 115007078.856 8                  89616039.999 7
R01  21659166.719 6                 115780655.743 6
R02  19414964.820 8  19414968.645 7 103601974.775 8  80579438.799 7
R03  21462839.453 6  21462844.824 6 114892246.129 6  89361098.833 6
R17  19311666.055 8  19311670.461 7 103340622.128 8  80376102.460 7
R18  20185596.938 8  20185600.680 7 107752083.418 8  83807478.082 7
> 2025 06 15 11 45  0.0000000  0 19
C12  24059517.484 6  24059513.957 7 125284222.460 6  96877702.668 7
C19  22234015.938 7                 115778354.054 7
C22  22909810.234 7                 119297393.665 7
E06  25085464.492 7  25085465.742 6 131825000.563 7  99724770.655 6
E09  24883437.000 7  24883438.742 8 130763345.180 7  98921626.639 8
E30  26927528.430 6  26927531.977 6 141505140.322 6 107047713.355 6
E34  24445374.758 8  24445377.605 8 128461311.145 8  97180158.334 8
E36  23661563.289 8  23661566.156 9 124342354.708 8  94064193.509 9
G01  21237064.938 7                  21237070.395 8 111601531.514 7                  86962254.570 8
G02  20688097.297 8  20688099.445 7                 108716682.192 8  84714437.301 7
G03  22708494.945 5                  22708500.238 6 119334056.586 5                  92987516.40516
G08  21585670.422 7                  21585677.934 7 113433461.361 7                  88389641.918 7
G10  23171792.367 5                                 121768587.438 5                
G32  21883981.039 8                  21883986.797 7 115001091.111 8                  89611374.231 7
R01  21661087.914 7                 115790922.444 7
R02  19413472.352 8  19413476.770 7 103594012.595 8  80573245.983 7
R03  21457783.273 6  21457788.965 6 114865185.599 6  89340051.743 6
R17  19311082.016 8  19311086.871 7 103337497.547 8  80373672.237 7
R18  20181811.180 8  20181816.152 8 107731879.557 8  83791763.947 8
> 2025 06 15 11 45  5.0000000  0 19
C12  24055508.695 6  24055505.242 7 125263348.234 6  96861561.401 7
C19  22233178.508 7                 115773992.153 7
C22  22905917.109 7                 119277123.299 7
E06  25084329.195 7  25084330.848 6 131819036.130 7  99720258.604 6
E09  24880993.992 8  24880996.660 8 130750511.000 8  98911917.658 8
E30  26927591.414 6  26927595.313 6 141505473.043 6 107047965.110 6
E34  24442374.813 8  24442377.457 8 128445544.745 8  97168231.167 8
E36  23660865.742 8  23660868.746 9 124338689.830 8  94061421.048 9
G01  21233616.578 7                  21233621.152 8 111583405.922 7                  86948130.738 8
G02  20686417.016 8  20686419.578 7                 108707853.416 8  84707557.740 7
G03  22703957.602 5                  22703964.992 6 119310230.898 5                  92968950.904 6
G08  21586773.133 8                  21586780.781 7 113439257.664 8                  88394158.499 7
G10  23173112.648 4                  23173120.004 5 121775540.319 4                  94890053.59915
G32  21882844.672 8                  21882851.020 7 114995122.542 8                  89606723.392 7
R01  21663009.781 7                 115801203.144 7
R02  19411985.305 8  19411988.914 7 103586075.413 8  80567072.641 7
R03  21452732.578 6  21452736.117 6 114838139.148 6  89319015.642 6
R17  19310502.680 8  19310506.512 7 103334392.306 8  80371257.023 7
R18  20178028.875 7  20178033.742 8 107711689.314 7  83776060.444 8
> 2025 06 15 11 45 10.0000000  0 18
C12  24051501.711 6  24051498.191 6 125242480.954 6  96845425.520 6
C19  22232343.938 7                 115769645.134 7
C22  22902026.094 7                 119256864.071 7
E06  25083196.461 7  25083198.688 6 131813085.810 7  99715757.202 6
E09  24878554.750 8  24878557.133 8 130737690.567 8  98902219.083 8
E30  26927656.398 6  26927660.566 6 141505817.716 6 107048225.896 6
E34  24439375.406 8  24439378.391 8 128429784.459 8  97156308.619 8
E36  23660170.172 8  23660172.859 9 124335032.992 8  94058654.671 9
G01  21230169.281 7                  21230173.922 8 111565289.897 7                  86934014.345 8
G02  20684739.453 8  20684741.426 7                 108699036.115 8  84700687.120 7
G08  21587878.563 8                  21587886.129 7 113445066.934 8                  88398685.176 7
G10  23174436.836 4                                                                
G32  21881712.539 8                  21881718.246 6 114989171.875 8                  89602086.495 6
R01  21664935.094 7                 115811496.692 7
R02  19410502.672 8  19410505.629 7 103578162.073 8  80560917.843 7
R03  21447681.188 6  21447685.766 6 114811105.487 6  89297989.466 6
R17  19309924.648 8  19309929.949 8 103331305.251 8  80368855.982 8
R18  20174248.961 8  20174253.156 7 107691511.440 8  83760366.552 7
> 2025 06 15 11 45 15.0000000  0 19
C12  24047495.344 6  24047493.023 7 125221620.874 6  96829295.201 7
C19  22231512.273 7                 115765313.231 7
C22  22898138.336 7                 119236616.258 7
E06  25082066.516 6  25082069.215 7 131807149.992 6  99711266.774 7
E09  24876118.258 8  24876120.238 8 130724884.159 8  98892531.121 8
E30  26927724.320 5  26927728.527 6 141506174.595 5 107048495.877 6
E34  24436377.414 8  24436380.582 8 128414030.503 8  97144390.867 8
E36  23659475.633 8  23659478.613 8 124331384.467 8  94055894.581 8
G01  21226723.828 7                  21226728.617 8 111547183.671 7                  86919905.604 8
G02  20683063.906 8  20683065.863 7                 108690230.556 8  84693825.642 7
G03  22694893.836 4                                                                
G08  21588986.563 7                  21588994.492 7 113450889.448 7                  88403222.185 7
G10  23175766.539 5                                 121789465.03815                
G32  21880584.070 8                  21880589.574 6 114983239.401 8                  89597463.787 6
R01  21666863.813 7                 115821803.358 7
R02  19409023.391 8  19409027.211 7 103570272.905 8  80554781.823 7
R03  21442634.414 7  21442638.137 6 114784084.980 7  89276973.459 6
R17  19309351.859 8  19309356.266 7 103328236.522 8  80366469.181 7
R18  20170471.813 8  20170475.477 7 107671346.128 8  83744682.427 7
> 2025 06 15 11 45 20.0000000  0 19
C12  24043490.828 6  24043489.000 7 125200769.117 6  96813171.321 7
C19  22230683.219 8                 115760997.521 8
C22  22894252.844 7                 119216380.896 7
E06  25080940.367 6  25080942.578 7 131801229.707 6  99706788.105 7
E09  24873683.844 8  24873686.102 8 130712092.819 8  98882854.564 8
E30  26927795.703 6  26927799.063 6 141506544.739 6 107048775.869 6
E34  24433380.961 8  24433384.195 8 128398284.022 8  97132478.780 8
E36  23658783.281 8  23658786.094 8 124327745.302 8  94053141.575 8
G01  21223279.789 7                  21223285.176 8 111529088.350 7                  86905805.375 8
G02  20681390.016 7  20681392.289 7                 108681437.811 7  84686974.140 7
G03  22690363.906 5                  22690371.445 5 119238808.93115                  92913278.12815
G08  21590097.336 7                  21590104.824 7 113456726.304 7                  88407770.370 7
G10  23177092.445 5                                 121796438.324 5                
G32  21879458.547 8                  21879463.645 7 114977326.109 8                  89592856.044 7
R01  21668794.133 7                 115832124.024 7
R02  19407549.766 8  19407553.840 7 103562408.843 8  80548665.354 7
R03  21437589.164 7  21437592.781 6 114757078.757 7  89255968.701 6
R17  19308782.516 8  19308786.082 7 103325187.244 8  80364097.513 7
R18  20166696.305 8  20166700.590 7 107651194.607 8  83729009.047 7
> 2025 06 15 11 45 25.0000000  0 20
C12  24039488.430 6  24039485.434 7 125179925.745 6  96797053.912 7
C19  22229856.914 7                 115756698.131 7
C20  25099476.063 5                 130699496.75915
C22  22890369.266 7                 119196158.185 7
E06  25079816.469 7  25079819.016 6 131795325.016 7  99702321.272 6
E09  24871252.477 8  24871254.922 8 130699316.688 8  98873189.502 8
E30  26927868.766 6  26927871.840 5 141506928.268 6 107049066.018 5
E34  24430385.984 8  24430389.203 8 128382545.127 8  97120572.400 8
E36  23658092.867 8  23658095.434 9 124324115.648 8  94050395.758 9
G01  21219838.328 7                  21219843.727 8 111511004.102 7                  86891713.762 8
G02  20679719.492 8  20679721.480 6                 108672657.971 8  84680132.719 6
G03  22685833.414 4                  22685844.855 6 119215019.92814                  92894741.23716
G08  21591210.664 7                  21591218.531 7 113462577.543 7                  88412329.777 7
G10  23178421.414 5                                 121803419.34515                
G32  21878336.797 8                  21878342.449 7 114971432.216 8                  89588263.368 7
R01  21670727.609 7                 115842458.918 7
R02  19406080.609 8  19406084.621 7 103554569.979 8  80542568.470 7
R03  21432548.695 7  21432550.398 6 114730086.914 7  89234975.068 6
R17  19308215.578 8  19308219.988 7 103322157.570 8  80361741.100 7
R18  20162925.391 8  20162927.773 7 107631056.899 8  83713346.380 7
> 2025 06 15 11 45 30.0000000  0 21
C12  24035486.914 6  24035483.906 7 125159088.137 6  96780940.925 7
C19  22229034.102 8                 115752412.344 8
C20  25100890.867 4                 130706870.19514
C22  22886487.188 7                 119175945.354 7
E04  26364543.656 4  26364535.418 5 138546603.75014 104809613.80515
E06  25078695.297 7  25078697.695 6 131789433.263 7  99697864.206 6
E09  24868823.313 8  24868826.020 8 130686553.069 8  98863533.910 8
E30  26927944.531 6  26927946.488 5 141507322.486 6 107049364.243 5
E34  24427392.234 8  24427395.055 8 128366811.090 8  97108669.684 8
E36  23657403.461 8  23657405.984 9 124320492.782 8  94047655.073 9
G01  21216399.266 7                  21216404.387 8 111492928.154 7                  86877628.631 8
G02  20678050.664 8  20678052.504 6                 108663888.367 8  84673299.263 6
G03  22681308.703 5                                                                
G08  21592326.641 7                  21592334.063 7 113468440.469 7                  88416898.289 7
G10  23179752.906 5                  23179755.504 5 121810405.463 5                  94917223.06715
G32  21877218.219 8                  21877224.004 7 114965554.944 8                  89583683.635 7
R01  21672663.719 7                 115852805.220 7
R02  19404615.461 8  19404620.383 7 103546753.729 8  80536489.146 7
R03  21427507.016 7  21427510.309 6 114703106.844 7  89213990.563 6
R17  19307652.492 8  19307656.641 7 103319144.696 8  80359397.746 7
R18  20159154.617 8  20159157.613 7 107610930.358 8  83697692.385 7
> 2025 06 15 11 45 35.0000000  0 21
C12  24031486.141 6  24031483.438 7 125138256.396 6  96764832.513 7
C19  22228213.063 8                 115748140.286 8
C20  25102310.156 5                 130714249.766 5
C22  22882607.320 7                 119155742.632 7
E04  26364675.383 5  26364682.434 5 138547327.61915 104810161.40715
E06  25077576.633 6  25077578.852 6 131783554.608 6  99693417.048 6
E09  24866397.406 8  24866399.629 8 130673802.083 8  98853887.873 8
E30  26928020.406 6  26928023.188 5 141507727.493 6 107049670.647 5
E34  24424399.375 8  24424401.934 9 128351082.032 8  97096770.766 9
E36  23656715.211 8  23656717.891 9 124316876.839 8  94044919.634 9
G01  21212961.328 8                  21212966.125 8 111474860.708 8                  86863550.107 8
G02  20676383.867 8  20676385.488 6                 108655129.158 8  84666473.897 6
G03  22676788.570 5                  22676794.754 6 119167463.63915                  92857684.35916
G08  21593444.570 7                  21593451.875 7 113474315.236 7                  88421476.017 7
G10  23181081.828 5                  23181087.746 5 121817396.575 5                  94922670.836 5
G32  21876103.391 8                  21876109.199 7 114959694.432 8                  89579117.000 7
R01  21674602.414 7                 115863163.118 7
R02  19403155.734 8  19403159.695 7 103538960.188 8  80530427.488 7
R03  21422469.156 7  21422473.695 6 114676138.395 7  89193015.229 6
R17  19307092.727 8  19307096.520 7 103316148.819 8  80357067.598 7
R18  20155386.344 8  20155389.293 7 107590815.069 8  83682047.160 7
> 2025 06 15 11 45 40.0000000  0 22
C12  24027486.625 6  24027484.309 7 125117431.449 6  96748729.360 7
C19  22227395.594 8                 115743882.863 8
C20  25103732.695 5                 130721636.247 5
C22  22878729.875 7                 119135550.848 7
E04  26364814.227 5  26364822.930 5 138548063.188 5 104810717.93015
E06  25076461.266 6  25076462.711 6 131777689.919 6  99688980.415 6
E09  24863973.539 8  24863975.777 9 130661064.660 8  98844252.098 9
E30  26928099.828 5  26928102.254 5 141508144.176 5 107049985.82215
E34  24421407.383 8  24421409.879 8 128335358.865 8  97084876.292 8
E36  23656028.953 8  23656031.324 9 124313268.714 8  94042190.104 9
G01  21209524.453 8                  21209529.957 8 111456802.620 8                  86849478.857 8
G02  20674719.352 8  20674720.578 7                 108646381.185 8  84659657.302 7
G03  22672264.914 5                  22672272.492 6 119143697.264 5                  92839165.222 6
G08  21594565.133 7                  21594572.621 7 113480202.676 7                  88426063.646 7
G10  23182408.953 4                                                                
G14  23848955.898 4                                 125327252.53814                
G32  21874991.859 8                  21874997.668 7 114953851.608 8                  89574564.133 7
R01  21676541.727 7                 115873533.390 7
R02  19401699.602 8  19401703.789 7 103531190.245 8  80524384.182 7
R03  21417432.367 7  21417436.801 6 114649182.753 7  89172049.737 6
R17  19306536.695 8  19306540.234 7 103313170.957 8  80354751.478 7
R18  20151619.016 8  20151623.500 7 107570711.962 8  83666411.405 7
> 2025 06 15 11 45 45.0000000  0 22
C12  24023489.766 6  24023486.098 7 125096614.210 6  96732632.142 7
C19  22226580.820 7                 115739640.957 7
C20  25105151.867 5                 130729030.657 5
C22  22874855.164 7                 119115370.896 7
E04  26364955.117 5  26364965.742 5 138548811.50115 104811284.02115
E06  25075348.438 6  25075349.539 6 131771840.114 6  99684555.025 6
E09  24861552.141 8  24861554.676 8 130648341.669 8  98834627.238 8
E30  26928181.563 6  26928183.777 5 141508573.523 6 107050310.638 5
E34  24418416.648 8  24418419.168 8 128319642.523 8  97072986.979 8
E36  23655344.063 8  23655346.371 9 124309669.326 8  94039467.182 9
G01  21206089.477 7                  21206094.906 8 111438754.849 7                  86835415.645 8
G02  20673057.117 8  20673058.172 7                 108637645.385 8  84652850.176 7
G03  22667747.211 5                  22667751.801 6 119119940.043 5                  92820653.139 6
G08  21595688.172 8                  21595695.508 7 113486103.771 8                  88430661.885 7
G10  23183742.727 5                  23183754.066 4 121831397.76315                  94933580.83414
G14  23847845.148 4                                                                
G32  21873883.313 8                  21873888.563 7 114948027.355 8                  89570025.771 7
R01  21678483.609 7                 115883917.030 7
R02  19400248.125 8  19400252.340 7 103523444.758 8  80518359.919 7
R03  21412398.156 7  21412404.078 6 114622240.747 7  89151094.840 6
R17  19305984.469 8  19305987.246 7 103310211.809 8  80352449.934 7
R18  20147855.180 8  20147859.652 7 107550621.976 8  83650785.880 7
> 2025 06 15 11 45 50.0000000  0 21
C12  24019492.891 6  24019490.398 7 125075805.497 6  96716541.517 7
C19  22225769.531 7                 115735415.396 7
C20  25106573.078 5                 130736433.733 5
C22  22870981.602 7                 119095203.674 7
E04  26365098.961 5  26365111.035 4 138549573.239 5 104811860.35714
E06  25074239.391 6  25074239.613 6 131766005.935 6  99680141.501 6
E09  24859134.055 8  24859136.520 8 130635633.981 8  98825013.952 8
E30  26928265.844 5  26928267.848 5 141509016.188 5 107050645.513 5
E34  24415427.055 8  24415429.883 8 128303933.821 8  97061103.446 8
E36  23654660.680 8  23654663.309 9 124306079.489 8  94036751.491 9
G01  21202657.328 7                  21202662.660 8 111420718.150 7                  86821361.098 8
G02  20671397.156 8  20671398.211 6                 108628922.594 8  84646053.189 6
G03  22663232.188 5                  22663232.727 6 119096192.767 5                  92802148.864 6
G08  21596813.438 7                  21596821.258 7 113492019.263 7                  88435271.373 7
G10  23185076.602 5                  23185089.270 4 121838409.51615                  94939044.46614
G32  21872778.781 8                  21872784.508 7 114942222.494 8                  89565502.505 7
R01  21680428.578 7                 115894314.916 7
R02  19398800.875 8  19398805.195 7 103515724.597 8  80512355.357 7
R03  21407368.609 7  21407373.910 6 114595313.291 7  89130151.290 6
R17  19305434.711 8  19305437.695 7 103307272.212 8  80350163.557 7
R18  20144094.703 8  20144099.223 7 107530545.959 8  83635171.218 7
> 2025 06 15 11 45 55.0000000  0 21
C12  24015498.453 6  24015496.223 7 125055005.418 6  96700457.591 7
C19  22224961.352 7                 115731206.342 7
C20  25107996.531 5                 130743845.724 5
C22  22867110.461 7                 119075049.328 7
E04  26365246.477 6  26365258.785 4 138550348.756 6 104812447.141 4
E06  25073131.234 6  25073132.484 6 131760187.710 6  99675740.016 6
E09  24856719.078 8  24856721.195 8 130622941.783 8  98815412.388 8
E30  26928352.461 6  26928354.598 5 141509472.470 6 107050990.721 5
E34  24412439.250 8  24412442.090 8 128288232.916 8  97049225.825 8
E36  23653979.195 8  23653982.070 9 124302499.395 8  94034043.177 9
G01  21199227.883 7                  21199232.027 8 111402692.793 7                  86807315.372 8
G02  20669740.211 8  20669740.773 6                 108620212.976 8  84639266.486 6
G03  22658717.813 5                  22658716.098 6 119072455.79215                  92783652.49816
G08  21597941.695 7                  21597949.371 7 113497949.393 7                  88439892.231 7
G10  23186411.828 4                  23186423.578 4 121845429.242 4                  94944514.431 4
G32  21871677.578 7                  21871683.504 7 114936437.229 7                  89560994.528 7
R01  21682377.227 7                 115904727.236 7
R02  19397359.172 8  19397363.469 7 103508030.135 8  80506370.784 7
R03  21402340.688 7  21402346.699 6 114568400.566 7  89109219.223 6
R17  19304889.414 8  19304892.316 7 103304352.609 8  80347892.768 7
R18  20140336.695 8  20140341.117 8 107510484.180 8  83619567.612 8
> 2025 06 15 11 46  0.0000000  0 21
C12  24011505.094 6  24011503.109 7 125034212.460 6  96684379.174 7
C19  22224156.047 7                 115727012.184 7
C20  25109419.984 5                 130751264.845 5
C22  22863242.367 7                 119054906.230 7
E04  26365395.891 5  26365408.871 3 138551136.354 5 104813042.892 3
E06  25072026.508 6  25072028.164 6 131754383.671 6  99671349.296 6
E09  24854306.133 8  24854308.613 8 130610263.422 8  98805821.286 8
E30  26928441.719 5  26928443.723 5 141509940.719 5 107051344.96015
E34  24409452.039 8  24409455.488 8 128272538.218 8  97037352.903 8
E36  23653299.500 8  23653302.398 9 124298927.396 8  94031340.987 9
G01  21195798.625 7                  21195804.074 8 111384677.126 7                  86793277.179 8
G02  20668084.992 8  20668085.867 7                 108611514.935 8  84632488.797 7
G03  22654193.328 5                  22654199.531 5 119048727.248 5                  92765162.757 5
G08  21599072.672 7                  21599080.609 7 113503892.449 7                  88444523.164 7
G10  23187747.891 4                                                                
G32  21870580.117 7                  21870587.043 7 114930669.926 7                  89556500.527 7
R01  21684326.008 7                 115915152.192 7
R02  19395921.789 8  19395925.625 7 103500359.536 8  80500404.771 7
R03  21397314.438 7  21397321.191 6 114541500.908 7  89088297.285 6
R17  19304346.203 8  19304350.191 7 103301451.169 8  80345636.114 7
R18  20136580.789 8  20136585.297 8 107490434.903 8  83603973.723 8
> 2025 06 15 11 46  5.0000000  0 21
C12  24007514.133 6  24007511.695 6 125013427.486 6  96668306.919 6
C19  22223353.883 7                 115722833.808 7
C20  25110843.602 5                 130758692.061 5
C22  22859377.133 7                 119034775.302 7
E04  26365548.414 5  26365551.852 4 138551936.901 5 104813648.82914
E06  25070925.578 6  25070926.754 6 131748594.777 6  99666970.018 6
E09  24851896.188 8  24851898.773 8 130597599.785 8  98796241.322 8
E30  26928533.375 5  26928535.188 5 141510421.841 5 107051708.89115
E34  24406466.586 8  24406470.211 8 128256850.615 8  97025485.345 8
E36  23652621.625 8  23652624.422 9 124295364.427 8  94028645.622 9
G01  21192373.008 7                  21192378.207 8 111366672.048 7                  86779247.240 8
G02  20666431.930 8  20666433.070 6                 108602829.367 8  84625720.816 6
G03  22649679.281 5                                                                
G08  21600206.422 7                  21600214.262 7 113509849.379 7                  88449164.912 7
G10  23189083.164 4                                                                
G32  21869487.000 7                  21869492.637 7 114924921.486 7                  89552021.216 7
R01  21686278.797 7                 115925590.714 7
R02  19394488.344 8  19394492.816 7 103492713.593 8  80494457.928 7
R03  21392292.094 7  21392299.344 7 114514615.436 7  89067386.361 7
R17  19303807.844 8  19303811.598 7 103298568.894 8  80343394.353 7
R18  20132827.578 8  20132831.969 8 107470399.120 8  83588390.330 8
> 2025 06 15 11 46 10.0000000  0 21
C12  24003523.633 6  24003521.582 6 124992649.902 6  96652240.378 6
C19  22222554.523 7                 115718670.579 7
C20  25112267.156 4                 130766126.852 4
C22  22855513.617 7                 119014655.947 7
E04  26365703.609 5  26365705.906 4 138552749.770 5 104814263.775 4
E06  25069826.094 7  25069828.332 6 131742820.437 7  99662601.729 6
E09  24849489.063 8  24849491.668 8 130584950.309 8  98786672.086 8
E30  26928627.555 6  26928628.961 5 141510915.153 6 107052082.062 5
E34  24403482.719 8  24403486.168 8 128241169.492 8  97013622.686 8
E36  23651945.453 8  23651948.016 9 124291809.842 8  94025956.600 9
G01  21188947.938 7                  21188953.754 8 111348676.961 7                  86765225.119 8
G02  20664781.367 8  20664782.559 6                 108594155.653 8  84618962.082 6
G03  22645169.383 4                                                                
G08  21601342.078 7                  21601350.152 7 113515819.504 7                  88453816.943 7
G10  23190421.352 4                                                                
G32  21868395.930 7                  21868402.313 7 114919191.215 7                  89547556.088 7
R01  21688234.203 7                 115936042.207 7
R02  19393060.469 8  19393064.832 7 103485091.865 8  80488529.921 7
R03  21387270.648 6  21387279.305 7 114487743.271 6  89046485.810 7
R17  19303271.453 8  19303276.719 7 103295704.984 8  80341166.890 7
R18  20129076.578 8  20129081.230 7 107450376.189 8  83572816.952 7
> 2025 06 15 11 46 15.0000000  0 20
C12  23999535.352 6  23999532.191 6 124971880.243 6  96636179.943 6
C19  22221758.352 7                 115714523.040 7
C20  25113693.047 5                 130773569.64815
C22  22851652.461 7                 118994548.679 7
E04  26365861.734 5  26365862.574 4 138553575.447 5 104814888.354 4
E06  25068730.313 7  25068732.742 6 131737061.093 7  99658244.806 6
E09  24847084.766 8  24847087.328 8 130572315.504 8  98777113.936 8
E30  26928724.703 6  26928725.203 4 141511421.213 6 107052464.87314
E34  24400500.188 8  24400503.516 8 128225495.401 8  97001765.342 8
E36  23651270.688 8  23651273.340 9 124288264.184 8  94023274.333 9
G01  21185526.445 7                  21185531.508 8 111330692.395 7                  86751211.177 8
G02  20663133.305 8  20663134.523 6                 108585494.337 8  84612212.996 6
G03  22640656.992 5                                                                
G08  21602481.375 7                  21602488.629 7 113521803.384 7                  88458479.690 7
G32  21867308.844 8                  21867315.641 7 114913479.712 8                  89543105.570 7
R01  21690192.367 7                 115946507.037 7
R02  19391636.477 8  19391640.613 7 103477494.727 8  80482621.036 7
R03  21382255.633 6  21382261.246 6 114460885.085 6  89025596.097 6
R17  19302740.195 8  19302744.832 7 103292860.194 8  80338954.257 7
R18  20125327.453 8  20125332.418 8 107430366.616 8  83557253.974 8
> 2025 06 15 11 46 20.0000000  0 20
C12  23995548.734 6  23995545.469 6 124951118.802 6  96620125.901 6
C19  22220964.953 7                 115710391.480 7
C20  25115125.414 5                 130781020.56415
C22  22847793.430 7                 118974453.797 7
E04  26366020.359 5  26366021.773 3 138554414.330 5 104815522.984 3
E06  25067636.523 6  25067639.828 6 131731317.130 6  99653899.521 6
E09  24844683.523 8  24844685.793 8 130559695.651 8  98767567.099 8
E30  26928825.742 5  26928823.961 4 141511940.349 5 107052857.52614
E34  24397519.492 8  24397522.266 8 128209828.617 8  96989913.523 8
E36  23650597.570 8  23650600.426 9 124284727.744 8  94020599.042 9
G01  21182106.023 7                  21182111.480 8 111312718.639 7                  86737205.663 8
G02  20661487.508 8  20661488.813 6                 108576845.694 8  84605473.797 6
G03  22636150.719 4                                                                
G08  21603622.484 7                  21603629.984 7 113527801.257 7                  88463153.358 7
G32  21866225.914 8                  21866232.566 7 114907787.271 8                  89538669.885 7
R01  21692152.406 7                 115956985.630 7
R02  19390217.930 8  19390221.898 7 103469922.682 8  80476731.682 7
R03  21377242.328 6  21377245.852 6 114434041.262 6  89004717.562 6
R17  19302212.023 8  19302216.832 7 103290034.691 8  80336756.647 7
R18  20121581.844 8  20121586.582 7 107410370.806 8  83541701.696 7
> 2025 06 15 11 46 25.0000000  0 21
C12  23991562.406 6  23991560.406 6 124930364.916 6  96604077.697 6
C19  22220174.164 7                 115706275.233 7
C20  25116559.055 4                 130788479.210 4
C22  22843936.844 7                 118954370.656 7
E04  26366181.203 5  26366183.316 3 138555265.669 5 104816167.067 3
E06  25066546.555 6  25066549.664 6 131725587.815 6  99649565.337 6
E09  24842284.984 8  24842287.008 8 130547090.104 8  98758031.090 8
E30  26928930.461 5  26928925.168 4 141512471.830 5 107053259.485 4
E34  24394539.211 8  24394542.273 8 128194168.493 8  96978066.741 8
E36  23649926.188 8  23649929.125 9 124281199.856 8  94017930.224 9
G01  21178687.469 7                  21178692.633 8 111294755.031 7                  86723208.061 8
G02  20659843.969 8  20659845.750 6                 108568209.069 8  84598743.956 6
G03  22631647.391 4                  22631649.320 6 118930223.89714                  92672822.46816
G08  21604766.648 7                  21604774.082 7 113533812.510 7                  88467837.443 7
G10  23194450.039 5                                                                
G32  21865145.656 8                  21865152.715 7 114902113.200 8                  89534248.536 7
R01  21694114.797 7                 115967477.292 7
R02  19388803.000 8  19388807.566 7 103462374.815 8  80470861.124 7
R03  21372229.703 7  21372233.871 6 114407210.703 7  88983849.382 6
R17  19301687.148 8  19301692.004 7 103287227.823 8  80334573.507 7
R18  20117838.086 8  20117842.875 7 107390388.003 8  83526159.534 7
> 2025 06 15 11 46 30.0000000  0 21
C12  23987578.031 6  23987576.430 6 124909618.561 6  96588035.300 6
C19  22219387.289 7                 115702174.196 7
C20  25117989.195 4                 130795945.37014
C22  22840081.789 7                 118934299.177 7
E04  26366345.969 5  26366347.313 4 138556129.471 5 104816820.584 4
E06  25065458.219 6  25065462.230 6 131719873.117 6  99645242.219 6
E09  24839888.586 8  24839890.852 8 130534498.784 8  98748505.854 8
E30  26929036.938 5  26929028.871 4 141513015.582 5 107053670.721 4
E34  24391560.055 8  24391563.488 8 128178514.933 8  96966224.928 8
E36  23649256.594 8  23649259.426 8 124277680.461 8  94015267.808 8
G01  21175270.734 7                  21175276.035 8 111276801.504 7                  86709218.305 8
G02  20658202.984 8  20658204.301 6                 108559584.388 8  84592023.436 6
G03  22627158.898 5                                                                
G08  21605912.375 7                  21605920.688 7 113539837.010 7                  88472531.854 7
G10  23195794.156 5                                                                
G32  21864069.313 8                  21864076.461 7 114896457.407 8                  89529841.440 7
R01  21696080.375 7                 115977981.870 7
R02  19387393.148 8  19387397.621 7 103454851.201 8  80465009.410 7
R03  21367218.492 7  21367223.934 6 114380393.763 7  88962991.805 6
R17  19301165.734 8  19301171.016 7 103284439.460 8  80332404.769 7
R18  20114096.742 8  20114102.133 7 107370418.187 8  83510627.470 7
> 2025 06 15 11 46 35.0000000  0 21
C12  23983595.188 6  23983593.219 6 124888879.248 6  96571998.356 6
C19  22218602.148 8                 115698087.972 8
C20  25119423.898 4                 130803418.65414
C22  22836230.055 7                 118914238.986 7
E04  26366512.344 5  26366513.703 4 138557005.125 5 104817483.021 4
E06  25064374.102 6  25064377.547 6 131714172.597 6  99640929.810 6
E09  24837495.195 8  24837497.391 8 130521921.283 8  98738991.057 8
E30  26929136.898 5  26929134.684 4 141513571.114 5 107054090.934 4
E34  24388582.547 8  24388585.816 8 128162867.546 8  96954387.783 8
E36  23648588.359 8  23648591.254 9 124274169.128 8  94012611.506 9
G01  21171856.180 7                  21171861.000 8 111258857.685 7                  86695236.088 8
G02  20656563.945 8  20656565.344 6                 108550971.232 8  84585311.871 6
G03  22622675.570 5                  22622641.543 6 118882885.81915                  92635935.80616
G08  21607062.352 7                  21607069.320 7 113545874.347 7                  88477236.241 7
G10  23197141.594 5                  23197161.191 5 121901834.02715                  94988485.77215
G32  21862997.117 8                  21863003.383 7 114890819.538 8                  89525448.286 7
R01  21698047.242 7                 115988498.885 7
R02  19385988.047 8  19385992.020 7 103447351.286 8  80459176.146 7
R03  21362208.375 6  21362216.715 6 114353589.875 6  88942144.390 6
R17  19300648.781 8  19300652.898 7 103281669.300 8  80330250.179 7
R18  20110357.922 8  20110363.219 7 107350460.934 8  83495105.150 7
> 2025 06 15 11 46 40.0000000  0 21
C12  23979613.969 6  23979611.777 6 124868146.679 6  96555966.637 6
C19  22217820.023 8                 115694016.156 8
C20  25120863.070 4                 130810898.57014
C22  22832379.648 7                 118894189.638 7
E04  26366680.250 5  26366682.340 4 138557892.397 5 104818154.235 4
E06  25063292.219 6  25063295.512 6 131708485.863 6  99636627.826 6
E09  24835104.227 8  24835106.516 8 130509357.219 8  98729486.429 8
E30  26929240.234 5  26929246.004 4 141514138.216 5 107054519.88614
E34  24385606.438 8  24385609.270 8 128147225.933 8  96942555.012 8
E36  23647921.797 8  23647924.563 9 124270665.473 8  94009961.010 9
G01  21168443.609 7                  21168448.348 8 111240923.172 7                  86681261.121 8
G02  20654926.938 8  20654928.313 7                 108542369.200 8  84578608.986 7
G03  22618178.891 5                                 118859229.182 5                
G08  21608213.016 7                  21608220.652 7 113551924.136 7                  88481950.352 7
G10  23198489.828 5                  23198508.910 4 121908913.405 5                  94994002.176 4
G32  21861926.984 8                  21861933.434 7 114885199.138 8                  89521068.755 7
R01  21700017.859 7                 115999028.010 7
R02  19384586.445 8  19384590.938 7 103439874.763 8  80453361.076 7
R03  21357205.023 6  21357212.375 6 114326798.847 6  88921306.921 6
R17  19300134.633 8  19300139.023 7 103278916.875 8  80328109.406 7
R18  20106621.719 8  20106626.469 7 107330515.896 8  83479592.329 7
> 2025 06 15 11 46 45.0000000  0 21
C12  23975634.578 6  23975630.879 6 124847419.711 6  96539939.228 6
C19  22217040.523 7                 115689957.670 7
C20  25122302.031 4                 130818384.19214
C22  22828531.000 7                 118874150.104 7
E04  26366850.500 5  26366853.180 5 138558790.162 5 104818833.358 5
E06  25062213.063 6  25062215.945 6 131702811.813 6  99632335.438 6
E09  24832715.500 8  24832717.973 8 130496805.490 8  98719991.135 8
E30  26929348.969 5  26929370.012 4 141514715.599 5 107054957.49614
E34  24382630.664 8  24382633.633 8 128131588.984 8  96930725.771 8
E36  23647256.469 8  23647259.078 9 124267168.386 8  94007315.474 9
G01  21165032.102 7                  21165037.039 8 111222996.848 7                  86667292.555 8
G02  20653291.922 8  20653293.238 7                 108533777.197 8  84571913.932 7
G03  22613678.086 5                  22613642.566 6 118835579.567 5                  92599110.01216
G08  21609366.672 7                  21609374.008 7 113557985.232 7                  88486673.262 7
G10  23199839.828 6                  23199855.922 4 121915997.497 6                  94999522.242 4
G32  21860860.781 8                  21860866.957 7 114879595.113 8                  89516701.980 7
R01  21701989.109 7                 116009568.194 7
R02  19383189.219 8  19383194.324 7 103432420.710 8  80447563.462 7
R03  21352203.555 6  21352208.773 6 114300019.548 6  88900478.565 6
R17  19299622.406 8  19299628.184 7 103276181.045 8  80325981.547 7
R18  20102887.602 8  20102892.117 7 107310581.881 8  83464088.106 7
> 2025 06 15 11 46 50.0000000  0 21
C12  23971654.461 6  23971651.063 6 124826700.061 6  96523917.469 6
C19  22216263.945 7                 115685914.114 7
C20  25123741.570 4                 130825877.05314
C22  22824685.141 7                 118854122.004 7
E04  26367023.172 4  26367026.500 5 138559699.95214 104819521.67115
E06  25061135.906 6  25061138.980 6 131697152.079 6  99628053.899 6
E09  24830329.609 8  24830332.105 8 130484267.729 8  98710506.410 8
E30  26929462.859 5  26929481.215 5 141515304.971 5 107055403.339 5
E34  24379656.305 8  24379659.184 8 128115958.387 8  96918901.330 8
E36  23646592.414 8  23646595.156 9 124263679.511 8  94004676.162 9
G01  21161622.656 7                  21161627.723 8 111205080.372 7                  86653331.668 8
G02  20651659.125 8  20651660.445 7                 108525196.921 8  84565227.989 7
G03  22609169.555 5                  22609140.938 6 118811938.79215                  92580688.64116
G08  21610522.141 7                  21610530.059 7 113564059.273 7                  88491406.282 7
G10  23201187.641 5                  23201205.652 4 121923087.921 5                  95005047.187 4
G32  21859797.563 8                  21859804.320 7 114874009.141 8                  89512349.281 7
R01  21703962.773 7                 116020120.916 7
R02  19381796.758 8  19381801.777 7 103424990.420 8  80441784.343 7
R03  21347204.070 6  21347209.711 6 114273253.429 6  88879660.552 6
R17  19299114.750 8  19299119.980 7 103273463.595 8  80323867.965 7
R18  20099155.727 8  20099160.109 7 107290660.656 8  83448593.853 7
> 2025 06 15 11 46 55.0000000  0 20
C12  23967676.117 6  23967673.113 6 124805988.468 6  96507901.965 6
C19  22215490.594 8                 115681886.242 8
C22  22820841.055 7                 118834106.080 7
E04  26367201.516 5  26367211.230 6 138560622.57315 104820219.12816
E06  25060060.055 6  25060064.617 6 131691507.389 6  99623783.758 6
E09  24827946.281 7  24827949.008 8 130471744.705 7  98701032.830 8
E30  26929576.000 5  26929594.902 5 141515907.003 5 107055858.77815
E34  24376683.063 8  24376686.102 8 128100334.849 8  96907082.230 8
E36  23645929.984 8  23645932.953 9 124260199.594 8  94002043.620 9
G01  21158215.508 7                  21158220.438 8 111187174.490 7                  86639379.053 8
G02  20650028.797 8  20650030.027 7                 108516629.043 8  84558551.726 7
G03  22604661.625 4                  22604643.789 6 118788307.50614                  92562274.60016
G08  21611681.055 7                  21611688.496 7 113570147.012 7                  88496149.978 7
G10  23202537.539 5                  23202558.836 5 121930185.325 5                  95010577.617 5
G32  21858738.836 8                  21858745.430 7 114868441.914 8                  89508011.175 7
R01  21705940.492 7                 116030687.011 7
R02  19380409.484 8  19380414.008 7 103417584.813 8  80436024.430 7
R03  21342204.039 6  21342212.168 6 114246501.592 6  88858853.646 6
R17  19298610.531 8  19298616.020 7 103270765.276 8  80321769.277 7
R18  20095426.672 8  20095431.129 7 107270753.025 8  83433110.129 7
> 2025 06 15 11 47  0.0000000  0 20
C12  23963700.250 6  23963697.395 7 124785284.072 6  96491892.012 7
C19  22214720.023 7                 115677873.270 7
C22  22816999.117 7                 118814101.581 7
E04  26367379.063 5  26367389.406 6 138561557.26415 104820926.26816
E06  25058988.211 6  25058992.977 6 131685876.975 6  99619524.406 6
E09  24825565.836 7  24825568.637 8 130459235.625 7  98691569.809 8
E30  26929693.906 5  26929711.141 5 141516521.005 5 107056323.26315
E34  24373711.063 8  24373714.234 9 128084717.614 8  96895267.906 9
E36  23645269.453 8  23645272.258 9 124256727.863 8  93999417.284 9
G01  21154810.344 7                  21154815.129 8 111169278.416 7                  86625434.068 8
G02  20648400.477 8  20648401.836 7                 108508072.817 8  84551884.529 7
G03  22600166.250 4                                                                
G08  21612842.141 7                  21612849.293 7 113576247.658 7                  88500903.726 7
G10  23203891.281 6                  23203911.645 5 121937289.085 6                  95016113.096 5
G32  21857681.984 8                  21857689.285 7 114862892.701 8                  89503687.088 7
R01  21707919.547 7                 116041265.568 7
R02  19379026.805 8  19379030.273 7 103410203.246 8  80430283.200 7
R03  21337211.078 6  21337217.676 6 114219762.973 6  88838056.926 6
R17  19298110.469 8  19298115.242 7 103268085.096 8  80319684.686 7
R18  20091699.594 8  20091703.910 7 107250858.101 8  83417636.290 7
> 2025 06 15 11 47  5.0000000  0 20
C12  23959726.102 6  23959722.879 7 124764586.776 6  96475887.563 7
C19  22213952.164 7                 115673875.001 7
C22  22813159.055 7                 118794108.325 7
E04  26367559.250 5  26367569.672 6 138562503.861 5 104821642.343 6
E06  25057918.922 6  25057923.992 6 131680260.706 6  99615275.742 6
E09  24823188.172 7  24823190.871 8 130446740.335 7  98682117.211 8
E30  26929812.227 5  26929829.926 4 141517146.707 5 107056796.562 4
E34  24370740.695 8  24370743.531 9 128069106.475 8  96883458.191 9
E36  23644610.695 8  23644613.145 9 124253264.150 8  93996797.012 9
G01  21151406.039 7                  21151411.500 8 111151392.033 7                  86611496.630 8
G02  20646774.477 8  20646775.930 7                 108499528.103 8  84545226.311 7
G03  22595674.188 4                                                                
G08  21614005.180 7                  21614012.684 7 113582361.037 7                  88505667.383 7
G10  23205242.930 5                  23205264.043 5 121944398.894 5                  95021653.205 5
G32  21856630.305 8                  21856636.512 7 114857361.307 8                  89499376.893 7
R01  21709900.914 7                 116051856.488 7
R02  19377647.477 8  19377651.445 7 103402845.364 8  80424560.418 7
R03  21332217.328 6  21332225.230 6 114193037.668 6  88817270.622 6
R17  19297613.125 8  19297617.480 7 103265423.096 8  80317614.256 7
R18  20087974.609 8  20087979.941 7 107230975.808 8  83402172.285 7
> 2025 06 15 11 47 10.0000000  0 20
C12  23955752.945 6  23955749.293 7 124743896.168 6  96459888.284 7
C19  22213187.477 7                 115669891.011 7
C22  22809321.906 7                 118774125.848 7
E04  26367742.227 5  26367751.910 6 138563461.864 5 104822367.060 6
E06  25056853.219 6  25056857.516 6 131674658.081 6  99611037.411 6
E09  24820812.805 7  24820815.637 8 130434258.366 7  98672674.685 8
E30  26929932.734 5  26929942.055 3 141517783.738 5 107057278.35213
E34  24367771.273 8  24367773.914 8 128053501.034 8  96871652.782 8
E36  23643952.703 8  23643955.410 8 124249807.991 8  93994182.444 8
G01  21148004.500 7                  21148009.211 8 111133514.830 7                  86597566.343 8
G02  20645150.805 8  20645152.027 7                 108490994.393 8  84538576.675 7
G08  21615170.414 7                  21615178.676 7 113588486.655 7                  88510440.584 7
G10  23206597.266 5                  23206620.160 5 121951514.275 5                  95027197.659 5
G14  23829507.016 5                                                                
G32  21855580.898 8                  21855587.547 7 114851847.264 8                  89495080.235 7
R01  21711884.250 7                 116062459.190 7
R02  19376273.297 8  19376277.035 7 103395510.606 8  80418855.606 7
R03  21327229.188 6  21327234.727 6 114166324.677 6  88796493.838 6
R17  19297118.258 8  19297123.652 7 103262778.654 8  80315557.462 7
R18  20084253.188 8  20084257.371 7 107211105.620 8  83386717.721 7
> 2025 06 15 11 47 15.0000000  0 20
C12  23951781.133 6  23951777.402 7 124723213.278 6  96443894.957 7
C19  22212425.359 7                 115665922.392 7
C22  22805486.664 7                 118754155.281 7
E04  26367927.633 5  26367936.375 6 138564432.396 5 104823101.255 6
E06  25055790.797 6  25055793.934 6 131669070.240 6  99606810.271 6
E09  24818440.016 7  24818443.160 8 130421790.880 7  98663243.112 8
E30  26930055.867 5  26930057.086 3 141518433.161 5 107057768.72013
E34  24364803.055 8  24364805.609 8 128037902.399 8  96859852.524 8
E36  23643296.469 8  23643299.309 9 124246360.493 8  93991574.439 9
G01  21144604.820 7                  21144609.137 8 111115647.961 7                  86583644.104 8
G02  20643529.000 8  20643530.652 7                 108482472.857 8  84531936.509 7
G08  21616338.914 7                  21616346.520 7 113594625.644 7                  88515224.216 7
G10  23207952.617 5                  23207974.609 5 121958636.419 5                  95032747.377 5
G14  23828460.586 5                                 125219506.61315                
G32  21854534.719 8                  21854541.645 7 114846351.710 8                  89490797.969 7
R01  21713869.336 7                 116073074.808 7
R02  19374903.805 8  19374907.469 7 103388200.289 8  80413169.808 7
R03  21322240.578 6  21322247.129 6 114139625.940 6  88775728.164 6
R17  19296628.273 8  19296633.270 7 103260153.076 8  80313515.330 7
R18  20080532.180 8  20080537.215 8 107191248.762 8  83371273.491 8
> 2025 06 15 11 47 20.0000000  0 20
C12  23947811.203 6  23947806.738 7 124702535.716 6  96427905.772 7
C19  22211665.977 7                 115661966.667 7
C22  22801652.945 7                 118734194.189 7
E04  26368113.813 5  26368122.641 6 138565412.917 5 104823843.014 6
E06  25054729.273 6  25054732.766 6 131663494.669 6  99602592.378 6
E09  24816070.336 7  24816072.973 8 130409335.354 7  98653820.585 8
E30  26930181.484 5  26930183.258 3 141519092.511 5 107058267.470 3
E34  24361835.031 8  24361838.109 8 128022308.064 8  96848055.516 8
E36  23642641.453 8  23642644.434 9 124242919.225 8  93988971.134 9
G01  21141206.867 7                  21141211.145 8 111097788.967 7                  86569728.020 8
G02  20641909.156 8  20641911.184 7                 108473961.007 8  84525303.898 7
G08  21617508.945 7                  21617516.879 7 113600775.499 7                  88520016.296 7
G10  23209306.977 5                  23209332.109 5 121965762.836 5                  95038300.449 5
G14  23827415.336 5                                 125214010.231 5                
G32  21853491.547 7                  21853498.961 7 114840872.128 7                  89486528.164 7
R01  21715858.008 7                 116083700.975 7
R02  19373537.367 8  19373541.066 7 103380911.846 8  80407501.005 7
R03  21317256.016 6  21317260.938 6 114112938.559 6  88754971.312 6
R17  19296140.789 8  19296145.301 7 103257543.745 8  80311485.841 7
R18  20076814.539 8  20076819.324 7 107171402.693 8  83355837.665 7
> 2025 06 15 11 47 25.0000000  0 20
C12  23943841.414 6  23943837.559 7 124681866.282 6  96411922.865 7
C19  22210909.461 7                 115658026.708 7
C22  22797821.117 7                 118714245.425 7
E04  26368302.156 5  26368311.480 5 138566406.356 5 104824594.531 5
E06  25053670.617 6  25053674.543 6 131657934.266 6  99598385.998 6
E09  24813703.234 7  24813705.586 8 130396894.671 7  98644409.286 8
E30  26930309.875 5  26930311.922 4 141519764.688 5 107058775.942 4
E34  24358868.898 8  24358872.012 8 128006720.919 8  96836263.938 8
E36  23641988.508 8  23641991.293 8 124239487.002 8  93986374.683 8
G01  21137809.984 7                  21137814.762 8 111079940.709 7                  86555820.301 8
G02  20640292.523 8  20640293.910 7                 108465461.719 8  84518681.077 7
G08  21618681.922 7                  21618689.832 7 113606939.066 7                  88524819.083 7
G10  23210663.430 4                  23210689.418 4 121972896.23614                  95043858.91514
G14  23826371.016 5                                 125208532.036 5                
G32  21852451.984 7                  21852459.578 7 114835411.381 7                  89482273.043 7
R01  21717847.547 7                 116094340.418 7
R02  19372176.531 8  19372180.426 7 103373648.124 8  80401851.433 7
R03  21312273.016 6  21312278.270 6 114086265.165 6  88734225.360 6
R17  19295657.063 8  19295660.949 7 103254953.521 8  80309471.224 7
R18  20073099.367 8  20073103.977 7 107151570.273 8  83340412.465 7
> 2025 06 15 11 47 30.0000000  0 20
C12  23939873.727 6  23939869.445 7 124661204.094 6  96395945.563 7
C19  22210155.359 7                 115654101.500 7
C22  22793992.680 7                 118694307.957 7
E04  26368491.656 4  26368502.598 5 138567411.771 4 104825355.104 5
E06  25052615.219 6  25052618.961 6 131652388.018 6  99594190.287 6
E09  24811338.445 7  24811340.828 8 130384467.860 7  98635008.493 8
E30  26930440.766 5  26930442.883 4 141520448.594 5 107059293.349 4
E34  24355903.734 8  24355907.063 8 127991139.987 8  96824477.070 8
E36  23641336.734 8  23641339.617 8 124236062.846 8  93983784.326 8
G01  21134414.594 7                  21134420.242 8 111062102.195 7                  86541920.174 8
G02  20638676.523 8  20638678.563 7                 108456974.009 8  84512067.271 7
G08  21619857.313 7                  21619865.055 7 113613115.368 7                  88529631.777 7
G10  23212024.156 4                                                                
G14  23825334.414 4                                                                
G32  21851416.781 7                  21851423.531 7 114829968.541 7                  89478031.869 7
R01  21719840.297 7                 116104992.196 7
R02  19370819.633 8  19370823.633 7 103366408.271 8  80396220.428 7
R03  21307293.844 7  21307297.930 6 114059605.279 7  88713489.919 6
R17  19295176.297 8  19295180.688 7 103252381.447 8  80307470.723 7
R18  20069386.016 8  20069391.117 7 107131750.641 8  83324997.204 7
> 2025 06 15 11 47 35.0000000  0 19
C12  23935906.586 6  23935902.730 7 124640548.667 6  96379973.481 7
C19  22209404.195 7                 115650190.615 7
C22  22790165.844 7                 118674381.408 7
E04  26368687.125 5  26368695.945 5 138568428.61015 104826124.26715
E06  25051562.945 6  25051565.988 7 131646855.545 6  99590004.963 7
E09  24808976.422 7  24808978.660 8 130372054.474 7  98625617.859 8
E30  26930573.461 5  26930576.016 5 141521143.815 5 107059819.300 5
E34  24352939.656 8  24352943.238 9 127975564.830 8  96812694.561 9
E36  23640686.750 8  23640689.492 9 124232646.349 8  93981199.764 9
G01  21131022.375 7                  21131027.527 8 111044272.997 7                  86528027.299 8
G02  20637063.414 8  20637065.281 7                 108448497.475 8  84505462.176 7
G08  21621034.195 7                  21621042.691 7 113619303.970 7                  88534454.064 7
G10  23213384.586 4                                                                
G32  21850384.406 7                  21850390.824 7 114824543.075 7                  89473804.267 7
R01  21721834.086 7                 116115655.847 7
R02  19369467.211 8  19369471.621 7 103359191.568 8  80390607.443 7
R03  21302315.555 7  21302320.063 6 114032958.088 7  88692764.353 6
R17  19294698.766 8  19294703.383 7 103249827.119 8  80305484.037 7
R18  20065676.031 8  20065680.285 7 107111943.351 8  83309591.514 7
> 2025 06 15 11 47 40.0000000  0 18
C12  23931941.531 6  23931937.590 7 124619899.879 6  96364006.536 7
C19  22208655.773 7                 115646293.976 7
C22  22786341.563 7                 118654465.708 7
E04  26368882.656 5  26368882.863 6 138569456.870 5 104826902.76016
E06  25050513.133 6  25050515.652 7 131641336.679 6  99585829.979 7
E09  24806616.766 7  24806618.980 8 130359654.430 7  98616237.306 8
E30  26930708.977 5  26930711.105 5 141521850.378 5 107060353.820 5
E34  24349977.047 8  24349980.430 8 127959995.343 8  96800916.346 8
E36  23640037.906 8  23640040.773 8 124229237.422 8  93978620.929 8
G01  21127631.664 7                  21127636.402 8 111026453.075 7                  86514141.657 8
G02  20635452.406 8  20635454.094 7                 108440032.042 8  84498865.737 7
G08  21622214.711 7                  21622222.555 7 113625504.759 7                  88539285.835 7
G32  21849355.422 8                  21849362.246 7 114819135.005 8                  89469590.179 7
R01  21723832.461 7                 116126331.226 7
R02  19368118.883 8  19368122.941 7 103351998.096 8  80385012.534 7
R03  21297340.984 7  21297344.574 6 114006324.038 7  88672048.978 6
R17  19294223.938 8  19294229.301 7 103247290.530 8  80303511.128 7
R18  20061968.055 8  20061972.598 7 107092148.198 8  83294195.280 7
> 2025 06 15 11 47 45.0000000  0 18
C12  23927976.859 6  23927973.539 7 124599258.515 6  96348045.336 7
C19  22207910.352 7                 115642412.214 7
C22  22782519.164 7                 118634561.514 7
E04  26369081.930 5  26369081.184 6 138570496.977 5 104827689.58916
E06  25049465.492 5  25049467.906 7 131635832.169 5  99581665.834 7
E09  24804259.852 7  24804262.031 8 130347268.417 7  98606867.366 8
E30  26930843.805 5  26930848.031 5 141522568.876 5 107060897.29615
E34  24347015.313 7  24347018.863 8 127944432.226 7  96789142.959 8
E36  23639390.797 8  23639393.602 8 124225836.715 8  93976048.308 8
G01  21124242.555 7                  21124247.035 8 111008643.068 7                  86500263.727 8
G02  20633843.531 8  20633845.348 6                 108431578.299 8  84492278.404 6
G08  21623396.977 7                  21623405.301 7 113631718.391 7                  88544127.609 7
G32  21848329.836 8                  21848336.496 7 114813744.926 8                  89465390.110 7
R01  21725831.039 7                 116137019.036 7
R02  19366775.328 8  19366779.504 7 103344828.729 8  80379436.358 7
R03  21292369.906 7  21292371.996 6 113979703.286 7  88651343.937 6
R17  19293753.547 8  19293758.422 7 103244772.117 8  80301552.354 7
R18  20058262.602 8  20058266.598 7 107072365.981 8  83278809.099 7
> 2025 06 15 11 47 50.0000000  0 18
C12  23924014.023 6  23924011.395 6 124578624.896 6  96332090.114 6
C19  22207167.281 7                 115638545.747 7
C22  22778699.203 7                 118614669.193 7
E04  26369281.906 5  26369281.621 6 138571549.634 5 104828485.93016
E06  25048420.555 6  25048423.008 7 131630342.352 6  99577512.777 7
E09  24801905.430 7  24801907.836 8 130334896.797 7  98597508.322 8
E30  26930984.008 5  26930986.957 5 141523299.622 5 107061450.05515
E34  24344055.703 7  24344058.598 8 127928875.862 7  96777374.665 8
E36  23638745.391 8  23638748.094 8 124222444.602 8  93973482.195 8
G01  21120855.008 7                  21120859.883 8 110990843.367 7                  86486393.820 8
G02  20632237.422 8  20632238.703 6                 108423136.664 8  84485700.510 6
G08  21624581.820 7                  21624590.215 7 113637945.255 7                  88548979.697 7
G32  21847307.148 8                  21847313.672 7 114808373.222 8                  89461204.372 7
R01  21727833.125 7                 116147719.582 7
R02  19365436.172 8  19365440.676 7 103337683.540 8  80373878.987 7
R03  21287398.813 7  21287401.277 6 113953096.341 7  88630649.683 6
R17  19293286.102 8  19293291.660 7 103242272.636 8  80299608.296 7
R18  20054558.828 8  20054562.668 7 107052597.078 8  83263433.288 7
> 2025 06 15 11 47 55.0000000  0 18
C12  23920052.797 6  23920049.848 6 124557998.091 6  96316140.161 6
C19  22206427.039 7                 115634693.606 7
C22  22774881.914 7                 118594787.820 7
E04  26369483.227 5  26369484.281 6 138572613.726 5 104829290.93416
E06  25047378.367 6  25047380.766 7 131624866.264 6  99573370.138 7
E09  24799553.453 7  24799556.254 8 130322538.661 7  98588159.484 8
E30  26931126.297 6  26931128.031 5 141524041.717 6 107062011.40315
E34  24341096.641 8  24341099.371 8 127913325.307 8  96765610.771 8
E36  23638101.555 8  23638104.051 9 124219060.187 8  93970921.896 9
G01  21117470.094 7                  21117474.383 8 110973053.045 7                  86472531.224 8
G02  20630633.414 8  20630634.492 6                 108414706.182 8  84479131.312 6
G08  21625769.086 7                  21625777.695 7 113644184.380 7                  88553841.359 7
G32  21846288.461 8                  21846295.434 7 114803019.002 8                  89457032.259 7
R01  21729837.148 7                 116158431.936 7
R02  19364101.523 8  19364105.754 7 103330561.572 8  80368339.684 7
R03  21282429.805 7  21282433.305 6 113926502.606 7  88609965.698 6
R17  19292822.992 8  19292827.543 7 103239790.746 8  80297677.915 7
R18  20050857.727 8  20050861.902 7 107032840.498 8  83248067.065 7
> 2025 06 15 11 48  0.0000000  0 19
C12  23916092.570 6  23916090.227 6 124537377.779 6  96300195.248 6
C19  22205689.578 7                 115630855.460 7
C22  22771066.078 7                 118574917.119 7
E04  26369687.375 5  26369689.113 6 138573689.006 5 104830104.377 6
E06  25046339.938 6  25046341.250 7 131619403.581 6  99569237.638 7
E09  24797204.336 7  24797207.090 8 130310193.643 7  98578820.567 8
E30  26931269.484 6  26931271.336 5 141524794.808 6 107062581.11215
E34  24338138.180 7  24338141.195 8 127897780.227 7  96753851.022 8
E36  23637459.242 8  23637461.422 9 124215683.101 8  93968367.149 9
G01  21114085.734 7                  21114090.953 8 110955271.753 7                  86458675.674 8
G02  20629031.234 8  20629032.215 6                 108406286.511 8  84472570.517 6
G03  22546332.688 5                                                                
G08  21626959.266 7                  21626967.238 7 113650435.442 7                  88558712.282 7
G32  21845273.234 8                  21845279.395 6 114797681.868 8                  89452873.453 6
R01  21731843.492 7                 116169155.765 7
R02  19362771.086 8  19362775.090 7 103323462.726 8  80362818.350 7
R03  21277464.742 7  21277468.523 6 113899921.529 7  88589291.547 6
R17  19292363.328 8  19292366.754 7 103237326.327 8  80295761.146 7
R18  20047159.492 8  20047163.180 7 107013095.980 8  83232710.216 7
> 2025 06 15 11 48  5.0000000  0 19
C12  23912133.727 6  23912131.863 6 124516764.795 6  96284256.004 6
C19  22204955.789 7                 115627032.087 7
C22  22767252.828 7                 118555057.857 7
E04  26369894.078 5  26369896.039 6 138574776.177 5 104830926.79716
E06  25045302.711 6  25045304.465 7 131613955.144 6  99565115.918 7
E09  24794857.914 7  24794860.605 8 130297862.587 7  98569492.211 8
E30  26931414.766 6  26931416.859 4 141525559.693 6 107063159.76314
E34  24335181.180 8  24335184.207 8 127882241.447 8  96742096.039 8
E36  23636817.828 8  23636820.328 8 124212314.172 8  93965818.574 8
G01  21110704.031 7                  21110708.992 8 110937500.334 7                  86444827.808 8
G02  20627431.328 8  20627432.273 6                 108397878.477 8  84466018.812 6
G03  22541862.258 5                                                                
G08  21628151.555 7                  21628159.090 7 113656699.250 7                  88563593.144 7
G32  21844261.117 8                  21844268.008 7 114792362.646 8                  89448728.590 7
R01  21733851.484 7                 116179891.730 7
R02  19361444.672 8  19361449.273 7 103316387.604 8  80357315.485 7
R03  21272501.258 7  21272504.691 6 113873353.783 7  88568627.775 6
R17  19291905.500 8  19291909.875 7 103234880.094 8  80293858.519 7
R18  20043462.539 8  20043466.750 7 106993364.344 8  83217363.371 7
> 2025 06 15 11 48 10.0000000  0 19
C12  23908177.891 6  23908174.633 6 124496159.242 6  96268322.486 6
C19  22204224.477 7                 115623223.610 7
C22  22763441.063 7                 118535210.174 7
E04  26370103.195 5  26370105.301 6 138575875.360 5 104831758.360 6
E06  25044269.828 6  25044270.551 7 131608520.913 6  99561004.976 7
E09  24792514.258 7  24792516.777 8 130285545.570 7  98560174.481 8
E30  26931561.969 6  26931564.441 5 141526336.455 6 107063747.383 5
E34  24332225.516 8  24332228.492 9 127866709.033 8  96730345.887 9
E36  23636178.148 8  23636180.816 9 124208953.472 8  93963276.233 9
G01  21107324.938 7                  21107329.074 8 110919738.874 7                  86430987.718 8
G02  20625833.539 8  20625834.770 7                 108389482.216 8  84459476.264 7
G03  22537392.258 5                  22537382.727 6 118434760.33915                  92286815.32816
G08  21629345.883 7                  21629353.746 7 113662975.852 7                  88568483.979 7
G32  21843252.375 8                  21843258.691 7 114787061.429 8                  89444597.750 7
R01  21735862.750 7                 116190640.055 7
R02  19360123.578 8  19360128.203 7 103309336.417 8  80351831.236 7
R03  21267539.438 7  21267544.293 6 113846799.616 7  88547974.523 6
R17  19291452.477 8  19291456.230 7 103232452.209 8  80291970.157 7
R18  20039768.906 8  20039773.191 7 106973645.719 8  83202026.647 7
> 2025 06 15 11 48 15.0000000  0 19
C12  23904222.633 6  23904219.180 6 124475561.405 6  96252394.959 6
C19  22203496.242 7                 115619430.348 7
C22  22759631.680 7                 118515374.366 7
E04  26370313.492 5  26370316.793 6 138576986.915 5 104832599.25816
E06  25043238.398 6  25043239.457 7 131603101.380 6  99556905.146 7
E09  24790173.438 8  24790175.750 8 130273242.982 8  98550867.662 8
E30  26931711.063 6  26931714.555 5 141527125.435 6 107064344.278 5
E34  24329270.750 7  24329274.031 8 127851183.382 7  96718600.839 8
E36  23635540.453 8  23635542.910 9 124205601.367 8  93960740.384 9
G01  21103946.078 7                  21103951.176 8 110901987.706 7                  86417155.661 8
G02  20624238.023 8  20624239.023 7                 108381098.039 8  84452943.147 7
G03  22532924.641 5                  22532911.594 6 118411265.42915                  92268507.62816
G08  21630542.414 7                  21630550.324 7 113669265.587 7                  88573385.078 7
G32  21842246.914 8                  21842253.348 7 114781778.564 8                  89440481.244 7
R01  21737875.898 7                 116201401.101 7
R02  19358806.781 8  19358811.211 7 103302309.449 8  80346365.815 7
R03  21262580.289 7  21262586.457 6 113820259.376 7  88527332.179 6
R17  19291002.117 8  19291005.887 7 103230042.956 8  80290096.299 7
R18  20036076.703 8  20036081.523 7 106953940.398 8  83186700.315 7
> 2025 06 15 11 48 20.0000000  0 19
C12  23900267.750 6  23900264.793 6 124454969.536 6  96236472.029 6
C19  22202770.148 7                 115615650.496 7
C22  22755824.828 7                 118495548.659 7
E04  26370527.617 5  26370530.262 6 138578108.987 5 104833448.048 6
E06  25042210.227 6  25042210.680 7 131597694.726 6  99552815.042 7
E09  24787834.305 7  24787836.996 8 130260952.962 7  98541570.339 8
E30  26931862.555 6  26931866.891 5 141527924.824 6 107064948.982 5
E34  24326317.406 7  24326320.480 9 127835662.633 7  96706859.497 9
E36  23634903.820 8  23634906.336 8 124202256.039 8  93958209.664 8
G01  21100570.109 7                  21100574.926 8 110884245.062 7                  86403330.221 8
G02  20622644.070 8  20622645.426 7                 108372724.122 8  84446418.026 7
G03  22528447.695 5                  22528441.891 6 118387777.763 5                  92250205.600 6
G08  21631741.203 7                  21631749.137 7 113675566.670 7                  88578295.006 7
G32  21841244.828 8                  21841251.305 7 114776512.213 8                  89436377.603 7
R01  21739891.141 7                 116212172.912 7
R02  19357494.672 8  19357498.633 7 103295304.789 8  80340917.744 7
R03  21257625.352 7  21257631.473 6 113793731.357 7  88506699.283 6
R17  19290554.750 8  19290559.234 7 103227650.645 8  80288235.612 7
R18  20032387.898 8  20032392.113 7 106934246.648 8  83171382.968 7
> 2025 06 15 11 48 25.0000000  0 19
C12  23896315.117 6  23896311.633 6 124434384.723 6  96220554.534 6
C19  22202047.234 7                 115611885.112 7
C22  22752019.289 7                 118475734.105 7
E04  26370743.828 5  26370746.039 6 138579242.674 5 104834305.651 6
E06  25041183.359 6  25041184.551 7 131592301.937 6  99548735.419 7
E09  24785498.664 8  24785500.887 8 130248676.586 8  98532283.329 8
E30  26932016.781 5  26932021.230 5 141528735.657 5 107065562.375 5
E34  24323364.813 7  24323368.031 8 127820147.869 7  96695122.682 8
E36  23634268.602 8  23634271.176 9 124198918.558 8  93955684.880 9
G01  21097195.117 7                  21097200.500 8 110866511.974 7                  86389512.237 8
G02  20621052.898 8  20621054.246 7                 108364361.560 8  84439901.734 7
G03  22523974.688 5                  22523973.434 6 118364298.526 5                  92231910.100 6
G08  21632942.602 7                  21632950.426 7 113681880.087 7                  88583214.521 7
G32  21840245.914 8                  21840252.797 7 114771263.330 8                  89432287.573 7
R01  21741908.758 7                 116222956.598 7
R02  19356186.469 8  19356190.395 7 103288323.648 8  80335487.979 7
R03  21252671.828 7  21252677.828 6 113767216.672 7  88486076.741 6
R17  19290111.516 8  19290115.223 7 103225276.242 8  80286388.865 7
R18  20028700.594 8  20028705.152 7 106914565.462 8  83156075.412 7
> 2025 06 15 11 48 30.0000000  0 19
C12  23892363.688 6  23892359.996 6 124413808.565 6  96204643.747 6
C19  22201326.914 8                 115608135.754 8
C22  22748216.148 7                 118455932.290 7
E04  26370962.211 5  26370964.219 6 138580389.532 5 104835173.215 6
E06  25040160.727 6  25040161.359 7 131586924.634 6  99544667.522 7
E09  24783165.031 8  24783167.605 8 130236415.465 8  98523007.887 8
E30  26932174.047 5  26932177.992 5 141529559.558 5 107066185.713 5
E34  24320413.922 8  24320417.086 8 127804640.718 8  96683391.618 8
E36  23633635.031 8  23633637.875 9 124195590.486 8  93953167.203 9
G01  21093822.977 7                  21093828.363 8 110848790.071 7                  86375702.964 8
G02  20619464.109 8  20619465.285 7                 108356011.931 8  84433395.537 7
G03  22519504.391 5                  22519507.223 6 118340829.378 5                  92213622.476 6
G08  21634146.766 7                  21634154.738 7 113688207.476 7                  88588144.950 7
G32  21839250.125 8                  21839257.789 7 114766033.768 8                  89428212.572 7
R01  21743929.008 7                 116233753.726 7
R02  19354883.492 8  19354887.020 7 103281367.583 8  80330077.683 7
R03  21247722.430 7  21247727.488 6 113740716.694 7  88465465.607 6
R17  19289671.570 8  19289675.383 7 103222921.438 8  80284557.339 7
R18  20025016.594 8  20025021.109 7 106894898.550 8  83140778.912 7
> 2025 06 15 11 48 35.0000000  0 19
C12  23888413.891 6  23888410.035 6 124393238.759 6  96188737.868 6
C19  22200609.805 8                 115604400.177 8
C22  22744415.672 7                 118436140.997 7
E04  26371184.547 5  26371184.414 6 138581547.35615 104836049.03416
E06  25039138.836 6  25039140.762 7 131581560.579 6  99540609.652 7
E09  24780834.781 8  24780836.707 8 130224167.349 8  98513742.254 8
E30  26932333.047 5  26932336.793 5 141530394.233 5 107066817.149 5
E34  24317463.523 7  24317467.195 8 127789138.885 7  96671664.585 8
E36  23633002.836 8  23633006.020 8 124192269.589 8  93950654.972 8
G01  21090453.188 7                  21090457.398 8 110831077.102 7                  86361900.665 8
G02  20617877.563 8  20617878.352 6                 108347673.009 8  84426897.678 6
G03  22515036.508 5                  22515043.105 6 118317368.016 5                  92195340.947 6
G08  21635353.625 7                  21635360.801 7 113694546.533 7                  88593084.486 7
G32  21838258.727 7                  21838265.273 7 114760821.149 7                  89424150.775 7
R01  21745950.391 7                 116244562.013 7
R02  19353583.859 8  19353587.336 7 103274434.360 8  80324685.184 7
R03  21242774.977 7  21242779.250 6 113714229.199 7  88444864.243 6
R17  19289234.563 8  19289239.180 7 103220583.953 8  80282739.260 7
R18  20021334.133 8  20021338.793 7 106875243.610 8  83125491.756 7
> 2025 06 15 11 48 40.0000000  0 19
C12  23884464.602 6  23884461.250 6 124372675.782 6  96172837.293 6
C19  22199895.094 8                 115600678.788 8
C22  22740617.070 7                 118416360.645 7
E04  26371406.531 6  26371406.906 6 138582716.382 6 104836933.407 6
E06  25038120.563 6  25038122.766 7 131576210.147 6  99536562.094 7
E09  24778506.727 8  24778508.723 8 130211932.606 8  98504486.766 8
E30  26932494.164 5  26932497.605 6 141531240.098 5 107067457.065 6
E34  24314515.281 7  24314518.391 8 127773642.774 7  96659941.881 8
E36  23632372.141 8  23632375.441 9 124188956.270 8  93948148.472 9
G01  21087084.008 7                  21087088.180 8 110813373.461 7                  86348105.615 8
G02  20616292.750 8  20616293.844 7                 108339345.174 8  84420408.453 7
G03  22510574.180 5                  22510579.996 6 118293914.864 5                  92177065.724 6
G08  21636562.188 7                  21636569.621 7 113700897.690 7                  88598033.411 7
G32  21837269.539 7                  21837276.430 7 114755625.829 7                  89420102.476 7
R01  21747974.352 7                 116255381.870 7
R02  19352289.031 8  19352292.652 7 103267524.265 8  80319310.685 7
R03  21237828.070 7  21237832.492 6 113687754.770 7  88424273.055 6
R17  19288801.273 8  19288805.230 7 103218264.029 8  80280934.891 7
R18  20017654.672 8  20017658.945 7 106855601.047 8  83110214.210 7
> 2025 06 15 11 48 45.0000000  0 19
C12  23880516.789 6  23880513.250 6 124352119.858 6  96156942.153 6
C19  22199183.281 8                 115596971.859 8
C22  22736819.977 7                 118396591.470 7
E04  26371630.406 5  26371631.832 6 138583897.000 5 104837826.558 6
E06  25037104.555 7  25037107.211 7 131570873.601 7  99532525.033 7
E09  24776180.766 8  24776183.191 9 130199711.555 8  98495241.620 9
E30  26932658.000 5  26932660.648 6 141532097.482 5 107068105.624 6
E34  24311567.703 7  24311570.680 8 127758152.681 7  96648223.722 8
E36  23631743.422 8  23631746.441 9 124185650.807 8  93945647.904 9
G01  21083716.211 7                  21083721.113 8 110795679.400 7                  86334318.053 8
G02  20614710.117 8  20614711.523 7                 108331028.724 8  84413928.103 7
G03  22506110.711 5                                                                
G08  21637773.109 7                  21637780.539 7 113707261.185 7                  88602991.974 7
G32  21836284.578 8                  21836291.289 7 114750448.092 8                  89416067.878 7
R01  21750000.391 7                 116266213.531 7
R02  19350998.148 8  19351001.934 7 103260637.567 8  80313954.375 7
R03  21232884.352 7  21232890.184 6 113661293.401 7  88403691.977 6
R17  19288370.734 8  19288374.695 7 103215962.064 8  80279144.479 7
R18  20013977.102 8  20013981.789 7 106835971.143 8  83094946.508 7
> 2025 06 15 11 48 50.0000000  0 20
C12  23876571.766 6  23876567.488 6 124331572.070 6  96141053.309 6
C19  22198474.484 8                 115593280.459 8
C20  25158694.094 4                 131007978.17614
C22  22733025.898 7                 118376834.572 7
E04  26371857.203 5  26371859.043 6 138585090.315 5 104838729.276 6
E06  25036091.875 6  25036094.762 7 131565552.021 6  99528499.302 7
E09  24773857.656 8  24773860.434 8 130187505.262 8  98486007.640 8
E30  26932822.641 5  26932826.254 6 141532967.295 5 107068763.607 6
E34  24308620.953 7  24308624.367 8 127742669.676 7  96636510.942 8
E36  23631115.844 8  23631119.188 8 124182354.304 8  93943154.118 8
G01  21080351.336 8                  21080355.609 7 110777996.054 8                  86320538.842 7
G02  20613129.961 8  20613131.203 7                 108322724.729 8  84407457.445 7
G03  22501651.250 5                  22501659.398 6 118247034.95015                  92140535.88416
G08  21638986.281 7                  21638994.563 7 113713638.096 7                  88607960.999 7
G32  21835302.836 8                  21835309.500 7 114745289.070 8                  89412047.854 7
R01  21752029.102 7                 116277058.036 7
R02  19349712.008 8  19349716.000 7 103253775.492 8  80308617.213 7
R03  21227943.859 7  21227949.891 6 113634846.637 7  88383122.260 6
R17  19287944.320 8  19287948.434 7 103213679.104 8  80277368.840 7
R18  20010301.797 8  20010307.141 7 106816355.052 8  83079689.549 7
> 2025 06 15 11 48 55.0000000  0 20
C12  23872627.305 6  23872623.203 6 124311031.405 6  96125169.955 6
C19  22197768.781 8                 115589603.497 8
C20  25160167.117 4                 131015643.65914
C22  22729234.242 7                 118357088.890 7
E04  26372087.352 5  26372088.371 6 138586295.198 5 104839640.723 6
E06  25035082.281 6  25035084.789 7 131560244.381 6  99524484.092 7
E09  24771537.383 8  24771540.246 8 130175312.645 8  98476784.012 8
E30  26932988.367 4  26932993.879 5 141533848.54414 107069430.26415
E34  24305675.445 7  24305679.180 8 127727192.688 7  96624802.711 8
E36  23630490.023 8  23630493.395 9 124179065.623 8  93940666.259 9
G01  21076988.297 7                  21076992.586 7 110760322.341 7                  86306767.098 7
G02  20611552.219 8  20611553.156 7                 108314432.136 8  84400995.677 7
G03  22497191.781 5                  22497201.223 6 118223608.26515                  92122281.32516
G08  21640202.359 7                  21640210.301 7 113720027.323 7                  88612939.625 7
G32  21834325.367 8                  21834330.922 7 114740147.603 8                  89408041.523 7
R01  21754059.648 7                 116287914.364 7
R02  19348430.305 8  19348434.402 7 103246936.807 8  80303298.239 7
R03  21223005.875 7  21223011.277 6 113608412.992 7  88362562.767 6
R17  19287520.516 8  19287524.582 7 103211414.153 8  80275607.230 7
R18  20006630.344 8  20006634.613 7 106796751.611 8  83064442.433 7
> 2025 06 15 11 49  0.0000000  0 19
C12  23868684.586 6  23868679.758 6 124290497.121 6  96109291.542 6
C19  22197064.609 7                 115585940.227 7
C20  25161647.398 4                 131023314.81114
C22  22725443.617 7                 118337353.685 7
E04  26372317.820 5  26372319.766 6 138587510.876 5 104840560.373 6
E06  25034074.367 6  25034077.406 7 131554949.859 6  99520478.823 7
E09  24769220.117 8  24769222.508 8 130163132.978 8  98467570.165 8
E34  24302731.625 7  24302735.027 8 127711720.979 7  96613098.458 8
E36  23629865.508 8  23629868.867 8 124175784.062 8  93938183.779 8
G01  21073627.508 8                  21073631.250 8 110742657.503 8                  86293002.290 8
G02  20609975.984 8  20609977.215 7                 108306150.122 8  84394542.170 7
G03  22492734.977 5                                                                
G08  21641420.492 7                  21641428.383 7 113726428.123 7                  88617927.247 7
G32  21833349.789 8                  21833356.121 7 114735022.952 8                  89404048.324 7
R01  21756092.859 7                 116298781.567 7
R02  19347153.156 8  19347157.195 7 103240120.766 8  80297996.860 7
R03  21218072.219 7  21218076.012 6 113581992.365 7  88342013.369 6
R17  19287101.547 8  19287104.547 7 103209166.418 8  80273858.972 7
R18  20002959.773 8  20002964.414 7 106777160.106 8  83049204.605 7
> 2025 06 15 11 49  5.0000000  0 19
C12  23864741.859 6  23864737.934 7 124269971.059 6  96093419.529 7
C19  22196365.039 8                 115582292.500 8
C20  25163126.750 4                                
C22  22721656.375 7                 118317630.830 7
E04  26372551.703 5  26372553.676 6 138588739.27015 104841489.63016
E06  25033069.961 7  25033072.938 7 131549670.326 7  99516484.916 7
E09  24766905.141 8  24766907.598 8 130150968.121 8  98458367.530 8
E34  24299788.797 7  24299792.258 8 127696256.410 7  96601399.637 8
E36  23629242.734 8  23629246.105 9 124172511.477 8  93935708.081 9
G01  21070267.719 7                  21070272.129 8 110725003.437 7                  86279245.871 8
G02  20608402.070 8  20608403.824 7                 108297880.646 8  84388098.425 7
G03  22488277.922 4                                                                
G08  21642640.734 7                  21642648.875 7 113732842.334 7                  88622925.337 7
G32  21832378.414 8                  21832385.191 7 114729917.053 8                  89400069.732 7
R01  21758127.789 7                 116309661.698 7
R02  19345881.367 8  19345884.762 7 103233329.540 8  80292714.788 7
R03  21213138.391 7  21213143.910 6 113555585.900 7  88321475.043 6
R17  19286684.547 8  19286688.070 7 103206937.823 8  80272125.615 7
R18  19999293.398 8  19999296.711 7 106757582.512 8  83033977.575 7
> 2025 06 15 11 49 10.0000000  0 19
C12  23860801.438 6  23860798.098 7 124249454.143 6  96077554.557 7
C19  22195666.875 7                 115578661.262 7
C22  22717871.320 7                 118297921.221 7
E04  26372786.539 5  26372789.898 6 138589981.23915 104842429.13616
E06  25032069.227 7  25032071.375 8 131544406.811 7  99512503.095 8
E09  24764592.461 8  24764595.648 8 130138819.000 8  98449176.804 8
E34  24296848.227 7  24296850.953 8 127680799.926 7  96589706.906 8
E36  23628622.281 8  23628625.281 8 124169248.810 8  93933239.885 8
G01  21066910.656 7                  21066915.379 8 110707361.068 7                  86265498.571 8
G02  20606830.734 8  20606833.102 7                 108289624.650 8  84381665.177 7
G03  22483828.109 5                  22483836.227 5 118153380.98915                  92067558.91515
G08  21643864.492 7                  21643872.102 7 113739270.923 7                  88627934.586 7
G10  23239435.367 5                                 122124038.80715                
G32  21831410.359 8                  21831416.793 7 114724830.766 8                  89396106.355 7
R01  21760167.266 7                 116320555.743 7
R02  19344612.578 8  19344616.645 7 103226563.564 8  80287452.344 7
R03  21208208.070 7  21208213.453 6 113529194.962 7  88300948.815 6
R17  19286271.664 8  19286275.629 7 103204729.129 8  80270407.745 7
R18  19995627.367 8  19995631.797 7 106738019.738 8  83018762.103 7
> 2025 06 15 11 49 15.0000000  0 19
C12  23856862.984 6  23856860.145 7 124228946.274 6  96061696.595 7
C19  22194972.250 7                 115575046.370 7
C22  22714088.305 7                 118278224.789 7
E04  26373025.367 4  26373028.871 6 138591236.71614 104843378.86616
E06  25031069.789 7  25031072.848 7 131539159.085 7  99508533.229 7
E09  24762283.773 7  24762286.672 8 130126685.518 7  98439997.924 8
E34  24293908.273 8  24293911.430 8 127665351.466 8  96578020.233 8
E36  23628003.477 8  23628006.336 8 124165995.955 8  93930779.108 8
G01  21063555.797 8                  21063560.543 8 110689730.278 8                  86251760.309 8
G02  20605262.047 8  20605264.344 7                 108281382.013 8  84375242.352 7
G03  22479379.141 5                  22479385.879 5 118129992.669 5                  92049334.206 5
G08  21645089.578 7                  21645098.109 7 113745713.755 7                  88632954.936 7
G10  23240816.148 5                  23240822.863 5 122131306.622 5                  95167285.98915
G32  21830445.953 8                  21830452.363 7 114719764.039 8                  89392158.241 7
R01  21762206.391 7                 116331463.403 7
R02  19343349.789 8  19343353.270 7 103219823.075 8  80282209.744 7
R03  21203281.477 7  21203287.668 6 113502819.551 7  88280434.568 6
R17  19285862.977 8  19285867.086 7 103202540.458 8  80268705.458 7
R18  19991965.984 8  19991969.547 7 106718471.718 8  83003558.104 7
> 2025 06 15 11 49 20.0000000  0 18
C12  23852926.531 6  23852922.840 7 124208445.430 6  96045844.069 7
C19  22194281.211 7                 115571445.728 7
C22  22710308.469 7                 118258539.447 7
E06  25030073.430 7  25030077.172 7 131533925.112 7  99504573.758 7
E09  24759977.648 8  24759980.371 8 130114565.620 8  98430829.272 8
E34  24290969.500 8  24290972.730 8 127649908.865 8  96566338.013 8
E36  23627385.313 8  23627388.883 9 124162750.789 8  93928324.177 9
G01  21060201.461 7                  21060207.266 8 110672109.033 7                  86238029.446 8
G02  20603696.063 8  20603698.195 7                 108273150.625 8  84368828.281 7
G03  22474928.539 5                  22474936.281 5 118106612.699 5                  92031116.069 5
G08  21646318.930 7                  21646326.629 7 113752168.661 7                  88637984.727 7
G10  23242199.438 5                  23242207.250 5 122138580.021 5                  95172953.509 5
G32  21829485.430 8                  21829491.840 7 114714714.708 8                  89388223.745 7
R01  21764248.180 7                 116342382.563 7
R02  19342091.438 8  19342094.832 7 103213106.135 8  80276985.420 7
R03  21198356.133 7  21198361.680 6 113476457.195 7  88259930.604 6
R17  19285456.523 8  19285461.008 7 103200369.624 8  80267016.995 7
R18  19988306.602 8  19988309.891 7 106698936.314 8  82988363.869 7
> 2025 06 15 11 49 25.0000000  0 18
C12  23848990.547 6  23848987.512 7 124187950.899 6  96029996.435 7
C19  22193592.711 7                 115567858.683 7
C22  22706529.344 7                 118238864.530 7
E06  25029080.398 7  25029083.563 8 131528704.213 7  99500624.166 8
E09  24757673.813 8  24757676.516 8 130102458.582 8  98421670.376 8
E34  24288031.516 7  24288035.137 8 127634471.488 7  96554659.739 8
E36  23626769.156 8  23626772.750 9 124159512.664 8  93925874.550 9
G01  21056849.859 7                  21056855.617 8 110654496.571 7                  86224305.482 8
G02  20602132.125 8  20602133.637 7                 108264929.743 8  84362422.407 7
G03  22470480.836 5                  22470488.008 5 118083240.279 5                  92012903.769 5
G08  21647548.875 7                  21647556.949 7 113758635.021 7                  88643023.460 7
G10  23243585.133 5                  23243592.559 5 122145858.314 5                  95178624.969 5
G32  21828527.469 8                  21828534.289 7 114709682.117 8                  89384302.263 7
R01  21766294.148 7                 116353312.514 7
R02  19340836.703 8  19340840.480 7 103206411.424 8  80271778.440 7
R03  21193433.984 7  21193439.902 6 113450107.363 7  88239436.319 6
R17  19285053.797 8  19285058.285 7 103198215.798 8  80265341.791 7
R18  19984649.734 8  19984653.031 7 106679412.805 8  82973178.921 7
> 2025 06 15 11 49 30.0000000  0 18
C12  23845055.805 6  23845054.227 7 124167465.650 6  96014155.940 7
C19  22192906.422 7                 115564288.193 7
C22  22702754.414 7                 118219203.004 7
E06  25028090.555 7  25028092.848 8 131523499.313 7  99496686.698 8
E09  24755372.680 8  24755375.602 8 130090367.374 8  98412523.459 8
E34  24285095.828 7  24285098.988 8 127619042.288 7  96542987.633 8
E36  23626155.109 8  23626158.465 9 124156284.550 8  93923432.496 9
G01  21053500.859 7                  21053506.328 8 110636895.935 7                  86210590.712 8
G02  20600570.234 8  20600572.047 7                 108256722.451 8  84356027.112 7
G03  22466036.242 6                  22466043.105 5 118059878.582 6                  91994699.927 5
G08  21648782.070 7                  21648790.086 7 113765115.746 7                  88648073.389 7
G10  23244970.273 5                  23244978.301 3 122153144.461 5                  95184302.468 3
G32  21827573.656 8                  21827580.172 7 114704669.259 8                  89380396.170 7
R01  21768340.719 7                 116364256.370 7
R02  19339586.016 8  19339589.992 7 103199742.382 8  80266591.433 7
R03  21188512.461 7  21188519.613 6 113423773.146 7  88218954.185 6
R17  19284654.922 8  19284659.453 7 103196082.122 8  80263682.265 7
R18  19980995.070 8  19980998.496 7 106659904.279 8  82958005.625 7
> 2025 06 15 11 49 35.0000000  0 18
C12  23841123.875 6  23841121.250 7 124146988.469 6  95998321.693 7
C19  22192223.852 8                 115560733.027 8
C22  22698980.805 7                 118199553.707 7
E06  25027102.453 7  25027105.137 7 131518309.263 7  99492760.463 7
E09  24753074.773 8  24753077.535 8 130078290.844 8  98403387.637 8
E34  24282160.430 7  24282164.191 8 127603620.047 7  96531320.812 8
E36  23625543.266 8  23625545.848 9 124153065.262 8  93920997.112 9
G01  21050153.719 7                  21050158.984 8 110619305.921 7                  86196884.227 8
G02  20599010.953 8  20599012.438 7                 108248527.505 8  84349641.437 7
G03  22461592.828 6                  22461599.309 6 118036526.418 6                  91976503.464 6
G08  21650017.445 7                  21650025.801 7 113771609.684 7                  88653133.586 7
G10  23246358.578 5                                 122160437.051 5                
G32  21826623.367 8                  21826629.504 7 114699674.916 8                  89376504.468 7
R01  21770391.484 7                 116375212.833 7
R02  19338341.086 8  19338345.391 7 103193097.841 8  80261423.429 7
R03  21183596.766 7  21183602.281 6 113397453.541 7  88198483.383 6
R17  19284259.641 8  19284264.785 7 103193967.424 8  80262037.511 7
R18  19977342.563 8  19977346.316 7 106640409.521 8  82942843.065 7
> 2025 06 15 11 49 40.0000000  0 18
C12  23837193.156 6  23837190.379 7 124126518.397 6  95982492.952 7
C19  22191543.891 7                 115557192.168 7
C22  22695209.125 7                 118179915.572 7
E06  25026117.016 7  25026120.051 8 131513133.005 7  99488844.664 8
E09  24750779.398 8  24750782.066 8 130066227.932 8  98394262.131 8
E34  24279227.414 7  24279230.648 8 127588203.796 7  96519658.543 8
E36  23624931.797 8  23624934.691 9 124149853.731 8  93918567.604 9
G01  21046808.719 7                  21046812.895 8 110601725.514 7                  86183185.216 8
G02  20597453.258 8  20597454.938 7                 108240343.891 8  84343264.611 7
G03  22457152.250 6                  22457157.059 5 118013182.720 6                  91958313.525 5
G08  21651255.648 7                  21651264.086 7 113778115.784 7                  88658203.262 7
G10  23247746.750 5                                 122167735.414 5                
G32  21825676.273 8                  21825682.867 7 114694698.072 8                  89372626.389 7
R01  21772441.648 7                 116386180.797 7
R02  19337100.008 8  19337104.117 7 103186476.537 8  80256273.522 7
R03  21178683.047 7  21178688.668 6 113371147.250 7  88178022.961 6
R17  19283867.977 8  19283873.078 7 103191870.560 8  80260406.620 7
R18  19973692.414 8  19973696.832 7 106620927.547 8  82927690.430 7
> 2025 06 15 11 49 45.0000000  0 18
C12  23833263.203 7  23833260.305 7 124106055.126 7  95966669.451 7
C19  22190866.789 7                 115553665.341 7
C22  22691440.133 7                 118160288.309 7
E06  25025134.430 7  25025137.645 7 131507970.254 7  99484939.065 7
E09  24748486.445 8  24748489.082 8 130054178.337 8  98385146.701 8
E34  24276295.383 7  24276298.152 8 127572793.177 7  96508000.521 8
E36  23624322.141 8  23624324.906 9 124146649.691 8  93916143.759 9
G01  21043464.641 7                  21043469.094 8 110584154.403 7                  86169493.445 8
G02  20595898.125 8  20595899.758 7                 108232171.280 8  84336896.340 7
G03  22452710.836 5                  22452717.004 5 117989847.179 5                  91940129.981 5
G08  21652496.266 7                  21652504.406 7 113784633.715 7                  88663282.144 7
G10  23249136.945 5                  23249144.527 5 122175039.116 5                  95201356.16315
G32  21824732.367 8                  21824739.066 7 114689738.373 8                  89368761.703 7
R01  21774496.680 7                 116397159.884 7
R02  19335863.953 8  19335867.895 7 103179878.245 8  80251141.509 7
R03  21173770.641 7  21173777.418 6 113344853.902 7  88157572.604 6
R17  19283480.016 8  19283484.227 7 103189791.344 8  80258789.445 7
R18  19970045.273 8  19970049.566 7 106601457.955 8  82912547.410 7
> 2025 06 15 11 49 50.0000000  0 19
C12  23829334.469 7  23829331.395 7 124085596.552 7  95950849.608 7
C19  22190191.930 8                 115550150.411 8
C22  22687672.961 7                 118140669.857 7
E06  25024154.742 7  25024157.379 7 131502818.881 7  99481042.097 7
E09  24746195.438 8  24746198.301 8 130042139.967 8  98376039.759 8
E30  26934986.320 5  26934990.063 7 141544250.17715 107077363.76017
E34  24273362.766 7  24273366.270 8 127557386.146 7  96496345.215 8
E36  23623713.477 8  23623716.266 9 124143450.982 8  93913723.959 9
G01  21040122.555 7                  21040126.699 8 110566590.469 7                  86155807.257 8
G02  20594344.539 8  20594345.727 7                 108224007.552 8  84330534.982 7
G03  22448271.281 6                  22448277.008 5 117966517.608 6                  91921951.172 5
G08  21653738.344 7                  21653746.719 7 113791161.347 7                  88668368.605 7
G10  23250527.930 5                  23250534.734 5 122182345.903 5                  95207049.850 5
G32  21823791.656 8                  21823798.059 7 114684793.773 8                  89364908.769 7
R01  21776552.922 7                 116408147.995 7
R02  19334631.672 8  19334635.309 7 103173300.960 8  80246025.858 7
R03  21168860.164 7  21168867.215 6 113318571.499 7  88137130.741 6
R17  19283094.164 8  19283098.578 7 103187727.476 8  80257184.229 7
R18  19966399.742 8  19966404.055 7 106581998.668 8  82897412.418 7
> 2025 06 15 11 49 55.0000000  0 19
C12  23825406.391 7  23825402.598 7 124065142.604 7  95935033.319 7
C19  22189518.680 8                 115546647.309 8
C22  22683907.094 7                 118121060.106 7
E06  25023176.984 7  25023179.234 7 131497678.766 7  99477153.630 7
E09  24743907.266 8  24743909.527 8 130030112.706 8  98366941.225 8
E30  26935180.891 5  26935183.727 7 141545269.089 5 107078134.516 7
E34  24270431.992 7  24270434.996 8 127541982.538 7  96484692.490 8
E36  23623105.625 8  23623108.613 9 124140257.559 8  93911308.155 9
G01  21036781.367 7                  21036785.742 8 110549033.640 7                  86142126.610 8
G02  20592792.945 8  20592793.813 7                 108215852.629 8  84324180.510 7
G03  22443832.836 5                  22443838.027 5 117943194.003 5                  91903776.939 5
G08  21654983.063 7                  21654991.031 7 113797698.581 7                  88673462.554 7
G10  23251918.523 5                  23251926.500 5 122189655.809 5                  95212745.901 5
G32  21822853.547 8                  21822860.180 7 114679864.149 8                  89361067.507 7
R01  21778609.984 7                 116419145.117 7
R02  19333402.734 8  19333406.824 7 103166744.255 8  80240926.197 7
R03  21163952.117 7  21163959.523 6 113292299.667 7  88116697.118 6
R17  19282710.938 8  19282715.508 7 103185678.916 8  80255590.881 7
R18  19962755.727 8  19962760.727 7 106562549.618 8  82882285.382 7
> 2025 06 15 11 50  0.0000000  0 19
C12  23821480.211 7  23821476.891 7 124044694.986 7  95919221.917 7
C19  22188848.805 7                 115543157.667 7
C22  22680142.578 7                 118101460.769 7
E06  25022201.875 7  25022203.602 7 131492551.642 7  99473275.002 7
E09  24741621.078 8  24741623.262 8 130018098.282 8  98357852.382 8
E30  26935376.086 5  26935379.641 7 141546298.322 5 107078913.116 7
E34  24267501.758 8  24267504.719 8 127526584.139 8  96473043.700 8
E36  23622498.883 8  23622502.281 9 124137071.071 8  93908897.612 9
G01  21033442.055 7                  21033446.887 8 110531485.620 7                  86128452.827 8
G02  20591243.023 8  20591244.004 6                 108207708.228 8  84317834.217 6
G03  22439396.023 5                  22439401.078 6 117919878.090 5                  91885608.733 6
G08  21656228.953 7                  21656236.863 7 113804247.113 7                  88678565.304 7
G10  23253312.391 5                  23253319.625 5 122196970.479 5                  95218445.629 5
G32  21821918.750 8                  21821925.273 7 114674951.164 8                  89357239.218 7
R01  21780668.609 7                 116430152.838 7
R02  19332178.281 8  19332182.891 7 103160210.114 8  80235844.067 7
R03  21159047.672 7  21159054.191 7 113266040.696 7  88096273.473 7
R17  19282331.758 8  19282336.031 7 103183647.389 8  80254010.806 7
R18  19959114.758 8  19959119.535 7 106543112.488 8  82867167.628 7
> 2025 06 15 11 50  5.0000000  0 19
C12  23817554.594 6  23817551.270 7 124024254.993 6  95903416.420 7
C19  22188181.672 8                 115539682.813 8
C22  22676381.875 7                 118081873.146 7
E06  25021228.938 7  25021230.660 7 131487438.816 7  99469407.194 7
E09  24739337.500 8  24739339.707 8 130006098.018 8  98348774.265 8
E30  26935574.180 5  26935577.934 7 141547339.437 5 107079700.702 7
E34  24264572.281 7  24264575.688 8 127511192.226 7  96461399.809 8
E36  23621894.563 8  23621897.520 9 124133892.887 8  93906493.336 9
G01  21030104.250 7                  21030109.883 8 110513947.710 7                  86114786.919 8
G02  20589695.125 8  20589696.453 6                 108199575.643 8  84311497.142 6
G03  22434960.523 6                  22434965.996 5 117896571.132 6                  91867447.448 5
G08  21657477.484 7                  21657485.422 7 113810808.242 7                  88683677.864 7
G10  23254704.898 5                  23254712.547 5 122204291.302 5                  95224150.179 5
G32  21820987.273 8                  21820994.004 7 114670056.148 8                  89353424.913 7
R01  21782730.898 7                 116441172.460 7
R02  19330957.992 8  19330962.758 7 103153699.841 8  80230780.521 7
R03  21154145.453 7  21154151.020 6 113239795.671 7  88075860.651 6
R17  19281955.898 8  19281959.625 7 103181634.401 8  80252445.146 7
R18  19955475.680 8  19955480.813 7 106523688.646 8  82852060.181 7
> 2025 06 15 11 50 10.0000000  0 19
C12  23813630.313 6  23813627.383 7 124003821.431 6  95887615.863 7
C19  22187516.758 7                 115536221.607 7
C22  22672621.641 7                 118062296.085 7
E06  25020258.352 7  25020260.117 7 131482339.084 7  99465549.255 7
E09  24737056.867 8  24737058.527 8 129994110.713 8  98339705.949 8
E30  26935774.656 6  26935778.059 7 141548391.080 6 107080496.253 7
E34  24261644.930 7  24261647.770 8 127495805.609 7  96449759.937 8
E36  23621291.375 8  23621294.016 9 124130721.852 8  93904094.456 9
G01  21026769.227 7                  21026774.418 8 110496418.777 7                  86101128.027 8
G02  20588149.430 8  20588150.598 6                 108191453.764 8  84305168.402 6
G03  22430526.594 5                  22430532.449 5 117873271.935 5                  91849292.232 5
G08  21658727.594 7                  21658736.133 7 113817380.771 7                  88688799.321 7
G10  23256097.258 5                  23256107.672 5 122211616.999 5                  95229858.436 5
G32  21820059.320 8                  21820065.648 7 114665177.946 8                  89349623.706 7
R01  21784794.438 7                 116452202.829 7
R02  19329741.438 8  19329746.633 7 103147212.186 8  80225734.571 7
R03  21149243.703 7  21149251.180 7 113213563.350 7  88055457.771 7
R17  19281583.008 8  19281586.777 7 103179638.460 8  80250892.725 7
R18  19951839.734 8  19951844.516 7 106504277.005 8  82836962.239 7
> 2025 06 15 11 50 15.0000000  0 19
C12  23809706.539 6  23809704.223 7 123983393.914 6  95871820.060 7
C19  22186854.203 7                 115532773.548 7
C22  22668864.719 7                 118042729.127 7
E06  25019289.469 7  25019292.176 7 131477251.968 7  99461700.910 7
E09  24734777.734 8  24734779.695 8 129982135.940 8  98330647.103 8
E30  26935977.117 6  26935980.141 7 141549452.818 6 107081299.448 7
E34  24258717.883 7  24258720.648 8 127480423.828 7  96438123.719 8
E36  23620688.727 8  23620691.855 9 124127557.418 8  93901700.582 9
G01  21023434.656 7                  21023440.375 8 110478898.354 7                  86087475.769 8
G02  20586606.227 8  20586607.281 7                 108183342.093 8  84298847.613 7
G03  22426093.695 6                  22426100.629 4 117849980.103 6                  91831142.720 4
G08  21659980.836 7                  21659988.758 7 113823964.248 7                  88693929.291 7
G10  23257491.484 5                  23257502.480 5 122218947.173 5                  95235570.267 5
G32  21819134.078 8                  21819140.098 7 114660316.047 8                  89345835.224 7
R01  21786859.203 7                 116463243.424 7
R02  19328530.742 8  19328535.090 7 103140746.604 8  80220705.791 7
R03  21144345.836 7  21144353.813 7 113187343.389 7  88035064.483 7
R17  19281212.531 8  19281217.129 7 103177659.247 8  80249353.339 7
R18  19948205.148 8  19948210.578 7 106484877.006 8  82821873.353 7
> 2025 06 15 11 50 20.0000000  0 19
C12  23805784.383 6  23805783.160 7 123962974.284 6  95856030.306 7
C19  22186195.898 7                 115529340.473 7
C22  22665108.852 7                 118023174.112 7
E06  25018323.758 7  25018326.922 7 131472179.416 7  99457863.551 7
E09  24732501.672 8  24732503.754 8 129970175.541 8  98321599.147 8
E30  26936181.555 6  26936184.574 7 141550526.529 6 107082111.695 7
E34  24255792.609 7  24255794.840 8 127465048.778 7  96426492.590 8
E36  23620087.969 8  23620091.332 9 124124401.502 8  93899313.145 9
G01  21020102.195 7                  21020108.375 8 110461388.315 7                  86073831.594 8
G02  20585064.484 8  20585065.930 6                 108175242.483 8  84292536.220 6
G03  22421664.680 6                  22421669.094 5 117826697.535 6                  91813000.536 5
G08  21661236.039 7                  21661244.129 7 113830560.522 7                  88699069.239 7
G10  23258884.055 4                  23258898.363 5 122226283.536 4                  95241286.911 5
G32  21818212.398 8                  21818219.371 7 114655472.344 8                  89342060.913 7
R01  21788927.344 7                 116474296.137 7
R02  19327323.813 8  19327327.859 7 103134304.969 8  80215695.632 7
R03  21139450.898 7  21139457.699 7 113161137.786 7  88014682.330 7
R17  19280846.492 8  19280850.949 7 103175698.574 8  80247828.381 7
R18  19944572.938 8  19944578.934 7 106465490.570 8  82806795.034 7
> 2025 06 15 11 50 25.0000000  0 19
C12  23801864.383 6  23801863.309 7 123942561.345 6  95840245.699 7
C19  22185538.773 7                 115525921.211 7
C22  22661355.531 7                 118003629.872 7
E06  25017360.844 7  25017364.238 7 131467120.125 7  99454036.227 7
E09  24730228.422 8  24730230.160 8 129958228.313 8  98312561.146 8
E30  26936388.445 6  26936391.074 7 141551611.008 6 107082932.087 7
E34  24252868.289 7  24252870.074 8 127449679.221 7  96414865.633 8
E36  23619489.195 8  23619492.203 9 124121252.903 8  93896931.251 9
G01  21016772.891 7                  21016777.621 8 110443887.427 7                  86060194.556 8
G02  20583525.461 8  20583526.770 7                 108167153.737 8  84286233.290 7
G03  22417235.781 6                  22417240.270 5 117803422.960 6                  91794864.555 5
G08  21662493.922 7                  21662501.625 7 113837168.374 7                  88704218.203 7
G10  23260286.680 4                  23260297.328 5 122233624.993 4                  95247007.606 5
G32  21817293.742 8                  21817300.445 7 114650645.636 8                  89338299.820 7
R01  21790996.961 7                 116485359.749 7
R02  19326120.398 8  19326125.301 7 103127886.309 8  80210703.343 7
R03  21134556.984 7  21134564.176 7 113134945.057 7  87994310.227 7
R17  19280483.188 8  19280487.090 7 103173755.383 8  80246316.991 7
R18  19940943.992 8  19940949.563 7 106446116.542 8  82791726.337 7
> 2025 06 15 11 50 30.0000000  0 19
C12  23797946.172 6  23797944.871 7 123922156.769 6  95824467.613 7
C19  22184884.852 7                 115522517.441 7
C22  22657604.938 7                 117984098.091 7
E06  25016401.047 7  25016404.504 7 131462075.855 7  99450220.282 7
E09  24727957.594 8  24727959.410 8 129946295.990 8  98303534.433 8
E30  26936596.813 5  26936599.879 7 141552707.958 5 107083761.874 7
E34  24249944.094 7  24249946.797 8 127434316.878 7  96403244.134 8
E36  23618891.594 8  23618894.734 9 124118113.323 8  93894556.182 9
G01  21013444.164 7                  21013449.148 8 110426397.432 7                  86046565.989 8
G02  20581988.695 8  20581990.203 7                 108159077.591 8  84279940.195 7
G03  22412808.852 6                  22412813.957 5 117780158.140 6                  91776736.123 5
G08  21663753.766 7                  21663761.605 7 113843789.529 7                  88709377.521 7
G10  23261683.734 4                                                                
G32  21816379.078 8                  21816385.293 7 114645837.618 8                  89334553.316 7
R01  21793069.016 7                 116496436.033 7
R02  19324923.000 8  19324926.844 7 103121492.085 8  80205730.052 7
R03  21129666.914 7  21129673.555 6 113108767.133 7  87973949.649 6
R17  19280124.328 8  19280127.695 7 103171831.316 8  80244820.494 7
R18  19937316.586 8  19937322.301 7 106426756.610 8  82776668.629 7
> 2025 06 15 11 50 35.0000000  0 19
C12  23794028.031 6  23794027.895 7 123901757.759 6  95808693.822 7
C19  22184233.633 7                 115519126.277 7
C22  22653855.508 7                 117964575.937 7
E06  25015442.695 6  25015446.973 7 131457043.725 6  99446413.523 7
E09  24725689.305 8  24725690.918 8 129934375.671 8  98294516.783 8
E30  26936806.898 5  26936810.473 7 141553814.460 5 107084598.916 7
E34  24247021.398 7  24247024.242 8 127418958.917 7  96391625.928 8
E36  23618295.141 8  23618298.461 9 124114979.876 8  93892185.742 9
G01  21010117.594 7                  21010121.938 7 110408915.438 7                  86032943.645 7
G02  20580454.094 8  20580455.449 7                 108151011.129 8  84273654.655 7
G03  22408382.688 6                  22408388.129 5 117756900.185 6                  91758613.119 5
G08  21665015.055 7                  21665023.301 7 113850421.046 7                  88714544.919 7
G10  23263081.695 5                                                                
G32  21815466.859 8                  21815473.195 7 114641045.391 8                  89330819.119 7
R01  21795143.016 7                 116507521.963 7
R02  19323728.180 8  19323732.785 7 103115119.542 8  80200773.628 7
R03  21124780.094 7  21124785.715 6 113082601.047 7  87953598.274 6
R17  19279767.602 8  19279771.418 7 103169923.410 8  80243336.582 7
R18  19933692.430 8  19933697.715 8 106407407.830 8  82761619.579 8
> 2025 06 15 11 50 40.0000000  0 19
C12  23790112.492 6  23790111.605 7 123881365.930 6  95792925.570 7
C19  22183585.516 7                 115515749.421 7
C22  22650108.758 7                 117945065.089 7
E06  25014488.047 6  25014492.211 7 131452025.390 6  99442617.193 7
E09  24723423.406 8  24723425.074 8 129922469.064 8  98285509.512 8
E30  26937021.281 5  26937023.254 7 141554932.236 5 107085444.410 7
E34  24244100.375 8  24244102.883 8 127403606.979 8  96380012.304 8
E36  23617700.258 8  23617703.699 8 124111854.257 8  93889821.222 8
G01  21006792.664 7                  21006797.219 7 110391443.205 7                  86019328.906 7
G02  20578921.438 8  20578922.539 7                 108142956.112 8  84267378.011 7
G03  22403957.859 6                  22403963.617 5 117733650.851 6                  91740496.693 5
G08  21666279.211 7                  21666287.563 7 113857064.634 7                  88719721.736 7
G10  23264484.203 5                  23264494.387 5 122255683.11015                  95264195.63415
G32  21814558.008 8                  21814564.441 7 114636270.646 8                  89327098.553 7
R01  21797218.078 7                 116518619.142 7
R02  19322538.664 8  19322542.504 7 103108770.294 8  80195835.308 7
R03  21119892.703 7  21119900.148 6 113056448.366 7  87933257.367 6
R17  19279414.773 8  19279418.148 7 103168033.500 8  80241866.638 7
R18  19930070.414 8  19930075.789 7 106388072.014 8  82746580.601 7
> 2025 06 15 11 50 45.0000000  0 19
C12  23786196.977 6  23786196.070 7 123860978.952 6  95777161.097 7
C19  22182938.859 7                 115512384.476 7
C22  22646363.164 7                 117925563.150 7
E06  25013535.406 6  25013539.598 7 131447018.465 6  99438829.507 7
E09  24721159.859 8  24721161.473 8 129910573.741 8  98276510.783 8
E30  26937233.695 5  26937237.582 7 141556058.770 5 107086296.695 7
E34  24241179.289 7  24241182.223 8 127388258.696 7  96368401.422 8
E36  23617106.867 8  23617109.922 9 124108734.086 8  93887460.831 9
G01  21003469.180 7                  21003473.555 8 110373978.258 7                  86005719.861 8
G02  20577390.078 8  20577391.785 7                 108134910.110 8  84261108.393 7
G03  22399534.969 6                  22399543.059 5 117710407.665 6                  91722385.121 5
G08  21667545.297 7                  21667553.711 7 113863717.834 7                  88724906.038 7
G10  23265880.242 4                  23265892.902 4 122263043.989 4                  95269931.383 4
G32  21813652.320 8                  21813659.023 7 114631511.008 8                  89323389.734 7
R01  21799296.008 7                 116529725.254 7
R02  19321352.813 8  19321356.156 7 103102441.775 8  80190913.136 7
R03  21115008.977 7  21115017.188 6 113030307.188 7  87912925.348 6
R17  19279064.250 8  19279067.809 7 103166158.989 8  80240408.676 7
R18  19926449.766 8  19926455.375 7 106368746.688 8  82731549.789 7
> 2025 06 15 11 50 50.0000000  0 19
C12  23782283.398 6  23782282.625 7 123840597.987 6  95761401.249 7
C19  22182295.273 7                 115509032.514 7
C22  22642620.375 7                 117906071.255 7
E06  25012585.578 6  25012589.148 7 131442024.063 6  99435051.259 7
E09  24718898.547 8  24718900.266 8 129898690.830 8  98267521.452 8
E30  26937450.469 5  26937453.867 7 141557195.27515 107087156.44017
E34  24238259.336 8  24238262.480 8 127372915.159 8  96356794.146 8
E36  23616514.766 8  23616517.457 9 124105620.408 8  93885105.350 9
G01  21000147.602 7                  21000151.977 8 110356521.738 7                  85992117.371 8
G02  20575861.008 8  20575862.563 7                 108126874.182 8  84254846.642 7
G03  22395111.836 5                  22395119.820 5 117687171.676 5                  91704279.249 5
G08  21668813.359 7                  21668822.070 7 113870381.826 7                  88730098.757 7
G10  23267285.328 5                  23267292.352 4 122270409.15415                  95275670.51114
G32  21812749.859 8                  21812755.852 7 114626767.556 8                  89319693.524 7
R01  21801375.391 7                 116540841.403 7
R02  19320170.664 8  19320174.547 7 103096135.373 8  80186008.169 7
R03  21110127.523 7  21110135.355 6 113004178.132 7  87892602.746 6
R17  19278716.992 8  19278720.617 7 103164301.137 8  80238963.672 7
R18  19922832.289 8  19922836.922 7 106349432.967 8  82716528.024 7
> 2025 06 15 11 50 55.0000000  0 19
C12  23778371.945 6  23778369.430 7 123820225.545 6  95745647.996 7
C19  22181654.898 8                 115505696.132 8
C22  22638879.234 7                 117886591.969 7
E06  25011638.211 6  25011641.582 7 131437044.803 6  99431284.483 7
E09  24716640.117 8  24716641.883 8 129886822.951 8  98258543.488 8
E30  26937670.555 5  26937672.520 7 141558344.291 5 107088025.671 7
E34  24235340.773 8  24235344.207 8 127357578.972 8  96345192.417 8
E36  23615923.750 8  23615926.691 9 124102515.871 8  93882756.783 9
G01  20996827.617 7                  20996832.449 8 110339076.244 7                  85978523.494 8
G02  20574333.813 8  20574335.836 7                 108118850.971 8  84248594.778 7
G03  22390693.102 5                  22390699.320 5 117663945.608 5                  91686181.152 5
G08  21670084.117 7                  21670092.746 7 113877059.153 7                  88735301.894 7
G10  23268690.117 5                  23268694.098 4 122277781.124 5                  95281414.791 4
G32  21811850.719 8                  21811856.441 7 114622042.873 8                  89316011.944 7
R01  21803458.258 7                 116551970.134 7
R02  19318993.672 8  19318997.410 7 103089853.634 8  80181122.363 7
R03  21105250.148 7  21105257.457 6 112978064.044 7  87872291.767 6
R17  19278373.805 8  19278377.266 7 103162462.623 8  80237533.722 7
R18  19919217.563 8  19919221.723 7 106330133.601 8  82701517.404 7
> 2025 06 15 11 51  0.0000000  0 19
C12  23774460.609 6  23774458.555 7 123799862.596 6  95729902.066 7
C19  22181017.211 7                 115502376.246 7
C22  22635141.094 7                 117867126.215 7
E06  25010693.469 7  25010696.922 7 131432081.544 7  99427529.796 7
E09  24714384.922 8  24714386.555 8 129874971.046 8  98249577.593 8
E30  26937890.570 5  26937893.746 7 141559506.83415 107088905.09917
E34  24232424.008 8  24232427.363 8 127342251.107 8  96333596.973 8
E36  23615334.992 8  23615337.777 8 124099421.424 8  93880415.853 8
G01  20993510.422 7                  20993515.207 8 110321642.746 7                  85964938.960 8
G02  20572809.328 8  20572812.047 7                 108110841.440 8  84242353.592 7
G03  22386275.891 6                  22386281.734 5 117640730.372 6                  91668091.405 5
G08  21671356.969 7                  21671365.902 7 113883750.730 7                  88740516.077 7
G10  23270093.148 5                  23270097.934 3 122285160.979 5                  95287165.398 3
G32  21810955.641 8                  21810960.496 7 114617337.942 8                  89312345.739 7
R01  21805542.367 7                 116563112.392 7
R02  19317821.172 8  19317825.172 7 103083597.397 8  80176256.421 7
R03  21100374.148 7  21100381.785 7 112951965.833 7  87851993.171 7
R17  19278032.625 8  19278036.879 7 103160644.220 8  80236119.413 7
R18  19915604.695 8  19915608.879 7 106310849.517 8  82686518.661 7
> 2025 06 15 11 51  5.0000000  0 19
C12  23770552.445 6  23770549.453 7 123779507.331 6  95714162.086 7
C19  22180382.391 7                 115499071.066 7
C22  22631404.563 7                 117847672.250 7
E06  25009750.875 7  25009755.449 7 131427132.590 7  99423785.946 7
E09  24712132.336 8  24712133.930 8 129863133.286 8  98240622.413 8
E30  26938113.938 5  26938117.219 7 141560680.95815 107089793.32117
E34  24229508.250 8  24229511.730 8 127326929.721 8  96322006.442 8
E36  23614747.914 8  23614750.527 9 124096335.253 8  93878081.173 9
G01  20990195.031 7                  20990199.551 7 110304219.434 7                  85951362.354 7
G02  20571287.688 8  20571290.082 7                 108102843.732 8  84236121.614 7
G03  22381860.195 6                  22381866.863 6 117617524.183 6                  91650008.608 6
G08  21672632.820 7                  21672641.781 7 113890454.791 7                  88745740.023 7
G10  23271499.594 5                                 122292546.753 5                
G32  21810063.523 8                  21810068.551 7 114612650.910 8                  89308693.522 7
R01  21807629.141 7                 116574266.470 7
R02  19316653.047 8  19316656.691 7 103077364.983 8  80171409.009 7
R03  21095502.563 7  21095509.215 7 112925881.764 7  87831705.587 7
R17  19277697.500 8  19277700.441 7 103158844.231 8  80234719.433 7
R18  19911994.891 8  19911998.238 7 106291578.850 8  82671530.342 7
> 2025 06 15 11 51 10.0000000  0 19
C12  23766644.508 6  23766641.883 7 123759158.687 6  95698427.228 7
C19  22179751.172 7                 115495779.507 7
C22  22627670.672 7                 117828228.955 7
E06  25008811.391 7  25008816.203 7 131422196.722 7  99420052.002 7
E09  24709881.953 8  24709883.785 8 129851308.587 8  98231677.112 8
E30  26938338.219 5  26938342.742 7 141561865.660 5 107090689.528 7
E34  24226594.359 8  24226597.168 8 127311613.759 8  96310420.021 8
E36  23614162.008 8  23614164.680 9 124093256.231 8  93875751.921 9
G01  20986881.242 7                  20986885.797 7 110286805.210 7                  85937792.849 7
G02  20569767.727 8  20569769.859 7                 108094856.770 8  84229898.011 7
G03  22377445.070 6                  22377453.992 5 117594326.009 6                  91631932.104 5
G08  21673910.977 7                  21673919.641 7 113897170.190 7                  88750972.799 7
G10  23272905.992 5                                 122299937.436 5                
G32  21809174.633 8                  21809180.125 7 114607980.686 8                  89305054.389 7
R01  21809717.086 7                 116585431.113 7
R02  19315489.242 8  19315492.840 7 103071155.103 8  80166579.104 7
R03  21090633.781 7  21090639.477 7 112899810.733 7  87811428.099 7
R17  19277363.375 8  19277367.391 7 103157061.389 8  80233332.772 7
R18  19908387.258 8  19908390.770 7 106272320.513 8  82656551.646 7
> 2025 06 15 11 51 15.0000000  0 19
C12  23762737.414 6  23762735.691 7 123738818.122 6  95682698.621 7
C19  22179122.586 7                 115492502.965 7
C22  22623939.406 7                 117808797.763 7
E06  25007875.547 7  25007879.809 7 131417275.424 7  99416329.090 7
E09  24707634.594 8  24707636.215 8 129839498.402 8  98222742.797 8
E30  26938566.789 5  26938570.438 7 141563062.284 5 107091594.736 7
E34  24223680.727 8  24223683.871 8 127296304.629 8  96298838.762 8
E36  23613577.336 8  23613580.426 9 124090185.838 8  93873429.181 9
G01  20983569.109 7                  20983573.957 7 110269401.529 7                  85924231.532 7
G02  20568250.313 8  20568252.379 7                 108086882.025 8  84223683.907 7
G03  22373033.508 6                  22373040.641 5 117571137.146 6                  91613862.897 5
G08  21675191.922 7                  21675200.020 7 113903898.360 7                  88756215.476 7
G10  23274314.148 5                  23274314.938 3 122307334.379 5                
G32  21808289.492 8                  21808294.703 7 114603328.736 8                  89301429.483 7
R01  21811808.453 7                 116596607.769 7
R02  19314329.883 8  19314333.695 7 103064969.397 8  80161767.997 7
R03  21085765.117 7  21085771.520 7 112873754.112 7  87791161.861 7
R17  19277033.461 8  19277038.238 7 103155297.363 8  80231960.755 7
R18  19904781.891 8  19904785.438 7 106253075.924 8  82641583.667 7
> 2025 06 15 11 51 20.0000000  0 19
C12  23758832.961 6  23758830.055 7 123718483.652 6  95666974.727 7
C19  22178495.453 8                 115489239.540 8
C22  22620209.813 7                 117789376.774 7
E06  25006941.875 7  25006945.348 7 131412366.832 7  99412615.746 7
E09  24705389.523 8  24705391.184 8 129827700.772 8  98213817.979 8
E30  26938796.867 5  26938800.152 7 141564269.020 5 107092507.665 7
E34  24220768.766 8  24220771.484 8 127281000.397 8  96287261.218 8
E36  23612994.852 8  23612997.410 9 124087122.122 8  93871111.499 9
G01  20980258.891 7                  20980263.773 8 110252006.434 7                  85910676.929 8
G02  20566734.930 8  20566736.945 7                 108078917.532 8  84217477.819 7
G03  22368620.984 6                  22368628.414 5 117547955.703 6                  91595799.563 5
G08  21676474.469 7                  21676482.141 7 113910637.374 7                  88761466.640 7
G10  23275721.758 5                  23275724.008 3 122314735.647 5                  95310195.35013
G32  21807407.242 8                  21807412.234 7 114598693.086 8                  89297817.278 7
R01  21813900.461 6                 116607794.454 6
R02  19313175.531 8  19313178.059 7 103058805.657 8  80156973.972 7
R03  21080900.164 8  21080905.605 7 112847709.965 8  87770905.362 7
R17  19276707.406 8  19276711.320 7 103153550.170 8  80230601.822 7
R18  19901178.898 8  19901182.746 8 106233843.290 8  82626624.960 8
> 2025 06 15 11 51 25.0000000  0 19
C12  23754929.484 6  23754926.457 7 123698155.813 6  95651255.936 7
C19  22177871.023 8                 115485989.662 8
C22  22616481.633 7                 117769966.461 7
E06  25006010.063 7  25006013.801 7 131407471.290 7  99408912.279 7
E09  24703147.398 8  24703148.738 8 129815916.187 8  98204903.020 8
E30  26939028.648 6  26939031.754 7 141565486.177 6 107093428.444 7
E34  24217857.836 8  24217860.160 8 127265701.541 8  96275687.727 8
E36  23612413.219 8  23612415.742 9 124084065.536 8  93868799.201 9
G01  20976950.781 7                  20976955.109 8 110234620.410 7                  85897129.380 8
G02  20565221.297 8  20565222.984 7                 108070963.739 8  84211280.055 7
G03  22364213.000 6                  22364216.762 5 117524782.249 6                  91577742.285 5
G08  21677758.188 7                  21677766.602 7 113917387.585 7                  88766726.522 7
G10  23277129.258 5                  23277133.594 3 122322141.759 5                  95315966.268 3
G32  21806528.344 8                  21806533.520 7 114594074.172 8                  89294218.117 7
R01  21815995.188 7                 116618991.582 7
R02  19312024.320 8  19312027.211 7 103052664.544 8  80152197.541 7
R03  21076036.633 7  21076043.965 7 112821678.810 7  87750658.898 7
R17  19276384.273 8  19276388.340 7 103151820.146 8  80229256.260 7
R18  19897578.484 8  19897582.156 7 106214622.893 8  82611675.756 7
> 2025 06 15 11 51 30.0000000  0 19
C12  23751026.602 6  23751023.914 7 123677835.038 6  95635542.654 7
C19  22177249.547 7                 115482753.818 7
C22  22612756.586 7                 117750567.275 7
E06  25005081.719 7  25005084.484 7 131402589.304 7  99405219.096 7
E09  24700907.086 8  24700908.902 8 129804145.113 8  98195998.279 8
E30  26939263.313 6  26939265.453 7 141566714.340 6 107094357.519 7
E34  24214947.406 8  24214950.004 8 127250408.526 8  96264118.676 8
E36  23611832.875 8  23611835.559 9 124081016.570 8  93866492.689 9
G01  20973643.734 7                  20973648.469 8 110217243.969 7                  85883589.304 8
G02  20563709.469 8  20563711.582 6                 108063021.166 8  84205091.037 6
G03  22359804.047 6                  22359810.441 5 117501617.148 6                  91559691.656 5
G08  21679045.984 7                  21679053.547 7 113924149.596 7                  88771995.618 7
G10  23278539.391 4                                 122329553.197 4                
G32  21805652.273 8                  21805657.734 7 114589472.544 8                  89290632.475 7
R01  21818091.375 7                 116630199.637 7
R02  19310878.281 8  19310881.207 7 103046546.461 8  80147438.991 7
R03  21071176.734 7  21071183.824 7 112795661.281 7  87730423.081 7
R17  19276063.953 8  19276068.664 7 103150107.828 8  80227924.432 7
R18  19893980.938 8  19893983.809 7 106195415.386 8  82596736.588 7
> 2025 06 15 11 51 35.0000000  0 19
C12  23747125.711 6  23747122.582 7 123657521.564 6  95619834.965 7
C19  22176630.656 8                 115479532.152 8
C22  22609033.719 7                 117731179.381 7
E06  25004155.867 7  25004157.977 7 131397721.061 7  99401536.310 7
E09  24698669.688 8  24698671.445 8 129792387.730 8  98187103.896 8
E30  26939497.617 6  26939501.215 7 141567953.596 6 107095295.024 7
E34  24212038.453 8  24212040.980 8 127235121.532 8  96252554.162 8
E36  23611253.719 8  23611256.938 9 124077975.368 8  93864192.044 9
G01  20970338.945 7                  20970344.387 8 110199877.222 7                  85870056.775 8
G02  20562200.125 8  20562202.004 6                 108055089.971 8  84198910.886 6
G03  22355395.016 5                  22355406.555 5 117478460.595 5                  91541647.717 5
G08  21680334.844 7                  21680343.160 7 113930923.483 7                  88777273.968 7
G10  23279951.578 4                                 122336969.947 4                
G32  21804779.664 8                  21804785.508 7 114584888.307 8                  89287060.346 7
R01  21820190.688 7                 116641418.878 7
R02  19309735.508 8  19309739.125 7 103040451.557 8  80142698.508 7
R03  21066318.484 7  21066326.117 7 112769657.336 7  87710197.822 7
R17  19275747.031 8  19275752.207 7 103148413.403 8  80226606.554 7
R18  19890384.867 8  19890387.758 7 106176220.879 8  82581807.536 7
> 2025 06 15 11 51 40.0000000  0 19
C12  23743225.789 6  23743222.551 7 123637213.876 6  95604131.771 7
C19  22176014.125 8                 115476323.200 8
C22  22605312.430 7                 117711801.357 7
E06  25003231.992 7  25003233.922 7 131392865.118 7  99397862.791 7
E09  24696434.375 8  24696436.508 8 129780642.545 8  98178218.746 8
E30  26939735.398 5  26939738.746 7 141569202.514 5 107096239.795 7
E34  24209129.797 8  24209132.918 9 127219839.083 8  96240993.095 9
E36  23610675.805 8  23610679.406 9 124074940.499 8  93861896.171 9
G01  20967035.516 7                  20967041.133 8 110182518.714 7                  85856530.678 8
G02  20560693.109 8  20560694.629 6                 108047168.669 8  84192738.438 6
G03  22350990.484 5                  22351003.039 4 117455311.240 5                  91523609.246 4
G08  21681625.930 7                  21681634.551 7 113937707.808 7                  88782560.453 7
G10  23281363.156 5                                 122344390.86015                
G32  21803910.281 8                  21803916.602 6 114580319.984 8                  89283500.604 6
R01  21822291.367 7                 116652647.646 7
R02  19308597.266 8  19308600.941 7 103034378.426 8  80137974.976 7
R03  21061463.141 7  21061470.262 7 112743665.550 7  87689981.995 7
R17  19275433.055 8  19275438.539 7 103146735.318 8  80225301.362 7
R18  19886791.117 8  19886793.980 7 106157037.898 8  82566887.457 7
> 2025 06 15 11 51 45.0000000  0 19
C12  23739329.086 6  23739324.309 7 123616914.599 6  95588435.108 7
C19  22175400.734 8                 115473129.551 8
C22  22601593.180 7                 117692435.810 7
E06  25002310.336 7  25002312.566 7 131388024.001 7  99394200.537 7
E09  24694201.945 8  24694204.344 8 129768912.203 8  98169344.833 8
E30  26939974.930 5  26939978.578 6 141570463.608 5 107097193.819 6
E34  24206223.602 8  24206226.047 8 127204563.819 8  96229437.467 8
E36  23610100.422 8  23610103.551 8 124071914.549 8  93859607.052 8
G01  20963733.430 7                  20963739.359 8 110165171.121 7                  85843013.094 8
G02  20559188.063 8  20559189.727 7                 108039259.885 8  84186575.743 7
G03  22346587.750 5                  22346600.125 5 117432171.592 5                  91505578.275 5
G08  21682919.313 7                  21682927.895 7 113944505.147 7                  88787857.057 7
G10  23282780.125 5                                 122351818.341 5                
G32  21803044.352 8                  21803051.121 7 114575770.220 8                  89279955.339 7
R01  21824395.031 7                 116663888.692 7
R02  19307463.859 8  19307467.824 7 103028329.516 8  80133270.296 7
R03  21056609.813 7  21056617.949 7 112717688.828 7  87669777.880 7
R17  19275123.367 8  19275128.680 7 103145076.265 8  80224010.973 7
R18  19883198.750 8  19883203.480 7 106137869.164 8  82551978.449 7
> 2025 06 15 11 51 50.0000000  0 18
C12  23735431.859 6  23735427.688 7 123596623.037 6  95572744.396 7
C19  22174790.406 7                 115469950.500 7
C22  22597877.430 7                 117673081.984 7
E06  25001392.156 7  25001393.938 8 131383197.038 7  99390548.969 8
E09  24691972.508 8  24691974.898 8 129757195.967 8  98160481.582 8
E30  26940218.273 6  26940220.746 6 141571736.332 6 107098156.591 6
E34  24203317.688 8  24203320.590 8 127189295.004 8  96217886.726 8
E36  23609525.844 8  23609529.309 9 124068896.793 8  93857324.134 9
G01  20960434.906 7                  20960440.277 8 110147833.676 7                  85829503.396 8
G02  20557685.484 8  20557686.918 7                 108031362.880 8  84180422.234 7
G03  22342186.328 6                  22342198.156 5 117409040.856 6                  91487554.378 5
G08  21684215.094 7                  21684223.594 7 113951314.726 7                  88793163.230 7
G32  21802181.852 8                  21802188.496 7 114571238.287 8                  89276423.963 7
R01  21826498.703 7                 116675141.192 7
R02  19306334.984 8  19306338.949 7 103022304.316 8  80128584.022 7
R03  21051761.117 7  21051767.887 7 112691726.227 7  87649584.778 7
R17  19274816.813 8  19274822.410 7 103143435.474 8  80222734.787 7
R18  19879610.094 8  19879614.980 7 106118713.823 8  82537079.869 7
> 2025 06 15 11 51 55.0000000  0 18
C12  23731535.289 6  23731532.344 7 123576339.217 6  95557059.657 7
C19  22174183.008 7                 115466786.031 7
C22  22594162.289 7                 117653739.953 7
E06  25000475.641 7  25000477.945 8 131378384.251 7  99386908.121 8
E09  24689745.609 8  24689748.199 8 129745493.878 8  98151629.028 8
E30  26940461.953 6  26940465.059 6 141573020.463 6 107099128.065 6
E34  24200413.180 8  24200416.309 8 127174032.660 8  96206340.861 8
E36  23608953.023 8  23608956.563 8 124065887.262 8  93855047.439 8
G01  20957137.992 7                  20957142.961 7 110130506.431 7                  85816001.645 7
G02  20556185.398 8  20556186.789 7                 108023477.714 8  84174277.950 7
G03  22337787.219 5                  22337799.047 5 117385919.241 5                  91469537.559 5
G08  21685513.211 7                  21685522.094 7 113958136.627 7                  88798478.986 7
G32  21801322.953 8                  21801329.652 7 114566724.164 8                  89272906.441 7
R01  21828606.367 7                 116686405.154 7
R02  19305210.531 8  19305213.656 7 103016302.566 8  80123915.992 7
R03  21046913.922 7  21046920.555 7 112665777.803 7  87629402.649 7
R17  19274514.484 8  19274518.816 7 103141813.058 8  80221472.894 7
R18  19876024.508 8  19876029.027 7 106099572.032 8  82522191.821 7
> 2025 06 15 11 52  0.0000000  0 18
C12  23727642.234 6  23727638.781 7 123556062.463 6  95541380.392 7
C19  22173577.922 7                 115463635.460 7
C22  22590450.281 7                 117634408.995 7
E06  24999561.453 6  24999564.648 8 131373584.925 6  99383277.479 8
E09  24687521.555 8  24687523.910 8 129733805.238 8  98142786.646 8
E30  26940708.148 5  26940711.617 6 141574315.464 5 107100107.74916
E34  24197510.133 8  24197513.125 8 127158776.127 8  96194799.389 8
E36  23608381.680 8  23608385.238 9 124062885.278 8  93852776.455 9
G01  20953843.578 7                  20953847.641 8 110113188.709 7                  85802507.302 8
G02  20554686.594 8  20554688.199 7                 108015603.701 8  84168142.360 7
G03  22333388.359 5                  22333398.473 5 117362805.987 5                  91451527.085 5
G08  21686813.547 7                  21686822.152 7 113964970.138 7                  88803803.801 7
G32  21800468.125 8                  21800474.418 7 114562227.198 8                  89269402.321 7
R01  21830715.289 7                 116697679.865 7
R02  19304089.797 8  19304093.973 7 103010323.943 8  80119265.942 7
R03  21042067.688 7  21042075.031 7 112639842.857 7  87609231.042 7
R17  19274214.742 8  19274218.910 7 103140208.313 8  80220224.753 7
R18  19872441.273 8  19872445.488 7 106080443.097 8  82507313.762 7
> 2025 06 15 11 52  5.0000000  0 19
C12  23723748.477 6  23723746.254 7 123535791.744 6  95525705.794 7
C19  22172975.484 7                 115460497.840 7
C22  22586740.117 7                 117615088.148 7
E04  26382411.750 5  26382413.156 5 138640519.66515 104880649.03615
E06  24998651.039 6  24998653.723 8 131368798.126 6  99379656.289 8
E09  24685300.055 7  24685302.047 8 129722129.057 7  98133953.686 8
E30  26940956.000 5  26940959.941 6 141575620.277 5 107101094.862 6
E34  24194607.578 8  24194610.789 8 127143524.355 8  96183261.522 8
E36  23607811.844 8  23607815.191 9 124059889.800 8  93850510.395 9
G01  20950549.227 7                  20950553.727 8 110095879.494 7                  85789019.589 8
G02  20553190.266 8  20553191.746 7                 108007739.813 8  84162014.661 7
G03  22328991.430 6                  22328999.781 5 117339700.112 6                  91433522.499 5
G08  21688116.156 7                  21688124.477 7 113971814.216 7                  88809136.838 7
G32  21799614.508 8                  21799621.559 7 114557746.367 8                  89265910.770 7
R01  21832828.313 6                 116708964.331 6
R02  19302972.930 8  19302977.582 7 103004367.100 8  80114632.852 7
R03  21037224.711 7  21037231.992 7 112613920.393 7  87589069.143 7
R17  19273917.719 8  19273922.059 8 103138620.050 8  80218989.444 8
R18  19868859.242 8  19868864.539 7 106061325.986 8  82492444.904 7
> 2025 06 15 11 52 10.0000000  0 19
C12  23719856.852 6  23719854.840 7 123515526.632 6  95510035.540 7
C19  22172375.320 7                 115457372.656 7
C22  22583031.742 7                 117595776.989 7
E04  26382724.844 5  26382725.770 5 138642163.068 5 104881892.26115
E06  24997743.492 6  24997745.090 8 131364023.305 6  99376044.175 8
E09  24683080.734 8  24683082.453 8 129710464.888 8  98125129.808 8
E30  26941206.430 6  26941210.055 6 141576934.479 6 107102089.06116
E34  24191706.430 8  24191709.258 8 127128276.942 8  96171726.964 8
E36  23607242.922 8  23607246.305 9 124056900.438 8  93848248.957 9
G01  20947256.438 7                  20947261.648 8 110078578.349 7                  85775538.179 8
G02  20551695.719 8  20551697.035 7                 107999885.620 8  84155894.509 7
G03  22324595.867 6                  22324603.688 5 117316601.082 6                  91415523.227 5
G08  21689420.828 7                  21689428.742 7 113978668.429 7                  88814477.758 7
G32  21798765.797 8                  21798772.266 7 114553281.229 8                  89262431.428 7
R01  21834939.492 7                 116720257.995 7
R02  19301860.875 8  19301865.016 7 102998431.794 8  80110016.502 7
R03  21032384.734 7  21032391.602 7 112588009.976 7  87568916.632 7
R17  19273624.438 8  19273628.117 8 103137048.003 8  80217766.747 8
R18  19865281.508 8  19865285.352 7 106042220.261 8  82477584.882 7
> 2025 06 15 11 52 15.0000000  0 19
C12  23715966.039 6  23715964.621 7 123495267.809 6  95494370.144 7
C19  22171777.188 8                 115454260.542 8
C22  22579325.531 7                 117576476.090 7
E04  26383039.352 5  26383040.453 5 138643816.592 5 104883143.147 5
E06  24996835.867 6  24996838.754 8 131359261.067 6  99372441.588 8
E09  24680863.227 8  24680865.273 9 129698813.312 8  98116315.461 9
E30  26941458.438 5  26941462.141 6 141578258.702 5 107103090.807 6
E34  24188805.664 8  24188808.680 8 127113034.454 8  96160196.112 8
E36  23606675.859 8  23606678.727 9 124053917.753 8  93845992.576 9
G01  20943966.297 7                  20943971.410 8 110061285.854 7                  85762063.534 8
G02  20550202.750 8  20550204.484 7                 107992041.723 8  84149782.381 7
G03  22320202.930 6                  22320208.938 5 117293509.618 6                  91397529.907 5
G08  21690727.008 7                  21690734.957 7 113985533.354 7                  88819827.053 7
G32  21797918.805 8                  21797925.398 7 114548832.348 8                  89258964.770 7
R01  21837053.656 6                 116731561.423 6
R02  19300752.781 8  19300756.824 7 102992518.513 8  80105417.253 7
R03  21027546.047 7  21027553.902 7 112562112.275 7  87548773.970 7
R17  19273334.352 8  19273337.258 7 103135492.715 8  80216557.068 7
R18  19861704.266 8  19861708.492 7 106023126.553 8  82462734.219 7
> 2025 06 15 11 52 20.0000000  0 19
C12  23712078.695 6  23712074.883 7 123475015.235 6  95478709.579 7
C19  22171182.266 7                 115451161.493 7
C22  22575621.031 7                 117557185.515 7
E04  26383357.406 5  26383357.082 5 138645480.24115 104884401.68315
E06  24995932.711 6  24995934.914 8 131354511.537 6  99368848.589 8
E09  24678648.445 8  24678650.484 8 129687174.371 8  98107510.671 8
E30  26941712.211 5  26941716.035 5 141579592.863 5 107104100.107 5
E34  24185905.539 8  24185909.020 8 127097796.958 8  96148669.050 8
E36  23606109.695 8  23606112.414 9 124050941.779 8  93843741.271 9
G01  20940677.063 7                  20940681.906 8 110044002.091 7                  85748595.670 8
G02  20548712.250 8  20548713.844 7                 107984208.159 8  84143678.308 7
G03  22315810.570 6                  22315816.180 5 117270425.770 6                  91379542.431 5
G08  21692035.563 7                  21692043.160 7 113992409.011 7                  88825184.680 7
G32  21797074.891 8                  21797081.902 7 114544399.817 8                  89255510.840 7
R01  21839170.945 7                 116742874.807 7
R02  19299648.617 8  19299652.684 7 102986627.396 8  80100835.273 7
R03  21022711.109 7  21022717.258 7 112536227.241 7  87528641.180 7
R17  19273046.102 8  19273049.809 7 103133954.188 8  80215360.445 7
R18  19858129.305 8  19858133.711 7 106004044.862 8  82447892.898 7
> 2025 06 15 11 52 25.0000000  0 19
C12  23708189.203 6  23708187.184 7 123454770.676 6  95463055.229 7
C19  22170590.055 7                 115448077.213 7
C22  22571918.648 7                 117537906.915 7
E04  26383675.984 5  26383675.984 5 138647155.848 5 104885669.221 5
E06  24995032.133 6  24995033.758 8 131349776.294 6  99365266.410 8
E09  24676435.680 8  24676438.422 8 129675549.765 8  98098716.751 8
E30  26941968.063 5  26941972.434 5 141580938.685 5 107105118.27215
E34  24183007.469 8  24183010.711 8 127082566.147 8  96137147.057 8
E36  23605544.555 8  23605547.684 9 124047974.233 8  93841496.342 9
G01  20937390.055 7                  20937395.016 8 110026728.744 7                  85735135.927 8
G02  20547223.695 8  20547225.410 7                 107976386.621 8  84137583.600 7
G03  22311419.531 6                  22311423.457 5 117247351.126 6                  91361562.286 5
G08  21693345.703 7                  21693353.773 7 113999297.108 7                  88830552.026 7
G32  21796235.250 8                  21796241.738 7 114539985.270 8                  89252070.928 7
R01  21841288.664 7                 116754199.852 7
R02  19298549.813 8  19298553.355 7 102980760.023 8  80096271.771 7
R03  21017879.313 7  21017884.184 6 112510356.715 7  87508519.700 6
R17  19272761.773 8  19272765.801 7 103132434.239 8  80214178.265 7
R18  19854556.969 8  19854561.926 7 105984976.948 8  82433062.293 7
> 2025 06 15 11 52 30.0000000  0 19
C12  23704303.602 6  23704300.734 7 123434532.502 6  95447405.817 7
C19  22170000.203 7                 115445006.173 7
C22  22568218.555 7                 117518638.838 7
E04  26383997.156 5  26383996.785 5 138648841.604 5 104886944.48315
E06  24994132.727 7  24994134.984 8 131345053.923 7  99361693.978 8
E09  24674226.492 8  24674228.797 8 129663938.004 8  98089932.527 8
E30  26942226.719 5  26942230.605 5 141582294.669 5 107106144.06915
E34  24180110.359 8  24180113.398 8 127067340.524 8  96125628.972 8
E36  23604981.438 8  23604984.266 9 124045013.614 8  93839256.639 9
G01  20934104.734 7                  20934109.090 8 110009464.330 7                  85721683.128 8
G02  20545737.508 8  20545738.973 7                 107968575.618 8  84131497.108 7
G03  22307030.297 6                  22307033.578 5 117224284.268 6                  91343588.165 5
G08  21694658.984 7                  21694667.113 7 114006196.054 7                  88835927.838 7
G32  21795398.188 8                  21795404.715 7 114535587.206 8                  89248643.859 7
R01  21843410.586 7                 116765534.829 7
R02  19297454.375 8  19297457.887 7 102974914.805 8  80091725.496 7
R03  21013048.195 7  21013054.129 7 112484499.039 7  87488408.166 7
R17  19272480.125 8  19272485.078 7 103130931.230 8  80213009.247 7
R18  19850988.031 8  19850991.805 7 105965921.320 8  82418241.230 7
> 2025 06 15 11 52 35.0000000  0 19
C12  23700417.820 6  23700415.277 7 123414300.779 6  95431761.364 7
C19  22169412.352 8                 115441948.291 8
C22  22564520.648 7                 117499381.162 7
E04  26384319.977 5  26384319.492 5 138650537.633 5 104888227.53415
E06  24993236.109 7  24993238.805 8 131340344.227 7  99358131.134 8
E09  24672019.008 8  24672021.617 8 129652338.965 8  98081157.935 8
E30  26942487.039 5  26942490.801 5 141583660.659 5 107107177.517 5
E34  24177214.359 8  24177217.078 8 127052119.967 8  96114114.731 8
E36  23604419.711 8  23604422.148 9 124042059.784 8  93837022.083 9
G01  20930821.391 7                  20930825.750 8 109992208.722 7                  85708237.190 8
G02  20544253.227 8  20544254.555 7                 107960775.062 8  84125418.732 7
G03  22302642.836 6                  22302644.855 5 117201225.077 6                  91325620.007 5
G08  21695973.063 7                  21695981.961 7 114013105.832 7                  88841312.068 7
G32  21794564.664 8                  21794570.656 7 114531205.528 8                  89245229.562 7
R01  21845531.664 6                 116776879.724 6
R02  19296363.086 8  19296367.094 7 102969091.794 8  80087196.477 7
R03  21008220.445 7  21008226.461 7 112458654.463 7  87468306.849 7
R17  19272201.469 8  19272207.387 7 103129445.123 8  80211853.398 7
R18  19847421.320 8  19847424.961 8 105946877.852 8  82403429.652 8
> 2025 06 15 11 52 40.0000000  0 19
C12  23696534.641 6  23696531.941 7 123394077.454 6  95416123.408 7
C19  22168828.133 7                 115438905.517 7
C22  22560824.258 7                 117480135.859 7
E04  26384645.164 6  26384644.566 5 138652245.781 6 104889519.78115
E06  24992342.563 7  24992345.398 8 131335649.262 7  99354579.437 8
E09  24669814.641 8  24669817.168 8 129640754.641 8  98072394.483 8
E30  26942749.492 6  26942753.270 5 141585038.751 6 107108220.025 5
E34  24174318.945 8  24174321.996 8 127036906.483 8  96102605.825 8
E36  23603859.078 8  23603861.727 9 124039114.729 8  93834794.172 9
G01  20927539.422 7                  20927543.844 8 109974963.919 7                  85694799.664 8
G02  20542770.914 8  20542772.758 6                 107952986.864 8  84119350.020 6
G03  22298256.789 6                  22298260.098 5 117178175.466 6                  91307659.219 5
G08  21697290.984 7                  21697298.797 7 114020028.371 7                  88846706.229 7
G32  21793734.469 8                  21793740.203 7 114526842.229 8                  89241829.573 7
R01  21847655.734 6                 116788236.506 6
R02  19295276.406 8  19295280.598 7 102963292.896 8  80082686.240 7
R03  21003394.836 7  21003401.137 6 112432824.720 7  87448217.041 6
R17  19271927.859 8  19271932.926 7 103127977.915 8  80210712.252 7
R18  19843855.672 8  19843859.980 8 105927848.535 8  82388629.096 8
> 2025 06 15 11 52 45.0000000  0 19
C12  23692651.844 6  23692648.801 7 123373860.405 6  95400490.321 7
C19  22168245.867 7                 115435875.823 7
C22  22557129.859 7                 117460900.936 7
E04  26384972.070 6  26384971.559 5 138653964.144 6 104890819.644 5
E06  24991451.078 7  24991454.348 8 131330967.000 7  99351037.321 8
E09  24667612.289 8  24667615.141 8 129629183.023 8  98063640.636 8
E30  26943012.586 5  26943017.574 5 141586426.756 5 107109270.058 5
E34  24171425.297 8  24171427.922 8 127021698.022 8  96091100.727 8
E36  23603300.031 8  23603302.570 9 124036176.454 8  93832571.377 9
G01  20924259.398 7                  20924263.988 8 109957727.920 7                  85681369.008 8
G02  20541291.008 8  20541292.844 7                 107945209.084 8  84113289.405 7
G03  22293873.797 6                  22293876.230 5 117155133.560 6                  91289704.549 5
G08  21698610.125 7                  21698618.480 7 114026961.633 7                  88852108.749 7
G32  21792906.492 8                  21792912.637 7 114522495.247 8                  89238442.321 7
R01  21849782.328 7                 116799603.051 7
R02  19294193.164 8  19294198.020 7 102957516.239 8  80078193.282 7
R03  20998572.539 8  20998578.586 6 112407007.881 8  87428137.298 6
R17  19271656.508 8  19271661.500 7 103126527.608 8  80209584.209 7
R18  19840293.250 8  19840297.555 7 105908831.397 8  82373838.008 7
> 2025 06 15 11 52 50.0000000  0 19
C12  23688771.008 6  23688767.879 7 123353650.238 6  95384862.532 7
C19  22167666.672 7                 115432859.672 7
C22  22553438.688 7                 117441676.842 7
E04  26385300.328 6  26385300.508 5 138655693.085 6 104892127.537 5
E06  24990563.641 7  24990565.965 8 131326297.838 7  99347505.126 8
E09  24665412.336 8  24665415.602 8 129617624.550 8  98054896.732 8
E30  26943278.422 5  26943283.539 5 141587825.318 5 107110327.986 5
E34  24168532.023 8  24168534.844 8 127006495.066 8  96079599.789 8
E36  23602742.266 8  23602744.770 9 124033245.406 8  93830354.050 9
G01  20920981.328 7                  20920985.719 8 109940501.141 7                  85667945.550 8
G02  20539812.648 8  20539814.652 7                 107937442.136 8  84107237.232 7
G03  22289487.805 6                  22289494.137 6 117132099.667 6                  91271756.126 6
G08  21699931.273 7                  21699939.602 7 114033906.069 7                  88857519.972 7
G32  21792082.992 8                  21792088.625 7 114518165.034 8                  89235068.133 7
R01  21851908.570 6                 116810979.911 6
R02  19293115.242 8  19293119.660 7 102951761.912 8  80073717.702 7
R03  20993752.367 8  20993758.422 6 112381204.135 8  87408067.751 6
R17  19271389.125 8  19271394.570 7 103125094.575 8  80208469.605 7
R18  19836733.391 8  19836737.367 8 105889826.907 8  82359056.730 8
> 2025 06 15 11 52 55.0000000  0 19
C12  23684891.203 6  23684888.043 7 123333446.683 6  95369239.888 7
C19  22167090.188 7                 115429856.855 7
C22  22549749.125 7                 117422463.408 7
E04  26385631.016 6  26385631.371 5 138657432.484 6 104893443.38515
E06  24989676.805 7  24989680.145 8 131321641.636 7  99343982.733 8
E09  24663215.672 8  24663218.492 8 129606079.063 8  98046162.645 8
E30  26943548.250 5  26943551.613 5 141589234.011 5 107111393.65915
E34  24165640.164 8  24165642.770 8 126991297.431 8  96068102.868 8
E36  23602185.805 8  23602188.297 9 124030321.375 8  93828142.044 9
G01  20917705.000 7                  20917709.910 8 109923283.464 7                  85654529.169 8
G02  20538337.313 8  20538338.758 7                 107929685.820 8  84101193.366 7
G03  22285108.000 6                  22285113.766 6 117109073.683 6                  91253813.814 6
G08  21701255.477 7                  21701263.035 7 114040861.465 7                  88862939.753 7
G32  21791262.438 8                  21791267.980 7 114513851.425 8                  89231706.876 7
R01  21854039.953 6                 116822366.886 6
R02  19292040.922 8  19292045.246 7 102946030.008 8  80069259.559 7
R03  20988934.211 8  20988940.352 7 112355413.604 8  87388008.506 7
R17  19271124.664 8  19271129.344 7 103123678.551 8  80207368.237 7
R18  19833175.672 8  19833179.422 8 105870834.870 8  82344285.140 8
> 2025 06 15 11 53  0.0000000  0 19
C12  23681012.508 6  23681009.676 7 123313250.262 6  95353622.756 7
C19  22166516.328 7                 115426867.886 7
C22  22546060.789 7                 117403261.145 7
E04  26385962.938 5  26385964.328 4 138659182.673 5 104894767.39114
E06  24988794.383 7  24988796.598 8 131316998.849 7  99340470.512 8
E09  24661021.391 7  24661023.984 8 129594547.041 7  98037438.748 8
E30  26943817.164 5  26943821.785 5 141590653.474 5 107112467.505 5
E34  24162749.633 8  24162751.902 8 126976105.610 8  96056610.360 8
E36  23601630.672 8  23601633.340 8 124027404.874 8  93825935.728 8
G01  20914429.898 7                  20914435.344 8 109906075.339 7                  85641120.283 8
G02  20536863.125 8  20536865.070 7                 107921940.674 8  84095158.196 7
G03  22280725.281 5                  22280733.297 6 117086056.280 5                  91235878.121 6
G08  21702581.117 7                  21702588.707 7 114047828.315 7                  88868368.456 7
G32  21790444.039 8                  21790450.016 7 114509554.949 8                  89228358.967 7
R01  21856173.344 6                 116833764.320 6
R02  19290971.305 8  19290975.426 7 102940321.112 8  80064819.308 7
R03  20984118.719 8  20984125.230 7 112329636.730 8  87367959.869 7
R17  19270863.789 8  19270868.203 7 103122280.178 8  80206280.608 7
R18  19829619.969 8  19829624.012 8 105851855.822 8  82329523.669 8
> 2025 06 15 11 53  5.0000000  0 19
C12  23677135.039 6  23677132.422 7 123293060.501 6  95338010.747 7
C19  22165944.789 7                 115423892.219 7
C22  22542375.461 7                 117384069.533 7
E04  26386299.539 5  26386290.043 4 138660943.332 5 104896098.84314
E06  24987913.016 7  24987915.629 8 131312368.975 7  99336968.047 8
E09  24658829.586 8  24658832.000 8 129583027.986 8  98028724.653 8
E30  26944090.023 5  26944093.707 5 141592083.188 5 107113549.00915
E34  24159859.852 8  24159861.961 8 126960919.109 8  96045121.854 8
E36  23601077.141 8  23601079.645 9 124024495.406 8  93823734.730 9
G01  20911157.625 7                  20911162.574 8 109888876.260 7                  85627718.431 8
G02  20535391.898 8  20535393.184 7                 107914206.203 8  84089131.325 7
G03  22276345.023 5                  22276354.277 6 117063046.653 5                  91217948.581 6
G08  21703909.000 7                  21703916.391 7 114054806.109 7                  88873805.689 7
G32  21789629.891 8                  21789635.242 7 114505275.000 8                  89225023.951 7
R01  21858306.617 6                 116845171.771 6
R02  19289905.391 8  19289909.531 7 102934634.328 8  80060396.243 7
R03  20979305.297 8  20979312.246 7 112303873.111 8  87347921.516 7
R17  19270605.969 8  19270609.813 7 103120898.901 8  80205206.284 7
R18  19826066.172 8  19826071.117 8 105832889.215 8  82314771.876 8
> 2025 06 15 11 53 10.0000000  0 19
C12  23673259.586 6  23673256.652 7 123272879.227 6  95322405.290 7
C19  22165376.930 7                 115420931.731 7
C22  22538691.594 7                 117364890.409 7
E04  26386635.289 5  26386627.078 4 138662716.122 5 104897439.982 4
E06  24987034.656 7  24987037.230 8 131307753.905 7  99333476.767 8
E09  24656640.359 7  24656642.746 8 129571523.749 7  98020021.776 8
E30  26944363.023 5  26944367.813 5 141593524.914 5 107114639.625 5
E34  24156970.781 8  24156973.402 8 126945739.742 8  96033638.769 8
E36  23600525.445 8  23600527.719 9 124021594.815 8  93821540.445 9
G01  20907886.609 7                  20907891.957 8 109871688.146 7                  85614325.109 8
G02  20533921.781 8  20533923.555 7                 107906484.249 8  84083114.208 7
G03  22271966.898 4                  22271977.250 6 117040046.64914                  91200026.49416
G08  21705239.094 7                  21705246.719 7 114061796.683 7                  88879252.893 7
G32  21788819.203 8                  21788824.648 7 114501013.523 8                  89221703.323 7
R01  21860441.320 6                 116856591.207 6
R02  19288844.445 8  19288848.801 8 102928971.876 8  80055992.092 8
R03  20974495.148 7  20974502.660 7 112278124.409 7  87327894.763 7
R17  19270351.586 8  19270355.320 7 103119536.675 8  80204146.771 7
R18  19822516.219 8  19822520.656 8 105813936.940 8  82300031.250 8
> 2025 06 15 11 53 15.0000000  0 18
C12  23669385.305 6  23669383.008 7 123252705.631 6  95306805.802 7
C19  22164811.000 7                 115417985.519 7
C22  22535010.344 7                 117345722.915 7
E04  26386974.984 5  26386966.484 4 138664500.352 5 104898789.767 4
E06  24986158.992 7  24986161.633 8 131303152.725 7  99329995.995 8
E09  24654453.406 8  24654456.199 8 129560033.474 8  98011329.463 8
E30  26944637.914 5  26944644.051 6 141594977.830 5 107115738.749 6
E34  24154083.336 8  24154086.141 8 126930566.675 8  96022160.433 8
E36  23599975.211 8  23599977.285 9 124018702.227 8  93819352.212 9
G01  20904616.891 7                  20904622.742 8 109854510.085 7                  85600939.604 8
G02  20532454.711 8  20532456.406 7                 107898773.935 8  84077106.172 7
G08  21706571.750 7                  21706579.418 7 114068799.138 7                  88884709.349 7
G32  21788011.953 8                  21788017.207 7 114496769.577 8                  89218396.364 7
R01  21862581.680 6                 116868021.524 6
R02  19287788.109 8  19287791.996 7 102923332.631 8  80051606.026 7
R03  20969689.227 8  20969695.121 7 112252389.937 8  87307879.029 7
R17  19270100.594 8  19270104.293 7 103118192.504 8  80203101.311 7
R18  19818967.977 8  19818973.098 8 105794998.185 8  82285301.102 8
> 2025 06 15 11 53 20.0000000  0 18
C12  23665512.570 7  23665510.145 7 123232539.190 7  95291211.831 7
C19  22164247.641 7                 115415053.119 7
C22  22531331.961 7                 117326566.600 7
E04  26387316.430 5  26387308.004 4 138666295.499 5 104900147.734 4
E06  24985286.125 7  24985288.578 8 131298564.981 7  99326525.391 8
E09  24652269.758 7  24652272.266 8 129548556.666 7  98002647.332 8
E30  26944914.656 5  26944922.488 6 141596441.438 5 107116845.943 6
E34  24151197.016 8  24151199.977 8 126915399.441 8  96010686.529 8
E36  23599425.805 8  23599428.320 9 124015817.176 8  93817169.698 9
G01  20901350.531 7                  20901355.645 8 109837341.643 7                  85587561.586 8
G02  20530989.867 8  20530991.273 7                 107891074.771 8  84071106.816 7
G08  21707906.117 7                  21707913.840 7 114075813.033 7                  88890174.718 7
G32  21787206.680 8                  21787212.906 7 114492542.721 8                  89215102.707 7
R01  21864721.969 6                 116879462.253 6
R02  19286734.719 8  19286739.332 7 102917716.238 8  80047237.729 7
R03  20964884.094 8  20964890.570 7 112226669.182 8  87287873.987 7
R17  19269852.461 8  19269856.047 7 103116866.068 8  80202069.613 7
R18  19815422.852 8  19815427.203 8 105776072.487 8  82270581.106 8
> 2025 06 15 11 53 25.0000000  0 19
C12  23661640.992 7  23661638.816 7 123212379.649 7  95275623.187 7
C19  22163687.203 7                 115412134.256 7
C22  22527655.703 7                 117307421.177 7
E04  26387661.461 5  26387660.723 5 138668101.157 5 104901514.09815
E06  24984416.313 7  24984418.039 8 131293990.363 7  99323064.717 8
E09  24650088.469 8  24650090.758 8 129537093.052 8  97993975.188 8
E30  26945197.852 5  26945202.965 6 141597915.507 5 107117961.05716
E34  24148311.961 8  24148314.898 8 126900237.740 8  95999216.813 8
E36  23598878.227 8  23598880.742 9 124012939.373 8  93814992.650 9
G01  20898085.133 7                  20898090.086 8 109820182.483 7                  85574190.817 8
G02  20529526.672 8  20529528.293 7                 107883386.465 8  84065115.933 7
G03  22258849.633 5                                                                
G08  21709243.570 7                  21709251.023 7 114082838.041 7                  88895648.741 7
G32  21786405.477 7                  21786412.098 7 114488332.615 7                  89211822.125 7
R01  21866863.578 6                 116890913.227 6
R02  19285686.820 8  19285690.672 7 102912122.402 8  80042886.980 7
R03  20960081.375 8  20960088.070 7 112200961.927 8  87267879.474 7
R17  19269607.086 8  19269611.520 7 103115556.855 8  80201051.354 7
R18  19811880.070 8  19811884.336 8 105757159.486 8  82255871.014 8
> 2025 06 15 11 53 30.0000000  0 18
C12  23657770.508 6  23657769.059 7 123192227.560 6  95260040.309 7
C19  22163129.352 7                 115409229.401 7
C22  22523981.758 7                 117288287.161 7
E04  26388008.789 5  26388007.023 5 138669917.922 5 104902888.534 5
E06  24983548.359 7  24983550.152 8 131289429.390 7  99319614.374 8
E09  24647909.289 8  24647911.848 8 129525643.155 8  97985313.423 8
E30  26945481.594 5  26945485.520 6 141599400.558 5 107119084.448 6
E34  24145428.273 8  24145430.879 8 126885082.100 8  95987751.684 8
E36  23598332.070 8  23598334.602 9 124010069.329 8  93812821.481 9
G01  20894821.563 7                  20894826.902 8 109803033.188 7                  85560827.724 8
G02  20528065.258 8  20528067.551 7                 107875709.573 8  84059133.937 7
G08  21710582.383 7                  21710590.152 7 114089874.672 7                  88901131.819 7
G32  21785607.688 8                  21785614.055 7 114484139.830 8                  89208555.012 7
R01  21869006.773 6                 116902374.852 6
R02  19284643.109 8  19284646.488 7 102906551.602 8  80038554.148 7
R03  20955281.805 7  20955287.770 7 112175268.672 7  87247895.853 7
R17  19269365.055 8  19269370.551 7 103114265.439 8  80200046.925 7
R18  19808339.203 8  19808343.906 8 105738259.764 8  82241171.240 8
> 2025 06 15 11 53 35.0000000  0 18
C12  23653901.539 7  23653900.320 7 123172083.448 7  95244463.604 7
C19  22162574.039 7                 115406339.174 7
C22  22520309.063 7                 117269165.176 7
E04  26388354.305 4  26388355.367 5 138671746.34114 104904271.68315
E06  24982682.617 7  24982685.020 8 131284882.650 7  99316174.784 8
E09  24645733.352 7  24645735.629 8 129514207.574 7  97976662.486 8
E30  26945766.469 5  26945770.324 6 141600897.077 5 107120216.52116
E34  24142545.867 8  24142548.105 8 126869933.128 8  95976291.590 8
E36  23597787.281 8  23597790.047 9 124007207.654 8  93810656.646 9
G01  20891560.250 7                  20891565.086 8 109785894.332 7                  85547472.772 8
G02  20526606.758 8  20526608.898 6                 107868044.684 8  84053161.291 6
G08  21711923.570 7                  21711931.125 7 114096923.549 7                  88906624.430 7
G32  21784813.305 8                  21784820.070 7 114479964.942 8                  89205301.840 7
R01  21871154.781 6                 116913847.829 6
R02  19283602.961 8  19283607.148 7 102901004.431 8  80034239.671 7
R03  20950485.156 7  20950490.758 7 112149589.982 7  87227923.533 7
R17  19269127.289 8  19269132.863 7 103112992.566 8  80199056.907 7
R18  19804800.664 8  19804805.625 8 105719374.004 8  82226482.324 8
> 2025 06 15 11 53 40.0000000  0 18
C12  23650034.883 7  23650033.023 7 123151946.539 7  95228892.454 7
C19  22162021.703 7                 115403462.743 7
C22  22516639.391 7                 117250054.421 7
E04  26388709.695 4  26388705.555 5 138673585.72914 104905663.04315
E06  24981820.344 7  24981822.461 8 131280349.360 7  99312745.385 8
E09  24643559.852 7  24643562.020 8 129502785.509 7  97968021.769 8
E30  26946053.352 5  26946057.164 6 141602404.261 5 107121356.659 6
E34  24139664.375 8  24139666.438 8 126854790.022 8  95964835.919 8
E36  23597244.195 8  23597246.969 9 124004353.529 8  93808497.524 9
G01  20888301.273 7                  20888305.789 8 109768765.101 7                  85534125.310 8
G02  20525150.500 8  20525152.238 7                 107860390.985 8  84047197.363 7
G08  21713267.008 7                  21713275.215 7 114103983.756 7                  88912125.883 7
G32  21784021.969 8                  21784029.102 7 114475807.133 8                  89202061.983 7
R01  21873303.500 6                 116925331.046 6
R02  19282567.305 8  19282571.730 7 102895480.108 8  80029942.976 7
R03  20945689.945 7  20945696.441 7 112123925.173 7  87207962.025 7
R17  19268893.438 8  19268897.695 7 103111737.219 8  80198080.537 7
R18  19801265.797 8  19801269.969 8 105700501.296 8  82211803.562 8
> 2025 06 15 11 53 45.0000000  0 19
C12  23646169.781 6  23646167.508 7 123131817.084 6  95213327.101 7
C19  22161472.211 7                 115400600.297 7
C22  22512971.250 7                 117230955.056 7
E04  26389061.906 5  26389057.688 5 138675435.95415 104907062.77515
E06  24980960.531 7  24980962.465 8 131275829.675 7  99309326.271 8
E09  24641389.102 8  24641390.969 8 129491377.138 8  97959391.418 8
E30  26946342.008 5  26946346.008 6 141603922.362 5 107122505.063 6
E34  24136783.938 8  24136785.855 8 126839652.964 8  95953384.841 8
E36  23596702.500 8  23596705.359 9 124001507.152 8  93806344.259 9
G01  20885043.570 7                  20885048.176 8 109751645.698 7                  85520785.514 8
G02  20523696.031 8  20523697.762 6                 107852748.671 8  84041242.309 6
G03  22241381.430 5                  22241385.188 6 116879283.07815                
G08  21714613.109 7                  21714620.887 7 114111055.540 7                  88917636.370 7
G32  21783234.070 8                  21783240.977 7 114471666.584 8                  89198835.572 7
R01  21875453.391 6                 116936824.902 6
R02  19281536.359 8  19281540.758 7 102889978.688 8  80025664.093 7
R03  20940900.133 8  20940904.387 7 112098274.379 8  87188011.425 7
R17  19268662.352 8  19268666.539 7 103110499.737 8  80197118.037 7
R18  19797732.227 8  19797737.035 8 105681641.887 8  82197135.146 8
> 2025 06 15 11 53 50.0000000  0 19
C12  23642305.227 7  23642303.320 7 123111695.090 7  95197767.503 7
C19  22160925.047 7                 115397751.886 7
C22  22509306.359 7                 117211867.146 7
E04  26389409.883 5  26389412.004 5 138677297.30015 104908470.99015
E06  24980103.289 7  24980105.063 8 131271323.618 7  99305917.489 8
E09  24639220.664 8  24639222.555 8 129479982.499 8  97950771.455 8
E30  26946633.766 5  26946636.824 6 141605451.364 5 107123661.705 6
E34  24133904.680 8  24133906.488 8 126824522.011 8  95941938.359 8
E36  23596162.148 8  23596165.211 9 123998668.564 8  93804196.883 9
G01  20881787.727 7                  20881792.188 8 109734536.197 7                  85507453.444 8
G02  20522244.000 8  20522245.469 6                 107845117.778 8  84035296.150 6
G03  22237018.180 5                  22237021.238 5 116856352.649 5                  91056884.78815
G08  21715960.648 7                  21715968.598 7 114118138.934 7                  88923155.882 7
G32  21782449.406 8                  21782456.531 7 114467543.367 8                  89195622.658 7
R01  21877605.914 6                 116948329.348 6
R02  19280510.430 8  19280513.953 7 102884500.443 8  80021403.228 7
R03  20936111.305 8  20936115.242 7 112072637.584 8  87168071.717 7
R17  19268434.805 8  19268438.590 7 103109280.133 8  80196169.443 7
R18  19794202.055 8  19794206.102 7 105662795.829 8  82182477.097 7
> 2025 06 15 11 53 55.0000000  0 19
C12  23638441.930 6  23638440.605 7 123091579.627 6  95182212.956 7
C19  22160380.516 7                 115394916.539 7
C22  22505642.930 7                 117192789.760 7
E04  26389765.977 5  26389768.512 6 138679168.79115 104909886.77916
E06  24979247.516 7  24979250.156 8 131266830.282 7  99302518.311 8
E09  24637054.367 8  24637056.570 8 129468600.652 8  97942161.162 8
E30  26946926.297 5  26946929.477 6 141606990.267 5 107124825.821 6
E34  24131026.195 8  24131028.129 8 126809396.169 8  95930495.761 8
E36  23595623.547 8  23595626.332 9 123995836.800 8  93802054.677 9
G01  20878533.492 7                  20878538.379 8 109717435.607 7                  85494128.311 8
G02  20520794.344 8  20520795.203 6                 107837497.347 8  84029358.165 6
G03  22232652.688 5                  22232658.848 6 116833429.938 5                  91039022.958 6
G08  21717310.125 7                  21717318.703 7 114125232.965 7                  88928683.693 7
G32  21781668.055 8                  21781674.875 7 114463436.461 8                  89192422.453 7
R01  21879758.852 6                 116959843.509 6
R02  19279487.961 8  19279491.824 7 102879044.201 8  80017159.460 7
R03  20931322.375 8  20931328.160 7 112047013.889 8  87148142.210 7
R17  19268210.188 8  19268214.016 7 103108077.469 8  80195234.026 7
R18  19790673.625 8  19790678.430 8 105643962.214 8  82167828.738 8
> 2025 06 15 11 54  0.0000000  0 18
C12  23634580.734 7  23634578.656 7 123071469.596 7  95166662.627 7
C19  22159837.992 7                 115392093.158 7
C22  22501981.000 7                 117173721.771 7
E06  24978394.672 7  24978397.270 8 131262348.546 7  99299127.900 8
E09  24634891.250 8  24634892.813 8 129457230.488 8  97933559.705 8
E30  26947220.289 5  26947224.027 7 141608538.007 5 107125996.688 7
E34  24128148.375 8  24128150.535 8 126794274.358 8  95919056.202 8
E36  23595085.594 8  23595088.582 9 123993010.734 8  93799916.774 9
G01  20875280.203 7                  20875285.664 8 109700342.833 7                  85480809.279 8
G02  20519346.055 8  20519346.824 7                 107829886.295 8  84023427.459 7
G03  22228291.758 5                  22228297.984 6 116810513.879 5                  91021166.280 6
G08  21718663.031 7                  21718670.398 7 114132336.474 7                  88934218.894 7
G32  21780889.383 8                  21780896.594 7 114459344.769 8                  89189234.125 7
R01  21881915.719 5                 116971366.030 5
R02  19278469.227 8  19278473.184 7 102873608.807 8  80012931.939 7
R03  20926538.703 8  20926543.762 7 112021402.173 8  87128221.971 7
R17  19267988.445 8  19267992.238 7 103106890.528 8  80194310.845 7
R18  19787147.656 8  19787152.070 8 105625139.842 8  82153189.091 8
> 2025 06 15 11 54  5.0000000  0 18
C12  23630719.539 6  23630717.742 7 123051365.677 6  95151116.998 7
C19  22159298.328 7                 115389282.381 7
C22  22498320.953 7                 117154663.892 7
E06  24977543.945 7  24977546.852 8 131257878.976 7  99295746.721 8
E09  24632730.172 8  24632731.551 8 129445872.662 8  97924967.588 8
E30  26947514.711 5  26947520.391 6 141610095.194 5 107127174.685 6
E34  24125271.570 8  24125273.883 8 126779157.229 8  95907620.205 8
E36  23594549.094 8  23594552.004 9 123990191.057 8  93797783.700 9
G01  20872030.133 7                  20872034.676 8 109683258.566 7                  85467496.856 8
G02  20517899.180 8  20517900.227 7                 107822285.242 8  84017504.569 7
G03  22223933.563 4                                                                
G08  21720016.961 7                  21720024.348 7 114139450.154 7                  88939761.980 7
G32  21780114.234 8                  21780120.902 7 114455268.958 8                  89186058.164 7
R01  21884072.367 5                 116982897.715 5
R02  19277454.625 8  19277458.938 7 102868195.164 8  80008721.328 7
R03  20921755.859 8  20921761.867 7 111995803.139 8  87108311.611 7
R17  19267769.680 8  19267773.484 7 103105720.055 8  80193400.472 7
R18  19783624.508 8  19783628.371 8 105606329.390 8  82138558.741 8
> 2025 06 15 11 54 10.0000000  0 18
C12  23626859.711 6  23626858.172 7 123031269.488 6  95135577.356 7
C19  22158761.352 7                 115386485.872 7
C22  22494662.844 7                 117135617.748 7
E06  24976695.633 7  24976699.090 8 131253423.398 7  99292376.095 8
E09  24630571.234 8  24630572.813 8 129434528.847 8  97916386.062 8
E30  26947813.523 5  26947818.910 6 141611663.430 5 107128361.106 6
E34  24122395.820 8  24122398.383 8 126764046.479 8  95896189.027 8
E36  23594014.008 8  23594016.988 9 123987379.448 8  93795656.732 9
G01  20868780.320 7                  20868785.789 8 109666184.449 7                  85454192.361 8
G02  20516455.219 8  20516456.098 6                 107814695.924 8  84011590.820 6
G03  22219585.508 5                  22219582.230 6 116764705.49515                  90985471.36716
G08  21721372.313 7                  21721380.352 7 114146575.680 7                  88945314.340 7
G32  21779341.406 8                  21779348.586 7 114451210.747 8                  89182895.935 7
R01  21886230.234 5                 116994440.360 5
R02  19276443.727 8  19276448.688 7 102862804.748 8  80004528.791 7
R03  20916976.469 8  20916981.867 7 111970218.356 8  87088412.339 7
R17  19267554.734 8  19267558.027 7 103104567.665 8  80192504.163 7
R18  19780102.297 8  19780107.410 8 105587532.596 8  82123939.025 8
> 2025 06 15 11 54 15.0000000  0 18
C12  23623002.805 6  23622999.980 7 123011180.542 6  95120043.295 7
C19  22158226.656 7                 115383703.075 7
C22  22491007.602 7                 117116582.792 7
E06  24975850.297 7  24975853.746 8 131248981.149 7  99289015.568 8
E09  24628415.266 8  24628416.801 8 129423198.499 8  97907814.735 8
E30  26948116.836 5  26948119.582 7 141613242.41015 107129555.59117
E34  24119521.500 8  24119524.008 8 126748941.532 8  95884762.236 8
E36  23593480.250 8  23593483.359 9 123984575.345 8  93793535.440 9
G01  20865533.289 7                  20865538.293 8 109649119.949 7                  85440895.354 8
G02  20515013.445 8  20515013.887 6                 107807117.782 8  84005685.767 6
G03  22215235.047 5                  22215226.270 6 116741814.288 5                  90967634.107 6
G08  21722730.148 7                  21722738.531 7 114153712.454 7                  88950875.402 7
G32  21778572.828 8                  21778579.164 7 114447169.510 8                  89179746.907 7
R01  21888391.906 5                 117005993.12315
R02  19275438.766 8  19275442.746 7 102857436.946 8  80000353.831 7
R03  20912199.313 7  20912205.512 7 111944647.761 7  87068524.100 7
R17  19267342.773 8  19267345.957 7 103103432.862 8  80191621.529 7
R18  19776584.219 8  19776588.332 8 105568748.960 8  82109329.537 8
> 2025 06 15 11 54 20.0000000  0 19
C12  23619145.305 6  23619142.855 7 122991098.577 6  95104514.640 7
C19  22157694.570 7                 115380933.738 7
C22  22487354.250 7                 117097558.815 7
E06  24975007.891 7  24975010.855 8 131244552.015 7  99285664.923 8
E09  24626261.594 8  24626263.223 8 129411881.396 8  97899253.417 8
E30  26948419.023 5  26948422.129 7 141614831.754 5 107130757.854 7
E34  24116647.891 8  24116650.621 8 126733842.212 8  95873339.694 8
E36  23592948.328 8  23592951.156 9 123981778.493 8  93791419.633 9
G01  20862287.203 7                  20862292.836 8 109632064.867 7                  85427605.692 8
G02  20513573.250 8  20513574.238 7                 107799550.593 8  83999789.268 7
G03  22210880.086 4                  22210871.586 6 116718931.201 4                  90949803.183 6
G08  21724090.617 7                  21724098.539 7 114160860.260 7                  88956445.105 7
G14  23751012.133 5                                 124812528.19915                
G32  21777806.852 8                  21777813.879 7 114443145.032 8                  89176610.960 7
R01  21890552.000 5                 117017555.813 5
R02  19274436.797 8  19274441.266 7 102852091.739 8  79996196.441 7
R03  20907425.352 7  20907430.719 6 111919090.427 7  87048646.188 6
R17  19267133.797 8  19267137.379 7 103102315.376 8  80190752.373 7
R18  19773067.672 8  19773072.055 8 105549978.210 8  82094730.060 8
> 2025 06 15 11 54 25.0000000  0 19
C12  23615290.719 6  23615288.582 7 122971026.119 6  95088993.356 7
C19  22157165.859 7                 115378180.354 7
C22  22483703.133 7                 117078548.308 7
E06  24974168.242 7  24974170.977 8 131240138.528 7  99282326.160 8
E09  24624111.164 8  24624112.609 8 129400580.026 8  97890704.019 8
E30  26948725.000 5  26948727.086 7 141616433.876 5 107131969.833 7
E34  24113776.867 8  24113778.863 8 126718750.951 8  95861923.259 8
E36  23592417.734 8  23592420.781 9 123978991.401 8  93789311.213 9
G01  20859044.719 7                  20859049.895 8 109615021.684 7                  85414325.293 8
G02  20512135.680 8  20512136.633 6                 107791996.784 8  83993903.190 6
G03  22206528.000 5                  22206519.328 6 116696058.953 5                  90931980.628 6
G08  21725452.617 6                  21725461.227 7 114168021.539 6                  88962025.314 7
G14  23750212.992 4                                 124808443.81114                
G32  21777044.328 8                  21777051.887 7 114439139.809 8                  89173490.007 7
R01  21892717.828 5                 117029131.060 5
R02  19273439.844 8  19273443.953 7 102846771.592 8  79992058.554 7
R03  20902653.961 7  20902659.676 7 111893549.335 7  87028780.918 7
R17  19266928.070 8  19266932.121 7 103101217.834 8  80189898.754 7
R18  19769555.266 8  19769558.492 8 105531222.931 8  82080142.633 8
> 2025 06 15 11 54 30.0000000  0 19
C12  23611438.078 6  23611435.082 7 122950961.249 6  95073477.925 7
C19  22156639.641 7                 115375441.023 7
C22  22480054.031 7                 117059549.364 7
E04  26392317.484 5                 138692596.30015
E06  24973331.969 7  24973333.918 8 131235738.747 7  99278997.735 8
E09  24621963.352 8  24621964.574 8 129389292.498 8  97882165.068 8
E30  26949031.781 5  26949034.016 7 141618046.889 5 107133190.044 7
E34  24110905.867 8  24110908.207 8 126703665.887 8  95850511.509 8
E36  23591889.039 8  23591891.945 9 123976212.183 8  93787208.745 9
G01  20855803.383 7                  20855808.617 8 109597988.528 7                  85401052.708 8
G02  20510700.922 7  20510701.629 6                 107784454.516 7  83988026.106 6
G03  22202181.094 4                  22202168.477 6 116673195.504 4                  90914164.971 6
G08  21726817.852 6                  21726826.125 7 114175194.339 6                  88967614.550 7
G32  21776286.227 8                  21776292.977 7 114435151.949 8                  89170382.599 7
R01  21894886.742 6                 117040716.969 6
R02  19272446.922 8  19272451.176 7 102841474.427 8  79987938.545 7
R03  20897885.094 8  20897891.344 7 111868022.631 8  87008926.870 7
R17  19266726.734 8  19266730.441 7 103100138.235 8  80189059.053 7
R18  19766042.766 8  19766047.461 8 105512481.157 8  82065565.695 8
> 2025 06 15 11 54 35.0000000  0 19
C12  23607585.555 6  23607582.680 7 122930901.547 6  95057966.491 7
C19  22156116.219 7                 115372713.239 7
C22  22476407.078 7                 117040559.507 7
E04  26392685.609 5  26392688.258 6 138694551.750 5 104921496.18916
E06  24972495.688 7  24972498.840 8 131231350.125 7  99275677.767 8
E09  24619817.625 8  24619818.809 8 129378016.308 8  97873634.701 8
E30  26949339.148 5  26949342.621 6 141619668.309 5 107134416.693 6
E34  24108036.320 8  24108038.313 8 126688584.506 8  95839102.554 8
E36  23591361.617 8  23591364.121 9 123973438.334 8  93785110.346 9
G01  20852564.023 7                  20852568.707 8 109580962.884 7                  85387785.950 8
G02  20509266.719 8  20509268.164 7                 107776921.256 8  83982156.033 7
G03  22197828.773 4                  22197818.707 6 116650338.458 4                  90896354.281 6
G08  21728184.414 6                  21728192.891 7 114182376.297 6                  88973210.854 7
G32  21775530.227 8                  21775537.121 7 114431178.919 8                  89167286.732 7
R01  21897056.125 5                 117052310.781 5
R02  19271457.984 8  19271462.480 7 102836197.865 8  79983834.537 7
R03  20893118.719 7  20893125.234 7 111842507.542 7  86989081.815 7
R17  19266527.422 8  19266531.512 7 103099073.987 8  80188231.313 7
R18  19762533.836 8  19762538.863 8 105493750.361 8  82050997.313 8
> 2025 06 15 11 54 40.0000000  0 19
C12  23903529.344 6  23903525.172 7 124471951.191 6  96249603.850 7
C19  22455388.219 7                 116931097.830 7
C22  22772556.172 7                 118582682.827 7
E04  26692853.266 5  26692854.676 6 140271937.628 5 106114778.343 6
E06  25271455.922 7  25271458.809 8 132802395.836 7 100464163.671 8
E09  24917467.273 8  24917468.527 8 130942175.966 8  99056911.329 8
E30  27249442.703 5  27249445.684 6 143196720.121 5 108327446.126 6
E34  24404960.594 8  24404962.559 8 128248932.127 8  97019495.390 8
E36  23890627.492 8  23890630.375 9 125546092.655 8  94974813.128 9
G01  21149118.094 7                  21149123.750 8 111139370.395 7                  86602129.474 8
G02  20807628.531 8  20807629.590 7                 109344820.839 8  85203895.960 7
G03  22493277.055 4                                                                
G08  22029345.844 7                  22029353.848 7 115764988.127 7                  90206414.886 7
G32  22074570.430 8                  22074577.203 7 116002643.779 8                  90391804.832 7
R01  22199018.289 6                 118666475.053 6
R02  19570266.227 8  19570270.504 7 104430695.031 8  81223999.002 7
R03  21188149.234 8  21188155.250 7 113421824.065 8  88217439.082 7
R17  19566123.664 8  19566128.590 7 104702277.602 8  81435167.468 7
R18  20058820.367 8  20058825.395 8 107075349.093 8  83281129.685 8
> 2025 06 15 11 54 45.0000000  0 18
C12  23899680.172 7  23899675.898 7 124451905.663 7  96234103.397 7
C19  22454869.875 7                 116928397.113 7
C22  22768913.625 7                 118563715.119 7
E04  26693230.867 5  26693230.656 6 140273914.288 5 106116273.613 6
E06  25270624.547 7  25270628.633 8 132798033.594 7 100460863.663 8
E09  24915326.352 8  24915327.781 8 130930926.414 8  99048401.120 8
E30  27249755.813 5  27249758.070 6 143198362.361 5 108328688.442 6
E34  24402092.945 8  24402094.832 8 128233862.111 8  97008095.021 8
E36  23890102.539 8  23890105.316 9 125543333.489 8  94972725.832 9
G01  21145882.500 7                  21145887.676 8 111122363.726 7                  86588877.533 8
G02  20806199.070 8  20806199.988 7                 109337309.616 8  85198043.052 7
G08  22030715.938 6                  22030724.656 6 115772192.149 6                  90212028.399 6
G32  22073820.547 8                  22073827.336 7 115998704.382 8                  90388735.188 7
R01  22201192.305 6                 118678088.804 6
R02  19569286.172 8  19569289.512 7 104425463.428 8  81219929.990 7
R03  21183387.344 7  21183392.922 7 113396336.586 7  88197615.513 7
R17  19565932.328 8  19565936.309 7 104701248.204 8  81434366.809 7
R18  20055316.398 8  20055321.363 8 107056644.355 8  83266581.542 8
> 2025 06 15 11 54 50.0000000  0 18
C12  23895831.273 6  23895827.277 7 124431866.646 6  96218607.951 7
C19  22454353.719 7                 116925709.223 7
C22  22765272.398 7                 118544757.856 7
E04  26693609.180 5  26693608.688 6 140275900.678 5 106117776.311 6
E06  25269797.547 7  25269801.020 8 132793683.840 7 100457573.104 8
E09  24913188.117 8  24913189.508 8 130919689.530 8  99039900.496 8
E30  27250069.766 5  27250072.426 6 143200014.273 5 108329938.119 6
E34  24399226.375 8  24399228.012 8 128218797.140 8  96996698.469 8
E36  23889578.828 8  23889581.559 9 125540581.014 8  94970643.600 9
G01  21142647.797 7                  21142652.719 8 111105365.898 7                  86575632.492 8
G02  20804771.516 8  20804772.953 6                 109329808.741 8  85192198.228 6
G08  22032090.906 7                  22032097.449 6 115779406.532 7                  90217649.986 6
G32  22073073.945 8                  22073081.254 7 115994781.135 8                  90385678.114 7
R01  22203364.789 6                 118689711.774 6
R02  19568310.102 8  19568313.832 7 104420253.769 8  81215878.028 7
R03  21178628.609 8  21178633.734 7 113370862.228 8  88177802.135 7
R17  19565743.320 8  19565746.680 7 104700235.549 8  81433579.159 7
R18  20051815.016 8  20051819.895 8 107037952.046 8  83252043.065 8
> 2025 06 15 11 54 55.0000000  0 19
C12  23891984.414 7  23891979.957 7 124411834.020 7  96203117.468 7
C19  22453839.961 7                 116923034.148 7
C22  22761633.969 7                 118525810.943 7
E04  26693986.672 5  26693988.410 6 140277896.85415 106119286.42516
E06  25268972.117 7  25268975.656 8 132789346.529 7 100454291.974 8
E09  24911051.906 8  24911053.582 8 130908465.212 8  99031409.370 8
E30  27250386.336 5  27250388.762 7 143201675.878 5 108331195.098 7
E34  24396360.516 8  24396362.223 8 128203737.104 8  96985305.646 8
E36  23889056.406 8  23889059.109 9 125537835.150 8  94968566.369 9
G01  21139415.078 7                  21139419.805 8 111088376.872 7                  86562394.298 8
G02  20803346.406 8  20803348.145 7                 109322318.156 8  85186361.412 7
G08  22033465.266 7                  22033472.234 6 115786631.219 7                  90223279.581 6
G10  23636975.125 5                                 124213232.34315                
G32  22072330.547 8                  22072337.434 7 115990873.943 8                  90382633.541 7
R01  22205543.242 6                 118701344.036 6
R02  19567337.852 8  19567341.305 7 104415065.661 8  81211842.844 7
R03  21173871.805 8  21173877.402 7 113345400.938 8  88157998.921 7
R17  19565556.398 8  19565560.445 7 104699239.499 8  81432804.448 7
R18  20048315.539 8  20048320.684 8 107019272.022 8  83237514.169 8
> 2025 06 15 11 55  0.0000000  0 19
C12  23888138.156 6  23888134.258 7 124391808.876 6  96187632.736 7
C19  22453329.289 7                 116920372.888 7
C22  22757997.414 7                 118506875.443 7
E04  26694369.680 4  26694370.441 6 140279903.99614 106120804.88216
E06  25268149.359 7  25268152.676 8 132785022.726 7 100451021.062 8
E09  24908918.250 8  24908920.277 8 130897254.562 8  99022928.606 8
E30  27250703.203 4  27250706.855 7 143203348.17514 108332460.19717
E34  24393496.258 8  24393497.441 8 128188683.107 8  96973917.385 8
E36  23888535.492 8  23888538.074 9 125535096.948 8  94966494.933 9
G01  21136184.305 7                  21136188.938 8 111071397.709 7                  86549163.793 8
G02  20801923.430 8  20801924.570 7                 109314838.941 8  85180533.455 7
G08  22034841.789 7                  22034849.438 7 115793867.228 7                  90228918.010 7
G10  23638423.945 4                                                                
G32  22071590.359 8                  22071597.012 7 115986983.917 8                  90379602.372 7
R01  22207719.508 6                 118712986.574 6
R02  19566369.516 8  19566373.410 7 104409900.536 8  81207825.527 7
R03  21169118.539 8  21169123.980 7 113319953.496 8  88138206.517 7
R17  19565374.016 8  19565377.645 7 104698261.216 8  81432043.554 7
R18  20044819.297 8  20044823.371 8 107000605.410 8  83222995.703 8
> 2025 06 15 11 55  5.0000000  0 19
C12  23884293.383 6  23884290.090 7 124371790.410 6  96172153.189 7
C19  22452820.984 8                 116917724.636 8
C22  22754363.578 7                 118487950.564 7
E04  26694752.258 5  26694754.453 6 140281921.17915 106122330.79516
E06  25267330.188 7  25267332.227 8 132780711.622 7 100447759.755 8
E09  24906787.508 8  24906789.551 8 130886056.784 8  99014457.561 8
E30  27251024.219 5  27251026.891 7 143205030.216 5 108333732.628 7
E34  24390631.547 8  24390633.793 8 128173634.273 8  96962533.037 8
E36  23888016.328 8  23888018.309 9 125532365.628 8  94964428.703 9
G01  21132954.898 8                  21132959.160 8 111054427.578 8                  86535940.300 8
G02  20800501.977 8  20800502.930 6                 109307370.261 8  85174713.702 6
G08  22036219.898 7                  22036228.074 6 115801113.711 7                  90234564.604 6
G10  23639875.242 5                                                                
G32  22070853.266 8                  22070859.566 7 115983110.181 8                  90376583.892 7
R01  22209898.961 5                 118724638.460 5
R02  19565405.969 8  19565409.992 7 104404757.397 8  81203825.313 7
R03  21164366.914 8  21164372.715 7 113294519.356 8  88118424.462 7
R17  19565194.852 8  19565198.516 7 104697299.933 8  81431295.898 7
R18  20041323.570 8  20041328.543 7 106981951.383 8  83208487.021 7
> 2025 06 15 11 55 10.0000000  0 20
C12  23880452.094 7  23880447.445 7 124351780.160 7  96156680.018 7
C19  22452315.391 8                 116915090.968 8
C22  22750731.109 7                 118469037.866 7
E04  26695139.414 5  26695140.781 6 140283949.985 5 106123865.515 6
E06  25266511.703 7  25266514.531 8 132776414.786 7 100444509.230 8
E09  24904659.531 8  24904661.387 8 130874873.426 8  99005997.428 8
E30  27251345.164 5  27251349.223 7 143206723.821 5 108335013.851 7
E34  24387769.055 8  24387771.387 8 128158592.242 8  96951153.854 8
E36  23887497.969 8  23887500.145 8 125529642.729 8  94962368.845 8
G01  21129727.313 7                  21129731.984 8 111037468.048 7                  86522725.068 8
G02  20799083.281 8  20799084.008 7                 109299913.710 8  85168903.381 7
G03  22467205.586 5                                 118066014.35815                
G08  22037601.688 7                  22037609.207 7 115808372.271 7                  90240220.630 7
G10  23641329.461 5                  23641334.852 4 124236100.05215                
G32  22070119.281 8                  22070126.039 7 115979254.360 8                  90373579.342 7
R01  22212081.242 6                 118736301.360 6
R02  19564446.438 8  19564450.266 7 104399637.958 8  81199843.521 7
R03  21159617.867 8  21159624.277 7 113269100.406 8  88098654.164 7
R17  19565018.391 8  19565022.910 7 104696357.089 8  81430562.592 7
R18  20037832.406 8  20037836.379 7 106963311.541 8  83193989.365 7
> 2025 06 15 11 55 15.0000000  0 20
C12  23876609.750 7  23876606.098 7 124331776.871 7  96141212.225 7
C19  22451811.938 8                 116912470.601 8
C22  22747102.117 7                 118450136.113 7
E04  26695527.539 5  26695528.805 6 140285989.128 5 106125408.099 6
E06  25265696.297 7  25265699.273 8 132772130.893 7 100441268.518 8
E09  24902533.398 8  24902535.672 8 130863703.244 8  98997547.246 8
E30  27251668.492 5  27251673.340 6 143208427.581 5 108336302.695 6
E34  24384907.656 8  24384910.078 8 128143555.732 8  96939778.842 8
E36  23886980.711 8  23886983.348 8 125526927.011 8  94960314.421 8
G01  21126501.461 7                  21126506.598 8 111020517.898 7                  86509517.139 8
G02  20797666.609 8  20797667.211 7                 109292468.015 8  85163101.523 7
G03  22462865.070 4                  22462873.387 6 118043223.444 4                  91981715.20416
G08  22038985.609 7                  22038992.535 6 115815641.650 7                  90245885.046 6
G10  23642781.203 5                  23642786.863 4 124243732.410 5                  96813260.32614
G32  22069388.547 8                  22069395.039 7 115975415.150 8                  90370587.737 7
R01  22214268.148 6                 118747973.982 6
R02  19563491.156 8  19563495.367 7 104394540.630 8  81195878.924 7
R03  21154871.398 7  21154878.551 7 113243695.025 7  88078894.438 7
R17  19564845.273 8  19564849.691 7 104695431.523 8  81429842.696 7
R18  20034342.656 8  20034347.070 7 106944684.633 8  83179501.774 7
> 2025 06 15 11 55 20.0000000  0 20
C12  23872769.320 7  23872765.977 7 124311781.183 7  96125750.288 7
C19  22451311.344 8                 116909864.124 8
C22  22743474.219 7                 118431245.874 7
E04  26695915.859 4                                
E06  25264884.703 7  25264886.484 8 132767860.613 7 100438038.074 8
E09  24900410.813 7  24900412.703 8 130852546.771 7  98989107.445 8
E30  27251993.766 5  27251999.469 6 143210141.99615 108337599.65316
E34  24382047.742 8  24382049.902 8 128128525.324 8  96928408.428 8
E36  23886465.289 8  23886468.039 8 125524219.034 8  94958265.857 8
G01  21123277.961 7                  21123282.961 8 111003577.680 7                  86496316.974 8
G02  20796251.281 8  20796252.680 6                 109285033.756 8  85157308.600 6
G03  22458526.867 5                  22458537.703 6 118020441.232 5                  91963962.854 6
G08  22040370.242 7                  22040378.496 6 115822922.361 7                  90251558.344 6
G10  23644233.539 5                  23644239.762 4 124251369.88415                  96819211.54814
G32  22068661.148 8                  22068667.852 7 115971593.129 8                  90367609.526 7
R01  22216451.539 6                 118759656.788 6
R02  19562540.305 8  19562543.617 7 104389466.168 8  81191932.118 7
R03  21150129.492 7  21150135.164 7 113218304.077 7  88059145.935 7
R17  19564676.063 8  19564680.168 7 104694523.757 8  81429136.645 7
R18  20030855.680 8  20030859.730 7 106926071.307 8  83165024.727 7
> 2025 06 15 11 55 25.0000000  0 19
C12  23868930.883 6  23868926.789 7 124291791.686 6  96110293.155 7
C19  22450812.695 8                 116907270.091 8
C22  22739848.609 7                 118412365.750 7
E06  25264074.063 7  25264076.199 8 132763602.483 7 100434816.802 8
E09  24898290.148 7  24898292.086 8 130841402.618 7  98980676.979 8
E30  27252324.141 5  27252327.656 6 143211865.761 5 108338903.660 6
E34  24379188.367 8  24379190.668 8 128113499.583 8  96917041.567 8
E36  23885951.063 8  23885953.949 9 125521517.376 8  94956222.073 9
G01  21120055.742 7                  21120060.793 8 110986646.001 7                  86483123.446 8
G02  20794838.453 8  20794840.012 7                 109277609.519 8  85151523.469 7
G03  22454196.148 5                  22454204.406 6 117997666.466 5                  91946216.304 6
G08  22041757.195 7                  22041765.441 7 115830212.989 7                  90257239.328 7
G10  23645685.984 5                  23645692.320 4 124259010.956 5                  96825165.758 4
G32  22067936.852 8                  22067943.379 7 115967786.871 8                  90364643.580 7
R01  22218639.336 6                 118771348.474 6
R02  19561593.242 8  19561597.223 7 104384413.352 8  81188002.159 7
R03  21145389.477 8  21145394.512 7 113192925.903 8  88039407.367 7
R17  19564509.242 8  19564513.008 7 104693632.361 8  81428443.335 7
R18  20027371.258 8  20027375.191 7 106907470.044 8  83150557.082 7
> 2025 06 15 11 55 30.0000000  0 19
C12  23865093.094 6  23865089.008 7 124271809.512 6  96094841.664 7
C19  22450317.625 8                 116904689.664 8
C22  22736225.492 7                 118393496.889 7
E06  25263266.281 7  25263268.418 8 132759357.613 7 100431605.584 8
E09  24896171.977 7  24896174.016 8 130830271.979 7  98972256.731 8
E30  27252653.188 5  27252657.727 6 143213600.01715 108340215.57216
E34  24376330.211 8  24376332.496 8 128098479.695 8  96905679.121 8
E36  23885438.500 8  23885441.266 8 125518823.222 8  94954183.967 8
G01  21116836.570 7                  21116840.633 8 110969724.021 7                  86469937.494 8
G02  20793427.961 8  20793429.254 7                 109270196.419 8  85145747.033 7
G03  22449864.133 5                  22449871.793 6 117974900.334 5                  91928476.514 6
G08  22043147.094 7                  22043155.059 7 115837514.718 7                  90262928.971 7
G10  23647140.367 5                                                                
G32  22067216.398 8                  22067222.297 7 115963997.547 8                  90361690.851 7
R01  22220829.102 6                 118783050.056 6
R02  19560650.984 8  19560654.246 7 104379382.969 8  81184089.658 7
R03  21140650.711 8  21140655.949 7 113167561.679 8  88019679.665 7
R17  19564345.891 8  19564350.656 7 104692758.625 8  81427763.756 7
R18  20023889.500 8  20023893.434 7 106888882.045 8  83136099.759 7
> 2025 06 15 11 55 35.0000000  0 19
C12  23861257.516 6  23861253.641 7 124251836.473 6  96079397.262 7
C19  22449825.039 8                 116902124.671 8
C22  22732604.547 7                 118374641.118 7
E06  25262460.570 7  25262463.531 8 132755127.888 7 100428405.821 8
E09  24894057.188 8  24894058.816 8 130819156.658 8  98963848.053 8
E30  27252986.680 5  27252989.965 6 143215346.580 5 108341536.834 6
E34  24373473.266 8  24373475.758 8 128083467.507 8  96894322.509 8
E36  23884927.852 8  23884930.359 9 125516138.406 8  94952152.917 9
G01  21113618.078 7                  21113622.730 8 110952813.575 7                  86456760.529 8
G02  20792019.609 8  20792021.262 7                 109262796.336 8  85139980.730 7
G03  22445532.234 5                  22445541.234 6 117952144.409 5                  91910744.621 6
G08  22044538.805 7                  22044547.379 7 115844829.368 7                  90268628.685 7
G10  23648597.266 5                                                                
G32  22066498.656 8                  22066504.645 7 115960226.966 8                  90358752.744 7
R01  22223019.273 5                 118794763.493 5
R02  19559712.172 8  19559716.617 7 104374377.074 8  81180196.177 7
R03  21135914.781 8  21135920.801 7 113142213.511 8  87999964.479 7
R17  19564186.063 8  19564190.340 7 104691904.221 8  81427099.213 7
R18  20020409.375 8  20020413.949 7 106870309.303 8  83121654.302 7
> 2025 06 15 11 55 40.0000000  0 19
C12  23857423.078 6  23857419.277 7 124231871.347 6  96063958.955 7
C19  22449335.406 8                 116899573.775 8
C22  22728985.789 7                 118355797.143 7
E06  25261658.070 7  25261661.211 8 132750911.980 7 100425216.518 8
E09  24891944.156 8  24891946.387 8 130808055.327 8  98955449.973 8
E30  27253322.547 5  27253324.410 6 143217104.022 5 108342866.299 6
E34  24370617.914 8  24370620.238 8 128068461.686 8  96882970.698 8
E36  23884417.938 8  23884420.914 8 125513461.588 8  94950127.915 8
G01  21110401.734 7                  21110407.246 8 110935913.374 7                  86443591.529 8
G02  20790613.914 8  20790615.375 7                 109255407.929 8  85134223.539 7
G03  22441206.961 6                  22441212.344 6 117929397.678 6                  91893019.870 6
G08  22045932.602 7                  22045941.613 7 115852155.575 7                  90274337.415 7
G10  23650054.891 4                                                                
G32  22065784.266 8                  22065790.594 7 115956473.811 8                  90355828.209 7
R01  22225212.352 5                 118806487.349 5
R02  19558778.609 8  19558782.734 7 104369394.196 8  81176320.605 7
R03  21131182.359 8  21131187.945 7 113116879.781 8  87980260.469 7
R17  19564029.344 8  19564033.398 7 104691067.912 8  81426448.728 7
R18  20016932.602 8  20016937.297 7 106851750.323 8  83107219.544 7
> 2025 06 15 11 55 45.0000000  0 19
C12  23853590.500 6  23853586.629 7 124211912.743 6  96048525.714 7
C19  22448847.711 7                 116897035.683 7
C22  22725368.703 7                 118336963.664 7
E06  25260858.578 7  25260861.336 8 132746708.518 7 100422036.629 8
E09  24889834.203 8  24889836.355 8 130796966.689 8  98947061.489 8
E30  27253658.898 5  27253660.746 6 143218871.127 5 108344203.089 6
E34  24367763.484 8  24367765.660 8 128053460.946 8  96871622.729 8
E36  23883910.242 8  23883912.758 9 125510791.475 8  94948107.991 9
G01  21107187.523 7                  21107192.449 8 110919022.084 7                  86430429.488 8
G02  20789209.930 8  20789211.141 7                 109248029.877 8  85128474.410 7
G03  22436877.492 6                  22436885.070 6 117906658.636 6                  91875301.170 6
G08  22047329.242 7                  22047338.000 7 115859492.018 7                  90280054.104 7
G10  23651510.906 4                                                                
G32  22065073.023 8                  22065079.277 7 115952736.783 8                  90352916.234 7
R01  22227407.258 6                 118818220.228 6
R02  19557848.914 8  19557853.129 7 104364433.288 8  81172462.113 7
R03  21126452.500 8  21126457.867 7 113091559.277 8  87960566.734 7
R17  19563877.000 8  19563881.074 7 104690248.303 8  81425811.235 7
R18  20013458.672 8  20013463.027 7 106833203.941 8  83092794.576 7
> 2025 06 15 11 55 50.0000000  0 18
C12  23849758.672 6  23849755.563 7 124191961.423 6  96033098.091 7
C19  22448362.820 7                 116894511.086 7
C22  22721753.711 7                 118318141.382 7
E06  25260060.344 6  25260063.984 8 132742518.282 6 100418866.734 8
E09  24887726.445 8  24887728.793 8 130785891.461 8  98938683.156 8
E30  27253996.305 5  27253998.941 6 143220648.559 5 108345547.679 6
E34  24364909.984 8  24364912.176 8 128038465.928 8  96860279.103 8
E36  23883403.297 8  23883406.023 9 125508128.738 8  94946093.646 9
G01  21103974.930 7                  21103980.059 8 110902140.413 7                  86417274.949 8
G02  20787807.922 8  20787809.617 7                 109240662.927 8  85122733.923 7
G03  22432553.656 5                  22432559.543 6 117883928.015 5                  91857589.020 6
G08  22048727.406 7                  22048735.492 7 115866839.417 7                  90285779.319 7
G32  22064364.875 8                  22064371.352 7 115949016.570 8                  90350017.373 7
R01  22229603.070 5                 118829962.938 5
R02  19556923.078 8  19556927.613 7 104359494.762 8  81168621.054 7
R03  21121724.758 8  21121730.203 7 113066252.975 8  87940884.055 7
R17  19563727.016 8  19563731.051 7 104689446.239 8  81425187.402 7
R18  20009986.625 8  20009991.047 7 106814670.791 8  83078379.912 7
> 2025 06 15 11 55 55.0000000  0 19
C12  23845928.977 6  23845925.672 7 124172016.712 6  96017675.579 7
C19  22447880.563 8                 116891999.361 8
C22  22718141.141 7                 118299329.677 7
E06  25259265.359 6  25259268.980 8 132738340.611 6 100415706.344 8
E09  24885621.453 8  24885623.641 8 130774829.012 8  98930314.491 8
E30  27254334.711 5  27254339.082 6 143222435.616 5 108346899.614 6
E34  24362056.695 8  24362059.684 8 128023476.085 8  96848939.396 8
E36  23882897.961 8  23882900.598 9 125505472.808 8  94944084.446 9
G01  21100763.883 7                  21100769.336 8 110885267.749 7                  86404127.430 8
G02  20786407.680 8  20786409.652 7                 109233306.430 8  85117001.595 7
G03  22428229.227 5                  22428235.512 6 117861205.296 5                  91839883.047 6
G08  22050127.125 7                  22050135.797 7 115874197.112 7                  90291512.579 7
G10  23654435.422 5                                 124304966.48215                
G32  22063660.063 8                  22063666.461 7 115945312.521 8                  90347131.112 7
R01  22231803.219 5                 118841714.866 5
R02  19556002.258 8  19556006.129 7 104354578.142 8  81164797.019 7
R03  21116999.719 8  21117005.461 7 113040959.872 8  87921211.665 7
R17  19563579.453 8  19563584.000 7 104688660.945 8  81424576.613 7
R18  20006517.664 8  20006521.309 7 106796150.285 8  83063975.069 7
> 2025 06 15 11 56  0.0000000  0 19
C12  23842100.164 6  23842097.094 7 124152078.493 6  96002258.100 7
C19  22447400.109 7                 116889500.245 7
C22  22714530.156 7                 118280528.306 7
E06  25258473.102 6  25258476.344 8 132734175.281 6 100412555.278 8
E09  24883518.570 8  24883520.918 8 130763779.087 8  98921955.300 8
E30  27254678.633 4  27254681.043 6 143224232.22614 108348258.72616
E34  24359205.547 8  24359208.133 8 128008491.136 8  96837603.381 8
E36  23882393.711 8  23882396.434 9 125502823.403 8  94942080.180 9
G01  21097555.172 7                  21097560.184 8 110868403.878 7                  86390986.764 8
G02  20785010.164 8  20785011.926 7                 109225960.186 8  85111277.254 7
G03  22423907.289 5                  22423912.895 6 117838490.177 5                  91822182.992 6
G08  22051529.617 7                  22051538.105 7 115881564.852 7                  90297253.711 7
G10  23655895.969 5                                                                
G32  22062958.227 8                  22062964.574 7 115941624.425 8                  90344257.270 7
R01  22234004.164 6                 118853475.529 6
R02  19555085.313 8  19555089.133 7 104349683.259 8  81160989.887 7
R03  21112277.344 8  21112282.953 7 113015679.997 8  87901549.573 7
R17  19563436.289 8  19563440.215 7 104687892.212 8  81423978.711 7
R18  20003050.047 8  20003054.254 7 106777642.147 8  83049579.851 7
> 2025 06 15 11 56  5.0000000  0 18
C12  23838273.156 6  23838269.633 7 124132146.478 6  95986845.404 7
C19  22446922.523 7                 116887013.545 7
C22  22710921.781 7                 118261737.085 7
E06  25257683.297 6  25257686.000 8 132730022.080 6 100409413.417 8
E09  24881418.227 8  24881420.648 8 130752741.521 8  98913605.451 8
E30  27255021.289 4  27255024.684 6 143226038.05914 108349624.85516
E34  24356354.766 8  24356357.504 8 127993510.900 8  96826270.935 8
E36  23881890.969 8  23881893.461 9 125500180.341 8  94940080.716 9
G01  21094347.672 7                  21094352.535 8 110851548.605 7                  86377852.782 8
G02  20783613.836 8  20783615.859 7                 109218623.999 8  85105560.735 7
G03  22419584.516 5                  22419592.289 6 117815782.500 5                  91804488.726 6
G08  22052933.898 7                  22052941.883 7 115888942.460 7                  90303002.477 7
G32  22062259.305 8                  22062266.137 7 115937952.085 8                  90341395.721 7
R01  22236204.656 5                 118865244.932 5
R02  19554170.836 8  19554175.852 7 104344809.559 8  81157199.223 7
R03  21107557.172 8  21107563.320 7 112990413.167 8  87881897.576 7
R17  19563296.586 8  19563299.645 7 104687139.909 8  81423393.574 7
R18  19999586.000 8  19999588.824 7 106759146.258 8  83035194.177 7
> 2025 06 15 11 56 10.0000000  0 19
C12  23834446.234 6  23834442.961 7 124112220.553 6  95971437.430 7
C19  22446447.672 7                 116884539.117 7
C22  22707314.914 7                 118242955.875 7
E04  26699930.180 5                 140309119.81315
E06  25256895.141 6  25256897.926 8 132725880.775 6 100406280.532 8
E09  24879320.781 8  24879322.633 8 130741716.128 8  98905264.819 8
E30  27255370.070 5  27255370.094 6 143227852.94415 108350997.72816
E34  24353504.836 8  24353507.766 8 127978535.228 8  96814941.934 8
E36  23881389.031 8  23881391.695 9 125497543.442 8  94938085.919 9
G01  21091142.117 7                  21091146.891 8 110834701.743 7                  86364725.350 8
G02  20782219.266 8  20782221.809 7                 109211297.677 8  85099851.914 7
G03  22415264.578 6                  22415272.688 6 117793082.120 6                  91786800.110 6
G08  22054338.945 7                  22054347.313 7 115896329.766 7                  90308758.789 7
G32  22061563.617 8                  22061570.008 7 115934295.309 8                  90338546.280 7
R01  22238408.398 5                 118877022.820 5
R02  19553261.664 8  19553265.957 7 104339957.214 8  81153425.182 7
R03  21102840.320 8  21102845.539 7 112965159.131 8  87862255.556 7
R17  19563158.477 8  19563162.234 7 104686403.834 8  81422821.066 7
R18  19996122.930 8  19996126.441 7 106740662.379 8  83020817.832 7
> 2025 06 15 11 56 15.0000000  0 19
C12  23830619.469 6  23830617.313 7 124092298.169 6  95956032.188 7
C19  22445974.344 7                 116882074.303 7
C22  22703709.406 7                 118224182.076 7
E04  26700341.125 4  26700341.121 7 140311278.805 4 106144540.49717
E06  25256109.523 6  25256111.789 8 132721748.816 6 100403154.746 8
E09  24877224.172 8  24877226.359 8 130730700.302 8  98896931.423 8
E30  27255720.328 4  27255716.563 6 143229674.33414 108352375.61416
E34  24350655.570 8  24350658.387 8 127963561.489 8  96803614.401 8
E36  23880888.016 8  23880890.586 8 125494910.090 8  94936093.800 8
G01  21087938.148 7                  21087942.148 8 110817860.687 7                  86351602.477 8
G02  20780827.414 8  20780829.223 7                 109203978.590 8  85094148.740 7
G03  22410946.219 6                  22410953.914 6 117770386.313 6                  91769115.055 6
G08  22055746.477 7                  22055754.387 7 115903724.064 7                  90314520.563 7
G32  22060870.164 8                  22060876.234 7 115930651.448 8                  90335706.914 7
R01  22240611.523 5                 118888806.472 5
R02  19552356.477 8  19552360.602 7 104335123.313 8  81149665.466 7
R03  21098124.891 8  21098129.473 7 112939915.115 8  87842621.352 7
R17  19563023.266 8  19563026.805 7 104685681.228 8  81422259.033 7
R18  19992662.500 8  19992666.402 7 106722187.901 8  83006448.780 7
> 2025 06 15 11 56 20.0000000  0 18
C12  23826794.633 6  23826792.762 7 124072382.762 6  95940632.327 7
C19  22445504.102 7                 116879622.664 7
C22  22700106.508 7                 118205419.229 7
E04  26700752.625 4  26700753.883 7 140313448.05614 106146181.41317
E06  25255325.281 7  25255327.965 8 132717629.699 7 100400038.675 8
E09  24875130.438 8  24875132.578 8 130719697.588 8  98888607.944 8
E34  24347807.883 8  24347810.125 8 127948593.219 8  96792291.015 8
E36  23880387.898 8  23880390.840 9 125492283.854 8  94934107.068 9
G01  21084734.852 7                  21084738.992 8 110801029.000 7                  86338486.882 8
G02  20779436.461 8  20779438.594 7                 109196670.298 8  85088453.955 7
G03  22406627.484 6                  22406635.840 6 117747698.757 6                  91751436.405 6
G08  22057155.563 7                  22057163.305 7 115911128.944 7                  90320290.598 7
G32  22060179.766 8                  22060186.281 7 115927024.105 8                  90332880.404 7
R01  22242816.195 6                 118900599.539 6
R02  19551454.313 8  19551458.762 7 104330311.470 8  81145922.904 7
R03  21093410.336 8  21093416.699 7 112914684.957 8  87822997.912 7
R17  19562891.516 8  19562895.348 7 104684975.807 8  81421710.376 7
R18  19989203.922 8  19989207.742 7 106703726.494 8  82992089.907 7
> 2025 06 15 11 56 25.0000000  0 17
C12  23822971.094 6  23822970.094 7 124052475.951 6  95925239.123 7
C19  22445035.656 7                 116877185.754 7
C22  22696505.094 7                 118186668.855 7
E06  25254543.664 7  25254546.887 8 132713525.077 7 100396933.538 8
E09  24873039.211 8  24873041.656 8 130708709.551 8  98880295.561 8
E34  24344960.414 8  24344963.125 8 127933632.022 8  96780972.955 8
E36  23879890.445 8  23879892.684 8 125489666.283 8  94932126.883 8
G01  21081533.523 7                  21081538.297 8 110784208.261 7                  86325379.818 8
G02  20778047.820 8  20778050.008 7                 109189374.396 8  85082768.842 7
G03  22402307.805 4                  22402320.016 6 117725020.886 4                  91733765.387 6
G08  22058566.617 7                  22058574.848 7 115918545.956 7                  90326070.071 7
G32  22059493.125 8                  22059499.094 7 115923414.812 8                  90330067.963 7
R01  22245024.055 6                 118912403.542 6
R02  19550557.359 8  19550561.813 7 104325523.514 8  81142198.954 7
R03  21088700.031 8  21088706.113 7 112889470.071 8  87803386.326 7
R17  19562762.547 8  19562766.727 7 104684289.121 8  81421176.308 7
R18  19985747.602 8  19985751.578 7 106685279.742 8  82977742.440 7
> 2025 06 15 11 56 30.0000000  0 18
C12  23819150.695 6  23819149.668 7 124032580.614 6  95909854.792 7
C19  22444570.922 7                 116874766.399 7
C22  22692907.320 7                 118167933.852 7
E06  25253766.117 7  25253769.078 8 132709437.744 7 100393841.501 8
E09  24870951.641 7  24870953.984 8 130697739.129 7  98871996.504 8
E34  24342115.477 8  24342117.980 8 127918680.784 8  96769662.443 8
E36  23879394.477 8  23879396.785 8 125487060.277 8  94930155.468 8
G01  21078335.273 7                  21078340.148 8 110767401.384 7                  86312283.550 8
G02  20776662.727 8  20776664.402 7                 109182093.783 8  85077095.634 7
G03  22397995.563 5                  22398006.691 6 117702355.851 5                  91716104.310 6
G08  22059980.734 7                  22059989.230 7 115925977.988 7                  90331861.260 7
G14  24031541.359 5                                                                
G32  22058809.898 8                  22058816.531 7 115919826.462 8                  90327271.838 7
R01  22247236.617 6                 118924221.472 6
R02  19549664.516 8  19549669.051 7 104320762.153 8  81138495.668 7
R03  21083993.672 8  21083999.102 7 112864273.544 8  87783789.030 7
R17  19562638.891 8  19562642.750 7 104683624.174 8  81420659.123 7
R18  19982294.594 8  19982299.270 7 106666850.531 8  82963408.618 7
> 2025 06 15 11 56 35.0000000  0 18
C12  23815331.617 6  23815330.414 7 124012692.773 6  95894476.262 7
C19  22444109.039 7                 116872360.656 7
C22  22689311.398 7                 118149210.255 7
E06  25252990.766 7  25252993.887 8 132705363.743 7 100390759.556 8
E09  24868866.813 7  24868868.914 8 130686782.284 7  98863707.721 8
E34  24339271.789 8  24339273.945 8 127903735.506 8  96758356.443 8
E36  23878899.969 8  23878902.320 9 125484461.854 8  94928189.766 9
G01  21075138.555 7                  21075143.727 8 110750604.352 7                  86299194.957 8
G02  20775279.133 8  20775281.078 7                 109174824.437 8  85071431.217 7
G03  22393685.547 5                  22393695.566 5 117679699.393 5                  91698449.867 5
G08  22061397.570 7                  22061405.359 7 115933421.041 7                  90337661.061 7
G14  24030840.867 5                                 126282888.70015                
G32  22058130.164 8                  22058137.191 7 115916255.059 8                  90324488.910 7
R01  22249447.898 6                 118936049.227 6
R02  19548776.969 8  19548781.184 7 104316023.308 8  81134809.915 7
R03  21079288.781 8  21079294.754 7 112839091.257 8  87764202.845 7
R17  19562517.102 8  19562521.480 7 104682976.844 8  81420155.638 7
R18  19978844.609 8  19978849.617 7 106648434.840 8  82949085.314 7
> 2025 06 15 11 56 40.0000000  0 18
C12  23811513.461 6  23811512.066 7 123992810.595 6  95879102.135 7
C19  22443649.258 7                 116869966.683 7
C22  22685718.438 7                 118130496.262 7
E06  25252217.516 7  25252220.891 8 132701301.300 7 100387686.339 8
E09  24866784.266 8  24866786.141 8 130675837.196 8  98855427.834 8
E34  24336428.539 8  24336430.719 8 127888794.363 8  96747053.579 8
E36  23878406.648 8  23878408.934 8 125481869.178 8  94926228.422 8
G01  21071944.102 7                  21071949.309 8 110733815.345 7                  86286112.607 8
G02  20773897.445 8  20773899.250 7                 109167564.529 8  85065774.155 7
G03  22389375.648 5                  22389385.230 6 117657049.812 5                  91680800.831 6
G08  22062815.531 7                  22062823.605 7 115940873.254 7                  90343467.958 7
G14  24030146.000 5                                 126279231.026 5                
G32  22057453.484 8                  22057460.590 7 115912698.796 8                  90321717.769 7
R01  22251663.945 6                 118947884.798 6
R02  19547892.555 8  19547896.586 7 104311305.266 8  81131140.329 7
R03  21074586.953 8  21074592.738 7 112813921.352 8  87744626.278 7
R17  19562399.016 8  19562403.438 7 104682345.319 8  81419664.473 7
R18  19975396.961 8  19975401.957 7 106630030.883 8  82934771.136 7
> 2025 06 15 11 56 45.0000000  0 18
C12  23807697.656 6  23807695.297 7 123972935.829 6  95863733.719 7
C19  22443192.445 7                 116867586.150 7
C22  22682126.719 7                 118111793.492 7
E06  25251447.523 7  25251450.332 8 132697251.971 7 100384623.049 8
E09  24864704.000 8  24864705.875 8 130664905.522 8  98847158.101 8
E34  24333586.656 8  24333588.660 8 127873859.010 8  96735755.093 8
E36  23877914.836 8  23877916.941 8 125479283.905 8  94924272.685 8
G01  21068751.094 7                  21068755.629 8 110717036.044 7                  86273037.843 8
G02  20772518.234 8  20772519.559 7                 109160315.774 8  85060125.795 7
G03  22385063.938 4                  22385076.758 6 117634408.762 4                  91663158.464 6
G08  22064236.391 7                  22064243.324 7 115948336.280 7                  90349283.299 7
G14  24029452.078 5                                 126275589.225 5                
G32  22056780.195 8                  22056786.895 7 115909159.278 8                  90318959.701 7
R01  22253879.508 6                 118959730.155 6
R02  19547012.461 8  19547016.766 7 104306609.771 8  81127488.285 7
R03  21069887.102 8  21069893.480 7 112788765.722 8  87725060.819 7
R17  19562284.906 8  19562289.340 7 104681731.153 8  81419186.767 7
R18  19971952.000 8  19971956.949 7 106611640.278 8  82920467.337 7
> 2025 06 15 11 56 50.0000000  0 18
C12  23803882.969 6  23803879.781 7 123953067.833 6  95848370.544 7
C19  22442737.703 7                 116865218.452 7
C22  22678537.273 7                 118093101.443 7
E06  25250679.367 7  25250682.215 8 132693215.225 7 100381569.271 8
E09  24862625.844 7  24862628.086 8 130653986.705 7  98838898.088 8
E34  24330745.141 8  24330747.477 8 127858928.887 8  96724460.555 8
E36  23877424.195 8  23877426.250 8 125476705.453 8  94922322.097 8
G01  21065559.859 7                  21065564.109 8 110700265.842 7                  86259970.148 8
G02  20771140.977 8  20771142.117 7                 109153077.571 8  85054485.623 7
G03  22380760.711 5                  22380769.598 5 117611775.642 5                  91645522.218 5
G08  22065658.117 7                  22065666.078 7 115955809.561 7                  90355106.621 7
G14  24028762.930 5                                 126271962.814 5                
G32  22056110.008 8                  22056116.691 7 115905635.951 8                  90316214.247 7
R01  22256097.195 6                 118971584.280 6
R02  19546136.547 8  19546140.809 7 104301935.889 8  81123853.054 7
R03  21065189.711 8  21065197.531 7 112763623.667 8  87705505.912 7
R17  19562173.016 8  19562177.586 7 104681133.867 8  81418722.196 7
R18  19968508.789 8  19968514.617 7 106593262.511 8  82906173.522 7
> 2025 06 15 11 56 55.0000000  0 19
C12  23800067.531 6  23800065.445 7 123933206.538 6  95833012.533 7
C19  22442285.227 7                 116862863.485 7
C22  22674950.672 7                 118074419.968 7
E06  25249913.656 7  25249916.473 8 132689190.927 7 100378524.916 8
E09  24860550.633 8  24860552.738 8 130643080.613 8  98830647.708 8
E34  24327904.797 8  24327907.324 8 127844003.896 8  96713169.880 8
E36  23876934.602 8  23876936.820 8 125474133.714 8  94920376.597 8
G01  21062370.750 8                  21062374.762 8 110683504.654 8                  86246909.510 8
G02  20769765.203 8  20769766.609 7                 109145849.828 8  85048853.602 7
G03  22376456.836 5                  22376464.473 5 117589150.333 5                  91627892.086 5
G08  22067081.500 7                  22067090.250 7 115963292.943 7                  90360937.833 7
G10  23672040.188 5                                 124397171.40915                
G14  24028077.859 4                  24028088.559 4 126268351.58014                  98391007.73614
G32  22055442.508 8                  22055449.238 7 115902128.694 8                  90313481.312 7
R01  22258315.938 6                 118983447.275 6
R02  19545264.797 8  19545269.547 7 104297283.695 8  81120234.653 7
R03  21060495.555 8  21060502.395 7 112738495.038 8  87685961.419 7
R17  19562064.500 8  19562069.309 7 104680553.314 8  81418270.648 7
R18  19965068.523 8  19965074.027 8 106574897.470 8  82891889.602 8
> 2025 06 15 11 57  0.0000000  0 19
C12  23796255.625 6  23796252.609 7 123913351.979 6  95817659.722 7
C19  22441835.266 7                 116860521.259 7
C22  22671365.367 7                 118055749.105 7
E06  25249150.188 7  25249153.082 8 132685179.118 7 100375489.993 8
E09  24858477.719 7  24858479.797 8 130632187.273 7  98822406.973 8
E34  24325065.797 8  24325068.164 8 127829084.044 8  96701883.099 8
E36  23876446.344 8  23876448.727 8 125471568.715 8  94918436.186 8
G01  21059183.406 8                  21059186.922 8 110666752.533 8                  86233855.911 8
G02  20768391.773 8  20768393.051 7                 109138632.485 8  85043229.702 7
G03  22372151.703 5                  22372158.531 5 117566532.927 5                  91610268.122 5
G08  22068506.844 7                  22068516.332 7 115970786.448 7                  90366776.927 7
G10  23673501.375 5                                                                
G14  24027390.695 4                                 126264755.680 4                
G32  22054778.414 8                  22054784.359 7 115898637.513 8                  90310760.904 7
R01  22260535.109 5                 118995319.273 5
R02  19544397.336 8  19544401.660 7 104292653.303 8  81116633.229 7
R03  21055803.852 8  21055811.039 7 112713379.828 8  87666427.388 7
R17  19561959.742 8  19561963.531 7 104679989.483 8  81417832.117 7
R18  19961631.539 8  19961635.859 7 106556545.169 8  82877615.591 7
> 2025 06 15 11 57  5.0000000  0 19
C12  23792444.516 7  23792440.438 7 123893503.682 7  95802311.765 7
C19  22441387.828 7                 116858191.306 7
C22  22667781.000 7                 118037088.417 7
E06  25248388.883 7  25248391.934 8 132681179.320 7 100372464.175 8
E09  24856407.313 7  24856409.172 8 130621306.230 7  98814175.537 8
E34  24322227.563 8  24322229.918 8 127814168.859 8  96690599.853 8
E36  23875959.695 8  23875961.805 8 125469009.984 8  94916500.521 8
G01  21055996.727 8                  21056000.840 8 110650009.005 8                  86220808.998 8
G02  20767019.945 8  20767021.469 6                 109131425.127 8  85037613.588 6
G03  22367849.344 5                  22367852.418 4 117543922.831 5                  91592650.061 4
G08  22069935.609 7                  22069943.953 7 115978289.604 7                  90372623.524 7
G10  23674973.609 4                                                                
G14  24026709.227 4                                                                
G32  22054118.109 8                  22054123.480 7 115895161.952 8                  90308052.660 7
R01  22262756.586 5                 119007199.677 5
R02  19543533.516 8  19543537.816 7 104288044.009 8  81113048.230 7
R03  21051115.484 7  21051121.723 7 112688277.657 7  87646903.489 7
R17  19561857.289 8  19561861.016 7 104679441.996 8  81417406.289 7
R18  19958195.227 8  19958199.586 7 106538205.130 8  82863351.122 7
> 2025 06 15 11 57 10.0000000  0 18
C12  23788633.570 6  23788629.855 7 123873661.483 6  95786968.514 7
C19  22440942.547 7                 116855873.478 7
C22  22664199.406 7                 118018437.689 7
E06  25247630.359 7  25247632.984 8 132677191.344 7 100369447.287 8
E09  24854338.297 7  24854340.855 8 130610437.313 7  98805953.275 8
E34  24319390.266 8  24319392.563 8 127799258.179 8  96679320.015 8
E36  23875474.016 8  23875476.074 9 125466457.352 8  94914569.475 9
G01  21052812.242 7                  21052816.266 8 110633273.887 7                  86207768.662 8
G02  20765650.820 8  20765652.211 7                 109124227.589 8  85032005.118 7
G03  22363546.891 5                  22363550.699 4 117521320.027 5                  91575037.562 4
G08  22071365.211 7                  22071373.449 7 115985802.205 7                  90378477.494 7
G14  24026028.000 4                                 126257607.78314                
G32  22053459.250 8                  22053464.668 7 115891701.818 8                  90305356.464 7
R01  22264979.922 5                 119019088.076 5
R02  19542674.828 8  19542678.000 7 104283455.817 8  81109479.646 7
R03  21046427.836 8  21046434.816 7 112663188.397 8  87627389.648 7
R17  19561757.836 8  19561762.277 7 104678910.699 8  81416993.073 7
R18  19954761.578 8  19954766.625 7 106519877.236 8  82849096.095 7
> 2025 06 15 11 57 15.0000000  0 18
C12  23784824.586 6  23784821.004 7 123853826.638 6  95771630.942 7
C19  22440500.070 7                 116853568.936 7
C22  22660619.672 7                 117999798.160 7
E06  25246873.844 7  25246876.555 8 132673216.467 7 100366440.322 8
E09  24852272.641 7  24852275.055 8 130599581.756 7  98797741.125 8
E34  24316553.898 8  24316556.234 9 127784353.234 8  96668044.524 9
E36  23874989.539 8  23874991.742 8 125463912.037 8  94912643.965 8
G01  21049628.992 7                  21049633.207 8 110616548.439 7                  86194735.858 8
G02  20764282.961 8  20764284.746 7                 109117041.114 8  85026405.262 7
G03  22359248.555 5                  22359251.625 4 117498725.734 5                  91557431.688 4
G08  22072796.641 7                  22072805.070 6 115993325.486 7                  90384339.779 6
G14  24025352.586 4                                 126254056.926 4                
G32  22052803.734 8                  22052809.441 7 115888258.345 8                  90302673.258 7
R01  22267205.523 5                 119030985.934 5
R02  19541818.281 8  19541822.445 7 104278889.828 8  81105928.333 7
R03  21041743.977 7  21041750.406 7 112638113.354 7  87607886.850 7
R17  19561662.086 8  19561666.094 7 104678396.683 8  81416593.272 7
R18  19951331.117 8  19951335.879 7 106501562.748 8  82834851.499 7
> 2025 06 15 11 57 20.0000000  0 18
C12  23781017.500 6  23781013.242 7 123833998.826 6  95756298.822 7
C19  22440060.023 7                 116851277.458 7
C22  22657042.320 7                 117981169.618 7
E06  25246119.984 7  25246122.574 8 132669254.369 7 100363443.017 8
E09  24850209.375 7  24850211.777 8 130588739.300 7  98789538.891 8
E34  24313718.297 8  24313720.996 8 127769453.771 8  96656773.191 8
E36  23874506.516 8  23874508.738 8 125461373.807 8  94910723.812 8
G01  21046448.461 7                  21046452.363 8 110599832.389 7                  86181710.357 8
G02  20762917.375 8  20762919.414 6                 109109865.436 8  85020813.824 6
G03  22354950.234 5                  22354955.359 5 117476139.692 5                  91539832.146 5
G08  22074230.773 7                  22074238.891 7 116000859.177 7                  90390210.145 7
G14  24024681.633 4                  24024694.102 4 126250521.644 4                  98377102.34114
G32  22052151.117 8                  22052157.727 7 115884831.282 8                  90300002.839 7
R01  22269435.203 6                 119042893.090 6
R02  19540966.492 8  19540971.391 7 104274345.950 8  81102394.214 7
R03  21037063.242 7  21037068.898 7 112613052.085 7  87588394.749 7
R17  19561568.203 8  19561573.367 7 104677899.860 8  81416206.850 7
R18  19947902.313 8  19947907.402 7 106483261.438 8  82820617.162 7
> 2025 06 15 11 57 25.0000000  0 18
C12  23777211.203 6  23777206.910 7 123814178.074 6  95740972.162 7
C19  22439621.477 7                 116848998.996 7
C22  22653466.938 7                 117962551.981 7
E06  25245368.250 7  25245371.043 8 132665305.049 7 100360455.360 8
E09  24848148.750 7  24848151.051 8 130577909.892 7  98781346.518 8
E34  24310884.359 8  24310886.762 8 127754559.753 8  96645505.971 8
E36  23874024.844 8  23874027.059 8 125458842.607 8  94908808.976 8
G01  21043268.656 7                  21043273.340 8 110583125.709 7                  86168692.164 8
G02  20761554.094 8  20761555.805 7                 109102700.530 8  85015230.783 7
G03  22350653.883 6                  22350659.176 5 117453561.861 6                  91522239.007 5
G08  22075666.867 7                  22075674.750 7 116008403.192 7                  90396088.579 7
G14  24024012.797 4                  24024024.410 4 126247001.824 4                  98374359.588 4
G32  22051501.852 8                  22051508.590 7 115881420.570 8                  90297345.154 7
R01  22271663.617 6                 119054809.357 6
R02  19540119.453 8  19540123.723 7 104269824.040 8  81098877.174 7
R03  21032384.805 8  21032389.816 7 112588004.794 8  87568913.520 7
R17  19561478.922 8  19561483.266 7 104677420.019 8  81415833.623 7
R18  19944476.602 8  19944481.484 7 106464973.213 8  82806392.981 7
> 2025 06 15 11 57 30.0000000  0 19
C12  23773405.578 6  23773401.820 7 123794363.323 6  95725650.148 7
C19  22439186.430 7                 116846732.437 7
C22  22649893.453 7                 117943944.182 7
E05  24692725.656 5  24692719.602 5 129761024.16515  98163440.96415
E06  25244619.148 7  25244621.758 8 132661367.383 7 100357476.530 8
E09  24846090.203 7  24846092.605 8 130567092.501 7  98773163.234 8
E34  24308050.500 8  24308053.328 8 127739670.120 8  96634242.066 8
E36  23873544.234 8  23873546.539 9 125456317.358 8  94906898.638 9
G01  21040091.406 7                  21040095.668 8 110566427.330 7                  86155680.425 8
G02  20760192.992 8  20760193.930 7                 109095545.289 8  85009655.260 7
G03  22346360.188 6                  22346364.352 5 117430991.052 6                  91504651.451 5
G08  22077103.680 7                  22077112.043 7 116015956.486 7                  90401974.263 7
G14  24023346.805 4                  24023357.230 4 126243496.453 4                  98371628.164 4
G32  22050856.156 8                  22050862.664 7 115878025.134 8                  90294699.376 7
R01  22273895.609 6                 119066733.421 6
R02  19539275.461 8  19539280.016 7 104265323.171 8  81095376.507 7
R03  21027707.297 7  21027713.680 7 112562970.356 7  87549442.320 7
R17  19561392.398 8  19561396.859 7 104676956.125 8  81415472.821 7
R18  19941052.891 8  19941057.125 7 106446697.018 8  82792178.165 7
> 2025 06 15 11 57 35.0000000  0 19
C12  23769600.133 6  23769597.293 7 123774552.805 6  95710331.397 7
C19  22438753.438 7                 116844476.038 7
C22  22646321.820 7                 117925344.498 7
E05  24688501.773 5  24688504.492 5 129738874.912 5  98146685.254 5
E06  25243872.180 7  25243874.344 8 132657439.577 7 100354505.169 8
E09  24844033.852 7  24844036.102 8 130556285.278 7  98764987.646 8
E34  24305217.922 8  24305220.375 9 127724783.046 8  96622980.099 9
E36  23873064.742 8  23873066.754 9 125453796.276 8  94904991.456 9
G01  21036914.734 7                  21036919.223 8 110549735.441 7                  86142673.758 8
G02  20758832.680 8  20758833.820 6                 109088397.938 8  85004085.884 6
G03  22342067.422 6                  22342070.094 5 117408425.643 6                  91487067.959 5
G08  22078542.094 7                  22078550.633 7 116023517.251 7                  90407865.738 7
G14  24022682.695 5                  24022692.488 4 126240003.657 5                  98368906.543 4
G32  22050212.336 8                  22050218.754 7 115874643.166 8                  90292064.080 7
R01  22276129.977 6                 119078663.737 6
R02  19538435.313 8  19538440.492 7 104260841.218 8  81091890.542 7
R03  21023033.102 7  21023038.355 7 112537946.729 7  87529979.494 7
R17  19561307.836 8  19561313.297 7 104676506.436 8  81415123.063 7
R18  19937630.938 8  19937635.348 7 106428431.023 8  82777971.268 7
> 2025 06 15 11 57 40.0000000  0 20
C12  23765796.758 6  23765794.676 7 123754748.425 6  95695017.412 7
C19  22438321.836 7                 116842231.673 7
C22  22642751.617 7                 117906754.789 7
E05  24684287.578 5  24684290.188 5 129716730.212 5  98129932.94515
E06  25243126.672 7  25243129.223 8 132653523.578 7 100351542.747 8
E09  24841979.375 7  24841981.887 8 130545490.182 7  98756821.228 8
E34  24302385.516 8  24302388.258 8 127709900.473 8  96611721.528 8
E36  23872585.711 8  23872588.160 8 125451281.247 8  94903088.850 8
G01  21033740.109 7                  21033744.566 8 110533052.000 7                  86129673.678 8
G02  20757474.414 8  20757475.617 6                 109081260.384 8  84998524.151 6
G03  22337771.766 5                  22337778.344 5 117385867.474 5                  91469490.180 5
G08  22079982.594 7                  22079991.117 6 116031087.342 7                  90413764.508 6
G10  23685269.063 5                                 124466835.53915                
G14  24022022.266 5                  24022031.418 3 126236525.368 5                  98366196.324 3
G32  22049571.305 8                  22049578.012 7 115871276.590 8                  90289440.777 7
R01  22278361.469 6                 119090602.033 6
R02  19537599.922 8  19537604.414 7 104256380.215 8  81088420.851 7
R03  21018362.398 8  21018366.465 7 112512936.244 8  87510526.904 7
R17  19561227.789 8  19561232.320 7 104676072.826 8  81414785.793 7
R18  19934211.148 8  19934215.867 7 106410177.191 8  82763773.835 7
> 2025 06 15 11 57 45.0000000  0 20
C12  23761994.969 6  23761992.828 7 123734951.917 6  95679709.491 7
C19  22437893.555 7                 116840001.068 7
C22  22639183.516 7                 117888176.826 7
E05  24680073.414 5  24680077.258 5 129694591.739 5  98113185.349 5
E06  25242383.734 7  25242386.656 8 132649621.098 7 100348590.544 8
E09  24839928.188 8  24839930.316 8 130534708.920 8  98748665.284 8
E34  24299554.813 8  24299557.414 8 127695024.157 8  96600467.693 8
E36  23872108.766 8  23872111.035 8 125448774.058 8  94901192.174 8
G01  21030566.945 7                  21030571.152 8 110516378.729 7                  86116681.502 8
G02  20756118.516 8  20756119.766 7                 109074134.400 8  84992971.435 7
G03  22333480.602 5                  22333487.797 5 117363318.348 5                  91451919.399 5
G08  22081425.328 7                  22081434.254 7 116038668.578 7                  90419671.939 7
G10  23686746.266 5                  23686757.488 5 124474593.581 5                
G14  24021356.844 4                  24021373.887 3 126233063.350 4                  98363498.913 3
G32  22048933.484 8                  22048940.230 7 115867927.141 8                  90286830.774 7
R01  22280596.328 6                 119102550.048 6
R02  19536768.367 8  19536772.496 7 104251941.957 8  81084968.853 7
R03  21013691.672 8  21013697.289 7 112487940.297 8  87491085.618 7
R17  19561149.680 8  19561154.344 8 104675657.016 8  81414462.381 8
R18  19930795.563 8  19930798.910 7 106391937.326 8  82749587.263 7
> 2025 06 15 11 57 50.0000000  0 21
C12  23758195.430 6  23758191.902 7 123715160.476 6  95664405.484 7
C19  22437467.727 8                 116837781.391 8
C22  22635617.320 7                 117869607.775 7
E04  26708521.836 5  26708521.770 7 140354252.81115 106177062.57317
E05  24675860.070 5  24675864.938 5 129672456.811 5  98096440.46115
E06  25241642.891 7  25241646.086 8 132645729.311 7 100345646.436 8
E09  24837878.828 8  24837880.738 8 130523938.705 8  98740517.686 8
E34  24296724.758 8  24296727.242 8 127680151.277 8  96589216.450 8
E36  23871632.422 8  23871634.891 8 125446271.848 8  94899299.268 8
G01  21027395.508 7                  21027399.488 8 110499712.783 7                  86103695.072 8
G02  20754763.789 8  20754765.477 7                 109067017.157 8  84987425.535 7
G03  22329186.164 4                  22329199.664 5 117340775.334 4                  91434353.348 5
G08  22082870.109 7                  22082878.270 7 116046258.052 7                  90425585.803 7
G10  23688221.898 5                  23688238.109 4 124482353.60515                  96999357.58114
G14  24020698.625 4                                                                
G32  22048298.789 8                  22048305.363 7 115864591.978 8                  90284231.950 7
R01  22282832.836 6                 119114505.007 6
R02  19535940.289 8  19535944.281 7 104247523.519 8  81081532.278 7
R03  21009023.438 8  21009029.105 7 112462956.239 8  87471653.600 7
R17  19561074.469 8  19561079.535 7 104675256.216 8  81414150.643 7
R18  19927379.406 8  19927384.227 7 106373708.570 8  82735409.350 7
> 2025 06 15 11 57 55.0000000  0 20
C12  23754394.570 6  23754392.121 7 123695374.100 6  95649105.395 7
C19  22437043.820 8                 116835572.624 8
C22  22632053.242 7                 117851047.614 7
E04  26708966.492 4  26708970.063 7 140356607.82914 106178844.18817
E05  24671648.680 5  24671653.363 5 129650325.290 5  98079698.11815
E06  25240905.164 7  25240907.555 8 132641848.220 7 100342710.395 8
E09  24835831.367 8  24835833.320 8 130513179.480 8  98732378.414 8
E34  24293895.297 8  24293897.730 8 127665281.761 8  96577967.768 8
E36  23871156.977 8  23871159.762 8 125443774.602 8  94897410.127 8
G01  21024225.539 7                  21024229.719 7 110483054.206 7                  86090714.371 7
G02  20753411.367 8  20753412.629 7                 109059908.631 8  84981886.415 7
G03  22324898.414 4                  22324909.699 5 117318238.530 4                  91416792.275 5
G08  22084315.258 6                  22084324.340 7 116053855.771 6                  90431506.124 7
G10  23689699.258 5                  23689718.652 5 124490115.854 5                  97005406.067 5
G32  22047667.344 8                  22047673.836 7 115861271.062 8                  90281644.227 7
R01  22285071.070 6                 119126466.923 6
R02  19535116.281 8  19535120.109 7 104243124.808 8  81078111.078 7
R03  21004356.633 7  21004364.180 7 112437984.141 7  87452230.873 7
R17  19561002.523 8  19561007.336 7 104674870.391 8  81413850.534 7
R18  19923967.023 8  19923971.012 7 106355490.893 8  82721240.063 7
> 2025 06 15 11 58  0.0000000  0 20
C12  23750594.648 6  23750593.648 7 123675593.969 6  95633810.165 7
C19  22436621.773 7                 116833376.012 7
C22  22628489.758 7                 117832497.600 7
E04  26709414.297 4  26709420.070 7 140358972.14014 106180632.76117
E05  24667437.594 5  24667442.594 5 129628198.479 5  98062959.377 5
E06  25240168.828 7  25240171.266 8 132637979.022 7 100339783.373 8
E09  24833786.320 8  24833788.332 8 130502432.498 8  98724248.396 8
E34  24291066.648 8  24291069.098 8 127650416.875 8  96566722.575 8
E36  23870683.016 8  23870685.742 8 125441283.563 8  94895525.670 8
G01  21021056.578 7                  21021061.410 7 110466404.204 7                  86077740.346 7
G02  20752060.883 8  20752061.789 7                 109052810.043 8  84976355.044 7
G03  22320613.875 5                  22320620.176 4 117295709.100 5                  91399236.927 4
G08  22085763.227 7                  22085771.598 7 116061462.895 7                  90437433.743 7
G10  23691176.867 5                                                                
G32  22047038.031 8                  22047044.996 7 115857965.665 8                  90279068.604 7
R01  22287311.984 6                 119138436.895 6
R02  19534295.234 8  19534299.934 7 104238747.233 8  81074706.286 7
R03  20999695.102 7  20999701.484 7 112413025.118 7  87432818.286 7
R17  19560932.703 8  19560938.207 7 104674500.785 8  81413563.069 7
R18  19920555.781 8  19920560.512 7 106337285.539 8  82707080.372 7
> 2025 06 15 11 58  5.0000000  0 20
C12  23746797.383 6  23746796.383 7 123655821.437 6  95618520.792 7
C19  22436203.109 7                 116831192.869 7
C22  22624929.977 7                 117813959.073 7
E04  26709867.461 5  26709871.930 7 140361346.81215 106182429.19217
E05  24663228.891 5  24663233.020 6 129606077.75115  98046225.26316
E06  25239434.359 7  25239437.465 8 132634123.068 7 100336866.358 8
E09  24831743.922 8  24831745.941 8 130491699.105 8  98716128.665 8
E34  24288239.008 8  24288241.555 8 127635558.013 8  96555481.942 8
E36  23870210.492 8  23870213.176 8 125438800.088 8  94893646.923 8
G01  21017890.477 7                  21017895.035 8 110449764.134 7                  86064774.055 8
G02  20750712.000 8  20750713.332 7                 109045722.729 8  84970832.465 7
G03  22316329.680 5                  22316334.414 5 117273188.453 5                  91381688.379 5
G08  22087212.523 7                  22087221.258 7 116069080.849 7                  90443369.752 7
G10  23692653.578 5                  23692683.578 4 124505651.35415                  97017511.86714
G32  22046412.719 8                  22046418.859 7 115854677.089 8                  90276506.077 7
R01  22289550.906 5                 119150416.303 5
R02  19533478.883 8  19533483.266 7 104234392.244 8  81071319.080 7
R03  20995035.953 7  20995041.992 7 112388080.452 7  87413416.861 7
R17  19560867.617 8  19560871.969 7 104674148.654 8  81413289.175 7
R18  19917148.211 8  19917152.652 7 106319093.910 8  82692931.323 7
> 2025 06 15 11 58 10.0000000  0 20
C12  23743002.172 6  23743001.047 7 123636056.996 6  95603237.688 7
C19  22435786.188 7                 116829023.610 7
C22  22621372.148 7                 117795432.445 7
E04  26710323.805 5  26710325.832 7 140363732.366 5 106184233.838 7
E05  24659020.844 5  24659033.926 6 129583963.55615  98029495.48316
E06  25238703.367 7  25238706.211 8 132630280.792 7 100333959.700 8
E09  24829703.789 8  24829706.109 8 130480979.762 8  98708019.559 8
E34  24285412.805 8  24285415.219 8 127620705.563 8  96544246.156 8
E36  23869739.289 8  23869742.168 8 125436324.597 8  94891774.220 8
G01  21014725.508 7                  21014730.426 8 110433134.441 7                  86051815.839 8
G02  20749365.531 8  20749367.398 7                 109038647.148 8  84965319.035 7
G03  22312048.281 6                  22312050.652 5 117250676.934 6                  91364147.032 5
G08  22088664.984 7                  22088672.980 6 116076709.985 7                  90449314.511 6
G10  23694133.070 5                  23694168.086 5 124513426.678 5                  97023570.512 5
G32  22045789.805 8                  22045796.641 7 115851405.792 8                  90273957.006 7
R01  22291794.953 5                 119162405.583 5
R02  19532667.078 8  19532671.441 7 104230059.922 8  81067949.486 7
R03  20990379.047 8  20990384.902 7 112363150.934 8  87394027.274 7
R17  19560805.203 8  19560809.918 7 104673814.577 8  81413029.323 7
R18  19913742.875 8  19913747.477 7 106300916.506 8  82678793.361 7
> 2025 06 15 11 58 15.0000000  0 20
C12  23739208.883 6  23739207.188 7 123616300.490 6  95587960.732 7
C19  22435372.492 7                 116826868.121 7
C22  22617816.969 7                 117776917.592 7
E04  26710779.047 5  26710781.648 7 140366128.757 5 106186046.647 7
E05  24654812.594 4                                
E06  25237974.781 7  25237977.719 8 132626452.022 7 100331063.271 8
E09  24827667.422 8  24827668.957 8 130470274.323 8  98699920.955 8
E34  24282587.781 8  24282590.070 8 127605859.415 8  96533015.142 8
E36  23869269.836 8  23869272.559 8 125433856.953 8  94889907.462 8
G01  21011563.414 7                  21011568.090 8 110416515.016 7                  86038865.655 8
G02  20748021.023 8  20748022.703 7                 109031583.207 8  84959814.672 7
G03  22307764.953 6                  22307772.043 5 117228174.552 6                  91346612.611 5
G08  22090117.992 7                  22090127.586 7 116084350.186 7                  90455267.895 7
G10  23695617.391 4                                                                
G32  22045171.023 8                  22045177.176 7 115848151.627 8                  90271421.278 7
R01  22294041.094 6                 119174404.848 6
R02  19531859.438 8  19531863.645 7 104225750.523 8  81064597.729 7
R03  20985723.734 7  20985729.969 7 112338236.181 7  87374649.160 7
R17  19560745.742 8  19560751.027 7 104673498.440 8  81412783.480 7
R18  19910340.789 8  19910344.977 7 106282753.145 8  82664666.306 7
> 2025 06 15 11 58 20.0000000  0 20
C12  23735415.859 6  23735414.617 7 123596550.917 6  95572689.129 7
C19  22434960.234 7                 116824725.369 7
C22  22614263.734 7                 117758413.560 7
E04  26711237.711 5  26711239.563 7 140368534.836 5 106187866.871 7
E05  24650605.883 3  24650611.895 5 129539753.28713  97996050.29115
E06  25237248.367 7  25237251.598 8 132622635.831 7 100328176.354 8
E09  24825632.133 8  24825634.184 8 130459581.749 8  98691832.100 8
E34  24279763.367 8  24279765.934 8 127591018.542 8  96521788.125 8
E36  23868801.188 8  23868804.328 8 125431396.143 8  94888045.878 8
G01  21008402.844 7                  21008407.434 8 110399904.792 7                  86025922.639 8
G02  20746679.391 8  20746680.492 6                 109024529.837 8  84954318.542 6
G03  22303484.383 6                  22303492.152 6 117205680.135 6                  91329084.539 6
G08  22091574.867 7                  22091583.047 7 116092000.429 7                  90461229.097 7
G10  23697101.609 5                                 124528990.97915                
G32  22044554.813 8                  22044561.777 7 115844913.588 8                  90268898.125 7
R01  22296286.016 6                 119186412.576 6
R02  19531056.148 8  19531060.234 7 104221462.701 8  81061262.751 7
R03  20981074.320 7  20981079.109 7 112313335.443 7  87355281.896 7
R17  19560691.453 8  19560695.043 7 104673199.217 8  81412550.735 7
R18  19906940.641 8  19906944.805 7 106264602.897 8  82650549.436 7
> 2025 06 15 11 58 25.0000000  0 19
C12  23731624.148 6  23731623.227 7 123576808.877 6  95557423.349 7
C19  22434551.695 7                 116822595.948 7
C22  22610712.953 7                 117739920.864 7
E04  26711696.477 5  26711699.512 7 140370951.25415 106189694.87217
E06  25236524.984 7  25236527.703 8 132618832.701 7 100325299.302 8
E09  24823600.086 8  24823601.965 8 130448902.673 8  98683753.445 8
E34  24276940.547 8  24276942.867 8 127576183.544 8  96510565.545 8
E36  23868334.492 8  23868337.477 8 125428942.760 8  94886189.900 8
G01  21005243.852 7                  21005248.777 8 110383304.433 7                  86012987.297 8
G02  20745339.180 8  20745340.430 7                 109017487.658 8  84948831.115 7
G03  22299206.555 6                  22299213.828 5 117183194.451 6                  91311563.211 5
G08  22093032.188 7                  22093041.305 7 116099661.271 7                  90467198.629 7
G10  23698578.492 4                  23698588.531 4 124536779.66514                  97041754.64914
G32  22043941.586 8                  22043948.789 7 115841692.247 8                  90266387.978 7
R01  22298533.570 5                 119198429.445 5
R02  19530257.297 8  19530260.961 7 104217197.118 8  81057945.088 7
R03  20976425.094 8  20976429.602 7 112288448.952 8  87335925.784 7
R17  19560639.617 8  19560641.961 7 104672917.357 8  81412331.480 7
R18  19903542.438 8  19903546.676 7 106246466.224 8  82636443.167 7
> 2025 06 15 11 58 30.0000000  0 18
C12  23727835.922 6  23727833.895 7 123557074.633 6  95542163.614 7
C19  22434144.672 7                 116820480.055 7
C22  22607163.469 7                 117721439.821 7
E04  26712158.320 5  26712161.305 7 140373378.135 5 106191530.838 7
E06  25235803.039 7  25235806.676 8 132615042.950 7 100322432.396 8
E09  24821570.258 8  24821572.438 8 130438237.328 8  98675685.171 8
E34  24274118.789 8  24274120.980 8 127561354.652 8  96499347.599 8
E36  23867868.977 8  23867871.984 8 125426497.070 8  94884339.742 8
G01  21002086.789 7                  21002091.293 8 110366714.125 7                  86000059.801 8
G02  20744000.773 8  20744002.980 7                 109010456.878 8  84943352.584 7
G03  22294926.969 6                  22294935.695 5 117160717.587 6                  91294048.829 5
G08  22094491.508 7                  22094500.895 7 116107332.975 7                  90473176.574 7
G32  22043332.617 8                  22043338.934 7 115838487.848 8                  90263891.045 7
R01  22300781.703 6                 119210456.045 6
R02  19529461.445 8  19529465.699 7 104212954.089 8  81054644.941 7
R03  20971777.586 8  20971783.883 7 112263577.101 8  87316581.058 7
R17  19560588.813 8  19560592.852 7 104672653.156 8  81412126.019 7
R18  19900148.070 8  19900151.758 7 106228343.513 8  82622347.694 7
> 2025 06 15 11 58 35.0000000  0 18
C12  23724046.602 6  23724045.605 7 123537347.811 6  95526909.598 7
C19  22433741.305 7                 116818377.338 7
C22  22603616.828 7                 117702970.018 7
E04  26712620.977 5  26712625.203 7 140375815.363 5 106193374.523 7
E06  25235085.266 7  25235087.906 8 132611266.155 7 100319575.277 8
E09  24819543.789 8  24819545.531 8 130427585.306 8  98667626.979 8
E34  24271297.828 8  24271300.195 8 127546531.516 8  96488133.985 8
E36  23867404.859 8  23867407.977 8 125424058.634 8  94882495.090 8
G01  20998931.008 7                  20998936.176 8 110350133.555 7                  85987139.874 8
G02  20742665.102 7  20742667.047 6                 109003437.141 7  84937882.672 6
G03  22290653.891 6                  22290660.133 5 117138249.300 6                  91276541.170 5
G08  22095954.320 7                  22095963.215 7 116115015.098 7                  90479162.651 7
G32  22042726.273 8                  22042732.070 7 115835299.956 8                  90261406.956 7
R01  22303034.898 5                 119222491.566 5
R02  19528671.008 8  19528674.688 7 104208733.140 8  81051361.999 7
R03  20967132.680 7  20967140.105 7 112238719.495 7  87297247.387 7
R17  19560542.383 8  19560546.559 7 104672406.216 8  81411933.961 7
R18  19896756.563 8  19896759.469 7 106210234.349 8  82608262.789 7
> 2025 06 15 11 58 40.0000000  0 18
C12  23720260.289 6  23720258.828 7 123517628.379 6  95511661.277 7
C19  22433340.578 7                 116816287.746 7
C22  22600071.523 7                 117684511.438 7
E04  26713090.680 5  26713091.035 7 140378262.541 5 106195225.816 7
E06  25234368.891 7  25234371.523 8 132607502.302 7 100316727.945 8
E09  24817518.703 8  24817521.137 8 130416946.577 8  98659578.863 8
E34  24268478.125 8  24268480.547 8 127531714.087 8  96476924.709 8
E36  23866942.727 8  23866945.426 8 125421627.477 8  94880655.929 8
G01  20995777.117 7                  20995782.816 8 110333562.662 7                  85974227.472 8
G02  20741331.898 8  20741332.926 6                 108996428.452 8  84932421.352 6
G03  22286380.258 6                  22286385.727 6 117115789.530 6                  91259040.046 6
G08  22097417.813 7                  22097426.313 7 116122707.696 7                  90485156.836 7
G32  22042122.281 8                  22042128.402 7 115832128.572 8                  90258935.723 7
R01  22305286.414 5                 119234536.251 5
R02  19527883.195 8  19527888.172 7 104204534.403 8  81048096.312 7
R03  20962492.438 7  20962498.844 7 112213876.194 7  87277924.789 7
R17  19560499.203 8  19560504.207 7 104672176.652 8  81411755.396 7
R18  19893365.344 8  19893369.926 7 106192138.735 8  82594188.424 7
> 2025 06 15 11 58 45.0000000  0 17
C12  23716475.359 6  23716473.961 7 123497918.041 6  95496420.027 7
C19  22432941.953 7                 116814212.956 7
C22  22596529.445 7                 117666065.733 7
E06  25233655.125 7  25233658.070 8 132603753.064 7 100313891.672 8
E09  24815497.055 8  24815499.516 8 130406322.865 8  98651542.088 8
E34  24265659.938 8  24265662.336 8 127516904.045 8  96465721.027 8
E36  23866481.484 8  23866484.496 9 125419205.269 8  94878823.548 9
G01  20992627.055 7                  20992631.695 8 110317003.103 7                  85961323.936 8
G02  20740000.313 8  20740002.133 7                 108989432.467 8  84926969.940 7
G03  22282107.578 6                  22282113.961 5 117093339.898 6                  91241546.770 5
G08  22098884.055 7                  22098892.777 7 116130412.359 7                  90491160.445 7
G32  22041521.961 8                  22041528.359 7 115828975.379 8                  90256478.693 7
R01  22307544.195 6                 119246591.731 6
R02  19527101.633 8  19527105.891 7 104200359.511 8  81044849.176 7
R03  20957855.289 7  20957860.891 7 112189048.972 7  87258614.722 7
R17  19560459.344 8  19560464.762 7 104671966.063 8  81411591.620 7
R18  19889979.258 8  19889982.660 7 106174058.338 8  82580125.891 7
> 2025 06 15 11 58 50.0000000  0 17
C12  23712692.961 6  23712690.277 7 123478217.105 6  95481185.998 7
C19  22432546.563 7                 116812153.271 7
C22  22592990.289 7                 117647633.274 7
E06  25232944.555 7  25232947.480 8 132600018.761 7 100311066.691 8
E09  24813478.289 8  24813480.828 8 130395714.495 8  98643516.928 8
E34  24262842.883 8  24262845.574 9 127502101.792 8  96454523.220 9
E36  23866022.398 8  23866025.328 9 125416792.335 8  94876998.174 9
G01  20989478.438 7                  20989482.762 8 110300455.277 7                  85948429.542 8
G02  20738671.344 8  20738673.074 7                 108982449.542 8  84921528.699 7
G03  22277838.906 6                  22277844.141 5 117070900.815 6                  91224061.819 5
G08  22100353.070 7                  22100361.219 7 116138129.391 7                  90497173.740 7
G32  22040925.680 8                  22040931.410 7 115825840.737 8                  90254036.127 7
R01  22309801.859 6                 119258658.083 6
R02  19526323.727 8  19526327.906 7 104196208.512 8  81041620.622 7
R03  20953219.883 8  20953226.504 7 112164238.126 8  87239317.410 7
R17  19560422.789 8  19560429.262 7 104671774.833 8  81411442.880 7
R18  19886595.664 8  19886598.473 7 106155993.541 8  82566075.518 7
> 2025 06 15 11 58 55.0000000  0 17
C12  23708910.609 7  23708908.523 7 123458524.835 7  95465958.707 7
C19  22432154.320 7                 116810107.950 7
C22  22589452.945 7                 117629213.307 7
E06  25232236.664 7  25232239.570 8 132596298.630 7 100308252.431 8
E09  24811462.211 7  24811464.781 8 130385120.689 7  98635502.789 8
E34  24260027.656 8  24260030.164 9 127487306.491 8  96443330.670 9
E36  23865565.000 8  23865567.754 8 125414387.919 8  94875179.245 8
G01  20986331.273 7                  20986335.926 8 110283918.440 7                  85935543.694 8
G02  20737345.227 8  20737346.207 7                 108975478.896 8  84916097.024 7
G03  22273569.273 6                  22273576.129 5 117048471.543 6                  91206584.476 5
G08  22101822.695 7                  22101832.152 7 116145858.118 7                  90503196.079 7
G32  22040332.180 8                  22040338.617 7 115822723.832 8                  90251607.363 7
R01  22312060.438 6                 119270734.879 6
R02  19525549.859 8  19525554.762 7 104192080.994 8  81038410.331 7
R03  20948587.688 7  20948594.086 7 112139442.956 7  87220032.266 7
R17  19560391.383 8  19560396.902 7 104671602.145 8  81411308.560 7
R18  19883214.219 8  19883216.824 7 106137943.588 8  82552036.657 7
> 2025 06 15 11 59  0.0000000  0 17
C12  23705131.977 7  23705128.559 7 123438841.482 7  95450738.296 7
C19  22431764.375 7                 116808077.287 7
C22  22585918.227 7                 117610806.098 7
E06  25231531.453 7  25231534.316 8 132592592.974 7 100305449.124 8
E09  24809449.484 7  24809451.684 8 130374541.736 7  98627499.878 8
E34  24257213.414 8  24257216.105 8 127472518.473 8  96432143.636 8
E36  23865109.445 8  23865111.977 8 125411992.321 8  94873366.995 8
G01  20983186.422 7                  20983191.211 8 110267392.834 7                  85922666.586 8
G02  20736021.102 8  20736022.129 7                 108968520.827 8  84910675.154 7
G03  22269302.922 6                  22269309.914 6 117026052.302 6                  91189114.970 6
G08  22103296.805 7                  22103304.871 7 116153598.726 7                  90509227.723 7
G32  22039742.523 8                  22039748.914 7 115819624.966 8                  90249192.696 7
R01  22314320.438 5                 119282822.193 5
R02  19524780.844 8  19524785.266 7 104187977.154 8  81035218.434 7
R03  20943960.219 7  20943965.156 7 112114663.850 7  87200759.639 7
R17  19560363.188 8  19560368.160 8 104671448.266 8  81411188.867 8
R18  19879834.922 8  19879838.656 7 106119908.800 8  82538009.603 7
> 2025 06 15 11 59  5.0000000  0 18
C12  23701352.094 7  23701349.645 7 123419164.333 7  95435522.665 7
C19  22431376.156 7                 116806058.405 7
C22  22582384.648 7                 117592408.842 7
E05  24612820.922 5                 129341207.14415
E06  25230828.398 7  25230831.379 8 132588898.925 7 100302654.589 8
E09  24807438.094 7  24807440.867 8 130363974.802 7  98619506.062 8
E34  24254400.352 8  24254402.910 8 127457734.865 8  96420959.934 8
E36  23864654.844 8  23864657.301 9 125409602.671 8  94871559.230 9
G01  20980043.344 7                  20980048.270 8 110250875.661 7                  85909796.064 8
G02  20734699.094 8  20734699.473 7                 108961572.466 8  84905260.840 7
G03  22265038.148 6                  22265044.688 5 117003640.226 6                  91171650.979 5
G08  22104770.781 7                  22104779.461 7 116161348.362 7                  90515266.389 7
G32  22039155.547 8                  22039162.180 7 115816541.274 8                  90246789.806 7
R01  22316584.852 5                 119294916.998 5
R02  19524016.156 8  19524020.453 7 104183893.933 8  81032042.600 7
R03  20939332.539 8  20939338.660 7 112089897.499 8  87181496.965 7
R17  19560337.148 8  19560342.668 8 104671310.299 8  81411081.557 8
R18  19876457.859 8  19876462.852 7 106101886.270 8  82523992.085 7
> 2025 06 15 11 59 10.0000000  0 19
C12  23697573.313 7  23697571.047 7 123399490.429 7  95420309.557 7
C19  22430990.313 7                 116804048.449 7
C22  22578853.383 7                 117574018.671 7
E05  24608618.781 5  24608627.277 5 129319164.572 5  97829141.03915
E06  25230127.188 8  25230130.023 8 132585213.571 8 100299866.638 8
E09  24805428.500 7  24805431.820 8 130353416.993 7  98611519.159 8
E30  27269040.641 4  27269034.477 6 143299569.91514 108405323.54516
E34  24251587.617 8  24251589.941 8 127442952.797 8  96409777.396 8
E36  23864200.773 8  23864203.160 9 125407216.067 8  94869753.778 9
G01  20976901.445 7                  20976906.336 8 110234363.973 7                  85896929.820 8
G02  20733378.172 8  20733378.352 7                 108954630.915 8  84899851.837 7
G03  22260772.656 5                  22260781.074 5 116981232.586 5                  91154190.494 5
G08  22106246.875 6                  22106255.387 7 116169104.131 6                  90521309.809 7
G32  22038571.445 8                  22038578.082 7 115813469.873 8                  90244396.499 7
R01  22318847.992 6                 119307016.685 6
R02  19523253.836 8  19523258.535 7 104179828.410 8  81028880.538 7
R03  20934707.828 8  20934714.395 7 112065141.453 8  87162242.294 7
R17  19560314.242 8  19560319.160 7 104671185.364 8  81410984.366 7
R18  19873083.813 8  19873088.691 7 106083873.065 8  82509981.830 7
> 2025 06 15 11 59 15.0000000  0 19
C12  23693797.219 7  23693793.148 7 123379821.009 7  95405099.912 7
C19  22430606.641 7                 116802048.637 7
C22  22575323.133 7                 117555636.809 7
E05  24604421.070 6  24604433.223 5 129297124.923 6  97812468.21815
E06  25229427.664 7  25229430.574 8 132581538.132 7 100297086.189 8
E09  24803421.680 7  24803424.711 8 130342869.502 7  98603540.040 8
E30  27269449.703 4                                
E34  24248774.867 8  24248777.477 8 127428173.474 8  96398596.935 8
E36  23863747.250 8  23863749.816 9 125404833.749 8  94867951.564 9
G01  20973760.336 7                  20973765.547 8 110217859.019 7                  85884068.828 8
G02  20732058.375 8  20732059.199 7                 108947697.417 8  84894449.123 7
G03  22256510.406 5                  22256516.957 5 116958830.468 5                  91136734.252 5
G08  22107725.031 7                  22107732.676 7 116176867.263 7                  90527358.996 7
G32  22037989.391 8                  22037996.234 7 115810411.965 8                  90242013.717 7
R01  22321112.984 6                 119319122.201 6
R02  19522495.523 8  19522500.066 7 104175782.022 8  81025733.359 7
R03  20930084.664 7  20930091.852 7 112040396.605 7  87142996.311 7
R17  19560293.648 8  19560298.102 8 104671074.659 8  81410898.269 8
R18  19869710.977 8  19869715.984 7 106065870.451 8  82495979.789 7
> 2025 06 15 11 59 20.0000000  0 18
C12  23690021.766 7  23690017.125 7 123360159.156 7  95389896.095 7
C19  22430224.984 7                 116800062.019 7
C22  22571795.031 7                 117537266.293 7
E05  24600228.070 6  24600240.125 5 129275091.257 6  97795799.93315
E06  25228730.602 8  25228733.578 8 132577875.711 8 100294315.601 8
E09  24801417.055 7  24801420.176 8 130332335.437 7  98595571.102 8
E34  24245963.445 8  24245966.145 8 127413399.977 8  96387420.883 8
E36  23863295.461 8  23863297.840 8 125402458.794 8  94866154.924 8
G01  20970620.992 7                  20970626.547 8 110201363.914 7                  85871215.502 8
G02  20730741.391 8  20730742.051 7                 108940775.021 8  84889055.052 7
G03  22252250.219 5                  22252256.023 5 116936436.985 5                  91119284.816 5
G08  22109203.531 7                  22109211.973 7 116184640.802 7                  90533416.319 7
G32  22037410.836 8                  22037417.531 7 115807370.623 8                  90239643.862 7
R01  22323382.961 6                 119331236.640 6
R02  19521740.781 8  19521745.652 7 104171757.854 8  81022603.450 7
R03  20925465.797 7  20925471.813 7 112015666.359 7  87123761.688 7
R17  19560275.906 8  19560280.926 7 104670981.370 8  81410825.704 7
R18  19866341.828 8  19866346.168 7 106047881.553 8  82481988.432 7
> 2025 06 15 11 59 25.0000000  0 18
C12  23686246.328 7  23686243.109 7 123340505.751 7  95374698.829 7
C19  22429846.148 7                 116798089.443 7
C22  22568269.180 7                 117518908.057 7
E05  24596037.805 6  24596048.453 5 129253064.529 6  97779136.86615
E06  25228036.672 8  25228039.289 8 132574227.181 8 100291555.515 8
E09  24799415.047 7  24799418.309 8 130321815.721 7  98587613.009 8
E34  24243153.227 8  24243156.094 8 127398633.241 8  96376249.946 8
E36  23862845.250 8  23862847.438 8 125400092.119 8  94864364.542 8
G01  20967483.992 7                  20967489.629 8 110184879.561 7                  85858370.558 8
G02  20729425.906 8  20729427.113 7                 108933864.688 8  84883670.375 7
G03  22247991.203 6                  22247996.391 5 116914053.044 6                  91101842.769 5
G08  22110685.156 7                  22110693.219 7 116192425.689 7                  90539482.438 7
G32  22036834.516 8                  22036842.047 7 115804346.771 8                  90237287.604 7
R01  22325649.016 5                 119343361.107 5
R02  19520990.922 8  19520995.934 7 104167756.584 8  81019491.355 7
R03  20920848.172 7  20920855.402 7 111990951.463 7  87104539.002 7
R17  19560261.977 8  19560267.410 7 104670906.379 8  81410767.362 7
R18  19862974.664 8  19862978.574 7 106029907.385 8  82468008.511 7
> 2025 06 15 11 59 30.0000000  0 18
C12  23682474.102 7  23682470.637 7 123320862.376 7  95359509.335 7
C19  22429470.023 7                 116796132.519 7
C22  22564746.063 7                 117500563.644 7
E05  24591846.281 5  24591858.477 5 129231046.206 5  97762480.16715
E06  25227345.797 8  25227348.043 8 132570594.145 8 100288807.129 8
E09  24797416.242 7  24797419.531 8 130311311.900 7  98579666.946 8
E34  24240345.063 8  24240347.648 8 127383874.820 8  96365085.306 8
E36  23862396.633 8  23862398.941 9 125397735.263 8  94862581.596 9
G01  20964349.852 7                  20964355.328 8 110168407.486 7                  85845535.173 8
G02  20728113.820 8  20728115.066 7                 108926967.952 8  84878296.293 7
G03  22243733.648 6                  22243739.941 5 116891680.233 6                  91084409.384 5
G08  22112168.930 7                  22112177.340 7 116200223.468 7                  90545558.622 7
G32  22036262.953 7                  22036269.934 7 115801341.949 7                  90234946.216 7
R01  22327913.695 5                 119355496.879 5
R02  19520245.867 8  19520250.891 7 104163779.969 8  81016398.436 7
R03  20916234.969 8  20916241.590 7 111966253.709 8  87085329.683 7
R17  19560250.781 8  19560256.930 8 104670851.200 8  81410724.441 8
R18  19859609.953 8  19859614.098 7 106011949.394 8  82454041.213 7
> 2025 06 15 11 59 35.0000000  0 18
C12  23678703.867 7  23678699.824 7 123301226.581 7  95344325.704 7
C19  22429097.078 7                 116794188.744 7
C22  22561225.234 7                 117482230.611 7
E05  24587657.000 6  24587669.711 5 129209033.991 6  97745828.083 5
E06  25226656.766 8  25226659.258 8 132566974.088 8 100286068.583 8
E09  24795419.570 7  24795423.402 8 130300821.522 7  98571731.053 8
E34  24237537.570 8  24237540.305 8 127369122.257 8  96353925.087 8
E36  23861949.258 8  23861951.816 9 125395385.796 8  94860804.225 9
G01  20961217.891 7                  20961223.152 8 110151945.290 7                  85832707.499 8
G02  20726803.641 8  20726804.445 7                 108920082.354 8  84872930.884 7
G03  22239476.383 6                  22239483.340 5 116869316.064 6                  91066982.777 5
G08  22113654.445 7                  22113663.207 7 116208031.606 7                  90551642.901 7
G32  22035694.836 7                  22035701.469 7 115798353.696 7                  90232617.692 7
R01  22330187.758 5                 119367641.768 5
R02  19519505.172 8  19519509.625 7 104159825.401 8  81013322.640 7
R03  20911624.094 8  20911631.109 7 111941570.694 8  87066131.785 7
R17  19560244.367 8  19560249.781 8 104670813.393 8  81410695.029 8
R18  19856248.133 8  19856252.660 7 105994005.198 8  82440084.634 7
> 2025 06 15 11 59 40.0000000  0 18
C12  23674933.719 7  23674930.363 7 123281598.590 7  95329148.087 7
C19  22428726.586 7                 116792258.326 7
C22  22557706.148 7                 117463909.174 7
E05  24583469.227 6  24583482.086 5 129187027.938 6  97729180.65915
E06  25225970.945 8  25225972.895 8 132563367.243 8 100283340.016 8
E09  24793426.328 7  24793429.680 8 130290344.766 7  98563805.465 8
E34  24234731.695 8  24234734.121 8 127354375.765 8  96342769.466 8
E36  23861503.648 8  23861506.133 8 125393043.883 8  94859032.588 8
G01  20958086.805 7                  20958092.309 8 110135493.139 7                  85819887.641 8
G02  20725495.047 8  20725496.902 7                 108913208.067 8  84867574.304 7
G03  22235224.633 6                  22235229.301 5 116846960.801 6                  91049563.081 5
G08  22115142.461 7                  22115150.965 6 116215850.381 7                  90557735.433 6
G32  22035129.594 8                  22035135.902 7 115795382.191 8                  90230302.253 7
R01  22332466.109 6                 119379795.690 6
R02  19518768.734 8  19518772.918 7 104155893.222 8  81010264.265 7
R03  20907015.734 8  20907021.836 7 111916902.273 8  87046945.249 7
R17  19560240.781 8  19560245.762 8 104670793.259 8  81410679.356 8
R18  19852888.297 8  19852893.723 7 105976075.035 8  82426138.950 7
> 2025 06 15 11 59 45.0000000  0 18
C12  23671165.047 7  23671161.488 7 123261975.760 7  95313974.455 7
C19  22428357.711 7                 116790338.587 7
C22  22554189.852 7                 117445596.637 7
E05  24579282.938 6  24579295.199 4 129165025.467 6  97712535.941 4
E06  25225285.898 8  25225288.594 8 132559770.884 8 100280619.400 8
E09  24791434.109 7  24791438.145 8 130279878.965 7  98555888.160 8
E34  24231926.211 8  24231928.629 8 127339632.617 8  96331616.373 8
E36  23861059.273 8  23861061.430 8 125390706.844 8  94857264.632 8
G01  20954957.766 7                  20954962.914 8 110119048.385 7                  85807073.558 8
G02  20724188.375 8  20724190.434 7                 108906342.438 8  84862224.466 7
G03  22230970.758 6                  22230976.770 5 116824611.657 6                  91032148.176 5
G08  22116631.898 7                  22116640.559 7 116223676.954 7                  90563834.056 7
G32  22034566.375 7                  22034573.094 7 115792424.750 7                  90227997.749 7
R01  22334739.016 5                 119391955.936 5
R02  19518034.961 8  19518039.117 7 104151980.501 8  81007221.063 7
R03  20902409.781 8  20902416.133 7 111892245.895 8  87027768.064 7
R17  19560238.602 8  19560244.430 8 104670787.930 8  81410675.230 8
R18  19849532.453 8  19849536.727 7 105958156.104 8  82412201.995 7
> 2025 06 15 11 59 50.0000000  0 18
C12  23667397.773 6  23667394.418 7 123242359.690 6  95298806.057 7
C19  22427991.578 8                 116788431.171 8
C22  22550675.516 7                 117427294.629 7
E05  24575094.344 5  24575109.020 4 129143028.124 5  97695895.19814
E06  25224603.242 7  25224606.648 8 132556186.677 7 100277907.964 8
E09  24789445.547 7  24789449.039 8 130269425.750 7  98547980.370 8
E34  24229122.000 8  24229124.137 8 127324894.515 8  96320467.085 8
E36  23860615.453 8  23860617.938 8 125388376.343 8  94855501.623 8
G01  20951829.813 7                  20951835.535 8 110102612.663 7                  85794266.493 8
G02  20722884.500 8  20722885.883 6                 108899487.142 8  84856882.683 6
G03  22226719.164 6                  22226724.883 5 116802270.341 6                  91014739.391 5
G08  22118122.977 7                  22118132.117 7 116231513.090 7                  90569940.146 7
G32  22034006.492 7                  22034012.770 7 115789483.017 7                  90225705.487 7
R01  22337010.844 5                 119404124.393 5
R02  19517306.336 8  19517310.383 7 104148089.190 8  81004194.479 7
R03  20897805.992 8  20897812.340 7 111867603.246 8  87008601.571 7
R17  19560241.898 8  19560246.227 7 104670799.057 8  81410683.858 7
R18  19846178.156 8  19846182.535 7 105940250.115 8  82398275.105 7
> 2025 06 15 11 59 55.0000000  0 18
C12  23663631.477 6  23663628.891 7 123222750.460 6  95283642.975 7
C19  22427627.727 7                 116786536.144 7
C22  22547162.695 7                 117409003.313 7
E05  24570911.023 5  24570914.949 4 129121036.110 5  97679257.94214
E06  25223923.773 7  25223926.957 8 132552614.682 7 100275205.755 8
E09  24787459.164 7  24787462.250 8 130258985.245 7  98540082.198 8
E34  24226318.070 8  24226320.582 8 127310161.489 8  96309321.651 8
E36  23860173.500 8  23860175.703 8 125386052.440 8  94853743.602 8
G01  20948703.969 7                  20948709.258 8 110086186.021 7                  85781466.521 8
G02  20721581.195 8  20721583.527 7                 108892642.225 8  84851548.983 7
G03  22222466.711 6                  22222474.465 6 116779936.959 6                  90997336.740 6
G08  22119616.820 7                  22119624.781 7 116239358.789 7                  90576053.666 7
G32  22033449.813 7                  22033456.262 7 115786557.106 7                  90223425.546 7
R01  22339292.250 5                 119416300.926 5
R02  19516581.000 8  19516584.750 7 104144219.049 8  81001184.352 7
R03  20893204.453 7  20893211.340 7 111842974.508 7  86989445.858 7
R17  19560247.031 8  19560252.035 7 104670826.778 8  81410705.400 7
R18  19842826.570 8  19842830.625 7 105922357.189 8  82384358.390 7
> 2025 06 15 12 00  0.0000000  0 18
C12  23659866.984 6  23659864.547 7 123203147.016 6  95268484.337 7
C19  22427265.695 7                 116784652.389 7
C22  22543651.984 7                 117390721.532 7
E05  24566726.680 5  24566730.863 4 129099048.352 5  97662624.361 4
E06  25223246.367 7  25223249.367 8 132549053.827 7 100272511.996 8
E09  24785474.766 8  24785477.633 8 130248556.308 8  98532192.772 8
E34  24223515.125 8  24223517.715 8 127295432.502 8  96298179.266 8
E36  23859731.875 8  23859734.570 9 125383734.040 8  94851989.758 9
G01  20945578.688 7                  20945584.828 8 110069767.420 7                  85768672.837 8
G02  20720280.898 8  20720283.098 7                 108885806.605 8  84846222.526 7
G03  22218219.313 6                  22218226.098 5 116757610.443 6                  90979939.428 5
G08  22121111.430 7                  22121119.910 7 116247212.964 7                  90582173.812 7
G32  22032896.008 8                  22032902.723 7 115783645.841 8                  90221157.011 7
R01  22341567.078 5                 119428484.352 5
R02  19515859.031 8  19515863.602 7 104140369.112 8  80998189.948 7
R03  20888606.820 7  20888612.195 7 111818358.511 7  86970300.055 7
R17  19560254.695 8  19560259.906 7 104670870.034 8  81410739.051 7
R18  19839476.391 8  19839480.988 7 105904476.168 8  82370450.947 7
> 2025 06 15 12 00  5.0000000  0 18
C12  23656103.078 6  23656101.406 7 123183551.805 6  95253332.092 7
C19  22426906.539 7                 116782782.365 7
C22  22540143.805 7                 117372451.759 7
E05  24562543.055 6  24562548.039 4 129077067.144 6  97645995.788 4
E06  25222571.734 7  25222574.223 8 132545506.498 7 100269828.460 8
E09  24783492.930 8  24783495.719 8 130238141.385 8  98524313.960 8
E34  24220713.828 8  24220716.141 8 127280709.945 8  96287041.741 8
E36  23859292.000 8  23859294.863 9 125381423.601 8  94850241.925 9
G01  20942457.039 7                  20942462.496 8 110053359.271 7                  85755887.281 8
G02  20718982.375 8  20718984.449 7                 108878982.714 8  84840905.195 7
G03  22213973.320 6                  22213978.992 5 116735293.219 6                  90962549.373 5
G08  22122607.273 7                  22122615.898 7 116255078.083 7                  90588302.441 7
G32  22032345.594 8                  22032351.730 7 115780751.727 8                  90218901.871 7
R01  22343849.516 5                 119440677.256 5
R02  19515141.938 8  19515146.629 7 104136541.746 8  80995213.105 7
R03  20884012.289 8  20884016.258 7 111793757.607 8  86951166.016 7
R17  19560266.109 8  19560271.180 7 104670931.090 8  81410786.521 7
R18  19836129.156 8  19836133.480 7 105886609.551 8  82356554.683 7
> 2025 06 15 12 00 10.0000000  0 18
C12  23652341.891 6  23652339.746 7 123163965.188 6  95238186.489 7
C19  22426550.523 7                 116780926.423 7
C22  22536637.742 7                 117354194.378 7
E05  24558362.023 6  24558366.504 4 129055093.064 6  97629372.601 4
E06  25221899.141 7  25221901.852 8 132541973.155 7 100267155.514 8
E09  24781513.367 8  24781516.484 8 130227740.894 8  98516446.057 8
E34  24217913.367 8  24217915.813 8 127265994.250 8  96275909.426 8
E36  23858853.555 8  23858856.840 8 125379121.528 8  94848500.411 8
G01  20939336.992 7                  20939342.129 8 110036962.037 7                  85743110.205 8
G02  20717686.828 8  20717688.012 7                 108872170.959 8  84835597.342 7
G03  22209728.578 5                  22209734.594 6 116712985.642 5                  90945166.812 6
G08  22124106.453 7                  22124114.578 7 116262954.456 7                  90594439.835 7
G32  22031798.164 8                  22031804.242 7 115777875.095 8                  90216660.324 7
R01  22346135.359 5                 119452879.991 5
R02  19514429.156 8  19514433.262 7 104132737.443 8  80992254.210 7
R03  20879419.445 8  20879423.836 7 111769172.411 8  86932044.233 7
R17  19560281.297 8  19560285.516 7 104671010.550 8  81410848.327 7
R18  19832785.203 8  19832789.402 7 105868757.848 8  82342670.047 7
> 2025 06 15 12 00 15.0000000  0 18
C12  23648582.891 7  23648580.508 7 123144387.090 7  95223047.484 7
C19  22426196.789 8                 116779084.445 8
C22  22533134.039 7                 117335949.271 7
E05  24554182.680 5  24554186.336 4 129033125.894 5  97612754.604 4
E06  25221229.750 7  25221232.086 8 132538453.625 7 100264492.996 8
E09  24779537.250 8  24779540.051 8 130217354.715 8  98508588.993 8
E34  24215114.047 8  24215116.879 8 127251285.298 8  96264782.209 8
E36  23858417.367 8  23858420.246 9 125376827.685 8  94846765.133 9
G01  20936218.750 7                  20936223.789 8 110020575.563 7                  85730341.533 8
G02  20716392.438 8  20716393.766 7                 108865371.245 8  84830298.869 7
G03  22205481.477 5                  22205491.602 6 116690687.656 5                  90927791.824 6
G08  22125607.648 7                  22125615.770 7 116270842.010 7                  90600586.006 7
G32  22031254.359 7                  22031260.414 7 115775015.836 7                  90214432.320 7
R01  22348417.125 5                 119465092.315 5
R02  19513721.094 8  19513724.449 7 104128956.067 8  80989313.143 7
R03  20874830.109 8  20874833.633 7 111744602.563 8  86912934.365 7
R17  19560300.164 8  19560303.602 7 104671108.386 8  81410924.398 7
R18  19829444.258 8  19829447.996 7 105850920.927 8  82328796.878 7
> 2025 06 15 12 00 20.0000000  0 18
C12  23644824.516 7  23644821.801 7 123124815.906 7  95207913.813 7
C19  22425844.492 7                 116777254.884 7
C22  22529631.656 7                 117317714.874 7
E05  24550002.242 5  24550007.246 5 129011164.16115  97596140.59815
E06  25220562.500 7  25220564.637 8 132534946.354 7 100261839.759 8
E09  24777563.008 7  24777566.035 8 130206981.258 7  98500741.539 8
E34  24212315.852 8  24212318.816 8 127236581.472 8  96253658.867 8
E36  23857982.414 8  23857984.848 8 125374540.480 8  94845034.873 8
G01  20933102.523 7                  20933107.289 8 110004198.267 7                  85717580.006 8
G02  20715100.844 8  20715102.137 7                 108858581.946 8  84825008.510 7
G03  22201242.945 5                  22201249.855 6 116668397.684 5                  90910422.986 6
G08  22127110.586 7                  22127118.707 7 116278739.129 7                  90606739.580 7
G32  22030713.313 8                  22030719.414 7 115772172.374 8                  90212216.647 7
R01  22350702.617 5                 119477312.948 5
R02  19513016.500 8  19513020.383 7 104125195.868 8  80986388.543 7
R03  20870242.734 8  20870246.254 7 111720046.854 8  86893835.500 7
R17  19560321.805 8  19560325.000 7 104671222.725 8  81411013.348 7
R18  19826105.133 8  19826109.191 7 105833097.111 8  82314933.902 7
> 2025 06 15 12 00 25.0000000  0 18
C12  23641066.875 7  23641064.832 7 123105251.041 7  95192785.026 7
C19  22425495.148 7                 116775437.047 7
C22  22526133.313 7                 117299490.517 7
E05  24545824.977 5  24545828.914 4 128989207.059 5  97579530.30414
E06  25219896.906 7  25219899.469 8 132531450.658 7 100259195.291 8
E09  24775591.500 7  24775594.395 8 130196619.867 7  98492903.214 8
E34  24209519.203 8  24209521.648 8 127221882.183 8  96242538.952 8
E36  23857548.203 8  23857550.941 8 125372259.273 8  94843309.136 8
G01  20929986.852 7                  20929992.453 8 109987829.503 7                  85704825.110 8
G02  20713810.398 8  20713811.867 7                 108851802.475 8  84819725.810 7
G03  22196998.414 5                  22197010.844 6 116646114.82915                  90893059.92016
G08  22128615.781 7                  22128623.063 7 116286645.160 7                  90612900.125 7
G32  22030175.023 7                  22030181.566 7 115769344.035 7                  90210012.763 7
R01  22352991.727 5                 119489540.914 5
R02  19512314.734 8  19512319.406 7 104121456.458 8  80983480.124 7
R03  20865656.242 8  20865662.895 7 111695504.194 8  86874746.799 7
R17  19560344.672 8  19560350.211 7 104671353.054 8  81411114.723 7
R18  19822767.945 8  19822772.270 7 105815285.784 8  82301080.656 7
> 2025 06 15 12 00 30.0000000  0 18
C12  23637311.492 7  23637308.145 7 123085692.192 7  95177660.874 7
C19  22425148.344 7                 116773630.623 7
C22  22522635.258 7                 117281275.927 7
E05  24541647.547 5  24541651.430 4 128967254.388 5  97562923.22314
E06  25219233.320 7  25219236.270 8 132527966.212 7 100256559.334 8
E09  24773621.313 7  24773624.836 8 130186270.235 7  98485073.789 8
E34  24206722.641 8  24206725.301 8 127207187.069 8  96231422.188 8
E36  23857115.172 8  23857117.910 8 125369983.751 8  94841587.708 8
G01  20926873.102 7                  20926879.230 8 109971468.986 7                  85692076.659 8
G02  20712521.984 8  20712523.699 7                 108845032.451 8  84814450.448 7
G08  22130119.766 7                  22130129.082 7 116294559.762 7                  90619067.338 7
G10  23735907.539 5                                                                
G32  22029639.117 7                  22029645.613 7 115766530.551 7                  90207820.443 7
R01  22355278.945 5                 119501775.850 5
R02  19511618.008 8  19511622.281 7 104117737.246 8  80980587.396 7
R03  20861074.422 7  20861080.324 7 111670974.803 7  86855668.395 7
R17  19560373.047 8  19560377.191 7 104671498.995 8  81411228.237 7
R18  19819433.648 8  19819438.156 7 105797486.726 8  82287236.938 7
> 2025 06 15 12 00 35.0000000  0 18
C12  23633557.500 7  23633552.820 7 123066138.727 7  95162540.897 7
C19  22424803.508 7                 116771835.019 7
C22  22519139.305 7                 117263070.519 7
E04  26724347.531 5                 140437358.61815
E05  24537469.938 5  24537474.660 4 128945305.519 5  97546319.080 4
E06  25218571.711 7  25218575.172 8 132524492.439 7 100253931.469 8
E09  24771654.609 7  24771657.527 8 130175931.760 7  98477252.813 8
E34  24203926.922 8  24203929.578 8 127192495.551 8  96220308.171 8
E36  23856683.219 8  23856685.832 8 125367713.301 8  94839870.136 8
G01  20923762.063 7                  20923767.547 8 109955116.077 7                  85679334.139 8
G02  20711235.422 8  20711236.996 7                 108838271.315 8  84809182.045 7
G03  22188532.586 5                                                                
G08  22131627.734 7                  22131637.113 7 116302482.330 7                  90625240.764 7
G32  22029106.242 7                  22029112.887 7 115763731.284 7                  90205639.186 7
R02  19510924.375 8  19510929.383 7 104114037.729 8  80977709.979 7
R03  20856495.234 7  20856500.051 7 111646457.689 7  86836599.541 7
R17  19560404.133 8  19560407.309 7 104671660.018 8  81411353.464 7
R18  19816102.258 8  19816106.016 7 105779699.179 8  82273402.176 7
> 2025 06 15 12 00 40.0000000  0 18
C12  23629803.047 7  23629799.266 7 123046590.436 7  95147424.926 7
C19  22424460.109 7                 116770049.929 7
C22  22515643.859 7                 117244874.000 7
E05  24533293.883 5  24533298.414 4 128923360.22915  97529717.63814
E06  25217912.828 7  25217916.090 8 132521029.023 7 100251311.422 8
E09  24769689.625 7  24769692.113 8 130165604.150 7  98469440.052 8
E34  24201131.563 8  24201134.457 8 127177807.330 8  96209196.635 8
E36  23856252.039 8  23856254.648 8 125365447.636 8  94838156.171 8
G01  20920651.680 7                  20920656.926 8 109938770.521 7                  85666597.362 8
G02  20709950.430 8  20709952.160 7                 108831518.741 8  84803920.289 7
G03  22184296.484 6                  22184296.945 6 116579304.13316                  90840989.78316
G08  22133137.227 7                  22133145.727 7 116310412.552 7                  90631420.133 7
G32  22028575.727 7                  22028583.113 7 115760945.906 7                  90203468.799 7
R01  22359857.961 4                 119526264.82314
R02  19510234.852 8  19510239.641 7 104110357.763 8  80974847.800 7
R03  20851916.758 7  20851922.523 7 111621952.639 7  86817540.067 7
R17  19560435.820 8  19560439.926 7 104671835.713 8  81411490.124 7
R18  19812772.523 8  19812776.141 7 105761922.974 8  82259576.244 7
> 2025 06 15 12 00 45.0000000  0 18
C12  23626050.172 7  23626046.371 7 123027048.860 7  95132314.143 7
C19  22424119.719 7                 116768276.983 7
C22  22512151.055 7                 117226687.993 7
E05  24529120.156 5  24529123.258 4 128901420.049 5  97513120.108 4
E06  25217255.453 7  25217259.398 8 132517577.613 7 100248700.452 8
E09  24767726.703 8  24767729.332 8 130155289.055 8  98461636.762 8
E34  24198337.516 8  24198340.285 8 127163124.060 8  96198088.838 8
E36  23855822.273 8  23855824.742 9 125363188.397 8  94836447.070 9
G01  20917542.992 7                  20917547.883 8 109922433.950 7                  85653867.575 8
G02  20708667.711 8  20708668.973 7                 108824776.411 8  84798666.526 7
G03  22180056.258 5                  22180061.875 6 116557048.747 5                  90823647.961 6
G08  22134648.070 7                  22134656.531 7 116318352.059 7                  90637606.737 7
G32  22028049.375 7                  22028055.934 7 115758176.085 7                  90201310.464 7
R01  22362152.914 5                 119538520.028 5
R02  19509549.313 8  19509553.938 7 104106698.724 8  80972001.877 7
R03  20847342.320 8  20847347.078 7 111597461.461 8  86798491.421 7
R17  19560472.453 8  19560476.109 7 104672027.876 8  81411639.578 7
R18  19809444.797 8  19809448.246 7 105744159.761 8  82245760.407 7
> 2025 06 15 12 00 50.0000000  0 18
C12  23622298.609 7  23622295.828 7 123007515.299 7  95117209.582 7
C19  22423781.945 7                 116766517.385 7
C22  22508661.570 7                 117208513.720 7
E05  24524946.297 5  24524949.480 5 128879486.367 5  97496527.368 5
E06  25216601.320 7  25216605.137 8 132514139.458 7 100246099.511 8
E09  24765766.008 7  24765769.039 8 130144987.712 7  98453843.848 8
E34  24195544.508 8  24195547.367 8 127148446.985 8  96186985.729 8
E36  23855393.758 8  23855396.281 8 125360936.828 8  94834743.759 8
G01  20914435.898 7                  20914441.113 8 109906107.608 7                  85641145.753 8
G02  20707386.672 8  20707388.328 7                 108818045.547 8  84793421.705 7
G03  22175824.094 5                  22175828.980 6 116534802.542 5                  90806313.286 6
G08  22136160.977 7                  22136169.422 7 116326302.062 7                  90643801.521 7
G32  22027524.516 7                  22027531.996 7 115755423.075 7                  90199165.259 7
R01  22364447.273 5                 119550784.159 5
R02  19508868.031 8  19508871.949 7 104103061.854 8  80969173.226 7
R03  20842769.625 7  20842775.059 7 111572985.103 7  86779454.262 7
R17  19560511.594 8  19560515.711 7 104672237.505 8  81411802.629 7
R18  19806119.625 8  19806123.156 7 105726410.729 8  82231955.613 7
> 2025 06 15 12 00 55.0000000  0 18
C12  23618548.703 7  23618546.383 7 122987990.470 7  95102111.737 7
C19  22423446.578 7                 116764771.889 7
C22  22505173.547 7                 117190351.906 7
E05  24520773.648 5  24520776.918 5 128857559.790 5  97479940.07415
E06  25215950.195 7  25215953.500 8 132510715.225 7 100243509.106 8
E09  24763808.859 7  24763811.500 8 130134700.841 7  98446061.904 8
E34  24192753.016 8  24192755.758 8 127133776.839 8  96175887.863 8
E36  23854966.828 8  23854969.359 8 125358693.649 8  94833046.811 8
G01  20911331.383 7                  20911336.648 8 109889792.242 7                  85628432.475 8
G02  20706107.641 8  20706109.340 7                 108811326.880 8  84788186.383 7
G03  22171591.867 5                  22171597.523 6 116512566.063 5                  90788986.184 6
G08  22137676.227 7                  22137684.602 7 116334263.336 7                  90650005.068 7
G32  22027004.578 7                  22027011.328 7 115752687.515 7                  90197033.623 7
R01  22366744.813 5                 119563058.191 5
R02  19508190.711 8  19508194.859 7 104099448.033 8  80966362.449 7
R03  20838200.375 8  20838205.805 7 111548524.726 8  86760429.501 7
R17  19560553.609 8  19560558.008 7 104672465.521 8  81411979.949 7
R18  19802797.609 8  19802801.383 7 105708676.768 8  82218162.518 7
> 2025 06 15 12 01  0.0000000  0 18
C12  23614801.656 7  23614798.844 7 122968475.174 7  95087021.279 7
C19  22423114.648 7                 116763041.243 7
C22  22501688.578 7                 117172203.389 7
E05  24516602.875 5  24516614.996 5 128835641.207 5  97463359.36015
E06  25215301.367 8  25215304.723 8 132507305.815 8 100240929.904 8
E09  24761854.211 8  24761856.805 8 130124429.290 8  98438291.546 8
E34  24189963.180 8  24189965.555 8 127119114.431 8  96164795.854 8
E36  23854542.039 8  23854544.266 8 125356459.672 8  94831356.818 8
G01  20908229.688 7                  20908233.551 8 109873488.670 7                  85615728.377 8
G02  20704831.500 8  20704833.289 7                 108804621.252 8  84782961.209 7
G03  22167360.891 5                  22167368.355 6 116490340.145 5                  90771667.330 6
G08  22139193.180 7                  22139201.551 7 116342236.622 7                  90656217.986 7
G32  22026487.383 7                  22026494.199 7 115749970.315 7                  90194916.330 7
R01  22369040.539 4                 119575342.776 4
R02  19507518.563 8  19507522.371 7 104095858.094 8  80963570.270 7
R03  20833633.203 7  20833639.258 7 111524081.001 7  86741417.749 7
R17  19560599.031 8  19560604.793 7 104672712.843 8  81412172.326 7
R18  19799477.750 8  19799481.750 7 105690958.618 8  82204381.772 7
> 2025 06 15 12 01  5.0000000  0 18
C12  23611054.352 6  23611052.441 7 122948967.470 6  95071936.704 7
C19  22422784.703 7                 116761323.560 7
C22  22498205.125 7                 117154066.213 7
E05  24512433.734 5  24512445.410 5 128813728.619 5  97446782.631 5
E06  25214655.141 7  25214658.301 8 132503909.197 7 100238360.382 8
E09  24759901.969 7  24759904.602 8 130114171.060 7  98430531.257 8
E34  24187174.234 8  24187176.395 8 127104457.812 8  96153708.216 8
E36  23854118.102 8  23854120.555 8 125354232.955 8  94829672.324 8
G01  20905128.367 7                  20905132.711 8 109857194.939 7                  85603031.976 8
G02  20703557.242 8  20703559.246 7                 108797926.665 8  84777744.647 7
G03  22163130.531 5                  22163140.496 6 116468122.809 5                  90754355.211 6
G08  22140711.297 7                  22140720.336 7 116350220.019 7                  90662438.803 7
G32  22025974.523 8                  22025980.664 7 115747269.462 8                  90192811.747 7
R01  22371341.492 5                 119587635.90015
R02  19506850.023 8  19506853.645 7 104092290.021 8  80960795.098 7
R03  20829070.031 7  20829075.863 7 111499651.939 7  86722417.374 7
R17  19560649.211 8  19560653.715 7 104672977.321 8  81412378.010 7
R18  19796160.930 8  19796165.438 7 105673254.387 8  82190611.788 7
> 2025 06 15 12 01 10.0000000  0 18
C12  23607310.102 6  23607307.840 7 122929466.557 6  95056857.404 7
C19  22422457.516 7                 116759617.954 7
C22  22494723.320 7                 117135939.593 7
E05  24508263.953 5  24508276.422 5 128791821.377 5  97430209.968 5
E06  25214011.492 8  25214014.383 8 132500524.573 8 100235799.911 8
E09  24757952.367 7  24757954.941 8 130103925.367 7  98422780.455 8
E34  24184386.063 8  24184388.227 8 127089806.165 8  96142624.336 8
E36  23853695.789 8  23853698.051 8 125352012.679 8  94827992.694 8
G01  20902030.008 7                  20902034.324 8 109840910.233 7                  85590342.601 8
G02  20702285.953 8  20702286.844 7                 108791242.301 8  84772536.051 7
G03  22158905.172 5                  22158913.988 6 116445913.356 5                  90737049.168 6
G08  22142233.648 7                  22142241.805 7 116358212.600 7                  90668666.805 7
G10  23747950.047 5                                                                
G32  22025463.555 8                  22025469.645 7 115744584.126 8                  90190719.267 7
R02  19506184.680 8  19506189.172 7 104088742.799 8  80958036.158 7
R03  20824508.453 7  20824514.953 7 111475236.684 7  86703427.729 7
R17  19560702.273 8  19560706.367 7 104673258.292 8  81412596.534 7
R18  19792846.375 8  19792851.520 7 105655563.220 8  82176852.001 7
> 2025 06 15 12 01 15.0000000  0 20
C12  23603565.859 6  23603563.973 7 122909971.078 6  95041782.258 7
C19  22422131.922 7                 116757923.034 7
C22  22491244.305 7                 117117822.085 7
E04  26728482.914 4  26728462.496 6 140459150.91214 106256334.10516
E05  24504095.680 6  24504108.289 4 128769917.812 6  97413640.087 4
E06  25213369.320 8  25213372.402 8 132497150.513 8 100233247.453 8
E09  24756004.898 8  24756007.297 8 130093690.742 8  98415038.023 8
E34  24181598.563 8  24181600.715 8 127075158.058 8  96131543.138 8
E36  23853274.578 8  23853276.402 9 125349797.416 8  94826316.859 9
G01  20898932.070 7                  20898936.629 8 109824633.141 7                  85577659.148 8
G02  20701015.211 8  20701016.988 6                 108784566.780 8  84767334.346 6
G03  22154679.898 5                  22154688.328 6 116423710.332 5                  90719748.101 6
G08  22143755.109 7                  22143764.492 7 116366213.002 7                  90674900.856 7
G10  23749456.719 5                                 124804247.52915                
G32  22024954.555 7                  22024961.012 7 115741912.892 7                  90188637.781 7
R01  22375944.461 5                 119612243.40415
R02  19505523.703 8  19505528.027 7 104085215.151 8  80955292.428 7
R03  20819951.664 7  20819955.391 7 111450833.677 7  86684447.635 7
R17  19560756.289 8  19560761.223 7 104673554.151 8  81412826.654 7
R18  19789534.813 8  19789539.035 7 105637883.692 8  82163101.268 7
> 2025 06 15 12 01 20.0000000  0 20
C12  23599823.953 7  23599820.984 7 122890481.293 7  95026711.500 7
C19  22421808.523 7                 116756239.134 7
C22  22487767.484 7                 117099714.009 7
E04  26729007.781 5  26728986.879 6 140461907.083 5 106258419.091 6
E05  24499928.172 5  24499932.137 5 128748018.424 5  97397073.94415
E06  25212729.242 7  25212732.355 8 132493787.282 7 100230703.201 8
E09  24754059.211 7  24754061.969 8 130083467.530 7  98407304.241 8
E34  24178811.953 8  24178814.035 8 127060513.811 8  96120464.854 8
E36  23852853.953 8  23852855.844 8 125347587.436 8  94824645.023 8
G01  20895835.813 7                  20895840.602 8 109808363.946 7                  85564981.844 8
G02  20699746.180 8  20699748.254 6                 108777900.387 8  84762139.757 6
G03  22150455.063 5                  22150465.066 6 116401513.986 5                  90702452.258 6
G08  22145280.500 7                  22145288.211 7 116374221.480 7                  90681141.233 7
G10  23750965.500 5                                 124812173.016 5                
G32  22024448.719 7                  22024455.695 7 115739256.031 7                  90186567.500 7
R01  22378247.984 5                 119624556.699 5
R02  19504865.391 8  19504870.715 7 104081707.531 8  80952564.282 7
R03  20815394.883 8  20815399.309 7 111426443.634 8  86665477.620 7
R17  19560814.586 8  19560820.004 7 104673865.316 8  81413068.652 7
R18  19786225.492 8  19786229.516 7 105620216.039 8  82149359.757 7
