     3.04           OBSERVATION DATA    Mixed(MIXED)        RINEX VERSION / TYPE
cnvtToRINEX 3.14.0  convertToRINEX OPR  20250615 162932 UTC PGM / RUN BY / DATE 
----------------------------------------------------------- COMMENT             
34                                                          MARKER NAME         
34                                                          MARKER NUMBER       
GEODETIC                                                    MARKER TYPE         
GNSS Observer       Trimble                                 OBSERVER / AGENCY   
5849S10870          Geo Explorer 3      5.51                REC # / TYPE / VERS 
49S10870            UNKNOWN EXT     NONE                    ANT # / TYPE        
  3913945.5536  1190294.0955  4877824.0999                  APPROX POSITION XYZ 
        1.2440        0.0000        0.0000                  ANTENNA: DELTA H/E/N
G    6 C1C C2W C2X L1C L2W L2X                              SYS / # / OBS TYPES 
C    4 C2I C7I L2I L7I                                      SYS / # / OBS TYPES 
R    4 C1C C2C L1C L2C                                      SYS / # / OBS TYPES 
E    4 C1X C8X L1X L8X                                      SYS / # / OBS TYPES 
     5.000                                                  INTERVAL            
  2025     6    15    13    39   10.0000000     GPS         TIME OF FIRST OBS   
  2025     6    15    14    19   10.0000000     GPS         TIME OF LAST OBS    
     0                                                      RCV CLOCK OFFS APPL 
  9 R02 -4 R03  5 R04  6 R05  1 R11  0 R17  4 R18 -3 R19  3 GLONASS SLOT / FRQ #
    R20  2                                                  GLONASS SLOT / FRQ #
G L2X -0.25000                                              SYS / PHASE SHIFT   
R L2C -0.25000                                              SYS / PHASE SHIFT   
    18                                                      LEAP SECONDS        
    32                                                      # OF SATELLITES     
   C06   481   481   481   481                              PRN / # OF OBS      
   C11   470   470   470   470                              PRN / # OF OBS      
   C12   481   481   481   481                              PRN / # OF OBS      
   C16   481   481   481   481                              PRN / # OF OBS      
   C19    87     0    87     0                              PRN / # OF OBS      
   C21   481     0   481     0                              PRN / # OF OBS      
   C22   481     0   481     0                              PRN / # OF OBS      
   E03   481   481   481   481                              PRN / # OF OBS      
   E05   481   481   481   481                              PRN / # OF OBS      
   E09   422   414   420   414                              PRN / # OF OBS      
   E15   481   481   481   481                              PRN / # OF OBS      
   E34   481   481   481   481                              PRN / # OF OBS      
   E36   263   258   260   258                              PRN / # OF OBS      
   G01   481     0   481   481     0   481                  PRN / # OF OBS      
   G02   481   480     0   480   480     0                  PRN / # OF OBS      
   G03   481     0   481   481     0   481                  PRN / # OF OBS      
   G04   481     0   481   481     0   481                  PRN / # OF OBS      
   G06   137     0   130   130     0   130                  PRN / # OF OBS      
   G09    59     0    53    55     0    53                  PRN / # OF OBS      
   G17   476     0   468   471     0   468                  PRN / # OF OBS      
   G19   479   479     0   479   479     0                  PRN / # OF OBS      
   G28   454     0   451   453     0   451                  PRN / # OF OBS      
   G31   447     1   429   440     1   428                  PRN / # OF OBS      
   R02    29    14    26    13                              PRN / # OF OBS      
   R03   481   481   481   481                              PRN / # OF OBS      
   R04   481   481   481   481                              PRN / # OF OBS      
   R05    88    85    88    83                              PRN / # OF OBS      
   R11     5     2     4     2                              PRN / # OF OBS      
   R17    22    18    22    16                              PRN / # OF OBS      
   R18   481   481   481   481                              PRN / # OF OBS      
   R19   481   481   481   481                              PRN / # OF OBS      
   R20    47    46    47    46                              PRN / # OF OBS      
DBHZ                                                        SIGNAL STRENGTH UNIT
                                                            END OF HEADER       
>                              2  1
              *** Start of Kinematic Data ***               COMMENT             
> 2025 06 15 13 39 10.0000000  0 22
C06  38610083.000 6  38610079.352 6 201052838.83516 155466808.08716
C12  21948892.242 7  21948888.871 8 114293645.10617  88379186.84418
C16  39080415.914 6  39080418.188 5 203501982.06616 157360643.24715
C19  24686606.977 6                 128549637.60916
C21  23395868.563 7                 121828426.47817
C22  21356997.461 7                 111211490.94417
E03  26179936.609 7  26179940.355 8 137576492.97517 104075739.63318
E05  22078188.172 8  22078190.121 8 116021660.32018  87769640.51518
E09  25469025.578 6  25469027.805 7 133840599.03116 101249576.77917
E15  25293028.305 7  25293032.426 8 132915754.70117 100549925.23118
E34  23169764.844 8  23169766.641 8 121757935.26718  92109092.54618
E36  25630358.977 7  25630363.668 8 134688446.94317 101890951.10818
G01  20161464.625 8                  20161468.617 8 105949207.48418                  82557841.33018
G02  22019393.695 7  22019396.023 6                 115712694.98917  90165742.73316
G03  19867495.836 8                  19867502.629 8 104404393.63018                  81354099.97718
G04  22246411.391 7                  22246417.914 7 116905677.48517                  91095359.85717
G17  22196271.742 7                  22196276.465 7 116642200.88617                  90890191.56117
G28  23091267.531 6                  23091272.398 5 121345445.85516                  94554897.60015
R03  19107223.016 8  19107227.512 7 102282451.98018  79553095.75817
R04  20476070.734 8  20476073.910 7 109648424.68618  85282434.65217
R18  19521972.914 8  19521977.480 7 104209628.90918  81051886.55017
R19  19816310.617 8  19816312.891 7 106003895.25118  82447753.31017
> 2025 06 15 13 39 15.0000000  0 23
C06  38607758.102 6  38607754.840 6 201040732.928 6 155457447.040 6
C12  21947596.859 7  21947593.313 8 114286898.010 7  88373969.561 8
C16  39078248.852 6  39078250.109 5 203490696.914 6 157351916.840 5
C19  24687925.977 6                 128556507.964 6
C21  23392188.813 7                 121809269.805 7
C22  21356024.625 7                 111206425.688 7
E03  26175691.180 7  26175694.656 8 137554181.729 7 104058861.335 8
E05  22075940.406 8  22075941.848 8 116009845.576 8  87760702.731 8
E09  25469495.180 6  25469497.023 7 133843065.684 6 101251442.788 7
E15  25289447.977 7  25289451.965 8 132896939.189 7 100535691.412 8
E34  23168468.781 8  23168470.684 9 121751124.852 8  92103940.512 9
E36  25631256.461 7  25631261.336 8 134693164.060 7 101894519.574 8
G01  20160973.008 8                  20160977.125 8 105946625.317 8                  82555829.253 8
G02  22020343.102 7  22020345.176 5                 115717682.790 7  90169629.319 5
G03  19865442.000 8                  19865448.625 8 104393600.396 8                  81345689.663 8
G04  22241898.180 7                  22241904.629 7 116881961.531 7                  91076879.908 7
G17  22194688.250 7                  22194691.789 7 116633875.123 7                  90883703.962 7
G28  23089352.828 6                  23089357.871 5 121335384.874 6                  94547057.845 5
R03  19106465.789 8  19106470.313 7 102278399.012 8  79549943.459 7
R04  20471976.891 8  20471980.977 7 109626504.423 8  85265385.558 7
R17  22879467.109 4                 122432590.61614
R18  19522540.500 8  19522544.863 7 104212658.146 8  81054242.609 7
R19  19812870.492 8  19812872.078 7 105985488.260 8  82433436.767 7
>                              3  5
              *** Start of Occupation ***                   COMMENT             
34                                                          MARKER NAME         
34                                                          MARKER NUMBER       
  3913945.5536  1190294.0955  4877824.0999                  APPROX POSITION XYZ 
        1.2440        0.0000        0.0000                  ANTENNA: DELTA H/E/N
> 2025 06 15 13 39 20.0000000  0 23
C06  38605434.539 6  38605431.957 6 201028634.436 6 155448091.723 6
C12  21946304.773 7  21946300.859 7 114280167.913 7  88368765.421 7
C16  39076082.555 6  39076084.141 5 203479419.241 6 157343196.223 5
C19  24689246.750 6                 128563384.338 6
C21  23388512.109 7                 121790123.392 7
C22  21355054.477 7                 111201373.650 7
E03  26171446.672 7  26171450.293 8 137531877.728 7 104041988.522 8
E05  22073694.984 8  22073696.238 8 115998044.770 8  87751775.511 8
E09  25469966.523 6  25469968.461 7 133845543.154 6 101253316.966 7
E15  25285868.906 7  25285872.813 8 132878130.552 7 100521462.810 8
E34  23167174.977 8  23167176.945 8 121744326.166 8  92098797.341 8
E36  25632155.789 7  25632160.520 8 134697889.407 7 101898094.273 8
G01  20160484.703 8                  20160488.785 8 105944059.552 8                  82553829.954 8
G02  22021294.070 7  22021296.355 5                 115722682.185 7  90173524.937 5
G03  19863390.313 8                  19863397.434 8 104382821.231 8                  81337290.323 8
G04  22237387.016 7                  22237393.496 7 116858256.382 7                  91058408.382 7
G17  22193107.758 7                  22193111.160 7 116625567.713 7                  90877230.657 7
G19  22759702.734 7  22759705.887 5                 119603044.24917  93197489.70715
G28  23087440.625 6                  23087446.785 6 121325343.027 6                  94539232.990 6
R03  19105712.688 8  19105716.922 7 102274365.899 8  79546806.604 7
R04  20467886.523 8  20467890.117 7 109604600.174 8  85248348.936 7
R18  19523111.422 8  19523116.227 7 104215708.950 8  81056615.474 7
R19  19809432.852 8  19809434.770 7 105967101.244 8  82419135.767 7
> 2025 06 15 13 39 25.0000000  0 23
C06  38603112.523 6  38603110.508 6 201016544.331 6 155438742.910 6
C12  21945015.719 7  21945011.797 7 114273455.728 7  88363575.139 7
C16  39073919.000 6  39073919.355 5 203468149.958 6 157334482.108 5
C19  24690568.125 6                 128570267.637 6
C21  23384837.320 7                 121770988.256 7
C22  21354087.016 7                 111196335.790 7
E03  26167204.016 7  26167207.461 8 137509582.002 7 104025121.961 8
E05  22071452.203 8  22071453.500 8 115986258.881 8  87742859.564 8
E09  25470439.836 6  25470442.078 7 133848032.396 6 101255200.061 7
E15  25282291.156 7  25282295.023 8 132859329.766 7 100507240.159 8
E34  23165883.727 8  23165885.613 8 121737540.214 8  92093663.818 8
E36  25633056.883 7  25633061.484 8 134702623.975 7 101901675.938 8
G01  20159999.961 8                  20160004.203 8 105941511.151 8                  82551844.185 8
G02  22022248.188 7  22022249.848 5                 115727694.194 7  90177430.396 5
G03  19861342.719 8                  19861348.863 7 104372057.107 8                  81328902.675 7
G04  22232878.195 7                  22232884.969 7 116834563.033 7                  91039946.042 7
G17  22191529.695 7                  22191533.992 7 116617279.602 7                  90870772.392 7
G19  22756220.695 7  22756224.602 5                 119584748.439 7  93183233.239 5
G28  23085534.461 6                  23085539.527 6 121315321.331 6                  94531423.859 6
R03  19104962.813 8  19104967.141 7 102270353.381 8  79543685.765 7
R04  20463798.820 8  20463802.906 7 109582712.813 8  85231325.448 7
R18  19523687.031 8  19523691.926 7 104218782.261 8  81059005.815 7
R19  19805999.531 8  19806001.438 7 105948735.136 8  82404851.008 7
> 2025 06 15 13 39 30.0000000  0 23
C06  38600792.281 6  38600790.676 6 201004462.640 6 155429400.579 6
C12  21943730.914 7  21943726.266 7 114266761.504 7  88358398.743 7
C16  39071757.219 6  39071756.559 5 203456889.168 6 157325774.580 5
C19  24691891.406 6                 128577157.912 6
C21  23381164.945 7                 121751864.382 7
C22  21353122.648 7                 111191312.130 7
E03  26162962.664 7  26162966.250 8 137487294.534 7 104008261.657 8
E05  22069211.945 8  22069213.551 8 115974487.938 8  87733954.935 8
E09  25470915.820 6  25470917.910 7 133850533.475 6 101257092.095 7
E15  25278714.672 7  25278718.785 8 132840536.909 7 100493023.481 8
E34  23164594.852 8  23164596.707 9 121730767.022 8  92088539.942 9
E36  25633959.563 7  25633964.191 8 134707367.826 7 101905264.630 8
G01  20159518.203 8                  20159522.500 8 105938980.171 8                  82549871.983 8
G02  22023204.000 7  22023205.816 5                 115732718.797 7  90181345.666 5
G03  19859297.656 8                  19859303.375 8 104361308.028 8                  81320526.776 8
G04  22228371.711 7                  22228378.426 7 116810881.495 7                  91021492.909 7
G17  22189956.141 7                  22189960.301 7 116609010.931 7                  90864329.256 7
G19  22752742.875 7  22752746.633 5                 119566471.067 7  93168991.139 5
G28  23083631.258 6                  23083636.910 6 121305319.896 6                  94523630.473 6
R03  19104216.430 8  19104221.270 7 102266361.563 8  79540581.008 7
R04  20459714.781 8  20459718.734 7 109560842.531 8  85214315.224 7
R18  19524267.305 8  19524271.813 7 104221878.000 8  81061413.608 7
R19  19802569.617 8  19802571.789 7 105930389.948 8  82390582.538 7
> 2025 06 15 13 39 35.0000000  0 23
C06  38598473.750 6  38598472.051 6 200992389.472 6 155420064.843 6
C12  21942447.898 7  21942444.316 8 114260085.300 7  88353236.269 8
C16  39069596.156 6  39069596.324 5 203445636.918 6 157317073.639 5
C19  24693216.258 6                 128584055.210 6
C21  23377494.875 7                 121732751.865 7
C22  21352160.477 7                 111186302.740 7
E03  26158723.000 7  26158726.691 8 137465015.418 7 103991407.651 8
E05  22066974.555 8  22066976.516 8 115962732.002 8  87725061.655 8
E09  25471395.234 5  25471396.055 7 133853046.417 5 101258993.073 7
E15  25275140.633 7  25275144.148 8 132821752.002 7 100478812.814 8
E34  23163308.469 8  23163310.258 8 121724006.646 8  92083425.756 8
E36  25634864.172 7  25634868.688 8 134712120.986 7 101908860.365 8
G01  20159039.797 8                  20159044.191 8 105936466.633 8                  82547913.380 8
G02  22024162.578 7  22024164.063 5                 115737756.066 7  90185270.812 5
G03  19857254.648 8                  19857260.484 7 104350574.087 8                  81312162.671 7
G04  22223868.242 7                  22223874.160 7 116787211.841 7                  91003049.023 7
G17  22188385.984 7                  22188390.543 7 116600761.602 7                  90857901.210 7
G19  22749268.500 7  22749272.063 5                 119548212.188 7  93154763.439 5
G28  23081732.492 6                  23081737.648 6 121295338.540 6                  94515852.800 6
R03  19103474.727 8  19103480.086 7 102262390.564 8  79537492.436 7
R04  20455634.117 8  20455637.652 7 109538989.243 8  85197318.224 7
R18  19524852.180 8  19524856.152 7 104224996.308 8  81063838.949 7
R19  19799144.281 8  19799146.449 7 105912065.803 8  82376330.414 7
> 2025 06 15 13 39 40.0000000  0 24
C06  38596156.172 6  38596154.895 6 200980323.493 6 155410734.634 6
C12  21941169.430 7  21941165.543 7 114253425.884 7  88348086.783 7
C16  39067436.094 6  39067436.820 5 203434391.923 6 157308378.315 5
C19  24694542.063 6                 128590958.256 6
C21  23373826.828 7                 121713649.441 7
C22  21351200.953 7                 111181306.335 7
E03  26154484.766 7  26154488.484 8 137442743.377 7 103974559.021 8
E05  22064739.914 8  22064742.059 8 115950989.845 8  87716178.794 8
E09  25471876.477 5  25471876.199 7 133855569.987 5 101260902.115 7
E15  25271567.313 7  25271570.691 8 132802973.775 7 100464607.218 8
E34  23162024.055 8  23162025.969 8 121717257.825 8  92078320.315 8
E36  25635770.063 7  25635774.703 8 134716882.170 7 101912462.162 8
G01  20158564.539 8                  20158568.980 8 105933969.308 8                  82545967.405 8
G02  22025123.508 7  22025124.316 5                 115742804.738 7  90189204.821 5
G03  19855214.391 8                  19855220.453 7 104339853.969 8                  81303809.348 7
G04  22219366.031 7                  22219371.723 7 116763552.819 7                  90984613.428 7
G17  22186819.734 7                  22186824.398 7 116592530.407 7                  90851487.309 7
G19  22745797.352 7  22745801.180 5                 119529970.555 7  93140549.204 5
G28  23079836.539 6                  23079841.879 6 121285376.229 6                  94508089.969 6
R03  19102736.633 8  19102741.434 7 102258439.030 8  79534419.017 7
R04  20451556.250 8  20451559.926 7 109517151.817 8  85180333.584 7
R17  22892839.039 6  22892849.805 4 122504137.25916  95281093.99414
R18  19525439.758 8  19525444.191 7 104228135.896 8  81066280.839 7
R19  19795722.031 8  19795724.246 7 105893761.311 8  82362093.577 7
> 2025 06 15 13 39 45.0000000  0 24
C06  38593839.992 6  38593839.535 6 200968265.620 6 155401410.736 6
C12  21939893.258 7  21939890.262 7 114246784.082 7  88342950.926 7
C16  39065279.047 6  39065278.941 6 203423155.096 6 157299689.281 6
C19  24695869.336 6                 128597867.890 6
C21  23370160.844 7                 121694557.979 7
C22  21350244.258 7                 111176323.781 7
E03  26150248.078 7  26150251.785 8 137420479.278 7 103957716.390 8
E05  22062507.938 8  22062510.375 8 115939262.253 8  87707306.950 8
E09  25472357.930 5  25472358.469 7 133858104.896 5 101262819.773 7
E15  25267995.430 7  25267998.773 8 132784203.106 7 100450407.339 8
E34  23160742.289 8  23160744.090 8 121710521.406 8  92073224.259 8
E36  25636677.781 7  25636682.473 8 134721652.269 7 101916070.709 8
G01  20158092.664 8                  20158097.051 8 105931489.013 8                  82544034.713 8
G02  22026086.211 7  22026087.516 5                 115747865.608 7  90193148.362 5
G03  19853177.438 8                  19853183.172 7 104329148.612 8                  81295467.511 7
G04  22214865.680 7                  22214871.863 7 116739905.270 7                  90966186.778 7
G17  22185256.734 7                  22185261.594 7 116584318.222 7                  90845088.208 7
G19  22742329.313 7  22742333.332 5                 119511747.056 7  93126349.082 5
G28  23077944.266 6                  23077949.789 6 121275433.729 6                  94500342.591 6
R03  19102002.641 8  19102007.422 7 102254507.892 8  79531361.474 7
R04  20447480.898 8  20447484.570 7 109495331.021 8  85163361.863 7
R17  22895518.703 6  22895528.598 4 122518474.566 6  95292245.252 4
R18  19526031.586 8  19526036.133 7 104231297.684 8  81068739.988 7
R19  19792304.195 8  19792306.660 7 105875477.363 8  82347872.729 7
> 2025 06 15 13 39 50.0000000  0 25
C06  38591525.875 6  38591525.480 6 200956215.184 6 155392092.567 6
C12  21938620.625 7  21938618.309 7 114240159.223 7  88337828.165 7
C16  39063122.391 6  39063122.582 5 203411925.704 6 157291006.027 5
C19  24697196.742 6                 128604783.484 6
C21  23366495.328 7                 121675476.801 7
C22  21349290.063 7                 111171354.431 7
E03  26146012.195 7  26146016.500 8 137398222.487 7 103940879.297 8
E05  22060279.148 8  22060281.352 8 115927548.647 8  87698445.683 8
E09  25472842.047 5  25472842.852 7 133860650.590 5 101264745.572 7
E15  25264424.383 7  25264428.191 8 132765439.380 7 100436212.700 8
E34  23159462.688 8  23159464.422 8 121703796.763 8  92068137.104 8
E36  25637587.055 7  25637591.797 8 134726430.624 7 101919685.486 8
G01  20157623.945 8                  20157628.262 8 105929025.104 8                  82542114.786 8
G02  22027051.258 7  22027053.008 5                 115752938.092 7  90197100.952 5
G03  19851142.672 8                  19851149.039 7 104318457.336 8                  81287136.644 7
G04  22210368.203 7                  22210374.070 7 116716268.573 7                  90947768.591 7
G17  22183698.172 7                  22183702.102 7 116576124.379 7                  90838703.375 7
G19  22738864.828 7  22738868.660 5                 119493541.003 7  93112162.551 5
G28  23076054.758 6                  23076061.672 7 121265510.416 6                  94492610.158 7
G31  22923223.984 5                  22923233.313 5 120462340.10115                  93866802.57515
R03  19101271.953 8  19101276.410 7 102250596.373 8  79528319.183 7
R04  20443409.414 8  20443413.293 7 109473526.274 8  85146402.616 7
R17  22898192.086 6  22898207.035 4 122532820.302 6  95303402.887 4
R18  19526629.063 8  19526632.727 7 104234480.813 8  81071215.728 7
R19  19788889.906 8  19788891.988 7 105857213.442 8  82333667.485 7
> 2025 06 15 13 39 55.0000000  0 25
C06  38589212.758 6  38589212.613 6 200944172.668 6 155382780.538 6
C12  21937351.836 7  21937349.348 7 114233551.829 7  88332718.909 7
C16  39060967.320 6  39060967.563 6 203400704.364 6 157282328.973 6
C19  24698526.391 6                 128611705.563 6
C21  23362832.953 7                 121656406.497 7
C22  21348338.602 7                 111166398.808 7
E03  26141778.422 7  26141782.625 8 137375973.539 7 103924048.128 8
E05  22058052.930 8  22058055.063 8 115915849.521 8  87689595.368 8
E09  25473328.766 5  25473329.434 7 133863207.566 5 101266679.932 7
E15  25260855.188 7  25260858.996 8 132746683.105 7 100422023.704 8
E34  23158185.352 8  23158187.098 9 121697084.433 8  92063059.268 9
E36  25638497.656 7  25638502.801 8 134731217.752 7 101923306.894 8
G01  20157158.320 8                  20157162.777 8 105926578.151 8                  82540208.068 8
G02  22028018.930 7  22028020.980 5                 115758022.697 7  90201062.977 5
G03  19849111.219 8                  19849117.230 7 104307780.631 8                  81278817.123 7
G04  22205872.008 7                  22205878.082 7 116692643.279 7                  90929359.276 7
G17  22182142.484 7                  22182146.492 7 116567949.421 7                  90832333.283 7
G19  22735403.617 7  22735407.207 5                 119475353.026 7  93097990.103 5
G28  23074169.766 6                  23074177.219 7 121255606.853 6                  94484893.092 7
G31  22919641.320 5                  22919651.531 5 120443515.425 5                  93852133.970 5
R03  19100544.547 8  19100549.773 7 102246705.107 8  79525292.655 7
R04  20439339.344 8  20439344.328 7 109451737.985 8  85129456.190 7
R17  22900873.922 6  22900887.844 4 122547175.134 6  95314567.649 4
R18  19527228.695 8  19527233.512 7 104237685.960 8  81073708.624 7
R19  19785479.055 8  19785482.008 7 105838970.008 8  82319478.163 7
> 2025 06 15 13 40  0.0000000  0 25
C06  38586901.953 6  38586901.484 6 200932137.944 6 155373474.521 6
C12  21936086.414 7  21936083.895 7 114226961.802 7  88327623.077 7
C16  39058814.664 6  39058814.469 5 203389490.842 6 157273657.968 5
C19  24699856.164 6                 128618633.940 6
C21  23359172.313 7                 121637346.843 7
C22  21347389.242 7                 111161456.704 7
E03  26137545.930 7  26137550.188 8 137353732.286 7 103907222.781 8
E05  22055829.492 8  22055831.520 8 115904164.714 8  87680755.887 8
E09  25473817.516 5  25473818.121 7 133865775.712 5 101268622.715 7
E15  25257287.188 7  25257291.180 8 132727934.105 7 100407840.212 8
E34  23156910.445 8  23156912.109 8 121690384.205 8  92057990.586 8
E36  25639410.422 7  25639415.438 8 134736013.483 7 101926934.816 8
G01  20156695.617 8                  20156700.441 8 105924147.926 8                  82538314.396 8
G02  22028988.539 7  22028990.887 5                 115763119.226 7  90205034.292 5
G03  19847082.102 8                  19847088.027 7 104297118.350 8                  81270508.846 7
G04  22201378.641 7                  22201384.570 7 116669029.191 7                  90910958.704 7
G17  22180590.008 7                  22180594.285 6 116559793.196 7                  90825977.795 6
G19  22731946.367 7  22731949.633 5                 119457182.861 7  93083831.523 5
G28  23072289.914 6                  23072296.480 7 121245722.871 6                  94477191.280 7
G31  22916061.914 5                  22916073.402 5 120424706.658 5                  93837477.794 5
R03  19099821.383 8  19099826.453 7 102242833.921 8  79522281.723 7
R04  20435273.789 8  20435278.637 7 109429966.080 8  85112522.513 7
R17  22903557.430 6  22903572.734 4 122561538.607 6  95325739.234 4
R18  19527833.383 8  19527837.992 7 104240912.911 8  81076218.476 7
R19  19782072.594 8  19782075.539 7 105820746.965 8  82305304.694 7
> 2025 06 15 13 40  5.0000000  0 26
C06  38584592.195 6  38584591.848 6 200920111.200 6 155364174.682 6
C11  24636728.078 7  24636727.461 6 128289907.03617  99201891.82216
C12  21934824.000 7  21934821.461 7 114220389.265 7  88322540.776 7
C16  39056662.688 6  39056662.176 5 203378285.351 6 157264993.161 5
C19  24701187.859 6                 128625568.762 6
C21  23355514.258 7                 121618298.052 7
C22  21346443.070 7                 111156528.332 7
E03  26133314.852 7  26133319.367 8 137331498.850 7 103890403.346 8
E05  22053608.695 8  22053610.719 8 115892494.377 8  87671927.357 8
E09  25474305.664 5  25474308.988 7 133868355.072 5 101270573.991 7
E15  25253720.852 7  25253724.820 8 132709192.568 7 100393662.356 8
E34  23155637.453 8  23155639.434 8 121683696.292 8  92052931.224 8
E36  25640324.836 7  25640329.746 8 134740817.979 7 101930569.370 8
G01  20156236.797 8                  20156241.117 8 105921734.643 8                  82536433.911 8
G02  22029960.789 7  22029963.105 5                 115768227.892 7  90209015.047 5
G03  19845055.727 8                  19845061.863 7 104286470.680 8                  81262211.960 7
G04  22196887.188 7                  22196893.305 7 116645426.520 7                  90892567.026 7
G17  22179042.117 7                  22179046.039 6 116551655.806 7                  90819636.965 6
G19  22728491.266 7  22728494.973 5                 119439030.741 7  93069687.027 5
G28  23070413.469 6                  23070419.117 7 121235858.681 6                  94469504.872 7
G31  22912487.484 5                  22912497.160 5 120405913.874 5                  93822834.056 5
R03  19099103.039 8  19099107.121 7 102238983.012 8  79519286.560 7
R04  20431210.586 8  20431215.770 7 109408210.782 8  85095601.740 7
R17  22906239.758 5  22906260.352 4 122575911.139 5  95336917.819 4
R18  19528442.336 8  19528446.352 7 104244161.873 8  81078745.435 7
R19  19778670.539 8  19778672.742 7 105802544.404 8  82291147.154 7
> 2025 06 15 13 40 10.0000000  0 26
C06  38582284.555 6  38582284.105 6 200908092.086 6 155354880.750 6
C11  24632739.453 7  24632739.406 7 128269137.582 7  99185831.574 7
C12  21933565.250 7  21933562.617 7 114213833.887 7  88317471.740 7
C16  39054512.391 6  39054511.359 5 203367087.474 6 157256334.256 5
C19  24702520.969 6                 128632509.653 6
C21  23351858.406 7                 121599259.699 7
C22  21345499.281 7                 111151613.285 7
E03  26129085.688 7  26129089.902 8 137309272.916 7 103873589.594 8
E05  22051390.297 8  22051392.617 8 115880838.174 8  87663109.521 8
E09  25474797.406 5  25474801.961 7 133870945.470 5 101272533.611 7
E15  25250155.461 7  25250159.824 8 132690458.102 7 100379489.876 8
E34  23154367.047 8  23154369.063 8 121677020.306 8  92047880.885 8
E36  25641240.789 7  25641245.590 8 134745630.864 7 101934210.267 8
G01  20155780.359 8                  20155784.848 8 105919337.914 8                  82534566.323 8
G02  22030935.602 7  22030937.480 5                 115773348.262 7  90213004.927 5
G03  19843032.641 8                  19843038.707 7 104275837.240 8                  81253926.162 7
G04  22192398.117 7                  22192404.184 7 116621834.906 7                  90874183.969 7
G17  22177496.859 7                  22177501.488 6 116543536.917 7                  90813310.558 6
G19  22725040.367 7  22725043.738 5                 119420896.287 7  93055556.281 5
G28  23068540.586 7                  23068545.516 7 121226013.792 7                  94461833.511 7
G31  22908915.219 5                  22908922.816 5 120387136.712 5                  93808202.535 5
R03  19098387.266 8  19098391.508 7 102235151.793 8  79516306.714 7
R04  20427151.859 8  20427156.129 7 109386471.771 8  85078693.626 7
R17  22908927.188 5  22908947.684 4 122590292.125 5  95348103.045 4
R18  19529055.516 8  19529059.051 7 104247432.418 8  81081289.173 7
R19  19775271.875 8  19775273.637 7 105784362.146 8  82277005.389 7
> 2025 06 15 13 40 15.0000000  0 27
C06  38579978.055 6  38579977.387 6 200896079.915 6 155345592.175 6
C11  24628752.633 6  24628752.883 7 128248377.847 6  99169778.831 7
C12  21932310.016 7  21932307.410 7 114207295.010 7  88312415.471 7
C16  39052363.984 6  39052361.930 6 203355896.653 6 157247680.820 6
C19  24703855.477 6                 128639455.986 6
C21  23348203.711 7                 121580231.214 7
C22  21344557.703 7                 111146710.968 7
E03  26124857.672 7  26124861.824 8 137287053.850 7 103856781.035 8
E05  22049174.898 8  22049177.109 8 115869195.478 8  87654301.892 8
E09  25475292.352 5  25475296.781 7 133873545.96615 101274500.94417
E15  25246591.820 7  25246595.996 8 132671730.152 7 100365322.320 8
E34  23153098.727 8  23153100.852 8 121670355.642 8  92042839.111 8
E36  25642158.750 7  25642162.941 8 134750451.523 7 101937857.047 8
G01  20155326.750 8                  20155331.719 8 105916957.130 8                  82532711.170 8
G02  22031911.523 7  22031914.074 5                 115778479.724 7  90217003.447 5
G03  19841012.000 8                  19841018.051 7 104265217.412 8                  81245650.978 7
G04  22187910.070 7                  22187916.711 7 116598253.727 7                  90855809.056 7
G17  22175955.078 7                  22175960.164 7 116535435.955 7                  90806998.113 7
G19  22721592.773 6  22721595.785 4                 119402778.847 6  93041438.818 4
G28  23066671.086 7                  23066675.879 7 121216187.683 7                  94454176.786 7
G31  22905341.867 4                  22905351.973 5 120368374.582 4                  93793582.694 5
R02  22250202.875 5  22250202.262 4 118731392.47615  92346597.69514
R03  19097675.727 8  19097679.008 7 102231339.796 8  79513341.823 7
R04  20423095.945 8  20423099.582 7 109364748.243 8  85061797.536 7
R17  22911614.758 5  22911634.133 3 122604681.082 5  95359294.570 3
R18  19529672.133 8  19529676.344 7 104250723.914 8  81083849.220 7
R19  19771876.766 8  19771878.137 7 105766199.364 8  82262878.778 7
> 2025 06 15 13 40 20.0000000  0 26
C06  38577673.102 6  38577671.547 6 200884074.719 6 155336308.995 6
C11  24624768.789 7  24624768.461 7 128227627.936 7  99153733.695 7
C12  21931057.234 7  21931054.570 7 114200772.635 7  88307371.950 7
C16  39050216.328 6  39050214.883 6 203344712.798 6 157239032.763 6
C19  24705190.867 6                 128646407.783 6
C21  23344552.156 7                 121561212.557 7
C22  21343618.891 7                 111141821.331 7
E03  26120630.680 7  26120635.031 8 137264841.630 7 103839977.646 8
E05  22046962.023 8  22046964.156 8 115857566.224 8  87645504.438 8
E09  25475791.266 5  25475793.625 7 133876156.706 5 101276475.991 7
E15  25243029.297 7  25243033.426 8 132653008.625 7 100351159.615 8
E34  23151832.836 8  23151834.766 8 121663702.260 8  92037805.868 8
E36  25643077.766 7  25643081.766 8 134755279.888 7 101941509.670 8
G01  20154876.945 8                  20154881.746 8 105914592.215 8                  82530868.377 8
G02  22032890.422 7  22032892.461 5                 115783622.215 7  90221010.575 5
G03  19838993.273 8                  19838999.703 7 104254611.145 8                  81237386.361 7
G04  22183424.063 7                  22183431.254 7 116574682.930 7                  90837442.203 7
G17  22174417.258 7                  22174421.797 7 116527352.808 7                  90800699.557 7
G19  22718148.156 6  22718151.500 4                 119384678.514 6  93027334.655 4
G28  23064803.789 7                  23064809.523 6 121206380.260 7                  94446534.644 6
R02  22252347.625 5  22252346.508 4 118742833.756 5  92355496.498 4
R03  19096966.313 8  19096970.707 7 102227546.945 8  79510391.844 7
R04  20419041.984 8  20419045.746 7 109343040.257 8  85044913.547 7
R17  22914302.227 4  22914322.844 4 122619077.887 4  95370492.161 4
R18  19530292.461 8  19530296.645 7 104254036.311 8  81086425.524 7
R19  19768484.242 8  19768486.809 7 105748056.139 8  82248767.395 7
> 2025 06 15 13 40 25.0000000  0 25
C06  38575369.047 6  38575367.648 6 200872077.309 6 155327031.834 6
C11  24620785.672 6  24620785.949 7 128206888.685 6  99137696.790 7
C12  21929808.258 7  21929805.371 7 114194267.621 7  88302341.857 7
C16  39048069.328 6  39048068.688 6 203333536.842 6 157230390.801 6
C19  24706526.711 6                 128653365.819 6
C21  23340901.953 7                 121542204.621 7
C22  21342682.133 7                 111136945.245 7
E03  26116405.203 7  26116409.691 8 137242637.147 7 103823180.113 8
E05  22044751.664 8  22044753.938 8 115845951.333 8  87636717.856 8
E09  25476291.078 5  25476292.648 7 133878778.629 5 101278459.484 7
E15  25239468.039 7  25239472.246 8 132634294.479 7 100337002.487 8
E34  23150568.961 8  23150571.012 8 121657061.046 8  92032781.838 8
E36  25643998.555 7  25644002.188 8 134760116.910 7 101945168.835 8
G01  20154430.008 7                  20154434.723 8 105912244.124 7                  82529038.684 8
G02  22033871.461 7  22033873.434 5                 115788776.693 7  90225027.035 5
G03  19836977.914 8                  19836984.027 8 104244019.331 8                  81229133.002 8
G04  22178941.141 7                  22178947.691 7 116551123.467 7                  90819084.196 7
G17  22172881.820 7                  22172887.633 7 116519288.416 7                  90794415.637 7
G19  22714708.094 6  22714710.430 5                 119366596.140 6  93013244.479 5
G28  23062940.891 7                  23062946.574 7 121196592.456 7                  94438907.784 7
R02  22254492.430 5  22254492.289 4 118754282.461 5  92364401.032 4
R03  19096261.820 8  19096266.164 7 102223774.207 8  79507457.485 7
R04  20414990.945 8  20414995.180 7 109321348.788 8  85028042.432 7
R18  19530917.414 8  19530920.980 7 104257370.485 8  81089018.766 7
R19  19765096.352 8  19765098.559 7 105729933.277 8  82234671.846 7
> 2025 06 15 13 40 30.0000000  0 25
C06  38573066.922 6  38573064.824 6 200860088.234 6 155317761.111 6
C11  24616804.867 6  24616805.004 7 128186160.507 6  99121668.450 7
C12  21928562.320 7  21928559.504 7 114187780.421 7  88297325.544 7
C16  39045924.531 6  39045924.012 5 203322369.229 6 157221755.298 5
C19  24707864.602 6                 128660330.637 6
C21  23337254.141 7                 121523207.869 7
C22  21341748.570 7                 111132083.175 7
E03  26112181.336 7  26112185.902 8 137220440.866 7 103806388.781 8
E05  22042544.180 8  22042546.539 8 115834351.239 8  87627942.459 8
E09  25476797.609 5  25476793.793 7 133881412.136 5 101280451.740 7
E15  25235908.219 7  25235912.570 8 132615588.141 7 100322851.266 8
E34  23149307.641 8  23149309.648 9 121650432.487 8  92027767.376 9
E36  25644921.297 7  25644924.309 8 134764962.961 7 101948834.830 8
G01  20153987.023 8                  20153991.340 8 105909913.252 8                  82527222.409 8
G02  22034855.086 7  22034856.582 5                 115793943.576 7  90229053.170 5
G03  19834965.320 8                  19834971.723 8 104233442.458 8                  81220891.289 8
G04  22174460.453 7                  22174466.766 7 116527575.795 7                  90800735.358 7
G17  22171350.680 7                  22171356.441 7 116511243.259 7                  90788146.685 7
G19  22711270.359 7  22711273.387 4                 119348532.147 7  92999168.648 4
G28  23061082.313 7                  23061087.930 7 121186824.722 7                  94431296.567 7
R02  22256640.914 4  22256639.203 4 118765739.135 4  92373311.770 4
R03  19095561.148 8  19095565.254 7 102220021.767 8  79504538.925 7
R04  20410943.461 8  20410947.641 7 109299674.106 8  85011184.371 7
R18  19531546.008 8  19531549.918 7 104260726.965 8  81091629.364 7
R19  19761712.906 8  19761714.625 7 105711831.264 8  82220592.500 7
> 2025 06 15 13 40 35.0000000  0 24
C06  38570765.313 6  38570763.445 6 200848105.792 6 155308495.507 6
C11  24612826.453 6  24612825.984 7 128165441.841 6  99105647.466 7
C12  21927319.469 7  21927316.887 7 114181309.377 7  88292321.724 7
C16  39043781.375 6  39043780.742 5 203311208.257 6 157213124.914 5
C19  24709203.828 6                 128667300.529 6
C21  23333607.688 7                 121504220.622 7
C22  21340816.758 7                 111127233.436 7
E03  26107958.766 7  26107963.289 8 137198251.104 7 103789602.386 8
E05  22040339.242 8  22040341.629 8 115822764.291 8  87619177.015 8
E09  25477299.813 5  25477296.824 7 133884055.579 5 101282451.451 7
E15  25232349.773 7  25232354.039 8 132596887.915 7 100308704.671 8
E34  23148048.305 8  23148050.363 8 121643814.884 8  92022761.193 8
E36  25645844.602 7  25645847.871 8 134769816.445 7 101952506.443 8
G01  20153546.523 7                  20153550.508 8 105907597.958 7                  82525418.270 8
G02  22035840.664 7  22035841.703 6                 115799121.153 7  90233087.640 6
G03  19832955.117 8                  19832961.352 8 104222878.819 8                  81212659.877 8
G04  22169981.500 7                  22169987.359 7 116504038.210 7                  90782394.394 7
G17  22169823.563 7                  22169828.676 7 116503215.618 7                  90781891.361 7
G19  22707836.203 7  22707839.254 4                 119330484.935 7  92985105.887 4
G28  23059227.242 7                  23059232.441 6 121177075.435 7                  94423699.693 6
R03  19094863.453 8  19094867.570 7 102216288.218 8  79501635.052 7
R04  20406898.383 8  20406902.852 7 109278014.675 8  84994338.163 7
R18  19532179.844 8  19532182.180 7 104264103.964 8  81094255.921 7
R19  19758332.344 8  19758334.383 7 105693748.572 8  82206528.183 7
> 2025 06 15 13 40 40.0000000  0 24
C06  38568465.914 6  38568463.094 6 200836130.264 6 155299235.251 6
C11  24608848.367 6  24608848.734 7 128144732.941 6  99089634.030 7
C12  21926079.930 7  21926077.043 7 114174854.838 7  88287330.654 7
C16  39041639.055 6  39041638.520 5 203300054.271 6 157204499.932 5
C19  24710542.734 6                 128674275.813 6
C21  23329963.711 7                 121485243.242 7
C22  21339887.445 7                 111122396.369 7
E03  26103737.453 7  26103742.043 8 137176068.233 7 103772821.206 8
E05  22038136.945 8  22038139.309 8 115811190.824 8  87610421.765 8
E09  25477802.406 5  25477801.789 7 133886709.262 5 101284458.910 7
E15  25228792.328 7  25228796.758 8 132578194.179 7 100294562.986 8
E34  23146791.273 8  23146793.246 9 121637208.578 8  92017763.560 9
E36  25646769.641 7  25646772.914 8 134774677.660 7 101956183.912 8
G01  20153109.281 8                  20153113.121 8 105905298.542 8                  82523626.528 8
G02  22036827.531 7  22036829.211 6                 115804309.756 7  90237130.702 6
G03  19830947.586 8                  19830953.836 8 104212328.760 8                  81204439.062 8
G04  22165504.484 7                  22165510.402 7 116480511.095 7                  90764061.573 7
G17  22168299.055 7                  22168304.766 7 116495205.893 7                  90775650.007 7
G19  22704404.797 7  22704407.992 4                 119312454.794 7  92971056.436 4
G28  23057376.242 7                  23057380.566 6 121167344.878 7                  94416117.408 6
R03  19094169.266 8  19094173.531 7 102212573.706 8  79498745.984 7
R04  20402856.672 8  20402860.957 7 109256370.815 8  84977504.040 7
R18  19532815.281 8  19532819.070 7 104267501.841 8  81096898.708 7
R19  19754954.766 8  19754957.703 7 105675685.518 8  82192479.147 7
> 2025 06 15 13 40 45.0000000  0 24
C06  38566167.039 6  38566164.430 6 200824161.880 6 155289980.539 6
C11  24604872.820 6  24604873.723 7 128124034.049 6  99073628.340 7
C12  21924843.445 7  21924840.383 7 114168416.925 7  88282352.446 7
C16  39039498.195 6  39039497.578 5 203288907.446 6 157195880.485 5
C19  24711883.969 6                 128681256.646 6
C21  23326320.813 7                 121466275.852 7
C22  21338961.125 7                 111117572.118 7
E03  26099517.344 7  26099522.137 8 137153892.380 7 103756045.332 8
E05  22035936.750 8  22035939.566 8 115799630.959 8  87601676.805 8
E09  25478310.570 5  25478308.660 7 133889373.270 5 101286474.191 7
E15  25225236.430 7  25225240.703 8 132559507.101 7 100280426.348 8
E34  23145536.336 8  23145538.301 9 121630613.726 8  92012774.591 9
E36  25647696.227 7  25647699.438 8 134779546.725 7 101959867.317 8
G01  20152674.664 8                  20152678.145 8 105903015.167 8                  82521847.281 8
G02  22037817.617 7  22037818.438 6                 115809509.564 7  90241182.483 6
G03  19828942.430 8                  19828949.133 8 104201792.431 8                  81196228.937 8
G04  22161029.266 7                  22161035.438 7 116456994.586 7                  90745737.026 7
G17  22166778.477 7                  22166783.965 7 116487214.152 7                  90769422.696 7
G19  22700977.281 6  22700979.344 4                 119294441.921 6  92957020.398 4
G28  23055527.438 6                  23055532.641 6 121157633.241 6                  94408549.899 6
R03  19093478.898 8  19093483.078 8 102208878.446 8  79495871.873 8
R04  20398817.461 8  20398822.316 7 109234742.767 8  84960682.241 7
R18  19533455.469 8  19533459.574 7 104270920.755 8  81099557.847 7
R19  19751581.484 8  19751584.609 7 105657642.257 8  82178445.502 7
> 2025 06 15 13 40 50.0000000  0 24
C06  38563869.828 6  38563866.605 6 200812198.936 6 155280730.029 6
C11  24600898.586 6  24600900.414 7 128103343.479 6  99057629.082 7
C12  21923609.945 7  21923606.723 7 114161994.079 7  88277385.893 7
C16  39037358.563 6  39037358.238 5 203277766.157 6 157187265.338 5
C19  24713225.477 6                 128688241.388 6
C21  23322680.367 7                 121447316.848 7
C22  21338037.039 7                 111112759.013 7
E03  26095298.289 7  26095303.227 8 137131721.901 7 103739273.528 8
E05  22033739.586 8  22033742.094 8 115788083.087 8  87592940.912 8
E09  25478822.125 5  25478817.203 6 133892045.946 5 101288496.060 6
E15  25221681.383 7  25221685.586 8 132540824.997 7 100266293.459 8
E34  23144283.391 8  23144285.207 8 121624028.679 8  92007793.046 8
E36  25648624.039 7  25648627.141 8 134784422.034 7 101963555.443 8
G01  20152242.625 8                  20152246.574 8 105900746.224 8                  82520079.279 8
G02  22038808.719 8  22038810.227 6                 115814718.887 8  90245241.681 6
G03  19826939.211 8                  19826946.148 8 104191268.188 8                  81188028.224 8
G04  22156555.914 7                  22156562.281 7 116433487.045 7                  90727419.497 7
G17  22165260.492 7                  22165266.492 7 116479238.795 7                  90763208.145 7
G19  22697551.930 6  22697553.742 4                 119276444.632 6  92942996.541 4
G28  23053682.992 6                  23053687.984 6 121147938.855 6                  94400995.814 6
R03  19092791.797 8  19092796.578 7 102205200.639 8  79493011.351 7
R04  20394780.602 8  20394786.270 7 109213128.784 8  84943871.364 7
R18  19534099.352 8  19534104.020 7 104274359.052 8  81102232.073 7
R19  19748211.875 8  19748214.621 7 105639617.124 8  82164425.949 7
> 2025 06 15 13 40 55.0000000  0 24
C06  38561573.922 6  38561570.504 6 200800241.893 6 155271484.087 6
C11  24596926.188 6  24596928.504 7 128082661.682 6  99041636.620 7
C12  21922379.516 7  21922376.344 7 114155586.633 7  88272431.258 7
C16  39035219.680 6  39035219.996 5 203266630.770 6 157178654.757 5
C19  24714567.352 6                 128695230.393 6
C21  23319040.977 7                 121428366.594 7
C22  21337115.234 7                 111107957.509 7
E03  26091080.656 7  26091085.418 8 137109557.230 7 103722506.109 8
E05  22031544.883 8  22031546.898 8 115776547.600 8  87584214.392 8
E09  25479329.602 5  25479327.410 6 133894727.733 5 101290524.794 6
E15  25218127.195 7  25218131.520 8 132522148.303 7 100252164.681 8
E34  23143032.055 8  23143034.043 8 121617453.846 8  92002819.229 8
E36  25649552.633 7  25649556.141 8 134789303.949 7 101967248.571 8
G01  20151813.406 8                  20151817.629 8 105898492.084 8                  82518322.801 8
G02  22039801.836 7  22039803.445 5                 115819938.136 7  90249308.626 5
G03  19824939.438 8                  19824945.809 7 104180756.429 8                  81179837.239 7
G04  22152084.469 7                  22152090.535 7 116409988.891 7                  90709109.267 7
G17  22163746.438 7                  22163751.680 7 116471280.189 7                  90757006.659 7
G19  22694129.875 7  22694132.055 4                 119258463.429 7  92928985.222 4
G28  23051841.430 6                  23051846.035 6 121138262.120 6                  94393455.501 6
R03  19092108.234 8  19092112.250 8 102201540.946 8  79490164.930 8
R04  20390748.148 8  20390752.516 7 109191529.264 8  84927071.730 7
R18  19534747.188 8  19534752.203 7 104277817.081 8  81104921.632 7
R19  19744845.969 8  19744848.719 7 105621610.572 8  82150420.854 7
> 2025 06 15 13 41  0.0000000  0 24
C06  38559279.188 6  38559275.168 6 200788291.174 6 155262243.018 6
C11  24592957.141 6  24592958.031 7 128061989.081 6  99025651.284 7
C12  21921152.250 7  21921149.172 7 114149195.069 7  88267488.896 7
C16  39033082.352 6  39033082.691 5 203255501.789 6 157170049.117 5
C19  24715910.258 6                 128702224.213 6
C21  23315403.367 7                 121409425.611 7
C22  21336195.695 7                 111103168.039 7
E03  26086864.148 7  26086868.777 8 137087398.842 7 103705743.452 8
E05  22029352.086 8  22029354.172 8 115765024.949 8  87575497.588 8
E09  25479842.117 5  25479839.426 6 133897419.133 5 101292560.839 6
E15  25214574.734 7  25214578.605 8 132503477.504 7 100238040.344 8
E34  23141783.000 8  23141784.934 8 121610889.695 8  91997853.490 8
E36  25650483.078 7  25650486.531 8 134794192.980 7 101970947.079 8
G01  20151386.992 7                  20151391.598 8 105896253.225 7                  82516578.229 8
G02  22040796.469 7  22040798.680 5                 115825167.800 7  90253383.675 5
G03  19822941.094 8                  19822947.688 8 104170257.650 8                  81171656.380 8
G04  22147614.742 7                  22147621.316 7 116386500.615 7                  90690806.720 7
G17  22162234.875 7                  22162240.285 7 116463338.842 7                  90750818.603 7
G19  22690711.945 7  22690713.988 4                 119240498.687 7  92914986.696 4
G28  23050001.523 6                  23050008.063 6 121128603.499 6                  94385929.318 6
R03  19091428.039 8  19091432.133 7 102197899.565 8  79487332.732 7
R04  20386717.719 8  20386721.348 7 109169944.755 8  84910283.778 7
R18  19535398.805 8  19535403.355 7 104281295.295 8  81107626.914 7
R19  19741484.594 8  19741486.207 7 105603623.115 8  82136430.610 7
> 2025 06 15 13 41  5.0000000  0 24
C06  38556985.500 6  38556981.445 6 200776347.088 6 155253007.104 6
C11  24588989.414 6  24588989.855 7 128041326.027 6  99009673.306 7
C12  21919927.797 7  21919924.891 7 114142819.675 7  88262559.035 7
C16  39030945.633 6  39030946.551 5 203244379.455 6 157161448.625 5
C19  24717254.133 6                 128709223.082 6
C21  23311768.117 7                 121390494.179 7
C22  21335278.227 7                 111098390.905 7
E03  26082648.109 7  26082653.391 8 137065247.041 7 103688985.773 8
E05  22027161.930 8  22027163.965 8 115753515.462 8  87566790.744 8
E09  25480357.281 5  25480353.352 6 133900120.376 5 101294604.274 6
E15  25211022.977 7  25211026.789 8 132484812.884 7 100223920.680 8
E34  23140536.102 8  23140537.898 8 121604336.549 8  91992896.075 8
E36  25651414.336 7  25651418.387 8 134799089.395 7 101974651.184 8
G01  20150963.914 7                  20150968.504 8 105894029.923 7                  82514845.786 8
G02  22041793.891 7  22041796.059 5                 115830408.148 7  90257467.056 5
G03  19820945.797 8                  19820952.215 8 104159772.111 8                  81163485.826 8
G04  22143146.609 7                  22143153.418 7 116363022.515 7                  90672512.095 7
G17  22160727.297 7                  22160732.227 7 116455414.973 7                  90744644.159 7
G19  22687296.273 7  22687298.898 4                 119222550.775 7  92901001.308 4
G28  23048167.898 6                  23048173.602 6 121118963.338 6                  94378417.507 6
R03  19090751.578 8  19090755.602 7 102194276.906 8  79484515.109 7
R04  20382688.953 8  20382693.793 7 109148375.491 8  84893507.696 7
R18  19536054.422 8  19536058.695 7 104284794.028 8  81110348.153 7
R19  19738125.125 8  19738127.328 8 105585654.898 8  82122455.350 8
> 2025 06 15 13 41 10.0000000  0 24
C06  38854485.633 6  38854481.793 6 202325508.363 6 156450916.856 6
C11  24884817.023 6  24884816.320 7 129581772.965 6 100200844.600 7
C12  22218498.844 7  22218495.809 7 115697558.045 7  89464781.364 7
C16  39328603.125 6  39328605.020 5 204794362.355 6 158359993.717 5
C19  25018390.633 6                 130277321.860 6
C21  23607927.273 7                 122932672.363 7
C22  21634155.969 7                 112654723.340 7
E03  26378227.570 7  26378232.223 8 138618524.518 7 104864030.117 8
E05  22324766.742 8  22324768.793 8 117317439.683 8  88749889.268 8
E09  25780664.758 5  25780661.207 6 135478249.164 5 102488448.449 6
E15  25507265.602 7  25507269.012 8 134041576.467 7 101401602.239 8
E34  23439083.273 8  23439085.340 9 123173213.977 8  93179741.657 9
E36  25952139.719 7  25952143.531 8 136379410.524 7 103170153.840 8
G01  20450336.406 8                  20450340.512 8 107467240.928 8                  83740724.499 8
G02  22342584.695 7  22342587.156 6                 117411076.405 7  91489156.590 6
G03  20118745.477 8                  20118752.078 7 105724720.236 8                  82382925.911 7
G04  22438473.031 7                  22438480.262 7 117914977.569 7                  91881827.751 7
G17  22459014.547 7                  22459019.891 7 118022928.553 7                  91966083.313 7
G19  22983677.477 7  22983680.449 5                 120780041.576 7  94114630.521 5
G28  23346129.336 6                  23346134.934 6 122684761.825 6                  95598520.233 6
R03  19389870.828 8  19389874.199 7 103795484.384 8  80729898.704 7
R04  20678456.805 8  20678461.254 7 110732199.060 8  86125370.501 7
R18  19836505.531 8  19836509.824 7 105888623.363 8  82357770.963 7
R19  20034562.781 8  20034565.090 7 107171395.360 8  83355809.037 7
> 2025 06 15 13 41 15.0000000  0 25
C06  38852193.961 6  38852189.793 6 202313576.204 6 156441690.144 6
C11  24880851.398 6  24880851.645 7 129561127.740 6 100184880.431 7
C12  22217280.852 7  22217277.453 7 115691213.697 7  89459875.526 7
C16  39326469.047 6  39326471.020 5 204783252.076 6 158351402.530 5
C19  25019736.227 6                 130284329.426 6
C21  23604294.609 7                 122913758.680 7
C22  21633242.984 7                 112649969.495 7
E03  26374014.320 7  26374019.098 8 138596384.553 7 104847281.384 8
E05  22322581.320 8  22322583.316 8 117305955.160 8  88741201.310 8
E09  25781181.641 5  25781178.441 6 135480968.664 5 102490505.754 6
E15  25503715.578 7  25503719.344 8 134022922.857 7 101387490.919 8
E34  23437840.508 8  23437842.281 9 123166681.461 8  93174799.847 9
E36  25953074.328 7  25953077.852 8 136384320.372 7 103173868.099 8
G01  20449918.523 8                  20449923.199 8 107465047.439 8                  83739015.271 8
G02  22343585.844 7  22343588.008 5                 117416336.781 7  91493255.572 5
G03  20116755.359 7                  20116761.453 7 105714259.899 7                  82374774.986 7
G04  22434009.313 7                  22434016.348 7 117891518.524 7                  91863547.986 7
G17  22457513.383 7                  22457518.758 7 118015038.488 7                  91959935.200 7
G19  22980269.391 7  22980271.355 5                 120762125.999 7  94100670.337 5
G28  23344302.031 6                  23344307.469 6 122675157.146 6                  95591036.105 6
G31  23162519.391 6                                 121719830.64616                
R03  19389201.109 8  19389204.633 7 103791897.885 8  80727109.212 7
R04  20674433.359 8  20674439.063 7 110710659.036 8  86108617.155 7
R18  19837168.148 8  19837172.723 7 105892161.759 8  82360523.052 7
R19  20031210.930 8  20031212.875 7 107153464.585 8  83341862.875 7
> 2025 06 15 13 41 20.0000000  0 25
C06  38849904.094 6  38849899.910 6 202301650.758 6 156432468.646 6
C11  24876889.375 6  24876889.230 7 129540492.128 6 100168923.678 7
C12  22216065.492 7  22216062.449 7 115684885.593 7  89454982.228 7
C16  39324337.078 6  39324338.586 5 204772148.479 6 158342816.566 5
C19  25021082.914 6                 130291342.085 6
C21  23600664.156 7                 122894854.606 7
C22  21632331.930 8                 112645228.011 8
E03  26369803.094 7  26369807.270 8 138574251.218 7 104830537.658 8
E05  22320398.477 8  22320400.344 8 117294483.818 8  88732523.319 8
E09  25781699.656 5  25781697.668 6 135483698.150 5 102492570.559 6
E15  25500167.297 7  25500170.820 8 134004275.527 7 101373384.338 8
E34  23436599.195 8  23436601.289 8 123160159.976 8  93169866.396 8
E36  25954010.172 7  25954013.723 8 136389237.668 7 103177587.995 8
G01  20449504.250 7                  20449508.883 8 107462869.555 7                  83737318.209 8
G02  22344589.156 7  22344591.227 5                 117421607.911 7  91497362.926 5
G03  20114767.133 8                  20114773.398 7 105703812.854 8                  82366634.434 7
G04  22429547.563 7                  22429554.230 7 117868069.768 7                  91845276.213 7
G17  22456014.953 6                  22456020.293 7 118007165.960 6                  91953800.749 7
G19  22976863.414 7  22976865.855 5                 120744227.338 7  94086723.322 5
G28  23342478.117 6                  23342483.023 6 122665571.046 6                  95583566.462 6
G31  23158988.078 6                  23158993.332 5 121701261.415 6                  94832207.19015
R03  19388534.234 8  19388538.563 7 103788329.936 8  80724334.149 7
R04  20670414.266 7  20670419.223 7 110689134.228 7  86091875.626 7
R18  19837835.477 8  19837839.277 7 105895720.651 8  82363291.077 7
R19  20027862.117 8  20027864.625 7 107135553.188 8  83327931.808 7
> 2025 06 15 13 41 25.0000000  0 25
C06  38847614.805 6  38847610.988 6 202289732.099 6 156423252.355 6
C11  24872929.148 6  24872928.242 7 129519866.195 6 100152974.402 7
C12  22214853.633 7  22214850.262 7 115678573.786 7  89450101.534 7
C16  39322205.305 6  39322207.895 5 204761051.750 6 158334235.846 5
C19  25022430.578 6                 130298359.880 6
C21  23597036.047 7                 122875960.193 7
C22  21631424.016 8                 112640498.969 8
E03  26365592.547 7  26365596.738 8 138552124.607 7 104813799.029 8
E05  22318218.070 8  22318219.930 8 117283025.761 8  88723855.374 8
E09  25782217.430 4  25782218.805 6 135486437.48914 102494642.86516
E15  25496619.898 7  25496623.527 8 133985634.524 7 101359282.540 8
E34  23435360.281 8  23435362.418 8 123153649.630 8  93164941.360 8
E36  25954947.125 7  25954950.941 8 136394162.455 7 103181313.557 8
G01  20449093.023 7                  20449097.465 8 107460707.390 7                  83735633.403 8
G02  22345594.883 7  22345596.148 5                 117426889.808 7  91501478.686 5
G03  20112781.742 8                  20112788.238 7 105693379.170 8                  82358504.297 7
G04  22425088.102 7                  22425093.922 7 117844631.279 7                  91827012.452 7
G17  22454521.156 6                  22454526.027 7 117999311.140 6                  91947680.100 7
G19  22973459.555 7  22973462.887 5                 120726345.675 7  94072789.576 5
G28  23340657.805 7                  23340662.148 6 122656003.516 7                  95576111.272 6
G31  23155457.961 6                  23155463.379 5 121682707.176 6                  94817749.374 5
R03  19387871.203 8  19387875.289 7 103784780.907 8  80721573.813 7
R04  20666397.578 8  20666402.520 7 110667624.849 8  86075146.100 7
R18  19838505.945 8  19838509.977 7 105899300.189 8  82366075.166 7
R19  20024517.492 8  20024520.117 8 107117661.307 8  83314015.903 8
> 2025 06 15 13 41 30.0000000  0 25
C06  38845326.953 6  38845322.551 6 202277819.571 6 156414040.819 6
C11  24868968.930 6  24868968.918 7 129499249.328 6 100137032.130 7
C12  22213645.352 7  22213641.004 7 115672277.671 7  89445232.980 7
C16  39320074.953 5  39320077.598 5 204749961.234 5 158325659.909 5
C19  25023778.602 6                 130305382.189 6
C21  23593409.688 7                 122857074.833 7
C22  21630517.938 8                 112635781.721 8
E03  26361383.406 7  26361387.391 8 138530004.071 7 104797065.010 8
E05  22316040.172 8  22316041.918 8 117271580.341 8  88715196.980 8
E09  25782741.008 5  25782741.801 6 135489186.14015 102496722.22916
E15  25493073.898 7  25493077.336 8 133966999.239 7 101345185.073 8
E34  23434123.195 8  23434125.539 8 123147149.749 8  93160024.251 8
E36  25955885.539 7  25955889.520 8 136399094.128 7 103185044.319 8
G01  20448684.758 8                  20448688.863 8 107458560.282 8                  83733960.317 8
G02  22346601.906 7  22346602.543 5                 117432181.869 7  91505602.357 5
G03  20110798.789 8                  20110804.898 7 105682958.307 8                  82350384.129 7
G04  22420629.766 7                  22420635.508 7 117821202.516 7                  91808756.296 7
G17  22453029.109 6                  22453034.426 7 117991473.386 6                  91941572.733 7
G19  22970059.688 7  22970063.453 5                 120708480.399 7  94058868.597 5
G28  23338840.977 7                  23338844.914 6 122646453.941 7                  95568670.087 6
G31  23151927.625 6                  23151934.918 5 121664167.308 6                  94803302.747 5
R03  19387211.172 8  19387216.086 7 103781250.009 8  80718827.555 7
R04  20662384.859 8  20662388.672 7 110646130.363 8  86058428.182 7
R18  19839180.102 8  19839183.961 7 105902899.711 8  82368874.784 7
R19  20021176.344 8  20021178.766 7 107099788.414 8  83300114.772 7
> 2025 06 15 13 41 35.0000000  0 25
C06  38843040.398 6  38843036.184 6 202265913.458 6 156404834.273 6
C11  24865011.047 6  24865011.582 7 129478641.804 6 100121097.112 7
C12  22212439.547 7  22212435.223 7 115665997.459 7  89440376.729 7
C16  39317946.469 5  39317948.859 5 204738877.055 5 158317088.944 5
C19  25025128.523 6                 130312409.255 6
C21  23589783.938 7                 122838198.781 7
C22  21629614.328 8                 112631076.520 8
E03  26357175.094 7  26357179.199 8 138507889.896 7 104780335.793 8
E05  22313864.461 8  22313866.352 8 117260147.815 8  88706548.354 8
E09  25783262.156 4  25783266.750 6 135491944.44114 102498808.88816
E15  25489528.422 7  25489532.281 8 133948369.899 7 101331092.106 8
E34  23432888.336 8  23432890.688 8 123140660.644 8  93155115.277 8
E36  25956825.133 7  25956829.516 8 136404032.914 7 103188780.454 8
G01  20448278.945 8                  20448283.629 8 107456428.471 8                  83732299.176 8
G02  22347610.523 7  22347611.641 6                 117437484.305 7  91509734.116 6
G03  20108817.883 8                  20108824.441 7 105672550.372 8                  82342274.064 7
G04  22416173.156 7                  22416179.023 7 117797783.730 7                  91790507.881 7
G17  22451540.953 6                  22451546.332 7 117983652.843 6                  91935478.784 7
G19  22966663.641 7  22966666.949 5                 120690631.751 7  94044960.561 5
G28  23337027.555 7                  23337031.484 6 122636922.577 7                  95561243.005 6
G31  23148402.156 6                  23148410.605 5 121645642.133 6                  94788867.607 5
R03  19386555.117 8  19386559.422 7 103777737.547 8  80716095.628 7
R04  20658373.516 8  20658377.648 7 110624650.898 8  86041721.954 7
R18  19839857.734 8  19839862.008 7 105906519.380 8  82371690.077 7
R19  20017838.063 8  20017841.266 7 107081934.605 8  83286228.478 7
> 2025 06 15 13 41 40.0000000  0 25
C06  38840755.375 6  38840751.133 6 202254013.783 6 156395632.691 6
C11  24861056.609 6  24861055.676 7 129458043.737 6 100105169.382 7
C12  22211236.211 7  22211232.230 7 115659733.323 7  89435532.885 7
C16  39315819.063 6  39315821.031 5 204727799.518 6 158308523.050 5
C19  25026479.648 6                 130319441.216 6
C21  23586160.656 7                 122819332.181 7
C22  21628713.023 7                 112626383.472 7
E03  26352967.539 7  26352972.289 8 138485782.223 7 104763611.505 8
E05  22311691.633 8  22311693.289 8 117248728.339 8  88697909.600 8
E09  25783786.992 4  25783793.414 6 135494712.31214 102500902.76816
E15  25485984.945 7  25485988.344 8 133929746.662 7 101317003.755 8
E34  23431655.836 8  23431657.941 8 123134182.405 8  93150214.530 8
E36  25957766.609 7  25957770.820 8 136408978.945 7 103192522.082 8
G01  20447876.180 8                  20447881.059 8 107454312.090 8                  83730650.044 8
G02  22348621.906 7  22348622.707 5                 117442797.279 7  91513874.090 5
G03  20106840.227 8                  20106846.605 7 105662155.616 8                  82334174.252 7
G04  22411718.125 7                  22411724.941 7 117774375.079 7                  91772267.398 7
G17  22450056.617 7                  22450061.555 7 117975849.750 7                  91929398.435 7
G19  22963270.469 7  22963273.590 5                 120672799.857 7  94031065.598 5
G28  23335216.797 7                  23335221.281 6 122627409.533 7                  95553830.243 6
G31  23144876.984 5                  23144888.270 4 121627131.776 5                  94774443.979 4
R03  19385901.406 8  19385906.355 7 103774243.529 8  80713378.061 7
R04  20654364.836 8  20654369.723 7 110603186.663 8  86025027.572 7
R18  19840539.758 8  19840544.219 7 105910159.423 8  82374521.217 7
R19  20014503.922 8  20014507.191 7 107064100.262 8  83272357.313 7
> 2025 06 15 13 41 45.0000000  0 24
C06  38838471.680 6  38838467.641 6 202242120.471 6 156386436.033 6
C11  24857102.055 6  24857101.867 7 129437455.010 6 100089248.880 7
C12  22210036.352 7  22210032.473 8 115653485.046 7  89430701.314 8
C16  39313693.055 6  39313694.566 5 204716728.242 6 158299962.009 5
C19  25027830.094 6                 130326477.834 6
C21  23582539.055 7                 122800474.798 7
C22  21627814.195 7                 112621702.383 7
E03  26348761.516 7  26348766.516 8 138463680.817 7 104746891.958 8
E05  22309521.211 8  22309522.641 8 117237321.682 8  88689280.530 8
E15  25482442.500 7  25482445.563 8 133911129.308 7 101302919.865 8
E34  23430425.141 8  23430427.199 8 123127714.822 8  93145321.846 8
E36  25958708.492 7  25958713.414 8 136413931.995 7 103196269.038 8
G01  20447476.195 8                  20447481.074 8 107452210.915 8                  83729012.773 8
G02  22349634.570 7  22349635.883 5                 117448120.576 7  91518022.102 5
G03  20104864.555 8                  20104870.930 7 105651773.765 8                  82326084.498 7
G04  22407264.828 7                  22407271.922 7 117750976.279 7                  91754034.574 7
G17  22448575.445 7                  22448580.098 7 117968063.842 7                  91923331.509 7
G19  22959879.953 7  22959883.668 5                 120654984.506 7  94017183.520 5
G28  23333409.648 6                  23333414.660 7 122617914.639 6                  95546431.626 7
G31  23141359.117 5                  23141366.691 4 121608635.894 5                  94760031.765 4
R03  19385252.070 8  19385257.625 7 103770767.939 8  80710674.824 7
R04  20650360.266 8  20650363.844 7 110581737.418 8  86008344.836 7
R18  19841225.484 8  19841230.078 7 105913819.526 8  82377367.975 7
R19  20011174.672 8  20011176.723 7 107046284.958 8  83258500.962 7
> 2025 06 15 13 41 50.0000000  0 24
C06  38836188.891 6  38836184.977 6 202230235.228 6 156377245.596 6
C11  24853150.008 6  24853150.164 7 129416877.291 6 100073336.896 7
C12  22208838.656 7  22208835.738 7 115647254.372 7  89425883.351 7
C16  39311569.859 6  39311570.531 5 204705665.136 6 158291407.327 5
C19  25029183.164 6                 130333520.840 6
C21  23578920.148 7                 122781628.400 7
C22  21626918.609 7                 112617035.021 7
E03  26344556.688 7  26344562.273 8 138441587.487 7 104730178.520 8
E05  22307353.242 8  22307354.766 8 117225929.585 8  88680662.480 8
E15  25478900.719 7  25478904.234 8 133892519.605 7 101288841.753 8
E34  23429196.891 8  23429198.816 8 123121259.708 8  93140438.592 8
E36  25959652.703 6  25959657.699 8 136418893.813 6 103200022.651 8
G01  20447079.500 8                  20447084.273 8 107450126.766 8                  83727388.765 8
G02  22350650.188 7  22350651.691 5                 117453455.931 7  91522179.522 5
G03  20102891.953 8                  20102898.164 8 105641406.613 8                  82318006.210 8
G04  22402814.922 7                  22402821.969 7 117727589.206 7                  91735810.906 7
G17  22447097.883 7                  22447102.234 7 117960296.872 7                  91917279.332 7
G19  22956493.227 7  22956497.313 5                 120637187.474 7  94003315.719 5
G28  23331606.375 7                  23331611.805 7 122608439.627 7                  95539048.514 7
G31  23137839.516 5                  23137847.230 4 121590156.604 5                  94745632.312 4
R03  19384606.102 8  19384611.844 7 103767312.445 8  80707987.215 7
R04  20646357.273 8  20646361.656 7 110560304.943 8  85991675.153 7
R18  19841914.977 8  19841919.641 7 105917501.556 8  82380231.793 7
R19  20007847.945 8  20007849.977 7 107028490.633 8  83244660.919 7
> 2025 06 15 13 41 55.0000000  0 24
C06  38833907.906 6  38833903.672 6 202218357.211 6 156368060.748 6
C11  24849200.578 6  24849200.555 7 129396309.809 6 100057432.842 7
C12  22207645.367 7  22207642.488 7 115641040.496 7  89421078.394 7
C16  39309445.781 6  39309447.223 5 204694609.277 6 158282858.237 5
C19  25030537.297 6                 130340569.465 6
C21  23575302.688 7                 122762792.221 7
C22  21626024.266 7                 112612380.561 7
E03  26340354.625 7  26340359.410 8 138419501.472 7 104713470.607 8
E05  22305187.969 8  22305189.586 8 117214551.286 8  88672054.877 8
E15  25475360.250 7  25475364.258 8 133873916.805 7 101274768.868 8
E34  23427970.883 8  23427972.691 9 123114816.216 8  93135564.134 9
E36  25960598.547 6  25960603.469 8 136423863.664 6 103203782.311 8
G01  20446685.516 7                  20446690.840 8 107448058.798 7                  83725777.348 8
G02  22351667.477 7  22351669.152 5                 117458802.577 7  91526345.731 5
G03  20100921.898 8                  20100928.047 7 105631053.349 8                  82309938.732 7
G04  22398367.023 7                  22398373.285 7 117704213.045 7                  91717595.723 7
G17  22445622.453 7                  22445627.379 7 117952548.067 7                  91911241.319 7
G19  22953109.813 7  22953114.352 5                 120619408.046 7  93989461.614 5
G28  23329807.477 7                  23329812.402 7 122598983.736 7                  95531680.292 7
G31  23134322.563 4                  23134332.914 4 121571692.88214                  94731245.00414
R03  19383964.180 8  19383969.859 7 103763876.230 8  80705314.591 7
R04  20642357.844 8  20642362.684 7 110538888.422 8  85975017.853 7
R18  19842609.391 8  19842613.137 7 105921204.631 8  82383111.942 7
R19  20004525.203 8  20004527.664 7 107010716.447 8  83230836.560 7
> 2025 06 15 13 42  0.0000000  0 24
C06  38831628.867 6  38831624.113 6 202206485.312 6 156358880.682 6
C11  24845251.766 6  24845251.871 7 129375751.389 6 100041535.754 7
C12  22206455.430 7  22206452.551 7 115634842.244 7  89416285.505 7
C16  39307323.977 6  39307325.145 5 204683559.517 6 158274313.877 5
C19  25031892.031 5                 130347622.463 5
C21  23571686.398 7                 122743965.020 7
C22  21625132.031 7                 112607737.773 7
E03  26336152.727 7  26336157.707 8 138397421.440 7 104696767.234 8
E05  22303024.977 8  22303026.777 8 117203185.543 8  88663456.759 8
E15  25471820.867 7  25471825.313 8 133855319.632 7 101260700.232 8
E34  23426746.195 8  23426748.516 8 123108383.146 8  93130697.552 8
E36  25961545.430 6  25961550.457 7 136428840.259 6 103207547.065 7
G01  20446295.055 7                  20446300.238 8 107446005.828 7                  83724177.612 8
G02  22352686.945 7  22352688.605 6                 117464159.259 7  91530519.770 6
G03  20098953.781 8                  20098960.391 8 105620712.766 8                  82301881.156 8
G04  22393920.477 7                  22393926.625 7 117680846.579 7                  91699388.095 7
G17  22444151.977 7                  22444156.195 7 117944816.172 7                  91905216.472 7
G19  22949729.805 7  22949734.301 5                 120601644.977 7  93975620.270 5
G28  23328011.227 7                  23328016.840 7 122589545.757 7                  95524326.024 7
G31  23130816.391 5                                                                
R03  19383326.617 8  19383330.938 7 103760457.943 8  80702655.922 7
R04  20638360.664 8  20638365.426 7 110517486.637 8  85958372.027 7
R18  19843306.180 8  19843310.406 7 105924927.555 8  82386007.544 7
R19  20001205.938 8  20001208.785 7 106992961.104 8  83217026.848 7
> 2025 06 15 13 42  5.0000000  0 24
C06  38829349.539 6  38829345.406 6 202194619.551 6 156349705.288 6
C11  24841306.281 6  24841305.492 7 129355202.159 6 100025645.799 7
C12  22205267.813 7  22205265.242 8 115628659.711 7  89411504.767 8
C16  39305203.813 6  39305204.512 5 204672515.963 6 158265774.321 5
C19  25033247.406 5                 130354680.020 5
C21  23568073.148 7                 122725146.927 7
C22  21624242.719 7                 112603106.788 7
E03  26331952.758 7  26331957.215 8 138375347.608 7 104680068.541 8
E05  22300864.367 8  22300866.398 8 117191832.485 8  88654868.251 8
E15  25468283.414 7  25468287.480 8 133836728.231 7 101246635.966 8
E34  23425524.297 8  23425526.355 9 123101960.639 8  93125838.964 9
E36  25962493.563 6  25962498.820 7 136433823.765 6 103211317.057 7
G01  20445907.570 8                  20445912.281 8 107443967.910 8                  83722589.628 8
G02  22353707.852 7  22353710.395 6                 117469526.110 7  91534701.733 6
G03  20096988.320 8                  20096995.258 8 105610384.932 8                  82293833.506 8
G04  22389475.766 7                  22389482.285 7 117657489.938 7                  91681188.119 7
G17  22442683.305 7                  22442687.871 7 117937101.314 7                  91899204.881 7
G19  22946352.633 6  22946356.379 5                 120583898.364 6  93961791.741 5
G28  23326219.305 7                  23326224.074 7 122580125.752 7                  95516985.745 7
G31  23127310.039 5                  23127316.699 4 121534808.84415                  94702504.23314
R03  19382691.672 8  19382695.902 7 103757057.833 8  80700011.389 7
R04  20634367.563 8  20634371.848 7 110496099.775 8  85941737.786 7
R18  19844007.719 8  19844011.879 7 105928670.403 8  82388918.637 7
R19  19997889.672 8  19997892.984 7 106975224.887 8  83203232.039 7
> 2025 06 15 13 42 10.0000000  0 25
C06  38827071.578 6  38827067.289 6 202182759.535 6 156340534.365 6
C11  24837361.922 6  24837361.156 7 129334661.750 6 100009762.650 7
C12  22204084.063 7  22204080.555 7 115622492.463 7  89406735.859 7
C16  39303084.305 6  39303085.207 5 204661478.244 6 158257239.245 5
C19  25034603.063 5                 130361741.615 5
C21  23564460.516 7                 122706337.510 7
C22  21623355.570 7                 112598487.181 7
E03  26327752.500 7  26327757.785 8 138353279.525 7 104663374.181 8
E05  22298706.148 8  22298708.320 8 117180491.664 8  88646288.989 8
E15  25464746.461 7  25464750.637 8 133818142.184 7 101232575.752 8
E34  23424304.188 8  23424306.098 9 123095548.225 8  93120988.014 9
E36  25963443.211 6  25963448.340 8 136438813.684 6 103215091.920 8
G01  20445522.641 8                  20445527.137 8 107441944.660 8                  83721013.057 8
G02  22354731.313 7  22354733.625 5                 117474902.700 7  91538891.269 5
G03  20095025.211 8                  20095031.934 8 105600069.465 8                  82285795.487 8
G04  22385032.961 7                  22385039.348 7 117634142.645 7                  91662995.458 7
G17  22441218.281 7                  22441223.246 7 117929403.136 7                  91893206.304 7
G19  22942978.500 7  22942982.496 5                 120566167.807 7  93947975.737 5
G28  23324429.453 7                  23324435.184 7 122570723.371 7                  95509659.231 7
G31  23123807.133 6                  23123811.121 5 121516388.107 6                  94688150.376 5
R02  22599630.969 5                 120595744.60815
R03  19382060.352 8  19382063.828 7 103753675.381 8  80697380.578 7
R04  20630375.945 8  20630380.195 7 110474727.204 8  85925114.678 7
R18  19844711.938 8  19844716.660 7 105932432.795 8  82391844.922 7
R19  19994577.805 8  19994581.063 7 106957507.235 8  83189451.644 7
> 2025 06 15 13 42 15.0000000  0 25
C06  38824796.156 6  38824790.605 6 202170906.538 6 156331368.871 6
C11  24833418.977 6  24833418.176 7 129314131.313 6  99993887.218 7
C12  22202902.430 7  22202899.418 7 115616341.759 7  89401979.742 7
C16  39300965.453 6  39300966.332 6 204650447.558 6 158248709.629 6
C19  25035959.773 5                 130368808.496 5
C21  23560850.461 7                 122687538.021 7
C22  21622470.609 7                 112593880.203 7
E03  26323554.758 7  26323559.680 8 138331218.464 7 104646685.150 8
E05  22296550.641 8  22296552.801 8 117169164.373 8  88637719.967 8
E15  25461211.477 7  25461215.043 8 133799562.751 7 101218520.545 8
E34  23423085.867 8  23423088.012 8 123089147.194 8  93116145.675 8
E36  25964392.797 6  25964399.238 8 136443811.351 6 103218872.598 8
G01  20445140.789 8                  20445145.109 8 107439937.304 8                  83719448.891 8
G02  22355756.359 7  22355759.238 5                 117480290.255 7  91543089.358 5
G03  20093064.820 8                  20093071.391 7 105589767.632 8                  82277768.087 7
G04  22380591.930 7                  22380598.266 7 117610806.002 7                  91644811.106 7
G17  22439756.758 7                  22439761.457 7 117921722.862 7                  91887221.662 7
G19  22939608.688 7  22939611.996 5                 120548454.541 7  93934173.215 5
G28  23322644.305 7                  23322649.750 7 122561339.816 7                  95502347.378 7
G31  23120304.219 6                  23120308.586 4 121497982.690 6                  94673808.561 4
R02  22601793.570 5  22601765.914 3 120607323.879 5
R03  19381431.859 8  19381435.988 7 103750311.795 8  80694764.461 7
R04  20626387.930 8  20626391.852 7 110453370.577 8  85908503.974 7
R18  19845421.445 8  19845425.609 7 105936215.891 8  82394787.320 7
R19  19991269.406 8  19991272.625 8 106939809.478 8  83175686.711 8
> 2025 06 15 13 42 20.0000000  0 25
C06  38822520.445 6  38822515.902 6 202159058.875 6 156322207.522 6
C11  24829478.547 6  24829476.559 7 129293609.296 6  99978018.324 7
C12  22201724.102 7  22201721.449 8 115610205.972 7  89397235.167 8
C16  39298849.406 6  39298849.398 6 204639422.219 6 158240184.168 6
C19  25037317.758 5                 130375879.100 5
C21  23557242.055 7                 122668746.820 7
C22  21621587.320 7                 112589284.188 7
E03  26319358.109 7  26319362.605 8 138309162.729 7 104630000.135 8
E05  22294397.586 8  22294399.531 8 117157848.932 8  88629159.917 8
E09  25788074.094 5                 135517259.96715
E15  25457676.664 7  25457680.457 8 133780988.270 7 101204469.086 8
E34  23421869.813 8  23421871.773 9 123082755.865 8  93111310.679 9
E36  25965344.922 6  25965351.426 8 136448815.096 6 103222657.845 8
G01  20444761.625 8                  20444765.832 8 107437944.215 8                  83717895.842 8
G02  22356782.953 7  22356786.531 6                 117485687.149 7  91547294.722 6
G03  20091106.813 8                  20091113.465 7 105579477.767 8                  82269750.000 7
G04  22376152.805 7                  22376159.164 7 117587478.394 7                  91626633.743 7
G17  22438297.617 7                  22438303.375 7 117914058.786 7                  91881249.671 7
G19  22936239.836 7  22936244.035 5                 120530757.006 7  93920382.913 5
G28  23320861.172 6                  23320867.000 7 122551973.440 6                  95495048.906 7
G31  23116804.461 6                  23116808.570 5 121479591.136 6                  94659477.492 5
R03  19380807.359 8  19380810.684 7 103746965.487 8  80692161.777 7
R04  20622402.852 8  20622406.383 7 110432027.973 8  85891904.162 7
R18  19846132.656 8  19846137.734 7 105940018.045 8  82397744.546 7
R19  19987965.078 8  19987967.508 7 106922130.012 8  83161936.023 7
> 2025 06 15 13 42 25.0000000  0 25
C06  38820246.633 6  38820241.457 6 202147215.006 6 156313049.087 6
C11  24825538.266 6  24825536.902 7 129273094.120 6  99962154.691 7
C12  22200549.383 7  22200545.203 8 115604083.535 7  89392500.912 8
C16  39296732.305 6  39296732.965 5 204628400.773 6 158231661.677 5
C19  25038675.672 5                 130382951.732 5
C21  23553634.430 7                 122649962.419 7
C22  21620707.383 7                 112584697.566 7
E03  26315161.367 7  26315166.234 8 138287110.814 7 104613318.019 8
E05  22292245.961 8  22292248.215 8 117146543.787 8  88620607.659 8
E09  25788616.227 5  25788618.723 6 135520111.811 5 102520078.05216
E15  25454142.273 7  25454146.461 8 133762417.220 7 101190420.217 8
E34  23420655.195 8  23420657.133 9 123076372.747 8  93106481.881 9
E36  25966299.289 6  25966304.262 7 136453823.325 6 103226446.488 7
G01  20444384.672 7                  20444388.520 8 107435963.874 7                  83716352.694 8
G02  22357811.555 7  22357814.348 6                 117491091.796 7  91551506.112 6
G03  20089150.063 7                  20089157.246 7 105569198.292 7                  82261740.025 7
G04  22371715.164 7                  22371721.164 7 117564158.268 7                  91608462.242 7
G17  22436842.820 7                  22436847.473 7 117906409.458 7                  91875289.171 7
G19  22932875.008 6  22932879.211 5                 120513073.641 6  93906603.673 5
G28  23319081.898 6                  23319088.020 7 122542622.726 6                  95487762.670 7
G31  23113306.641 6                  23113310.652 4 121461211.688 6                  94645155.822 4
R03  19380185.406 8  19380188.852 8 103743634.966 8  80689571.377 8
R04  20618417.805 8  20618422.828 7 110410697.714 8  85875313.970 7
R18  19846849.297 8  19846853.641 7 105943837.714 8  82400715.383 7
R19  19984663.406 8  19984665.824 7 106904467.277 8  83148198.358 7
> 2025 06 15 13 42 30.0000000  0 25
C06  38817972.789 6  38817968.203 6 202135377.117 6 156303895.264 6
C11  24821600.242 6  24821598.789 7 129252587.948 6  99946297.999 7
C12  22199376.438 7  22199372.289 8 115597976.583 7  89387778.616 8
C16  39294617.359 6  39294618.230 5 204617385.267 6 158223143.820 5
C19  25040035.086 5                 130390028.623 5
C21  23550029.328 7                 122631186.851 7
C22  21619828.617 7                 112580122.492 7
E03  26310966.039 7  26310970.969 8 138265064.860 7 104596640.415 8
E05  22290097.109 8  22290099.320 8 117135251.082 8  88612064.794 8
E09  25789161.984 5  25789163.297 6 135522972.573 5 102522242.178 6
E15  25450609.164 7  25450613.527 8 133743851.706 7 101176375.543 8
E34  23419442.289 8  23419444.461 8 123069999.886 8  93101660.854 8
E36  25967253.547 6  25967258.523 7 136458838.189 6 103230240.183 7
G01  20444010.188 7                  20444014.859 8 107433998.292 7                  83714821.088 8
G02  22358841.945 7  22358844.000 5                 117496506.302 7  91555725.226 5
G03  20087197.320 8                  20087203.340 7 105558931.366 8                  82253739.806 7
G04  22367279.141 7                  22367285.375 7 117540847.764 7                  91590298.178 7
G17  22435390.555 7                  22435395.434 7 117898776.913 7                  91869341.723 7
G19  22929513.109 6  22929517.199 5                 120495406.519 6  93892837.089 5
G28  23317306.047 6                  23317312.191 7 122533289.771 6                  95480490.247 7
G31  23109812.680 6                  23109816.289 4 121442846.587 6                  94630845.423 4
R03  19379565.055 8  19379569.691 7 103740322.417 8  80686994.957 7
R04  20614436.727 8  20614442.711 7 110389382.146 8  85858735.236 7
R18  19847568.281 8  19847573.113 7 105947677.010 8  82403701.481 7
R19  19981365.023 8  19981367.301 8 106886823.314 8  83134475.268 8
> 2025 06 15 13 42 35.0000000  0 25
C06  38815700.336 6  38815695.848 6 202123544.617 6 156294745.635 6
C11  24817663.031 6  24817662.391 7 129232090.179 6  99930447.837 7
C12  22198206.070 7  22198202.004 8 115591884.587 7  89383067.877 8
C16  39292502.422 6  39292503.734 6 204606375.261 6 158214630.132 6
C19  25041393.992 5                 130397109.261 5
C21  23546425.727 7                 122612419.652 7
C22  21618951.883 7                 112575558.458 7
E03  26306771.789 7  26306776.813 8 138243024.362 7 104579966.941 8
E05  22287950.125 8  22287952.586 8 117123970.291 8  88603530.945 8
E09  25789712.594 5  25789709.684 6 135525842.030 5 102524412.81216
E15  25447077.336 7  25447081.664 8 133725291.250 7 101162334.681 8
E34  23418231.602 8  23418233.570 8 123063636.826 8  93096847.243 8
E36  25968209.195 6  25968213.723 7 136463859.148 6 103234038.463 7
G01  20443639.055 8                  20443643.746 8 107432047.060 8                  83713300.635 8
G02  22359873.922 7  22359876.297 6                 117501930.142 7  91559951.576 6
G03  20085246.148 8                  20085252.145 7 105548676.487 8                  82245748.979 7
G04  22362845.453 7                  22362851.352 7 117517546.316 7                  91572141.254 7
G17  22433940.547 7                  22433945.863 7 117891160.647 7                  91863406.964 7
G19  22926154.992 7  22926158.434 5                 120477755.163 7  93879082.802 5
G28  23315533.711 7                  23315539.293 7 122523974.127 7                  95473231.281 7
G31  23106319.352 6                  23106325.352 4 121424495.337 6                  94616545.762 4
R03  19378948.867 8  19378954.355 7 103737027.024 8  80684431.879 7
R04  20610459.703 8  20610465.379 7 110368080.812 8  85842167.530 7
R18  19848291.859 8  19848295.762 7 105951535.407 8  82406702.441 7
R19  19978069.359 8  19978072.477 8 106869197.796 8  83120766.542 8
> 2025 06 15 13 42 40.0000000  0 26
C06  38813429.656 6  38813424.813 6 202111718.240 6 156285600.729 6
C11  24813729.469 6  24813728.223 7 129211601.673 6  99914604.861 7
C12  22197039.063 7  22197035.008 7 115585808.294 7  89378369.311 7
C16  39290390.305 6  39290390.566 6 204595371.351 6 158206121.220 6
C19  25042752.922 5                 130404194.269 5
C21  23542823.117 7                 122593661.541 7
C22  21618077.523 8                 112571006.112 8
E03  26302579.273 7  26302583.789 8 138220990.014 7 104563298.103 8
E05  22285806.547 8  22285808.258 8 117112702.146 8  88595006.681 8
E15  25443545.836 7  25443550.824 8 133706736.537 7 101148298.174 8
E34  23417022.859 8  23417024.715 8 123057284.271 8  93092041.566 8
E36  25969167.375 7  25969170.590 7 136468886.937 7 103237841.902 7
G01  20443271.141 7                  20443275.090 8 107430110.857 7                  83711791.895 8
G02  22360908.164 7  22360909.852 5                 117507364.077 7  91564185.801 5
G03  20083296.664 8                  20083303.156 7 105538434.328 8                  82237768.071 7
G04  22358413.008 7                  22358419.105 7 117494254.720 7                  91553991.957 7
G17  22432494.586 7                  22432499.848 7 117883561.445 7                  91857485.534 7
G19  22922798.266 6  22922802.234 5                 120460120.250 6  93865341.331 5
G28  23313763.898 7                  23313769.801 7 122514676.438 7                  95465986.317 7
G31  23102831.227 6                  23102835.980 5 121406158.616 6                  94602257.403 5
R02  22612637.430 5                 120665273.43415
R03  19378337.859 8  19378342.422 8 103733749.614 8  80681882.781 8
R04  20606484.695 8  20606490.258 7 110346794.153 8  85825611.268 7
R17  23289996.547 5                 124629695.44115
R18  19849017.969 8  19849021.609 7 105955413.656 8  82409718.850 7
R19  19974777.555 8  19974780.961 8 106851591.229 8  83107072.584 8
> 2025 06 15 13 42 45.0000000  0 26
C06  38811160.109 6  38811155.672 6 202099901.572 6 156276463.327 6
C11  24809798.023 6  24809796.770 7 129191125.939 6  99898771.723 7
C12  22195876.305 7  22195871.813 7 115579751.236 7  89373685.601 7
C16  39288278.156 6  39288279.641 6 204584377.172 6 158197619.871 6
C19  25044115.023 5                 130411287.253 5
C21  23539223.070 7                 122574916.058 7
C22  21617206.164 7                 112566469.049 7
E03  26298388.305 7  26298392.590 8 138198965.429 7 104546636.670 8
E05  22283665.203 8  22283667.121 8 117101450.210 8  88586494.662 8
E15  25440018.359 7  25440021.781 8 133688191.221 7 101134268.766 8
E34  23415816.625 8  23415818.586 9 123050945.817 8  93087246.574 9
E36  25970125.023 6  25970129.160 7 136473925.057 6 103241653.223 7
G01  20442905.945 8                  20442910.082 8 107428193.258 8                  83710297.660 8
G02  22361944.781 7  22361946.574 6                 117512811.662 7  91568430.659 6
G03  20081351.000 8                  20081356.992 7 105528208.485 8                  82229799.882 7
G04  22353983.492 7                  22353989.285 7 117470976.549 7                  91535853.136 7
G17  22431052.992 7                  22431057.820 7 117875982.827 7                  91851580.122 7
G19  22919447.172 7  22919450.211 5                 120442505.454 7  93851615.509 5
G28  23311998.672 6                  23312004.410 7 122505400.360 6                  95458758.200 7
G31  23099343.742 5                  23099351.160 5 121387840.016 5                  94587983.266 5
R02  22614812.609 5  22614811.348 4 120676883.917 5  93859866.60414
R03  19377729.758 8  19377733.875 7 103730493.797 8  80679350.484 7
R04  20602512.570 8  20602518.281 7 110325526.129 8  85809069.460 7
R17  23292722.703 5  23292725.586 4 124644300.623 5  96945389.61914
R18  19849748.484 8  19849752.508 7 105959315.349 8  82412753.522 7
R19  19971491.578 8  19971493.527 7 106834007.429 8  83093396.269 7
> 2025 06 15 13 42 50.0000000  0 27
C06  38808891.422 6  38808887.254 6 202088090.716 6 156267330.433 6
C11  24805867.523 6  24805866.328 7 129170659.065 6  99882945.477 7
C12  22194715.961 7  22194711.656 7 115573709.560 7  89369013.805 7
C16  39286168.445 6  39286170.281 6 204573388.896 6 158189123.077 6
C19  25045478.789 5                 130418384.318 5
C21  23535625.891 7                 122556179.329 7
C22  21616337.500 7                 112561943.400 7
E03  26294198.008 7  26294202.602 8 138176946.730 7 104529979.683 8
E05  22281526.391 8  22281528.285 8 117090210.605 8  88577991.978 8
E09  25791356.305 5                 135534530.59415
E15  25436489.352 7  25436493.758 8 133669651.375 7 101120243.509 8
E34  23414612.508 8  23414614.328 8 123044617.583 8  93082459.312 8
E36  25971085.445 6  25971089.031 7 136478969.773 6 103245469.509 7
G01  20442544.102 8                  20442548.371 8 107426290.395 8                  83708814.922 8
G02  22362983.336 7  22362985.094 5                 117518269.001 7  91572683.127 5
G03  20079407.703 8                  20079413.898 8 105517995.090 8                  82221841.391 8
G04  22349555.547 7                  22349561.516 7 117447707.944 7                  91517721.744 7
G17  22429613.703 7                  22429618.629 7 117868420.934 7                  91845687.737 7
G19  22916098.047 7  22916101.152 5                 120424906.839 7  93837902.301 5
G28  23310237.336 6                  23310242.410 7 122496141.952 6                  95451543.852 7
G31  23095860.063 5                  23095868.496 5 121369535.811 5                  94573720.266 5
R02  22616987.031 5  22616988.324 5 120688499.601 5  93868900.915 5
R03  19377125.367 8  19377128.828 7 103727255.607 8  80676831.877 7
R04  20598543.719 8  20598549.496 7 110304272.634 8  85792538.991 7
R17  23295452.273 5  23295457.680 4 124658912.12915  96956754.18814
R18  19850483.023 8  19850487.242 7 105963236.556 8  82415803.359 7
R19  19968207.805 8  19968209.750 7 106816442.417 8  83079734.614 7
> 2025 06 15 13 42 55.0000000  0 27
C06  38806624.938 6  38806620.066 6 202076283.875 6 156258200.614 6
C11  24801938.281 6  24801936.813 7 129150199.328 6  99867124.692 7
C12  22193558.164 7  22193554.828 8 115567681.431 7  89364352.485 8
C16  39284059.258 6  39284061.270 6 204562404.644 6 158180629.344 6
C19  25046843.422 5                 130425483.586 5
C21  23532028.727 7                 122537449.585 7
C22  21615470.336 7                 112557427.350 7
E03  26290009.172 7  26290013.340 8 138154932.055 7 104513325.737 8
E05  22279389.336 8  22279391.402 8 117078981.514 8  88569497.243 8
E09  25791909.727 6  25791912.621 6 135537437.763 6 102533172.60716
E15  25432962.531 7  25432966.441 8 133651115.161 7 101106220.968 8
E34  23413410.117 8  23413411.730 9 123038297.700 8  93077678.358 9
E36  25972045.844 6  25972049.883 7 136484019.065 6 103249289.253 7
G01  20442184.266 8                  20442188.957 8 107424400.392 8                  83707342.189 8
G02  22364023.984 7  22364024.996 6                 117523734.229 7  91576941.738 6
G03  20077465.625 8                  20077472.316 8 105507792.291 8                  82213891.162 8
G04  22345130.148 7                  22345134.605 7 117424446.990 7                  91499596.353 7
G17  22428177.266 7                  22428182.652 7 117860873.906 7                  91839806.932 7
G19  22912752.156 7  22912755.133 5                 120407322.588 7  93824200.276 5
G28  23308477.727 6                  23308483.523 7 122486899.375 6                  95444341.854 7
G31  23092375.617 5                  23092386.957 5 121351244.015 5                  94559466.852 5
R02  22619159.789 4                                
R03  19376523.273 8  19376527.031 7 103724033.402 8  80674325.708 7
R04  20594577.891 8  20594583.234 7 110283031.968 8  85776018.447 7
R17  23298184.477 4  23298190.602 5 124673527.896 4  96968122.027 5
R18  19851221.148 8  19851224.887 7 105967175.404 8  82418866.897 7
R19  19964925.883 8  19964929.078 7 106798894.461 8  83066086.200 7
> 2025 06 15 13 43  0.0000000  0 26
C06  38804358.813 6  38804354.203 6 202064482.973 6 156249075.438 6
C11  24798011.156 7  24798009.461 7 129129748.642 7  99851310.945 7
C12  22192403.680 7  22192399.719 7 115561668.756 7  89359703.113 7
C16  39281949.875 6  39281952.406 6 204551426.387 6 158172140.259 6
C19  25048207.695 4                 130432587.108 4
C21  23528434.359 7                 122518728.744 7
C22  21614605.313 7                 112552922.795 7
E03  26285820.906 7  26285825.211 8 138132923.375 7 104496676.325 8
E05  22277255.414 8  22277256.984 8 117067764.855 8  88561011.920 8
E09  25792464.266 6  25792467.676 7 135540353.831 6 102535378.628 7
E15  25429436.109 7  25429440.188 8 133632584.512 7 101092202.681 8
E34  23412208.898 8  23412211.070 9 123031988.156 8  93072905.220 9
E36  25973008.664 6  25973012.004 7 136489074.999 6 103253114.014 7
G01  20441826.945 8                  20441831.836 8 107422525.237 8                  83705881.035 8
G02  22365065.656 7  22365067.320 6                 117529209.365 7  91581208.052 6
G03  20075526.633 8                  20075533.031 8 105497602.022 8                  82205950.694 8
G04  22340704.383 7                  22340710.469 7 117401195.714 7                  91481478.500 7
G17  22426744.383 7                  22426749.262 7 117853343.701 7                  91833939.232 7
G19  22909408.594 7  22909411.414 5                 120389754.669 7  93810511.040 5
G28  23306723.313 6                  23306728.355 7 122477674.596 6                  95437153.724 7
G31  23088895.977 4                                                                
R02  22621340.055 5  22621349.277 4 120711742.07215  93886978.29214
R03  19375925.117 8  19375928.805 7 103720828.771 8  80671833.230 7
R04  20590614.727 8  20590619.332 7 110261806.039 8  85759509.376 7
R18  19851962.273 8  19851966.496 7 105971133.803 8  82421945.641 7
R19  19961649.711 8  19961652.359 7 106781365.405 8  83052452.485 7
> 2025 06 15 13 43  5.0000000  0 24
C06  38802092.852 6  38802089.016 6 202052687.308 6 156239954.278 6
C11  24794085.922 6  24794083.695 7 129109306.289 6  99835503.634 7
C12  22191251.547 7  22191248.047 8 115555670.925 7  89355065.186 8
C16  39279843.305 6  39279845.293 6 204540453.353 6 158163655.212 6
C19  25049574.023 5                 130439694.094 5
C21  23524839.945 7                 122500016.096 7
C22  21613742.422 7                 112548429.063 7
E03  26281633.125 7  26281638.133 8 138110919.975 7 104480030.905 8
E05  22275122.672 8  22275124.813 8 117056559.939 8  88552535.476 8
E09  25793021.133 6  25793024.055 7 135543278.186 6 102537590.867 7
E15  25425910.758 7  25425914.891 8 133614058.772 7 101078188.084 8
E34  23411009.969 8  23411012.234 8 123025688.241 8  93068139.374 8
E36  25973971.594 6  25973975.199 7 136494136.882 6 103256943.293 7
G01  20441473.109 8                  20441477.984 8 107420664.218 8                  83704430.886 8
G02  22366109.031 7  22366110.988 6                 117534693.649 7  91585481.523 6
G03  20073590.133 8                  20073596.258 8 105487423.633 8                  82198019.490 8
G04  22336281.984 7                  22336287.500 7 117377953.449 7                  91463367.657 7
G17  22425314.727 7                  22425319.844 7 117845829.598 7                  91828084.091 7
G19  22906067.602 6  22906071.207 5                 120372202.440 6  93796833.955 5
G28  23304970.094 6                  23304975.926 7 122468466.958 6                  95429978.964 7
R03  19375327.867 8  19375333.211 7 103717641.492 8  80669354.242 7
R04  20586653.219 8  20586657.074 7 110240593.902 8  85743011.065 7
R18  19852708.953 8  19852711.590 7 105975111.101 8  82425039.095 7
R19  19958376.398 8  19958379.543 7 106763854.713 8  83038833.041 7
> 2025 06 15 13 43 10.0000000  0 26
C06  38799829.023 6  38799825.094 6 202040898.125 6 156230838.133 6
C11  24790161.977 7  24790159.414 7 129088873.537 7  99819703.740 7
C12  22190102.789 7  22190099.402 8 115549689.090 7  89350439.659 8
C16  39277738.414 6  39277739.133 6 204529486.849 6 158155175.218 6
C19  25050938.438 4                 130446805.85314
C21  23521247.250 7                 122481312.910 7
C22  21612881.781 7                 112543947.339 7
E03  26277447.594 7  26277452.195 8 138088923.104 7 104463390.435 8
E05  22272993.086 8  22272995.016 8 117045367.968 8  88544068.839 8
E09  25793579.594 6  25793582.309 7 135546212.089 6 102539810.340 7
E15  25422386.781 7  25422390.762 8 133595539.171 7 101064178.120 8
E34  23409813.117 8  23409815.438 9 123019399.161 8  93063381.727 9
E36  25974936.875 6  25974939.902 7 136499205.828 6 103260777.907 7
G01  20441121.945 8                  20441126.598 8 107418818.538 8                  83702992.680 8
G02  22367154.992 7  22367156.664 5                 117540188.309 7  91589763.045 5
G03  20071655.523 8                  20071661.504 8 105477258.286 8                  82190098.422 8
G04  22331859.648 7                  22331866.902 7 117354721.377 7                  91445264.737 7
G17  22423887.508 7                  22423892.895 7 117838332.887 7                  91822242.503 7
G19  22902730.648 6  22902734.320 5                 120354667.128 6  93783170.093 5
G28  23303221.820 6                  23303227.250 7 122459277.671 6                  95422818.490 7
G31  23081953.492 5                                 121296453.63915                
R02  22625696.391 4                                
R03  19374736.281 8  19374741.031 8 103714472.437 8  80666889.398 8
R04  20582694.945 8  20582699.660 7 110219397.038 8  85726524.607 7
R18  19853456.852 8  19853460.363 7 105979108.495 8  82428148.170 7
R19  19955107.055 8  19955109.598 7 106746363.477 8  83025228.750 7
> 2025 06 15 13 43 15.0000000  0 26
C06  38797566.008 6  38797562.246 6 202029114.276 6 156221726.129 6
C11  24786239.375 6  24786237.336 7 129068449.272 6  99803910.428 7
C12  22188957.883 7  22188953.070 7 115543722.136 7  89345825.616 7
C16  39275633.461 6  39275634.367 6 204518525.720 6 158146699.387 6
C19  25052306.289 4                 130453921.105 4
C21  23517658.367 7                 122462617.982 7
C22  21612023.672 8                 112539476.516 8
E03  26273262.297 7  26273267.422 8 138066931.649 7 104446754.060 8
E05  22270865.242 8  22270867.586 8 117034187.881 8  88535611.169 8
E09  25794139.250 6  25794141.938 7 135549154.303 6 102542036.051 7
E15  25418863.781 7  25418867.602 8 133577024.572 7 101050171.967 8
E34  23408618.375 8  23408620.543 8 123013119.816 8  93058631.450 8
E36  25975902.211 6  25975905.625 7 136504280.814 6 103264617.101 7
G01  20440773.539 8                  20440778.078 8 107416987.091 8                  83701565.583 8
G02  22368201.734 7  22368204.000 5                 117545692.170 7  91594051.775 5
G03  20069723.359 8                  20069729.363 8 105467104.900 8                  82182186.707 8
G04  22327440.922 7                  22327447.973 7 117331498.436 7                  91427168.941 7
G17  22422464.391 7                  22422469.207 7 117830852.419 7                  91816413.544 7
G19  22899397.023 6  22899400.266 4                 120337147.543 6  93769518.466 4
G28  23301477.203 6                  23301481.781 7 122450105.589 6                  95415671.373 7
G31  23078483.320 5                  23078491.289 5 121278218.888 5                  94502560.71515
R02  22627876.625 5  22627890.008 4 120746641.54615  93914122.36414
R03  19374146.719 8  19374152.156 8 103711320.512 8  80664437.898 8
R04  20578739.438 8  20578743.496 7 110198214.368 8  85710049.229 7
R18  19854208.773 8  19854213.457 7 105983124.907 8  82431272.053 7
R19  19951840.266 8  19951842.758 7 106728890.631 8  83011638.758 7
> 2025 06 15 13 43 20.0000000  0 26
C06  38795303.844 6  38795300.543 6 202017336.492 6 156212618.812 6
C11  24782318.703 6  24782316.957 7 129048034.164 6  99788124.187 7
C12  22187813.883 7  22187810.313 7 115537770.783 7  89341223.646 7
C16  39273529.555 6  39273530.473 6 204507570.722 6 158138228.301 6
C19  25053671.281 4                 130461040.63814
C21  23514069.992 7                 122443932.111 7
C22  21611167.414 8                 112535017.299 8
E03  26269078.914 7  26269083.770 8 138044946.314 7 104430122.330 8
E05  22268740.430 8  22268742.523 8 117023020.340 8  88527163.002 8
E09  25794700.789 6  25794703.512 7 135552105.565 6 102544268.668 7
E15  25415341.688 7  25415345.516 8 133558515.714 7 101036170.144 8
E34  23407425.547 8  23407427.598 8 123006850.931 8  93053889.087 8
E36  25976868.148 6  25976872.742 7 136509362.549 6 103268461.367 7
G01  20440427.117 7                  20440432.414 8 107415170.595 7                  83700150.146 8
G02  22369251.391 7  22369253.633 5                 117551205.953 7  91598348.206 5
G03  20067793.500 8                  20067799.434 8 105456964.188 8                  82174284.843 8
G04  22323023.938 7                  22323030.168 7 117308285.293 7                  91409080.788 7
G17  22421043.867 7                  22421049.160 7 117823388.857 7                  91810597.762 7
G19  22896065.828 6  22896069.605 5                 120319644.457 6  93755879.720 5
G28  23299734.594 6                  23299739.480 7 122440951.439 6                  95408538.260 7
G31  23075017.297 6                  23075023.324 4 121259998.757 6                  94488363.281 4
R02  22630057.594 5  22630070.414 4 120758284.713 5  93923177.932 4
R03  19373561.438 8  19373566.570 7 103708186.237 8  80662000.124 7
R04  20574786.141 8  20574791.066 7 110177046.540 8  85693585.376 7
R18  19854965.508 8  19854969.270 7 105987160.971 8  82434411.220 7
R19  19948577.250 8  19948580.512 7 106711436.919 8  82998063.674 7
> 2025 06 15 13 43 25.0000000  0 26
C06  38793043.820 6  38793040.246 7 202005565.549 6 156203516.770 7
C11  24778399.047 6  24778398.094 7 129027629.103 6  99772345.701 7
C12  22186674.242 7  22186670.582 7 115531835.907 7  89336634.431 7
C16  39271426.750 6  39271427.832 6 204496622.613 6 158129762.523 6
C19  25055040.305 4                 130468165.34314
C21  23510482.953 7                 122425256.054 7
C22  21610313.344 8                 112530570.492 8
E03  26264896.797 7  26264901.363 8 138022967.960 7 104413495.869 8
E05  22266617.234 8  22266619.984 8 117011866.156 8  88518724.943 8
E09  25795263.203 6  25795266.922 7 135555066.755 6 102546508.769 7
E15  25411821.297 7  25411824.656 8 133540013.410 7 101022173.270 8
E34  23406234.328 8  23406236.820 8 123000593.295 8  93049155.229 8
E36  25977836.680 6  25977841.543 7 136514451.797 6 103272311.312 7
G01  20440084.852 8                  20440089.754 8 107413369.857 8                  83698746.966 8
G02  22370302.477 7  22370304.973 6                 117556730.502 7  91602653.044 6
G03  20065866.211 8                  20065872.402 7 105446836.952 8                  82166393.490 7
G04  22318609.125 7                  22318614.480 7 117285082.795 7                  91391000.933 7
G17  22419627.641 7                  22419632.703 7 117815943.067 7                  91804795.840 7
G19  22892739.078 6  22892742.004 5                 120302158.683 6  93742254.422 5
G28  23297996.008 6                  23298001.004 7 122431816.050 6                  95401419.781 7
G31  23071553.023 6                                 121241794.044 6                
R02  22632239.219 4                                
R03  19372980.219 8  19372984.828 7 103705070.935 8  80659577.110 7
R04  20570835.102 8  20570840.828 7 110155894.306 8  85677133.660 7
R18  19855724.914 8  19855728.953 7 105991217.540 8  82437566.311 7
R19  19945317.945 8  19945321.543 7 106694003.224 8  82984504.138 7
> 2025 06 15 13 43 30.0000000  0 25
C06  38790784.453 6  38790780.941 7 201993801.430 6 156194420.018 7
C11  24774481.156 6  24774481.070 7 129007234.005 6  99756574.922 7
C12  22185538.148 7  22185534.176 7 115525917.349 7  89332057.828 7
C16  39269326.055 6  39269326.641 6 204485681.340 6 158121302.011 6
C19  25056411.875 5                 130475294.88915
C21  23506897.891 7                 122406589.800 7
C22  21609461.813 7                 112526136.061 7
E03  26260716.344 7  26260720.293 8 138000996.507 7 104396874.609 8
E05  22264497.789 8  22264499.926 8 117000725.313 8  88510296.973 8
E09  25795828.734 6  25795832.383 7 135558037.643 6 102548756.244 7
E15  25408301.250 7  25408305.059 8 133521517.614 7 101008181.333 8
E34  23405046.391 8  23405048.176 8 122994346.899 8  93044429.863 8
E36  25978806.094 6  25978811.551 7 136519548.510 6 103276166.957 7
G01  20439745.172 8                  20439750.098 8 107411584.818 8                  83697356.041 8
G02  22371356.484 7  22371358.219 5                 117562265.777 7  91606966.234 5
G03  20063941.586 8                  20063947.484 7 105436723.135 8                  82158512.589 7
G04  22314194.406 7                  22314201.660 7 117261890.875 7                  91372929.317 7
G17  22418213.758 7                  22418218.805 7 117808514.965 7                  91799007.711 7
G19  22889414.984 7  22889417.727 5                 120284690.201 7  93728642.634 5
G28  23296261.633 6                  23296266.223 7 122422699.308 6                  95394315.869 7
G31  23068091.453 6                  23068096.328 5 121223604.750 6                  94459996.32715
R03  19372401.813 8  19372405.949 7 103701974.146 8  80657168.490 7
R04  20566888.891 8  20566894.156 7 110134757.821 8  85660694.201 7
R18  19856488.766 8  19856492.656 7 105995294.538 8  82440737.301 7
R19  19942063.047 8  19942065.895 7 106676589.550 8  82970960.182 7
> 2025 06 15 13 43 35.0000000  0 25
C06  38788527.594 6  38788523.066 7 201982044.440 6 156185328.757 7
C11  24770567.281 6  24770566.367 7 128986849.191 6  99740812.138 7
C12  22184404.219 7  22184400.910 7 115520015.456 7  89327494.123 7
C16  39267226.359 6  39267227.262 6 204474747.213 6 158112847.042 6
C19  25057780.648 5                 130482429.89215
C21  23503315.602 7                 122387933.642 7
C22  21608612.891 8                 112521714.287 8
E03  26256536.063 7  26256540.566 8 137979032.266 7 104380258.833 8
E05  22262380.117 8  22262382.496 8 116989598.099 8  88501879.308 8
E09  25796397.430 6  25796399.602 7 135561018.719 6 102551011.354 7
E15  25404783.031 7  25404786.629 8 133503028.619 7 100994194.527 8
E34  23403859.742 8  23403861.707 8 122988112.028 8  93039713.221 8
E36  25979779.016 7  25979782.777 7 136524653.022 7 103280028.465 7
G01  20439408.508 7                  20439413.355 8 107409815.791 7                  83695977.544 8
G02  22372410.680 7  22372413.355 5                 117567812.040 7  91611287.979 5
G03  20062019.445 7                  20062025.926 7 105426623.073 7                  82150642.435 7
G04  22309783.719 7                  22309790.699 7 117238709.920 7                  91354866.254 7
G17  22416803.703 7                  22416808.902 7 117801104.825 7                  91793233.577 7
G19  22886093.281 6  22886096.684 5                 120267239.318 6  93715044.560 5
G28  23294530.242 6                  23294534.438 6 122413601.604 6                  95387226.795 6
G31  23064633.383 6                  23064638.898 5 121205431.124 6                  94445835.119 5
R03  19371826.148 8  19371831.086 7 103698896.261 8  80654774.591 7
R04  20562944.039 8  20562949.941 7 110113637.200 8  85644267.043 7
R18  19857256.336 8  19857260.520 7 105999392.280 8  82443924.431 7
R19  19938811.367 8  19938814.520 7 106659196.092 8  82957431.939 7
> 2025 06 15 13 43 40.0000000  0 25
C06  38786269.555 6  38786266.332 7 201970292.540 6 156176241.452 7
C11  24766654.484 6  24766653.965 7 128966472.621 6  99725055.706 7
C12  22183274.414 7  22183270.426 7 115514128.216 7  89322941.737 7
C16  39265126.852 6  39265128.438 6 204463818.214 6 158104396.054 6
C19  25059152.867 5                 130489568.17115
C21  23499733.305 7                 122369285.520 7
C22  21607765.031 8                 112517303.146 8
E03  26252356.961 7  26252361.934 8 137957073.216 7 104363646.959 8
E05  22260264.695 8  22260267.391 8 116978482.486 8  88493470.426 8
E09  25796965.922 6  25796968.453 7 135564007.776 6 102553272.563 7
E15  25401264.945 7  25401269.160 8 133484544.393 7 100980211.345 8
E34  23402674.977 8  23402677.012 8 122981886.636 8  93035003.749 8
E36  25980750.367 6  25980755.266 7 136529763.246 6 103283894.319 7
G01  20439074.203 7                  20439079.363 8 107408060.748 7                  83694609.977 8
G02  22373468.250 7  22373470.578 5                 117573367.266 7  91615616.722 5
G03  20060100.422 8                  20060106.027 7 105416534.663 8                  82142781.339 7
G04  22305374.281 7                  22305381.117 7 117215537.814 7                  91336810.106 7
G17  22415397.156 7                  22415401.887 7 117793710.664 7                  91787471.867 7
G19  22882775.250 6  22882778.820 5                 120249804.005 6  93701458.610 5
G28  23292802.508 6                  23292806.813 6 122404520.933 6                  95380150.963 6
G31  23061177.063 6                  23061183.121 4 121187271.196 6                  94431684.583 4
R03  19371255.094 8  19371259.504 7 103695835.265 8  80652393.827 7
R04  20559002.250 8  20559007.984 7 110092530.481 8  85627850.718 7
R18  19858026.953 8  19858031.305 7 106003508.654 8  82447126.059 7
R19  19935563.148 8  19935566.078 7 106641820.766 8  82943917.801 7
> 2025 06 15 13 43 45.0000000  0 25
C06  38784014.203 6  38784010.711 7 201958547.532 6 156167159.467 7
C11  24762742.852 6  24762742.473 7 128946106.144 6  99709307.040 7
C12  22182146.711 7  22182142.684 7 115508257.400 7  89318402.039 7
C16  39263030.953 6  39263031.188 6 204452896.112 6 158095950.413 6
C19  25060523.500 5                 130496711.512 5
C21  23496154.516 7                 122350647.261 7
C22  21606920.773 7                 112512904.376 7
E03  26248180.258 7  26248184.586 8 137935121.179 7 104347040.392 8
E05  22258151.945 8  22258154.730 8 116967380.264 8  88485071.662 8
E09  25797536.594 6  25797539.313 7 135567006.764 6 102555541.271 7
E15  25397749.023 7  25397753.004 8 133466066.792 7 100966233.163 8
E34  23401492.469 8  23401494.535 8 122975672.534 8  93030302.818 8
E36  25981724.578 6  25981729.227 7 136534881.031 6 103287765.868 7
G01  20438743.852 7                  20438748.191 8 107406321.448 7                  83693254.681 8
G02  22374527.195 7  22374530.047 5                 117578933.270 7  91619953.859 5
G03  20058182.820 8                  20058189.273 7 105406459.783 8                  82134930.762 7
G04  22300967.688 7                  22300973.867 7 117192376.444 7                  91318762.283 7
G17  22413992.641 7                  22413998.000 7 117786334.263 7                  91781724.012 7
G19  22879461.344 6  22879464.750 5                 120232386.086 6  93687886.231 5
G28  23291078.266 6                  23291082.809 6 122395458.977 6                  95373089.690 6
G31  23057723.695 6                  23057729.777 4 121169126.637 6                  94417545.981 4
R03  19370686.922 8  19370691.082 8 103692792.932 8  80650027.563 8
R04  20555064.156 8  20555069.609 7 110071439.513 8  85611446.619 7
R18  19858802.844 8  19858806.430 7 106007645.555 8  82450343.621 7
R19  19932317.625 8  19932321.883 7 106624465.474 8  82930419.263 7
> 2025 06 15 13 43 50.0000000  0 26
C06  38781759.266 6  38781756.387 6 201946808.291 6 156158081.960 6
C11  24758833.242 6  24758832.895 7 128925748.738 6  99693565.403 7
C12  22181021.344 7  22181018.457 8 115502401.965 7  89313874.226 8
C16  39260933.719 6  39260934.781 6 204441979.859 6 158087509.273 6
C19  25061897.375 5                 130503858.887 5
C21  23492577.680 7                 122332017.787 7
C22  21606077.984 7                 112508516.980 7
E03  26244003.266 7  26244008.348 8 137913174.981 7 104330438.264 8
E05  22256041.852 8  22256044.391 8 116956290.356 8  88476682.213 8
E09  25798108.438 6  25798111.629 7 135570014.444 6 102557816.545 7
E15  25394233.828 7  25394237.715 8 133447594.635 7 100952259.120 8
E34  23400311.813 8  23400313.988 8 122969468.643 8  93025609.616 8
E36  25982699.133 6  25982704.434 7 136540005.252 6 103291642.301 7
G01  20438415.813 7                  20438420.078 8 107404596.819 7                  83691910.813 8
G02  22375588.406 7  22375590.625 5                 117584508.883 7  91624298.486 5
G03  20056267.719 8                  20056274.059 7 105396397.300 8                  82127089.871 7
G04  22296561.297 7                  22296567.816 7 117169224.655 7                  91300721.952 7
G17  22412592.695 7                  22412597.547 7 117778974.556 7                  91775989.198 7
G19  22876150.578 6  22876153.379 5                 120214984.457 6  93674326.516 5
G28  23289356.609 6                  23289361.730 6 122386414.747 6                  95366042.253 6
G31  23054271.141 6                  23054278.980 4 121150996.563 6                  94403418.725 4
R03  19370121.289 8  19370126.152 8 103689768.034 8  80647674.868 8
R04  20551128.406 8  20551133.145 7 110050363.096 8  85595053.859 7
R11  23714512.570 4                 126723320.06414
R18  19859580.969 8  19859585.711 7 106011801.813 8  82453576.250 7
R19  19929077.063 8  19929080.809 7 106607129.151 8  82916935.440 7
> 2025 06 15 13 43 55.0000000  0 25
C06  38779506.117 6  38779502.680 7 201935074.265 6 156149008.461 7
C11  24754926.383 6  24754924.723 7 128905399.662 6  99677830.230 7
C12  22179899.477 7  22179896.824 8 115496561.244 7  89309357.824 8
C16  39258837.320 6  39258839.555 6 204431068.814 6 158079072.177 6
C19  25063268.563 5                 130511009.560 5
C21  23489002.695 7                 122313396.498 7
C22  21605237.469 7                 112504140.262 7
E03  26239828.602 7  26239833.184 8 137891234.119 7 104313840.159 8
E05  22253933.773 8  22253936.246 8 116945212.114 8  88468301.599 8
E09  25798683.008 6  25798685.332 7 135573030.228 6 102560097.959 7
E15  25390719.680 7  25390723.508 8 133429127.423 7 100938288.795 8
E34  23399133.297 8  23399135.238 8 122963274.313 8  93020923.641 8
E36  25983675.828 6  25983680.477 7 136545135.261 6 103295523.098 7
G01  20438089.984 7                  20438094.961 8 107402886.248 7                  83690577.893 8
G02  22376651.500 7  22376652.973 5                 117590093.522 7  91628650.161 5
G03  20054354.500 8                  20054362.023 7 105386346.591 8                  82119258.154 7
G04  22292156.875 7                  22292164.117 7 117146081.922 7                  91282688.668 7
G17  22411194.789 7                  22411199.906 7 117771630.880 7                  91770266.844 7
G19  22872841.305 6  22872845.000 5                 120197598.477 6  93660779.024 5
G28  23287639.602 7                  23287643.414 6 122377387.620 7                  95359008.097 6
G31  23050825.047 5                  23050831.230 4 121132880.363 5                  94389302.205 4
R03  19369560.063 8  19369564.430 7 103686760.222 8  80645335.460 7
R04  20547194.859 8  20547199.957 7 110029300.783 8  85578672.054 7
R18  19860363.086 8  19860367.441 7 106015976.764 8  82456823.430 7
R19  19925839.945 8  19925843.141 7 106589811.167 8  82903465.901 7
> 2025 06 15 13 44  0.0000000  0 25
C06  38777254.398 6  38777250.441 7 201923346.243 6 156139939.604 7
C11  24751020.359 6  24751018.840 7 128885059.791 6  99662102.181 7
C12  22178780.820 7  22178778.191 8 115490736.104 7  89304853.451 8
C16  39256744.133 6  39256745.602 6 204420163.827 6 158070639.747 6
C19  25064644.180 4                 130518164.464 4
C21  23485427.609 7                 122294784.217 7
C22  21604399.266 7                 112499775.083 7
E03  26235654.688 7  26235659.086 8 137869299.427 7 104297246.711 8
E05  22251828.516 8  22251830.520 8 116934146.399 8  88459930.440 8
E09  25799258.664 6  25799260.840 7 135576055.038 6 102562386.227 7
E15  25387205.805 7  25387210.363 8 133410665.903 7 100924322.801 8
E34  23397956.375 8  23397958.484 8 122957090.439 8  93016245.576 8
E36  25984653.406 6  25984658.000 7 136550271.953 6 103299409.002 7
G01  20437767.609 8                  20437771.809 8 107401190.579 8                  83689256.593 8
G02  22377716.211 7  22377717.113 5                 117595688.103 7  91633009.539 5
G03  20052444.813 8                  20052451.742 7 105376308.517 8                  82111436.278 7
G04  22287755.438 7                  22287762.211 7 117122948.979 7                  91264663.013 7
G17  22409800.430 7                  22409805.258 7 117764304.070 7                  91764557.665 7
G19  22869536.711 7  22869539.406 5                 120180229.051 7  93647244.430 5
G28  23285924.859 7                  23285929.145 6 122368378.395 7                  95351987.933 6
G31  23047379.695 5                  23047386.770 4 121114778.859 5                  94375197.028 4
R03  19369002.242 8  19369005.813 8 103683769.795 8  80643009.563 8
R04  20543264.398 8  20543269.168 7 110008253.289 8  85562301.780 7
R18  19861148.781 8  19861153.188 7 106020171.332 8  82460085.868 7
R19  19922606.586 8  19922609.547 7 106572512.314 8  82890011.233 7
> 2025 06 15 13 44  5.0000000  0 25
C06  38775002.922 6  38774999.234 6 201911625.337 6 156130876.260 6
C11  24747115.594 6  24747114.922 7 128864730.301 6  99646382.123 7
C12  22177665.023 7  22177662.391 8 115484927.645 7  89300361.976 8
C16  39254652.234 6  39254652.805 6 204409265.979 6 158062212.854 6
C19  25066019.969 5                 130525324.688 5
C21  23481855.133 7                 122276182.006 7
C22  21603563.164 7                 112495422.548 7
E03  26231481.156 7  26231486.406 8 137847371.939 7 104280658.727 8
E05  22249724.969 8  22249727.254 8 116923094.309 8  88451569.605 8
E09  25799836.648 6  25799838.531 7 135579089.857 6 102564682.071 7
E15  25383694.102 7  25383698.613 8 133392211.277 7 100910361.992 8
E34  23396781.914 8  23396783.910 8 122950918.105 8  93011576.250 8
E36  25985632.961 6  25985636.980 7 136555416.434 6 103303300.711 7
G01  20437447.695 7                  20437452.016 8 107399510.899 7                  83687947.752 8
G02  22378782.398 7  22378783.652 5                 117601293.624 7  91637377.477 5
G03  20050537.078 7                  20050543.859 7 105366284.182 7                  82103625.109 7
G04  22283355.563 7                  22283362.004 7 117099827.056 7                  91246645.938 7
G17  22408410.438 7                  22408414.402 7 117756995.296 7                  91758862.514 7
G19  22866235.094 7  22866237.309 5                 120162877.308 7  93633723.594 5
G28  23284214.219 6                  23284218.664 7 122359388.246 6                  95344982.580 7
G31  23043939.688 6                  23043944.367 4 121096693.066 6                  94361104.200 4
R03  19368446.477 8  19368450.836 8 103680798.634 8  80640698.675 8
R04  20539337.781 8  20539341.902 7 109987221.776 8  85545943.942 7
R18  19861938.039 8  19861942.813 7 106024386.585 8  82463364.402 7
R19  19919376.320 8  19919379.477 7 106555233.921 8  82876572.465 7
> 2025 06 15 13 44 10.0000000  0 26
C06  38772753.445 6  38772749.777 6 201899909.662 6 156121816.954 6
C11  24743214.070 6  24743212.047 7 128844409.204 6  99630668.545 7
C12  22176553.219 7  22176550.195 8 115479133.924 7  89295881.912 8
C16  39252559.750 6  39252561.133 6 204398373.391 6 158053789.997 6
C19  25067396.461 5                 130532488.277 5
C21  23478284.406 7                 122257588.008 7
C22  21602729.789 7                 112491080.715 7
E03  26227309.352 7  26227314.691 8 137825449.794 7 104264074.780 8
E05  22247624.000 8  22247626.289 8 116912053.909 8  88443217.624 8
E09  25800415.156 6  25800417.641 7 135582132.859 6 102566984.029 7
E15  25380183.320 7  25380187.695 8 133373761.539 7 100896404.897 8
E34  23395609.508 8  23395611.184 8 122944755.365 8  93006914.172 8
E36  25986611.398 6  25986616.887 7 136560566.682 6 103307196.838 7
G01  20437130.930 7                  20437135.043 8 107397845.301 7                  83686649.870 8
G02  22379851.109 7  22379852.430 5                 117606908.144 7  91641752.434 5
G03  20048631.641 7                  20048638.738 7 105356271.648 7                  82095823.126 7
G04  22278957.250 7                  22278963.836 7 117076714.158 7                  91228635.917 7
G17  22407022.898 7                  22407026.574 7 117749702.582 7                  91753179.882 7
G19  22862935.703 6  22862938.516 5                 120145541.276 6  93620215.012 5
G28  23282507.180 7                  23282510.980 7 122350415.183 7                  95337990.545 7
G31  23040501.391 6                  23040504.703 3 121078621.113 6                  94347022.187 3
R03  19367893.852 8  19367898.484 7 103677844.202 8  80638400.784 7
R04  20535412.484 8  20535416.727 7 109966204.115 8  85529596.885 7
R11  23712240.711 5                 126711163.81715
R18  19862731.461 8  19862736.270 7 106028620.560 8  82466657.477 7
R19  19916149.242 8  19916152.727 7 106537973.774 8  82863147.927 7
> 2025 06 15 13 44 15.0000000  0 27
C06  38770505.047 6  38770501.008 6 201888200.677 6 156112762.819 6
C11  24739313.500 6  24739310.688 7 128824098.050 6  99614962.692 7
C12  22175442.852 7  22175440.488 8 115473356.511 7  89291414.438 8
C16  39250469.680 6  39250470.547 6 204387487.586 6 158045372.413 6
C19  25068775.328 4                 130539656.715 4
C21  23474714.875 7                 122239003.723 7
C22  21601898.117 7                 112486751.081 7
E03  26223138.844 7  26223144.289 8 137803534.505 7 104247496.026 8
E05  22245526.094 8  22245527.840 8 116901026.763 8  88434875.664 8
E09  25800996.219 6  25800998.555 7 135585185.506 6 102569293.312 7
E15  25376673.992 7  25376678.016 8 133355318.261 7 100882452.697 8
E34  23394438.359 8  23394440.594 8 122938603.764 8  93002260.524 8
E36  25987593.477 6  25987598.305 7 136565724.292 6 103311098.540 7
G01  20436816.641 7                  20436821.629 8 107396195.274 7                  83685364.141 8
G02  22380920.586 7  22380922.973 5                 117612533.266 7  91646135.643 5
G03  20046729.195 8                  20046735.711 8 105346272.460 8                  82088031.551 8
G04  22274560.898 7                  22274567.785 7 117053611.853 7                  91210634.137 7
G17  22405638.102 7                  22405642.211 7 117742427.482 7                  91747510.963 7
G19  22859639.883 7  22859642.504 5                 120128222.520 7  93606719.899 5
G28  23280802.539 7                  23280807.719 7 122341460.777 7                  95331013.063 7
G31  23037065.961 6                  23037067.043 3 121060564.570 6                  94332952.266 3
R03  19367345.695 8  19367350.508 7 103674908.252 8  80636117.256 7
R04  20531491.133 8  20531494.559 7 109945202.204 8  85513262.070 7
R11  23711681.281 4  23711689.824 4 126708183.193 4  98550729.12514
R17  23342066.516 5  23342076.680 5 124908293.22915  97150794.81415
R18  19863527.867 8  19863533.457 7 106032874.763 8  82469966.282 7
R19  19912926.563 8  19912930.207 7 106520733.626 8  82849738.910 7
> 2025 06 15 13 44 20.0000000  0 26
C06  38768257.422 6  38768253.680 6 201876497.683 6 156103713.326 6
C11  24735415.297 6  24735412.109 7 128803796.196 6  99599264.008 7
C12  22174337.141 7  22174334.211 8 115467594.607 7  89286958.972 8
C16  39248380.383 6  39248381.652 6 204376607.746 6 158036959.439 6
C19  25070148.172 4                 130546829.26714
C21  23471147.836 7                 122220428.410 7
C22  21601069.164 7                 112482432.927 7
E03  26218970.344 7  26218975.098 8 137781625.357 7 104230921.906 8
E05  22243429.836 8  22243431.758 8 116890012.086 8  88426543.138 8
E09  25801579.234 6  25801581.094 7 135588247.052 6 102571609.293 7
E15  25373165.711 7  25373169.465 8 133336880.720 7 100868504.818 8
E34  23393269.844 8  23393271.988 8 122932462.558 8  92997614.750 8
E36  25988575.805 6  25988581.172 7 136570888.493 6 103315005.244 7
G01  20436505.547 7                  20436510.207 8 107394560.103 7                  83684089.959 8
G02  22381993.555 7  22381995.234 5                 117618168.236 7  91650526.519 5
G03  20044828.961 8                  20044835.566 8 105336285.853 8                  82080249.773 8
G04  22270166.805 7                  22270173.063 7 117030519.418 7                  91192640.032 7
G17  22404257.227 8                  22404261.430 7 117735169.217 8                  91741855.165 7
G19  22856347.500 7  22856349.855 4                 120110920.321 7  93593237.681 4
G28  23279101.273 6                  23279107.105 7 122332524.300 6                  95324049.521 7
G31  23033631.523 6                                 121042522.677 6                
R03  19366800.227 8  19366805.129 8 103671989.934 8  80633847.446 8
R04  20527571.586 8  20527575.578 7 109924215.104 8  85496938.765 7
R11  23711131.781 5  23711136.281 4 126705224.709 5  98548428.121 4
R18  19864329.219 8  19864333.398 7 106037148.492 8  82473290.283 7
R19  19909707.813 8  19909710.730 7 106503512.766 8  82836344.896 7
> 2025 06 15 13 44 25.0000000  0 27
C06  38766010.781 6  38766007.340 6 201864800.030 6 156094667.961 6
C11  24731518.758 6  24731515.402 7 128783502.927 6  99583571.962 7
C12  22173233.047 7  22173230.578 8 115461847.646 7  89282515.066 8
C16  39246290.773 6  39246293.055 6 204365733.346 6 158028550.650 6
C19  25071525.172 4                 130554005.36414
C21  23467582.453 7                 122201861.473 7
C22  21600241.414 7                 112478125.634 7
E03  26214802.211 7  26214806.988 8 137759721.694 7 104214351.956 8
E05  22241335.758 8  22241338.004 8 116879009.247 8  88418219.572 8
E09  25802163.227 6  25802165.195 7 135591316.786 6 102573931.523 7
E15  25369658.078 7  25369661.871 8 133318448.262 7 100854560.797 8
E34  23392102.922 8  23392105.211 8 122926331.136 8  92992976.364 8
E36  25989560.719 6  25989565.016 7 136576058.688 6 103318916.444 7
G01  20436197.320 7                  20436201.992 8 107392939.170 7                  83682826.893 8
G02  22383068.406 7  22383069.504 5                 117623812.375 7  91654924.538 5
G03  20042930.656 8                  20042937.289 7 105326311.221 8                  82072477.331 7
G04  22265774.977 7                  22265780.301 7 117007436.199 7                  91174653.110 7
G17  22402878.898 7                  22402883.309 7 117727927.194 7                  91736212.021 7
G19  22853056.961 6  22853060.488 4                 120093634.103 6  93579767.901 4
G28  23277404.016 6                  23277410.176 7 122323605.016 6                  95317099.411 7
G31  23030199.789 6  23030200.969 3                 121024494.921 6  94304819.05813
R03  19366258.063 8  19366263.395 8 103669088.729 8  80631590.968 8
R04  20523655.469 8  20523659.438 7 109903242.213 8  85480626.518 7
R11  23710578.828 4                                
R17  23347569.734 5  23347564.352 3 124937749.00415
R18  19865133.320 8  19865137.777 7 106041441.050 8  82476628.934 7
R19  19906491.992 8  19906495.266 7 106486310.493 8  82822965.366 7
> 2025 06 15 13 44 30.0000000  0 25
C06  38763765.813 6  38763761.402 6 201853107.660 6 156085626.679 6
C11  24727622.820 6  24727620.117 7 128763218.212 6  99567886.537 7
C12  22172131.602 7  22172129.973 8 115456115.461 7  89278082.575 8
C16  39244203.578 6  39244205.410 6 204354864.141 6 158020145.890 6
C19  25072902.195 4                 130561184.76214
C21  23464018.719 7                 122183302.747 7
C22  21599417.023 7                 112473829.055 7
E03  26210635.453 7  26210639.949 8 137737823.442 7 104197786.070 8
E05  22239244.555 8  22239246.492 8 116868018.178 8  88409904.904 8
E09  25802749.297 6  25802750.961 7 135594394.659 6 102576259.918 7
E15  25366151.023 7  25366155.309 8 133300020.778 7 100840620.537 8
E34  23390938.664 8  23390940.246 8 122920209.341 8  92988345.266 8
E36  25990544.875 6  25990549.879 7 136581234.755 6 103322832.112 7
G01  20435891.445 7                  20435896.125 8 107391332.297 7                  83681574.788 8
G02  22384143.188 7  22384145.551 5                 117629465.543 7  91659329.573 5
G03  20041035.461 8                  20041041.836 7 105316348.398 8                  82064714.106 7
G04  22261384.773 7                  22261389.215 7 116984362.108 7                  91156673.293 7
G17  22401504.508 7                  22401507.805 7 117720701.256 7                  91730581.443 7
G19  22849772.109 7  22849773.777 5                 120076363.678 7  93566310.408 5
G28  23275710.750 6                  23275715.906 7 122314702.904 6                  95310162.663 7
G31  23026772.961 6                                 121006481.165 6                
R03  19365720.438 8  19365724.160 8 103666204.458 8  80629347.616 8
R04  20519741.594 8  20519745.508 7 109882283.419 8  85464325.267 7
R18  19865941.570 8  19865945.125 7 106045752.280 8  82479982.120 7
R19  19903279.172 8  19903283.148 7 106469126.687 8  82809600.188 7
> 2025 06 15 13 44 35.0000000  0 25
C06  38761521.266 6  38761517.375 6 201841420.982 6 156076589.821 6
C11  24723728.859 6  24723726.711 7 128742942.400 6  99552208.007 7
C12  22171033.875 7  22171032.012 7 115450398.535 7  89273661.876 7
C16  39242117.328 6  39242119.605 6 204344000.714 6 158011745.608 6
C21  23460455.758 7                 122164752.760 7
C22  21598593.586 7                 112469543.672 7
E03  26206470.109 7  26206473.941 8 137715931.020 7 104181224.604 8
E05  22237155.469 8  22237157.262 8 116857039.290 8  88401599.450 8
E09  25803337.688 6  25803338.359 7 135597481.112 6 102578594.785 7
E15  25362645.305 7  25362649.730 8 133281598.745 7 100826684.398 8
E34  23389775.531 8  23389777.258 8 122914097.688 8  92983721.833 8
E36  25991531.211 6  25991536.059 7 136586417.126 6 103326752.509 7
G01  20435588.914 8                  20435593.230 8 107389739.989 8                  83680334.060 8
G02  22385220.539 7  22385223.035 5                 117635128.184 7  91663741.998 5
G03  20039142.141 8                  20039147.945 7 105306397.897 8                  82056960.470 7
G04  22256995.094 7                  22256999.941 7 116961297.586 7                  91138700.935 7
G17  22400131.445 7                  22400136.258 7 117713491.890 7                  91724963.765 7
G19  22846488.555 7  22846490.543 4                 120059109.481 7  93552865.603 4
G28  23274019.867 6                  23274025.727 7 122305818.419 6                  95303239.696 7
G31  23023348.133 5                  23023352.027 4 120988481.777 5                  94276776.89214
R02  22662908.898 4                 120933778.75514
R03  19365184.375 8  19365188.441 7 103663337.425 8  80627117.693 7
R04  20515830.633 8  20515834.797 7 109861339.108 8  85448035.273 7
R18  19866751.891 8  19866756.484 7 106050082.739 8  82483350.261 7
R19  19900070.938 8  19900074.258 7 106451961.899 8  82796249.813 7
> 2025 06 15 13 44 40.0000000  0 24
C06  38759278.508 6  38759273.883 6 201829739.818 6 156067557.196 6
C11  24719836.953 6  24719834.906 7 128722675.455 6  99536536.351 7
C12  22169939.008 7  22169936.770 7 115444696.693 7  89269252.847 7
C16  39240032.539 6  39240034.402 6 204333142.824 6 158003349.613 6
C21  23456894.867 7                 122146211.281 7
C22  21597772.711 7                 112465269.272 7
E03  26202304.766 7  26202309.008 8 137694044.271 7 104164667.454 8
E05  22235068.633 8  22235070.375 8 116846072.422 8  88393303.081 8
E09  25803926.844 6  25803927.301 7 135600576.000 6 102580936.022 7
E15  25359140.742 7  25359145.125 8 133263181.990 7 100812752.260 8
E34  23388614.242 8  23388616.125 8 122907995.968 8  92979105.918 8
E36  25992518.430 6  25992523.371 7 136591605.619 6 103330677.570 7
G01  20435288.484 8                  20435292.617 8 107388162.069 8                  83679104.492 8
G02  22386300.273 7  22386302.734 5                 117640800.114 7  91668161.674 5
G03  20037251.188 8                  20037256.391 7 105296459.483 8                  82049216.273 7
G04  22252607.422 7                  22252612.891 7 116938242.511 7                  91120735.941 7
G17  22398762.922 7                  22398767.512 7 117706298.879 7                  91719358.822 7
G19  22843208.430 7  22843209.859 5                 120041871.399 7  93539433.359 5
G28  23272331.984 6                  23272338.305 7 122296951.359 6                  95296330.284 7
G31  23019925.867 5                  23019928.512 4 120970496.640 5                  94262762.500 4
R03  19364651.797 8  19364655.770 7 103660487.689 8  80624901.217 7
R04  20511922.539 8  20511926.645 7 109840409.244 8  85431756.486 7
R18  19867567.531 8  19867570.742 7 106054432.145 8  82486733.123 7
R19  19896865.508 8  19896868.680 7 106434815.963 8  82782914.078 7
> 2025 06 15 13 44 45.0000000  0 25
C06  38757036.336 6  38757032.059 6 201818065.181 6 156058529.616 6
C11  24715946.430 6  24715944.449 7 128702418.278 6  99520872.246 7
C12  22168848.055 7  22168844.633 7 115439010.862 7  89264856.214 7
C16  39237948.570 6  39237950.383 6 204322291.487 6 157994958.674 6
C21  23453336.375 7                 122127679.291 7
C22  21596954.523 7                 112461006.824 7
E03  26198141.367 7  26198145.406 8 137672164.210 7 104148115.328 8
E05  22232984.219 8  22232985.910 8 116835118.576 8  88385016.568 8
E09  25804515.570 6  25804518.043 7 135603680.203 6 102583284.332 7
E15  25355637.727 7  25355641.676 8 133244771.484 7 100798824.846 8
E34  23387455.242 8  23387457.066 9 122901905.178 8  92974498.273 9
E36  25993506.867 6  25993512.188 7 136596801.200 6 103334607.979 7
G01  20434991.039 7                  20434995.402 8 107386599.505 7                  83677886.897 8
G02  22387381.656 7  22387384.152 5                 117646482.354 7  91672589.374 5
G03  20035362.250 8                  20035367.691 7 105286534.211 8                  82041482.300 7
G04  22248222.664 7                  22248227.609 7 116915197.845 7                  91102779.057 7
G17  22397397.461 7                  22397402.563 7 117699123.276 7                  91713767.452 7
G19  22839931.180 7  22839932.934 5                 120024650.457 7  93526014.423 5
G28  23270649.000 7                  23270654.125 7 122288102.737 7                  95289435.249 7
G31  23016506.352 5                  23016508.961 4 120952526.696 5                  94248759.999 4
R02  22667302.406 5  22667307.457 4 120957229.75815  94077735.72214
R03  19364122.938 8  19364127.047 7 103657655.970 8  80622698.777 7
R04  20508015.859 8  20508020.305 7 109819494.750 8  85415489.650 7
R18  19868386.266 8  19868389.473 7 106058801.586 8  82490131.588 7
R19  19893664.398 8  19893667.461 7 106417689.814 8  82769593.752 7
> 2025 06 15 13 44 50.0000000  0 24
C06  38754796.156 6  38754791.238 6 201806396.184 6 156049506.423 6
C11  24712056.289 6  24712056.535 7 128682170.063 6  99505215.044 7
C12  22167759.680 7  22167756.105 7 115433340.287 7  89260471.359 7
C16  39235864.789 6  39235867.715 6 204311445.822 6 157986572.140 6
C21  23449779.055 7                 122109155.963 7
C22  21596138.070 7                 112456755.520 7
E03  26193978.758 7  26193982.840 8 137650289.950 7 104131567.619 8
E05  22230902.156 8  22230903.789 8 116824176.861 8  88376739.234 8
E09  25805107.359 6  25805110.313 6 135606792.923 6 102585639.081 6
E15  25352136.047 7  25352139.301 8 133226366.418 7 100784901.533 8
E34  23386297.602 8  23386299.922 9 122895824.461 8  92969898.248 9
E36  25994497.773 6  25994502.035 7 136602003.082 6 103338543.155 7
G01  20434697.008 8                  20434700.500 8 107385051.469 8                  83676680.629 8
G02  22388465.125 7  22388467.891 5                 117652174.063 7  91677024.458 5
G03  20033475.633 8                  20033481.449 7 105276621.188 8                  82033757.885 7
G04  22243838.914 7                  22243844.469 7 116892162.766 7                  91084829.665 7
G17  22396035.680 7                  22396039.910 7 117691964.202 7                  91708188.954 7
G19  22836657.516 7  22836658.910 4                 120007445.770 7  93512608.185 4
G28  23268968.414 7                  23268973.496 7 122279271.694 7                  95282553.949 7
G31  23013089.516 6                  23013090.512 3 120934571.212 6                  94234768.673 3
R03  19363597.602 8  19363601.563 8 103654841.643 8  80620509.855 8
R04  20504112.984 8  20504117.207 7 109798594.898 8  85399234.229 7
R18  19869208.336 8  19869211.633 7 106063190.131 8  82493544.915 7
R19  19890466.547 8  19890469.543 7 106400582.555 8  82756288.096 7
> 2025 06 15 13 44 55.0000000  0 25
C06  38752555.922 6  38752551.430 7 201794731.791 6 156040486.777 7
C11  24708169.828 6  24708169.238 7 128661929.785 6  99489563.957 7
C12  22166672.320 7  22166669.660 7 115427683.844 7  89256097.438 7
C16  39233783.250 6  39233785.199 6 204300604.813 6 157978189.158 6
C21  23446223.094 7                 122090640.263 7
C22  21595323.156 7                 112452514.290 7
E03  26189817.016 7  26189821.172 8 137628420.437 7 104115023.506 8
E05  22228821.609 8  22228823.723 8 116813246.261 8  88368470.312 8
E09  25805702.117 6  25805703.945 7 135609913.105 6 102587999.465 7
E15  25348634.023 7  25348637.816 8 133207965.737 7 100770981.550 8
E34  23385142.461 8  23385144.531 8 122889752.763 8  92965305.043 8
E36  25995487.961 6  25995492.813 7 136607210.102 6 103342482.234 7
G01  20434403.992 8                  20434408.527 8 107383516.874 8                  83675484.842 8
G02  22389550.172 7  22389552.547 5                 117657874.117 7  91681466.068 5
G03  20031591.656 8                  20031596.934 7 105266719.362 8                  82026042.165 7
G04  22239457.055 7                  22239463.207 7 116869136.179 7                  91066886.896 7
G17  22394675.500 7                  22394680.367 7 117684820.550 7                  91702622.479 7
G19  22833386.430 7  22833388.313 5                 119990256.296 7  93499213.765 5
G28  23267291.078 7                  23267296.422 7 122270457.177 7                  95275685.476 7
G31  23009675.617 6                  23009674.836 3 120916629.075 6                  94220787.761 3
R02  22671699.219 5  22671704.441 4 120980698.35915  94095988.99414
R03  19363074.234 8  19363078.391 7 103652043.473 8  80618333.521 7
R04  20500211.750 8  20500216.824 7 109777708.441 8  85382989.215 7
R18  19870033.406 8  19870037.113 7 106067596.682 8  82496972.205 7
R19  19887272.609 8  19887274.887 7 106383493.295 8  82742996.454 7
> 2025 06 15 13 45  0.0000000  0 25
C06  38750317.289 7  38750312.422 7 201783072.494 7 156031471.065 7
C11  24704284.242 6  24704284.625 7 128641697.912 6  99473919.434 7
C12  22165589.063 7  22165586.453 7 115422042.025 7  89251734.835 7
C16  39231703.516 6  39231704.422 6 204289768.843 6 157969810.113 6
C21  23442669.313 7                 122072132.640 7
C22  21594511.297 7                 112448283.569 7
E03  26185656.055 7  26185660.578 8 137606556.207 7 104098483.371 8
E05  22226744.016 8  22226745.984 8 116802327.212 8  88360210.122 8
E09  25806297.023 6  25806299.277 7 135613041.259 6 102590365.879 7
E15  25345134.328 7  25345137.191 8 133189569.885 7 100757065.214 8
E34  23383989.172 8  23383990.930 9 122883690.565 8  92960719.018 9
E36  25996479.680 6  25996484.844 7 136612422.871 6 103346425.635 7
G01  20434114.570 7                  20434119.109 8 107381996.188 7                  83674299.888 8
G02  22390635.336 7  22390638.891 5                 117663583.027 7  91685914.558 5
G03  20029708.984 8                  20029714.973 7 105256829.203 8                  82018335.563 7
G04  22235077.398 7                  22235083.102 7 116846118.629 7                  91048951.137 7
G17  22393319.555 7                  22393323.906 7 117677692.849 7                  91697068.433 7
G19  22830117.500 7  22830120.262 4                 119973082.498 7  93485831.615 4
G28  23265617.172 7                  23265622.391 7 122261659.676 7                  95268830.251 7
G31  23006263.672 5                  23006263.480 3 120898700.769 5                  94206817.657 3
R02  22673899.063 5  22673904.555 4 120992438.199 5  94105119.914 4
R03  19362555.313 8  19362558.770 7 103649261.922 8  80616170.099 7
R04  20496314.133 8  20496319.063 7 109756835.872 8  85366755.026 7
R18  19870861.797 8  19870866.332 7 106072021.695 8  82500413.859 7
R19  19884080.711 8  19884083.531 7 106366422.332 8  82729719.035 7
> 2025 06 15 13 45  5.0000000  0 25
C06  38748078.664 6  38748074.570 6 201771419.195 6 156022460.032 6
C11  24700401.172 6  24700400.957 7 128621475.318 6  99458282.085 7
C12  22164509.633 7  22164506.180 7 115416415.770 7  89247384.263 7
C16  39229623.320 6  39229624.695 6 204278939.010 6 157961435.797 6
C21  23439116.344 7                 122053634.040 7
C22  21593700.953 7                 112444064.303 7
E03  26181497.227 7  26181501.168 8 137584698.210 7 104081947.941 8
E05  22224668.313 8  22224670.484 8 116791420.686 8  88351959.396 8
E09  25806893.969 6  25806896.055 7 135616178.145 6 102592738.906 7
E15  25341634.242 7  25341637.648 8 133171179.784 7 100743153.237 8
E34  23382837.352 8  23382839.348 8 122877638.795 8  92956140.899 8
E36  25997472.766 6  25997477.926 7 136617642.222 6 103350374.034 7
G01  20433828.336 7                  20433832.445 8 107380490.359 7                  83673126.527 8
G02  22391723.797 7  22391727.055 5                 117669301.711 7  91690370.682 5
G03  20027829.398 8                  20027835.492 7 105246951.638 8                  82010638.781 7
G04  22230699.219 7                  22230704.777 7 116823111.046 7                  91031023.192 7
G17  22391966.625 7                  22391970.871 7 117670581.993 7                  91691527.493 7
G19  22826853.477 7  22826855.488 5                 119955925.343 7  93472462.429 5
G28  23263946.297 7                  23263951.570 7 122252880.101 7                  95261989.046 7
G31  23002854.320 5                  23002853.813 3 120880787.294 5                  94192859.282 3
R02  22676100.398 5  22676106.070 4 121004182.865 5  94114254.698 4
R03  19362038.828 8  19362042.402 7 103646497.920 8  80614020.313 7
R04  20492419.055 8  20492423.328 7 109735978.234 8  85350532.417 7
R18  19871695.523 8  19871698.902 7 106076466.169 8  82503870.659 7
R19  19880892.641 8  19880896.191 7 106349370.683 8  82716456.659 7
> 2025 06 15 13 45 10.0000000  0 24
C06  38745842.313 6  38745838.070 7 201759772.132 6 156013453.760 7
C11  24696519.070 6  24696518.512 7 128601262.296 6  99442652.100 7
C12  22163433.422 7  22163428.004 8 115410805.279 7  89243045.870 8
C16  39227543.711 6  39227545.805 6 204268115.360 6 157953066.235 6
C21  23435565.617 7                 122035144.659 7
C22  21592892.883 7                 112439856.720 7
E03  26177338.641 7  26177342.887 8 137562846.549 7 104065417.320 8
E05  22222596.023 7  22222597.457 8 116780526.860 7  88343718.294 8
E09  25807492.758 6  25807494.609 6 135619324.199 6 102595118.858 6
E15  25338135.484 7  25338139.258 8 133152795.715 7 100729245.820 8
E34  23381687.859 8  23381689.758 8 122871597.703 8  92951570.851 8
E36  25998467.992 6  25998472.465 7 136622868.407 6 103354327.566 7
G01  20433544.133 7                  20433548.656 8 107378999.619 7                  83671964.902 8
G02  22392813.938 7  22392816.746 5                 117675030.416 7  91694834.606 5
G03  20025952.352 8                  20025958.152 7 105237086.939 8                  82002951.979 7
G04  22226322.016 7                  22226328.273 7 116800113.594 7                  91013103.122 7
G17  22390616.813 7                  22390621.301 7 117663488.169 7                  91685999.854 7
G19  22823591.633 7  22823594.000 5                 119938785.081 7  93459106.375 5
G28  23262279.297 7                  23262284.586 6 122244118.713 7                  95255161.986 6
G31  22999447.461 5                  22999449.766 4 120862888.793 5                  94178912.543 4
R03  19361526.047 8  19361529.609 7 103643751.787 8  80611884.443 7
R04  20488527.031 8  20488531.473 7 109715135.736 8  85334321.572 7
R18  19872531.063 8  19872535.605 7 106080930.278 8  82507342.729 7
R19  19877709.242 8  19877712.313 7 106332338.764 8  82703209.625 7
> 2025 06 15 13 45 15.0000000  0 24
C06  38743606.336 7  38743602.160 7 201748130.463 7 156004451.682 7
C11  24692638.305 6  24692638.445 7 128581058.087 6  99427028.907 7
C12  22162358.117 7  22162353.887 8 115405209.813 7  89238719.096 8
C16  39225466.344 6  39225468.129 6 204257297.188 6 157944700.957 6
C21  23432016.555 7                 122016663.759 7
C22  21592087.180 7                 112435659.983 7
E03  26173181.531 7  26173185.656 8 137541000.536 7 104048890.975 8
E05  22220525.445 8  22220526.773 8 116769644.950 8  88335486.191 8
E09  25808093.781 6  25808094.773 6 135622478.392 6 102597504.991 6
E15  25334638.617 7  25334641.883 8 133134416.872 7 100715342.333 8
E34  23380540.281 8  23380542.051 8 122865566.434 8  92947008.234 8
E36  25999462.813 6  25999468.105 7 136628100.498 6 103358285.631 7
G01  20433263.820 7                  20433268.242 8 107377523.109 7                  83670814.371 8
G02  22393906.836 7  22393908.563 5                 117680768.287 7  91699305.683 5
G03  20024077.281 8                  20024083.242 7 105227234.243 8                  81995274.531 7
G04  22221947.508 7                  22221954.184 7 116777125.524 7                  90995190.367 7
G17  22389269.227 7                  22389274.836 7 117656410.653 7                  91680484.906 7
G19  22820332.438 7  22820335.668 4                 119921660.838 7  93445762.831 4
G28  23260615.281 7                  23260620.734 6 122235374.674 7                  95248348.485 6
G31  22996042.148 5                  22996048.727 5 120845004.63815                  94164976.86415
R03  19361015.516 8  19361019.781 7 103641022.573 8  80609761.721 7
R04  20484637.031 7  20484642.664 7 109694307.506 7  85318121.828 7
R18  19873370.625 7  19873375.410 7 106085413.222 7  82510829.453 7
R19  19874529.133 8  19874531.996 8 106315325.604 8  82689977.148 8
> 2025 06 15 13 45 20.0000000  0 23
C06  38741372.164 7  38741367.523 7 201736494.106 7 155995453.717 7
C11  24688760.766 6  24688760.359 7 128560862.477 6  99411412.410 7
C12  22161286.320 7  22161282.074 8 115399629.151 7  89234403.777 8
C16  39223390.242 6  39223391.598 6 204246484.341 6 157936339.774 6
C21  23428469.469 7                 121998191.157 7
C22  21591282.586 7                 112431473.987 7
E03  26169024.813 7  26169029.480 8 137519160.033 7 104032368.794 8
E05  22218456.484 8  22218458.195 8 116758774.849 8  88327263.030 8
E09  25808694.891 6  25808696.473 7 135625640.761 6 102599897.280 7
E15  25331141.984 7  25331145.504 8 133116043.096 7 100701442.713 8
E34  23379394.406 8  23379396.184 8 122859544.919 8  92942452.994 8
E36  26000459.258 6  26000464.766 7 136633338.548 6 103362248.130 7
G01  20432985.570 7                  20432989.844 8 107376060.770 7                  83669674.881 8
G02  22395000.133 7  22395003.281 5                 117686515.206 7  91703783.788 5
G03  20022204.570 8                  20022210.680 7 105217393.476 8                  81987606.383 7
G04  22217575.391 7                  22217581.133 7 116754146.757 7                  90977284.840 7
G17  22387926.367 7                  22387930.926 7 117649349.310 7                  91674982.561 7
G19  22817077.828 7  22817080.340 4                 119904552.600 7  93432431.752 4
G28  23258954.406 7                  23258959.742 6 122226647.861 7                  95241548.384 6
R03  19360508.844 8  19360513.621 8 103638310.324 8  80607652.189 8
R04  20480750.414 8  20480754.906 7 109673493.626 8  85301933.253 7
R18  19874214.219 8  19874218.285 7 106089914.864 8  82514330.719 7
R19  19871351.406 8  19871355.262 7 106298331.197 8  82676759.283 7
> 2025 06 15 13 45 25.0000000  0 24
C06  38739138.703 7  38739133.910 7 201724863.368 7 155986460.104 7
C11  24684885.078 6  24684883.836 7 128540675.936 6  99395802.887 7
C12  22160217.102 7  22160212.980 8 115394063.698 7  89230100.205 8
C16  39221314.680 6  39221316.145 6 204235677.145 6 157927982.954 6
C21  23424923.109 7                 121979727.225 7
C22  21590481.305 7                 112427299.053 7
E03  26164869.563 7  26164874.582 8 137497325.350 7 104015851.015 8
E05  22216389.906 8  22216391.996 8 116747916.856 8  88319049.041 8
E09  25809298.000 5  25809299.816 6 135628811.523 5 102602295.934 6
E15  25327646.773 7  25327650.133 8 133097674.766 7 100687547.210 8
E34  23378250.195 8  23378252.262 8 122853533.456 8  92937905.364 8
E36  26001458.266 6  26001462.621 7 136638582.794 6 103366215.354 7
G01  20432709.977 7                  20432714.281 8 107374612.877 7                  83668546.642 8
G02  22396095.094 7  22396098.473 5                 117692271.450 7  91708269.170 5
G03  20020334.523 8                  20020340.621 8 105207564.890 8                  81979947.742 8
G04  22213204.203 7                  22213210.246 7 116731177.576 7                  90959386.766 7
G17  22386585.359 7                  22386589.977 7 117642304.460 7                  91669493.050 7
G19  22813825.328 7  22813828.461 4                 119887460.667 7  93419113.365 4
G28  23257297.227 7                  23257302.168 6 122217938.632 7                  95234761.998 6
R02  22684918.680 4                 121051206.10914
R03  19360005.211 8  19360009.938 7 103635615.144 8  80605555.929 7
R04  20476867.094 8  20476870.875 7 109652694.177 8  85285755.913 7
R18  19875061.352 8  19875065.125 7 106094435.508 8  82517846.767 7
R19  19868178.859 8  19868182.230 8 106281355.843 8  82663556.228 8
> 2025 06 15 13 45 30.0000000  0 23
C06  38736906.813 7  38736901.531 7 201713239.156 7 155977471.534 7
C11  24681008.961 6  24681008.605 7 128520499.237 6  99380200.985 7
C12  22159150.563 7  22159146.941 7 115388514.323 7  89225809.056 7
C16  39219239.609 6  39219242.035 6 204224876.458 6 157919631.176 6
C21  23421379.688 7                 121961272.803 7
C22  21589681.883 7                 112423136.054 7
E03  26160715.508 7  26160720.848 8 137475497.386 7 103999338.324 8
E05  22214326.070 8  22214328.250 8 116737071.886 8  88310844.902 8
E09  25809903.148 6  25809904.926 6 135631991.637 6 102604701.674 6
E15  25324151.727 7  25324156.043 8 133079312.766 7 100673656.495 8
E34  23377108.438 8  23377110.391 8 122847532.933 8  92933366.012 8
E36  26002458.680 6  26002462.004 7 136643834.134 6 103370187.941 7
G01  20432437.430 7                  20432441.375 8 107373180.348 7                  83667430.375 8
G02  22397192.336 7  22397195.547 5                 117698037.969 7  91712762.555 5
G03  20018466.867 8                  20018472.625 7 105197749.432 8                  81972299.331 7
G04  22208835.609 7                  22208841.219 7 116708218.912 7                  90941496.906 7
G17  22385248.031 7                  22385252.609 7 117635277.002 7                  91664017.089 7
G19  22810576.070 7  22810579.098 4                 119870385.945 7  93405808.364 4
G28  23255642.750 7                  23255648.336 6 122209247.868 7                  95227989.974 6
R03  19359504.922 8  19359510.090 8 103632938.211 8  80603473.853 8
R04  20472986.648 8  20472990.000 7 109631910.301 8  85269590.695 7
R18  19875912.047 8  19875915.961 7 106098976.104 8  82521378.337 7
R19  19865008.914 8  19865012.027 7 106264400.417 8  82650368.680 7
> 2025 06 15 13 45 35.0000000  0 25
C06  38734675.047 7  38734670.695 6 201701622.008 7 155968488.418 6
C11  24677136.813 6  24677135.492 7 128500333.029 6  99364607.206 7
C12  22158088.250 7  22158084.363 8 115382981.521 7  89221530.741 8
C16  39217166.203 6  39217168.750 6 204214082.910 6 157911284.905 6
C21  23417837.492 7                 121942828.477 7
C22  21588884.828 7                 112418985.513 7
E03  26156563.734 7  26156568.453 8 137453676.725 7 103982831.141 8
E05  22212264.734 8  22212267.094 8 116726240.467 8  88302651.006 8
E09  25810511.070 6  25810511.934 7 135635181.604 6 102607114.813 7
E15  25320658.992 7  25320663.281 8 133060957.605 7 100659770.944 8
E34  23375968.383 8  23375970.762 8 122841543.930 8  92928835.366 8
E36  26003459.477 6  26003462.891 7 136649093.099 6 103374166.283 7
G01  20432167.867 7                  20432172.188 8 107371763.688 7                  83666326.499 8
G02  22398291.773 7  22398294.750 5                 117703815.289 7  91717264.334 5
G03  20016601.266 8                  20016607.988 8 105187947.632 8                  81964661.581 8
G04  22204468.945 7                  22204474.488 7 116685271.303 7                  90923615.646 7
G17  22383913.570 7                  22383918.828 7 117628267.426 7                  91658555.066 7
G19  22807328.938 6  22807333.199 4                 119853329.013 6  93392517.270 4
G28  23253992.586 7                  23253997.789 6 122200576.097 7                  95221232.737 6
G31  22982459.539 5                                                                
R02  22689328.539 5                 121074747.68715
R03  19359008.844 8  19359012.977 7 103630279.728 8  80601406.146 7
R04  20469107.867 8  20469111.914 7 109611142.212 8  85253437.749 7
R18  19876766.594 8  19876770.957 7 106103537.099 8  82524925.774 7
R19  19861842.727 8  19861846.051 7 106247465.521 8  82637197.127 7
> 2025 06 15 13 45 40.0000000  0 25
C06  38732444.914 7  38732440.957 6 201690010.596 7 155959509.721 6
C11  24673265.617 6  24673264.684 7 128480175.892 6  99349020.467 7
C12  22157028.070 7  22157024.738 7 115377464.073 7  89217264.284 7
C16  39215094.828 6  39215096.660 6 204203295.139 6 157902943.093 6
C21  23414297.320 7                 121924392.935 7
C22  21588089.359 7                 112414846.176 7
E03  26152412.688 7  26152417.289 8 137431862.038 7 103966328.492 8
E05  22210205.977 8  22210208.258 8 116715421.308 8  88294466.396 8
E09  25811119.656 6  25811120.637 6 135638380.072 6 102609534.460 6
E15  25317167.594 7  25317171.406 8 133042608.053 7 100645889.632 8
E34  23374830.734 8  23374832.996 9 122835565.125 8  92924312.449 9
E36  26004461.289 6  26004464.891 6 136654358.412 6 103378149.431 6
G01  20431900.883 7                  20431905.426 8 107370361.660 7                  83665234.008 8
G02  22399392.813 7  22399395.195 5                 117709602.019 7  91721773.469 5
G03  20014737.883 8                  20014745.105 8 105178158.198 8                  81957033.450 8
G04  22200103.961 7                  22200109.422 7 116662333.475 7                  90905742.032 7
G17  22382583.320 7                  22382587.863 7 117621274.501 7                  91653106.050 7
G19  22804086.367 6  22804090.113 4                 119836288.456 6  93379238.923 4
G28  23252346.102 7                  23252350.891 6 122191922.061 7                  95214489.332 6
G31  22979073.609 6                  22979077.609 5 120755807.19416                  94095477.66515
R02  22691533.047 4                 121086525.522 4
R03  19358514.852 8  19358519.754 7 103627638.704 8  80599352.022 7
R04  20465232.297 8  20465236.766 7 109590389.001 8  85237296.389 7
R18  19877624.164 8  19877628.195 7 106108117.197 8  82528488.076 7
R19  19858681.031 8  19858683.914 7 106230549.889 8  82624040.514 7
> 2025 06 15 13 45 45.0000000  0 25
C06  38730216.031 7  38730212.164 6 201678404.884 7 155950535.456 6
C11  24669396.844 6  24669395.086 7 128460027.928 6  99333440.778 7
C12  22155971.242 7  22155968.418 8 115371961.856 7  89213009.653 8
C16  39213023.930 5  39213025.871 6 204192513.060 5 157894605.741 6
C21  23410758.813 7                 121905966.113 7
C22  21587296.344 7                 112410717.921 7
E03  26148263.031 7  26148267.176 8 137410053.275 7 103949830.317 8
E05  22208149.570 8  22208151.805 8 116704614.352 8  88286291.001 8
E09  25811729.859 6  25811730.910 6 135641587.027 6 102611960.488 6
E15  25313677.367 7  25313680.707 8 133024264.020 7 100632012.479 8
E34  23373694.992 8  23373697.207 9 122829596.458 8  92919797.202 9
E36  26005464.477 6  26005467.879 7 136659630.017 6 103382137.339 7
G01  20431637.031 7                  20431641.207 8 107368974.132 7                  83664152.803 8
G02  22400496.328 7  22400497.973 5                 117715398.195 7  91726289.968 5
G03  20012877.633 8                  20012884.398 8 105168381.065 8                  81949414.914 8
G04  22195740.391 7                  22195746.508 7 116639405.310 7                  90887875.937 7
G17  22381255.297 7                  22381260.805 7 117614298.100 7                  91647669.881 7
G19  22800847.453 6  22800850.742 4                 119819264.364 6  93365973.404 4
G28  23250702.891 7                  23250707.598 6 122183285.663 7                  95207759.717 6
G31  22975687.578 6                  22975691.676 5 120738012.201 6                  94081611.473 5
R02  22693740.383 4                 121098307.508 4
R03  19358025.336 8  19358029.910 7 103625014.771 8  80597311.199 7
R04  20461359.172 8  20461363.527 7 109569650.409 8  85221166.375 7
R18  19878486.188 8  19878490.301 7 106112716.354 8  82532065.190 7
R19  19855522.641 8  19855525.164 7 106213653.479 8  82610898.873 7
> 2025 06 15 13 45 50.0000000  0 24
C06  38727988.023 6  38727984.266 7 201666804.499 6 155941565.318 7
C11  24665528.641 6  24665527.629 7 128439888.632 6  99317867.785 7
C12  22154917.125 7  22154914.652 8 115366474.489 7  89208766.463 8
C16  39210954.430 5  39210956.473 6 204181736.326 5 157886272.507 6
C21  23407221.469 7                 121887547.614 7
C22  21586506.469 8                 112406600.357 8
E03  26144113.961 7  26144118.230 8 137388250.012 7 103933336.300 8
E05  22206095.086 8  22206097.523 9 116693819.157 8  88278124.508 9
E09  25812340.477 6  25812342.664 7 135644802.043 6 102614392.597 7
E15  25310187.273 7  25310190.926 8 133005925.087 7 100618139.207 8
E34  23372560.773 8  23372563.246 9 122823637.509 8  92915289.293 9
E36  26006469.000 6  26006472.023 7 136664907.383 6 103386129.627 7
G01  20431375.000 7                  20431380.309 8 107367600.738 7                  83663082.619 8
G02  22401600.602 7  22401602.629 5                 117721203.368 7  91730813.460 5
G03  20011019.531 8                  20011026.191 8 105158615.803 8                  81941805.627 8
G04  22191379.063 7                  22191384.852 7 116616486.514 7                  90870017.145 7
G17  22379930.555 7                  22379936.117 7 117607337.842 7                  91642246.313 7
G19  22797610.648 7  22797613.262 4                 119802256.305 7  93352720.348 4
G28  23249062.766 7                  23249067.133 6 122174666.509 7                  95201043.481 6
G31  22972303.102 6                  22972307.941 5 120720231.391 6                  94067756.328 5
R03  19357537.984 8  19357542.730 7 103622407.771 8  80595283.523 7
R04  20457490.102 8  20457493.152 7 109548925.981 8  85205047.388 7
R18  19879350.492 8  19879355.895 7 106117334.167 8  82535656.811 7
R19  19852367.320 8  19852370.504 8 106196775.721 8  82597771.733 8
> 2025 06 15 13 45 55.0000000  0 24
C06  38725761.273 6  38725757.852 7 201655210.491 6 155932600.092 7
C11  24661664.281 6  24661662.004 7 128419759.188 6  99302302.449 7
C12  22153867.422 7  22153864.051 8 115361003.040 7  89204535.592 8
C16  39208886.875 5  39208888.336 6 204170965.972 5 157877944.214 6
C21  23403686.047 7                 121869138.552 7
C22  21585717.641 8                 112402494.614 8
E03  26139965.664 7  26139970.465 8 137366453.378 7 103916847.316 8
E05  22204043.633 8  22204045.785 8 116683036.891 8  88269967.793 8
E09  25812954.430 6  25812955.914 6 135648026.242 6 102616831.681 6
E15  25306699.141 7  25306702.227 8 132987592.407 7 100604270.655 8
E34  23371429.313 8  23371431.352 8 122817689.435 8  92910789.614 8
E36  26007474.195 6  26007477.563 6 136670191.784 6 103390127.235 6
G01  20431116.781 7                  20431121.844 8 107366242.573 7                  83662024.318 8
G02  22402706.828 7  22402709.324 5                 117727018.636 7  91735344.817 5
G03  20009163.016 8                  20009170.246 7 105148863.541 8                  81934206.472 7
G04  22187019.891 7                  22187025.984 7 116593578.134 7                  90852166.456 7
G17  22378608.625 6                  22378614.391 6 117600394.856 6                  91636836.186 6
G19  22794377.883 6  22794379.773 4                 119785265.311 6  93339480.633 4
G28  23247426.234 7                  23247430.781 6 122166065.722 7                  95194341.569 6
G31  22968920.523 6                  22968927.387 5 120702465.959 6                  94053913.127 5
R03  19357053.883 8  19357058.816 7 103619818.486 8  80593269.650 7
R04  20453622.172 8  20453625.859 7 109528217.021 8  85188940.441 7
R18  19880219.297 8  19880223.996 7 106121971.724 8  82539263.794 7
R19  19849215.797 8  19849218.531 7 106179917.816 8  82584660.039 7
> 2025 06 15 13 46  0.0000000  0 25
C06  38723536.211 6  38723532.320 7 201643622.467 6 155923639.484 7
C11  24657800.078 6  24657798.711 7 128399639.171 6  99286744.387 7
C12  22152819.820 7  22152816.434 8 115355547.120 7  89200316.722 8
C16  39206820.758 5  39206821.301 6 204160201.606 5 157869620.523 6
C19  25097847.320 5                 130691078.97415
C21  23400152.805 7                 121850738.523 7
C22  21584931.266 8                 112398400.213 8
E03  26135819.281 7  26135823.883 8 137344662.999 7 103900363.061 8
E05  22201994.383 8  22201996.340 8 116672267.060 8  88261820.492 8
E09  25813569.102 6  25813570.988 6 135651259.094 6 102619277.315 6
E15  25303210.797 7  25303214.754 8 132969265.532 7 100590406.497 8
E34  23370299.320 8  23370301.488 9 122811751.765 8  92906297.807 9
E36  26008480.336 6  26008484.363 7 136675482.698 6 103394129.759 7
G01  20430860.906 7                  20430866.184 8 107364899.197 7                  83660977.536 8
G02  22403814.953 7  22403817.551 5                 117732843.590 7  91739883.745 5
G03  20007310.477 8                  20007316.770 7 105139123.863 8                  81926617.113 7
G04  22182662.703 7                  22182668.637 7 116570679.760 7                  90834323.573 7
G17  22377291.383 7                  22377296.031 7 117593468.685 7                  91631439.161 7
G19  22791146.867 6  22791149.813 4                 119768291.111 6  93326253.998 4
G28  23245791.727 7                  23245797.488 6 122157482.918 7                  95187653.620 6
G31  22965542.453 6                  22965549.277 5 120684715.393 6                  94040081.506 5
R03  19356574.266 8  19356578.922 8 103617246.854 8  80591269.488 8
R04  20449755.961 8  20449761.355 7 109507522.901 8  85172845.021 7
R18  19881091.328 8  19881096.020 7 106126628.564 8  82542885.776 7
R19  19846067.766 8  19846071.051 7 106163079.465 8  82571563.530 7
> 2025 06 15 13 46  5.0000000  0 25
C06  38721312.469 6  38721308.301 7 201632040.098 6 155914683.287 7
C11  24653938.820 6  24653935.828 7 128379528.275 6  99271193.386 7
C12  22151774.180 7  22151771.004 7 115350106.454 7  89196109.672 7
C16  39204753.578 6  39204755.398 6 204149443.069 6 157861301.307 6
C19  25099238.195 4                 130698331.701 4
C21  23396620.961 7                 121832347.216 7
C22  21584146.586 7                 112394316.907 7
E03  26131673.891 7  26131678.477 8 137322878.532 7 103883883.271 8
E05  22199947.156 8  22199949.156 8 116661509.437 8  88253682.420 8
E09  25814186.430 6  25814187.746 6 135654500.417 6 102621729.340 6
E15  25299724.727 7  25299728.410 8 132950944.181 7 100576546.519 8
E34  23369171.227 8  23369173.543 9 122805824.271 8  92901813.692 9
E36  26009489.078 6  26009492.449 7 136680779.843 6 103398137.003 7
G01  20430608.180 7                  20430613.051 8 107363570.350 7                  83659942.063 8
G02  22404925.844 7  22404928.051 5                 117738677.976 7  91744430.019 5
G03  20005459.539 8                  20005465.867 7 105129396.479 8                  81919037.329 7
G04  22178306.742 7                  22178313.113 7 116547791.135 7                  90816488.301 7
G17  22375977.586 7                  22375980.828 6 117586559.027 7                  91626055.017 6
G19  22787921.242 6  22787922.934 4                 119751333.290 6  93313040.105 4
G28  23244161.969 7                  23244167.484 6 122148917.723 7                  95180979.457 6
G31  22962167.133 6                  22962173.113 5 120666979.505 6                  94026261.315 5
R03  19356096.719 8  19356101.711 8 103614692.390 8  80589282.682 8
R04  20445894.180 8  20445899.309 7 109486843.519 8  85156761.074 7
R18  19881967.094 8  19881972.441 7 106131304.424 8  82546522.530 7
R19  19842924.016 8  19842926.691 7 106146260.258 8  82558481.950 7
> 2025 06 15 13 46 10.0000000  0 25
C06  38719089.117 6  38719085.152 7 201620463.622 6 155905731.613 7
C11  24650078.750 6  24650075.125 7 128359426.635 6  99255649.497 7
C12  22150733.461 7  22150729.316 7 115344681.188 7  89191914.512 7
C16  39202688.367 6  39202690.434 6 204138690.297 6 157852986.610 6
C19  25100632.055 5                 130705588.313 5
C21  23393090.547 7                 121813964.777 7
C22  21583364.391 7                 112390244.844 7
E03  26127529.594 7  26127534.117 8 137301100.194 7 103867408.123 8
E05  22197902.695 8  22197904.340 8 116650764.162 8  88245553.688 8
E09  25814804.852 6  25814806.121 6 135657750.323 6 102624187.903 6
E15  25296239.711 7  25296243.055 8 132932628.531 7 100562690.856 8
E34  23368045.656 8  23368047.547 9 122799907.044 8  92897337.350 9
E36  26010496.898 6  26010501.727 7 136686083.359 6 103402149.073 7
G01  20430358.391 7                  20430362.914 8 107362256.188 7                  83658918.043 8
G02  22406037.703 7  22406039.934 5                 117744521.902 7  91748983.710 5
G03  20003610.789 8                  20003616.965 7 105119681.528 8                  81911467.252 7
G04  22173953.609 7                  22173959.418 7 116524912.381 7                  90798660.708 7
G17  22374665.766 7                  22374669.840 7 117579666.055 7                  91620683.865 7
G19  22784696.859 7  22784699.031 4                 119734392.080 7  93299839.178 4
G28  23242535.281 7                  23242539.867 6 122140370.339 7                  95174319.126 6
G31  22958794.133 6                  22958799.480 5 120649258.449 6                  94012452.701 5
R03  19355623.422 8  19355627.457 8 103612155.072 8  80587309.197 8
R04  20442036.148 8  20442040.484 7 109466179.008 8  85140688.654 7
R18  19882847.859 8  19882852.141 7 106135999.425 8  82550174.179 7
R19  19839782.797 8  19839786.207 7 106129460.483 8  82545415.448 7
> 2025 06 15 13 46 15.0000000  0 25
C06  38716866.750 6  38716863.434 7 201608893.933 6 155896785.198 7
C11  24646219.508 6  24646217.309 7 128339335.296 6  99240113.621 7
C12  22149695.031 7  22149690.793 7 115339272.282 7  89187731.998 7
C16  39200625.656 5  39200626.773 6 204127944.364 5 157844677.202 6
C19  25102027.695 5                 130712849.646 5
C21  23389562.820 7                 121795592.208 7
C22  21582584.758 7                 112386184.944 7
E03  26123386.406 7  26123391.184 8 137279328.940 7 103850938.336 8
E05  22195860.391 8  22195862.137 8 116640032.191 8  88237435.025 8
E09  25815425.555 6  25815426.172 6 135661009.753 6 102626653.642 6
E15  25292755.477 7  25292758.957 8 132914319.537 7 100548840.233 8
E34  23366921.641 8  23366923.672 8 122794001.095 8  92892869.532 8
E36  26011507.805 6  26011512.477 6 136691394.261 6 103406166.716 6
G01  20430111.461 7                  20430116.320 8 107360957.657 7                  83657906.204 8
G02  22407151.484 7  22407153.660 5                 117750376.282 7  91753545.554 5
G03  20001764.703 8                  20001771.227 7 105109979.992 8                  81903907.624 7
G04  22169601.227 7                  22169607.777 7 116502044.500 7                  90780841.591 7
G17  22373357.445 7                  22373361.813 7 117572790.769 7                  91615326.517 7
G19  22781477.063 7  22781479.281 5                 119717468.478 7  93286651.977 5
G28  23240911.727 7                  23240917.016 6 122131841.737 7                  95167673.529 6
G31  22955425.813 6                  22955429.449 4 120631553.161 6                  93998656.300 4
R03  19355151.578 8  19355157.375 8 103609636.020 8  80585349.949 8
R04  20438180.938 8  20438185.324 7 109445530.315 8  85124628.564 7
R18  19883730.250 8  19883735.617 7 106140714.581 8  82553841.507 7
R19  19836646.859 8  19836649.098 7 106112681.102 8  82532364.800 7
> 2025 06 15 13 46 20.0000000  0 25
C06  38714646.406 6  38714642.152 7 201597329.729 6 155887843.038 7
C11  24642362.102 6  24642361.105 7 128319252.862 6  99224584.604 7
C12  22148659.516 7  22148654.984 7 115333878.433 7  89183561.119 7
C16  39198561.977 6  39198564.641 6 204117204.028 6 157836372.088 6
C19  25103424.352 5                 130720114.486 5
C21  23386036.570 7                 121777228.178 7
C22  21581806.773 7                 112382135.920 7
E03  26119244.844 7  26119249.324 8 137257563.430 7 103834472.869 8
E05  22193820.305 8  22193822.168 8 116629312.216 8  88229325.421 8
E09  25816047.016 6  25816047.813 6 135664277.369 6 102629125.588 6
E15  25289272.477 7  25289275.895 8 132896015.908 7 100534993.653 8
E34  23365799.461 8  23365801.699 8 122788105.086 8  92888409.240 8
E36  26012519.742 6  26012524.395 6 136696711.170 6 103410188.934 6
G01  20429866.867 7                  20429871.820 8 107359673.461 7                  83656905.533 8
G02  22408268.117 7  22408269.602 5                 117756239.869 7  91758114.591 5
G03  19999920.727 8                  19999926.711 7 105100290.553 8                  81896357.410 7
G04  22165251.398 7                  22165257.887 7 116479186.222 7                  90763029.974 7
G17  22372052.680 7                  22372056.461 7 117565931.843 7                  91609981.904 7
G19  22778259.203 7  22778262.055 5                 119700561.126 7  93273477.430 5
G28  23239293.281 7                  23239297.055 6 122123330.611 7                  95161041.477 6
G31  22952059.625 6                  22952061.973 4 120613862.344 6                  93984871.271 4
R03  19354685.086 8  19354689.477 7 103607133.988 8  80583403.927 7
R04  20434326.570 8  20434331.531 7 109424896.046 8  85108579.688 7
R18  19884618.109 8  19884622.641 7 106145448.430 8  82557523.391 7
R19  19833514.406 8  19833515.957 7 106095920.757 8  82519328.973 7
> 2025 06 15 13 46 25.0000000  0 25
C06  38712426.523 6  38712422.695 7 201585771.536 6 155878905.521 7
C11  24638505.414 6  24638505.809 7 128299179.926 6  99209062.973 7
C12  22147626.398 7  22147622.199 7 115328500.114 7  89179402.275 7
C16  39196500.453 6  39196503.227 6 204106469.681 6 157828071.576 6
C19  25104819.586 5                 130727383.340 5
C21  23382511.008 7                 121758873.154 7
C22  21581032.148 7                 112378098.252 7
E03  26115104.117 7  26115108.621 8 137235804.154 7 103818012.141 8
E05  22191782.719 8  22191784.648 8 116618604.691 8  88221225.268 8
E09  25816670.672 6  25816671.438 6 135667553.712 6 102631604.111 6
E15  25285790.203 7  25285793.836 8 132877718.088 7 100521151.482 8
E34  23364679.789 8  23364681.695 8 122782219.521 8  92883956.841 8
E36  26013532.719 6  26013537.680 6 136702034.611 6 103414216.120 6
G01  20429624.766 7                  20429630.223 8 107358404.024 7                  83655916.352 8
G02  22409385.305 7  22409387.398 5                 117762113.123 7  91762691.137 5
G03  19998079.422 8                  19998085.688 7 105090613.670 8                  81888816.974 7
G04  22160903.594 7                  22160909.934 7 116456337.981 7                  90745226.176 7
G17  22370749.953 7                  22370754.082 7 117559089.712 7                  91604650.369 7
G19  22775044.109 7  22775048.676 5                 119683670.551 7  93260315.983 5
G28  23237677.180 7                  23237680.785 6 122114837.442 7                  95154423.426 6
G31  22948694.969 6                  22948697.398 4 120596186.506 6                  93971097.909 4
R03  19354219.492 8  19354225.480 7 103604649.476 8  80581471.537 7
R04  20430476.266 8  20430480.688 7 109404276.717 8  85092542.450 7
R18  19885508.523 8  19885512.926 7 106150201.561 8  82561220.271 7
R19  19830384.742 8  19830386.313 8 106079180.029 8  82506308.400 8
> 2025 06 15 13 46 30.0000000  0 25
C06  38710208.234 6  38710204.359 7 201574219.453 6 155869972.726 7
C11  24634653.297 6  24634653.324 7 128279116.610 6  99193548.761 7
C12  22146596.039 7  22146592.430 7 115323137.514 7  89175255.557 7
C16  39194440.000 6  39194442.789 6 204095741.497 6 157819775.873 6
C19  25106215.203 5                 130734656.24115
C21  23378987.266 7                 121740527.352 7
C22  21580258.695 7                 112374072.077 7
E03  26110964.836 7  26110969.113 8 137214051.302 7 103801556.262 8
E05  22189747.445 8  22189749.527 8 116607909.814 8  88213134.661 8
E09  25817294.766 5  25817296.617 6 135670838.990 5 102634089.389 6
E15  25282309.625 7  25282313.008 8 132859426.327 7 100507313.888 8
E34  23363561.781 8  23363563.750 8 122776344.560 8  92879512.476 8
E36  26014547.750 6  26014551.941 6 136707364.768 6 103418248.361 6
G01  20429386.453 7                  20429391.316 8 107357149.579 7                  83654938.845 8
G02  22410504.766 7  22410507.250 5                 117767996.168 7  91767275.316 5
G03  19996239.469 8                  19996246.543 7 105080949.555 8                  81881286.489 7
G04  22156557.289 7                  22156564.176 7 116433499.999 7                  90727430.338 7
G17  22369451.586 7                  22369455.668 7 117552264.579 7                  91599332.101 7
G19  22771833.656 7  22771838.074 5                 119666796.963 7  93247167.742 5
G28  23236064.328 7                  23236068.492 6 122106362.395 7                  95147819.521 6
G31  22945335.797 6                  22945337.035 4 120578525.877 6                  93957336.412 4
R03  19353759.055 8  19353764.793 7 103602182.507 8  80579552.771 7
R04  20426627.883 8  20426633.207 7 109383672.548 8  85076517.021 7
R18  19886403.133 8  19886406.953 7 106154974.106 8  82564932.219 7
R19  19827257.813 8  19827260.352 7 106062459.009 8  82493303.168 7
> 2025 06 15 13 46 35.0000000  0 25
C06  38707990.461 6  38707986.961 7 201562672.497 6 155861043.872 7
C11  24630803.219 6  24630801.973 7 128259061.849 6  99178041.159 7
C12  22145568.844 7  22145565.488 7 115317789.500 7  89171120.147 7
C16  39192381.406 6  39192383.410 6 204085018.373 6 157811484.072 6
C19  25107611.211 4                 130741932.332 4
C21  23375466.641 7                 121722189.660 7
C22  21579487.617 7                 112370056.347 7
E03  26106826.133 7  26106830.629 8 137192303.823 7 103785104.449 8
E05  22187714.516 8  22187716.582 8 116597226.494 8  88205052.801 8
E09  25817921.508 6  25817923.152 6 135674131.968 6 102636580.459 6
E15  25278829.289 7  25278833.309 8 132841139.494 7 100493480.023 8
E34  23362445.469 8  23362447.582 8 122770479.127 8  92875075.315 8
E36  26015561.883 6  26015567.332 6 136712700.507 6 103422284.795 6
G01  20429150.820 8                  20429155.070 8 107355909.028 8                  83653972.171 8
G02  22411625.891 7  22411628.164 5                 117773887.971 7  91771866.296 5
G03  19994403.055 8                  19994409.711 7 105071297.092 8                  81873765.109 7
G04  22152213.742 7                  22152219.668 7 116410671.208 7                  90709641.677 7
G17  22368155.383 7                  22368160.098 7 117545455.349 7                  91594026.209 7
G19  22768626.523 7  22768629.934 5                 119649939.267 7  93234031.863 5
G28  23234455.563 7                  23234459.035 6 122097904.440 7                  95141228.942 6
G31  22941977.836 6                  22941979.898 4 120560879.344 6                  93943585.847 4
R03  19353301.711 8  19353306.906 7 103599732.106 8  80577646.885 7
R04  20422783.367 8  20422788.926 7 109363082.476 8  85060502.528 7
R18  19887300.289 8  19887304.434 7 106159764.981 8  82568658.440 7
R19  19824135.602 8  19824138.414 7 106045756.626 8  82480312.461 7
> 2025 06 15 13 46 40.0000000  0 25
C06  38705774.539 6  38705770.480 7 201551131.321 6 155852119.512 7
C11  24626954.656 6  24626952.875 7 128239016.397 6  99162540.782 7
C12  22144544.727 7  22144541.195 7 115312456.859 7  89166996.617 7
C16  39190321.625 5  39190325.199 6 204074301.127 5 157803196.818 6
C19  25109009.695 5                 130749212.094 5
C21  23371946.781 7                 121703860.863 7
C22  21578718.531 8                 112366051.772 8
E03  26102689.094 7  26102693.410 8 137170562.475 7 103768657.271 8
E05  22185683.516 8  22185685.945 8 116586555.488 8  88196980.262 8
E09  25818549.797 5  25818551.262 6 135677433.458 5 102639078.022 6
E15  25275349.828 7  25275354.500 8 132822858.353 7 100479650.473 8
E34  23361331.164 8  23361333.398 8 122764624.000 8  92870645.948 8
E36  26016577.789 6  26016583.949 6 136718042.639 6 103426326.076 6
G01  20428917.164 7                  20428921.684 8 107354683.088 7                  83653016.889 8
G02  22412748.969 7  22412750.875 5                 117779789.235 7  91776464.668 5
G03  19992568.859 8                  19992575.586 7 105061657.058 8                  81866253.386 7
G04  22147871.633 7                  22147877.047 7 116387852.351 7                  90691860.739 7
G17  22366862.438 7                  22366867.633 7 117538662.791 7                  91588733.310 7
G19  22765422.102 7  22765424.742 5                 119633098.203 7  93220908.964 5
G28  23232848.531 7                  23232853.582 6 122089464.239 7                  95134652.203 6
G31  22938623.133 6                  22938624.660 4 120543247.618 6                  93929846.796 4
R03  19352848.031 8  19352851.723 7 103597298.774 8  80575754.277 7
R04  20418941.258 8  20418946.137 7 109342507.148 8  85044499.487 7
R18  19888200.711 8  19888204.699 7 106164574.899 8  82572399.510 7
R19  19821016.602 8  19821019.414 7 106029073.646 8  82467336.807 7
> 2025 06 15 13 46 45.0000000  0 25
C06  38703559.531 6  38703555.250 7 201539596.330 6 155843199.935 7
C11  24623106.656 6  24623105.473 7 128218980.697 6  99147047.915 7
C12  22143524.000 7  22143520.043 7 115307139.956 7  89162885.242 7
C16  39188265.781 6  39188268.172 6 204063590.076 6 157794914.351 6
C19  25110409.039 5                 130756495.976 5
C21  23368428.250 7                 121685541.279 7
C22  21577952.055 8                 112362058.720 8
E03  26098552.695 7  26098557.285 8 137148827.513 7 103752214.931 8
E05  22183655.523 8  22183657.777 8 116575897.140 8  88188917.295 8
E09  25819179.813 5  25819181.250 6 135680743.824 5 102641582.262 6
E15  25271872.375 7  25271876.891 8 132804583.267 7 100465825.497 8
E34  23360219.133 8  23360221.230 8 122758779.479 8  92866224.609 8
E36  26017595.625 6  26017601.770 6 136723391.450 6 103430372.435 6
G01  20428686.914 7                  20428691.648 8 107353472.102 7                  83652073.275 8
G02  22413873.281 7  22413875.977 5                 117785700.283 7  91781070.681 5
G03  19990736.984 8                  19990743.156 7 105052029.780 8                  81858751.604 7
G04  22143530.945 7                  22143536.656 7 116365043.738 7                  90674087.793 7
G17  22365572.711 7                  22365578.477 7 117531887.188 7                  91583453.642 7
G19  22762220.992 7  22762223.367 5                 119616274.124 7  93207799.284 5
G28  23231245.961 7                  23231251.875 7 122081042.193 7                  95128089.558 7
G31  22935268.742 5                  22935272.094 4 120525631.058 5                  93916119.731 4
R03  19352396.484 8  19352400.527 7 103594883.045 8  80573875.374 7
R04  20415101.789 8  20415106.863 7 109321947.170 8  85028508.384 7
R18  19889105.836 8  19889109.230 7 106169404.250 8  82576155.662 7
R19  19817901.656 8  19817904.668 7 106012410.475 8  82454376.563 7
> 2025 06 15 13 46 50.0000000  0 25
C06  38701345.563 6  38701341.285 7 201528067.456 6 155834285.081 7
C11  24619260.828 6  24619260.109 7 128198954.567 6  99131562.444 7
C12  22142505.773 7  22142502.027 7 115301838.680 7  89158785.948 7
C16  39186210.141 5  39186212.500 6 204052885.114 5 157786636.608 6
C19  25111809.531 5                 130763783.984 5
C21  23364911.984 7                 121667230.836 7
C22  21577187.695 8                 112358077.112 8
E03  26094418.555 7  26094422.457 8 137127098.991 7 103735777.440 8
E05  22181629.414 8  22181631.945 8 116565251.390 8  88180863.857 8
E09  25819809.664 5  25819812.844 7 135684062.938 5 102644093.099 7
E15  25268396.211 7  25268400.391 8 132786314.198 7 100452005.074 8
E34  23359109.172 8  23359111.051 8 122752945.546 8  92861811.259 8
E36  26018614.594 6  26018620.848 6 136728746.963 6 103434423.826 6
G01  20428459.578 7                  20428463.883 8 107352276.046 7                  83651141.292 8
G02  22415000.242 7  22415002.254 5                 117791621.073 7  91785684.286 5
G03  19988907.797 8                  19988913.590 7 105042415.207 8                  81851259.714 7
G04  22139193.031 7                  22139198.836 7 116342245.360 7                  90656322.822 7
G17  22364286.695 7                  22364292.313 7 117525128.510 7                  91578187.162 7
G19  22759022.391 7  22759024.375 5                 119599466.987 7  93194702.797 5
G28  23229646.727 7                  23229652.445 7 122072638.223 7                  95121541.035 7
G31  22931918.977 5                  22931923.473 5 120508029.611 5                  93902404.436 5
R03  19351949.117 8  19351952.371 7 103592484.704 8  80572010.006 7
R04  20411265.711 8  20411269.840 7 109301402.220 8  85012528.991 7
R18  19890014.328 8  19890017.895 7 106174252.928 8  82579926.863 7
R19  19814790.477 8  19814793.402 7 105995767.028 8  82441431.649 7
> 2025 06 15 13 46 55.0000000  0 25
C06  38699132.781 6  38699128.605 7 201516544.654 6 155825374.921 7
C11  24615416.523 6  24615416.230 7 128178938.075 6  99116084.438 7
C12  22141490.555 7  22141486.840 7 115296553.039 7  89154698.753 7
C16  39184154.688 5  39184157.891 6 204042186.256 5 157778363.576 6
C19  25113210.000 5                 130771075.966 5
C21  23361397.320 7                 121648929.577 7
C22  21576425.219 8                 112354106.949 8
E03  26090284.961 7  26090288.797 8 137105376.868 7 103719344.816 8
E05  22179606.461 8  22179608.516 8 116554618.203 8  88172819.929 8
E09  25820441.594 5  25820446.180 6 135687390.86915 102646610.65916
E15  25264920.961 7  25264924.973 8 132768051.110 7 100438189.176 8
E34  23358001.188 8  23358002.910 9 122747122.160 8  92857405.902 9
E36  26019635.492 6  26019641.121 6 136734108.977 6 103438480.152 6
G01  20428234.617 7                  20428238.977 8 107351094.899 7                  83650220.916 8
G02  22416128.016 7  22416130.781 5                 117797551.607 7  91790305.482 5
G03  19987080.539 8                  19987085.957 7 105032813.313 8                  81843777.720 7
G04  22134856.266 7                  22134862.191 7 116319457.202 7                  90638565.815 7
G17  22363003.703 7                  22363009.383 7 117518386.810 7                  91572933.877 7
G19  22755826.914 7  22755829.773 5                 119582676.799 7  93181619.512 5
G28  23228051.086 7                  23228057.266 7 122064252.356 7                  95115006.583 7
G31  22928570.945 5                  22928577.551 5 120490443.387 5                  93888700.900 5
R03  19351504.289 8  19351507.336 7 103590104.046 8  80570158.388 7
R04  20407432.164 8  20407436.266 7 109280872.416 8  84996561.371 7
R18  19890926.094 8  19890929.449 7 106179120.938 8  82583713.101 7
R19  19811683.313 8  19811685.645 7 105979143.416 8  82428502.174 7
> 2025 06 15 13 47  0.0000000  0 25
C06  38696921.266 6  38696916.793 6 201505027.202 6 155816468.896 6
C11  24611573.586 6  24611573.324 7 128158930.450 6  99100613.257 7
C12  22140478.453 7  22140474.434 7 115291282.291 7  89150623.071 7
C16  39182100.648 5  39182104.023 6 204031492.831 5 157770094.727 6
C19  25114611.352 5                 130778371.258 5
C21  23357883.414 7                 121630636.713 7
C22  21575664.711 7                 112350147.457 7
E03  26086152.227 7  26086156.262 8 137083660.364 7 103702916.438 8
E05  22177585.039 8  22177587.309 8 116543996.886 8  88164784.970 8
E09  25821078.414 5  25821081.273 7 135690726.726 5 102649134.168 7
E15  25261446.391 7  25261450.625 8 132749793.247 7 100424377.221 8
E34  23356895.039 8  23356896.648 8 122741308.574 8  92853007.959 8
E36  26020657.938 6  26020662.738 6 136739476.944 6 103442540.969 6
G01  20428012.406 7                  20428016.992 8 107349927.886 7                  83649311.544 8
G02  22417259.109 7  22417261.430 5                 117803491.130 7  91794933.670 5
G03  19985255.398 8                  19985261.117 7 105023223.338 8                  81836305.044 7
G04  22130521.703 7                  22130527.426 7 116296678.519 7                  90620816.210 7
G17  22361724.367 7                  22361729.645 7 117511661.313 7                  91567693.214 7
G19  22752634.734 7  22752638.078 5                 119565902.806 7  93168548.871 5
G28  23226458.727 7                  23226464.508 7 122055883.796 7                  95108485.617 7
G31  22925226.578 5                  22925235.898 5 120472871.669 5                  93875008.634 5
R03  19351061.875 8  19351066.055 7 103587739.951 8  80568319.645 7
R04  20403600.031 8  20403605.074 7 109260356.998 8  84980604.941 7
R18  19891841.430 8  19891845.082 7 106184007.470 8  82587513.723 7
R19  19808579.352 8  19808581.426 7 105962538.689 8  82415587.404 7
> 2025 06 15 13 47  5.0000000  0 25
C06  38694710.742 6  38694705.965 6 201493515.121 6 155807567.052 6
C11  24607734.570 6  24607732.805 7 128138931.712 6  99085148.966 7
C12  22139468.938 7  22139465.117 7 115286026.441 7  89146558.907 7
C16  39180048.422 5  39180051.395 6 204020804.685 5 157761829.992 6
C19  25116013.992 5                 130785669.854 5
C21  23354372.430 7                 121612352.235 7
C22  21574906.742 7                 112346198.604 7
E03  26082020.133 7  26082024.766 8 137061949.510 7 103686492.340 8
E05  22175566.234 8  22175568.340 8 116533387.355 8  88156758.923 8
E09  25821710.711 4                                
E15  25257973.219 7  25257977.258 8 132731540.620 7 100410569.237 8
E34  23355790.367 8  23355792.203 9 122735504.789 8  92848617.439 9
E36  26021679.563 6  26021685.262 6 136744850.671 6 103446606.165 6
G01  20427793.063 7                  20427797.758 8 107348774.999 7                  83648413.200 8
G02  22418391.344 7  22418393.172 5                 117809439.609 7  91799568.831 5
G03  19983432.453 8                  19983438.809 7 105013645.315 8                  81828841.667 7
G04  22126188.469 7                  22126194.363 7 116273909.334 7                  90603073.995 7
G17  22360447.891 7                  22360452.914 7 117504951.919 7                  91562465.111 7
G19  22749445.430 7  22749449.832 5                 119549144.994 7  93155490.839 5
G28  23224868.977 7                  23224875.445 7 122047532.566 7                  95101978.150 7
G31  22921886.086 5                  22921896.211 5 120455314.330 5                  93861327.488 5
R03  19350623.953 8  19350627.520 7 103585392.608 8  80566493.943 7
R04  20399771.820 8  20399776.637 7 109239855.834 8  84964659.591 7
R18  19892759.859 8  19892764.453 7 106188912.502 8  82591328.726 7
R19  19805479.344 8  19805480.742 7 105945952.911 8  82402687.366 7
> 2025 06 15 13 47 10.0000000  0 24
C06  38692500.773 6  38692496.582 6 201482008.726 6 155798669.572 6
C11  24603894.711 6  24603893.895 7 128118942.257 6  99069691.852 7
C12  22138462.539 7  22138459.063 7 115280785.873 7  89142506.560 7
C16  39177997.492 5  39177999.844 6 204010122.309 5 157753569.695 6
C19  25117414.938 4                 130792971.93114
C21  23350862.570 7                 121594076.549 7
C22  21574150.789 8                 112342260.794 8
E03  26077890.086 7  26077894.504 8 137040244.715 7 103670072.811 8
E05  22173550.234 8  22173551.746 8 116522790.051 8  88148742.136 8
E15  25254501.055 7  25254505.027 8 132713293.601 7 100396765.495 8
E34  23354687.578 8  23354689.719 8 122729711.203 8  92844234.618 8
E36  26022704.516 6  26022709.141 6 136750230.678 6 103450676.074 6
G01  20427576.813 7                  20427581.340 8 107347636.625 7                  83647526.150 8
G02  22419524.555 7  22419527.320 5                 117815397.391 7  91804211.244 5
G03  19981611.984 8                  19981618.195 7 105004079.577 8                  81821387.827 7
G04  22121858.219 7                  22121863.465 7 116251150.007 7                  90585339.460 7
G17  22359174.102 7                  22359179.117 7 117498259.099 7                  91557249.918 7
G19  22746259.906 7  22746264.707 5                 119532403.751 7  93142445.722 5
G28  23223284.117 7                  23223289.984 7 122039199.063 7                  95095484.512 7
G31  22918546.352 4                  22918558.453 6 120437771.778 4                  93847658.011 6
R03  19350187.758 8  19350192.715 7 103583062.094 8  80564681.316 7
R04  20395946.438 8  20395950.688 7 109219369.549 8  84948725.833 7
R18  19893682.594 8  19893686.441 7 106193836.466 8  82595158.450 7
R19  19802381.953 8  19802383.695 7 105929386.601 8  82389802.444 7
> 2025 06 15 13 47 15.0000000  0 24
C06  38690292.070 6  38690287.898 6 201470507.680 6 155789776.229 6
C11  24600057.586 6  24600056.723 7 128098961.723 6  99054241.654 7
C12  22137458.688 7  22137455.770 7 115275560.174 7  89138465.721 7
C16  39175946.516 5  39175948.832 6 203999445.345 5 157745313.603 6
C19  25118817.445 4                 130800277.45414
C21  23347354.922 7                 121575809.313 7
C22  21573396.633 8                 112338333.702 8
E03  26073760.984 7  26073765.391 8 137018545.598 7 103653657.576 8
E05  22171536.063 8  22171537.441 8 116512204.592 8  88140734.304 8
E15  25251029.516 7  25251033.781 8 132695051.898 7 100382965.768 8
E34  23353586.570 8  23353589.109 8 122723927.449 8  92839859.251 8
E36  26023729.875 6  26023734.035 6 136755616.546 6 103454750.437 6
G01  20427362.680 7                  20427367.512 8 107346512.416 7                  83646650.121 8
G02  22420660.031 7  22420662.926 5                 117821364.167 7  91808860.658 5
G03  19979794.133 8                  19979800.645 7 104994525.845 8                  81813943.354 7
G04  22117529.781 7                  22117534.484 7 116228400.234 7                  90567612.374 7
G17  22357904.305 7                  22357908.203 7 117491582.455 7                  91552047.325 7
G19  22743077.477 7  22743082.289 5                 119515678.713 7  93129413.262 5
G28  23221700.875 7                  23221708.121 7 122030882.893 7                  95089004.393 7
G31  22915215.672 5                  22915222.785 6 120420243.758 5                  93833999.757 6
R03  19349756.125 8  19349760.344 7 103580748.492 8  80562881.844 7
R04  20392123.594 8  20392127.551 7 109198897.555 8  84932803.178 7
R18  19894609.125 8  19894612.426 7 106198778.938 8  82599002.586 7
R19  19799287.594 8  19799290.785 7 105912839.446 8  82376932.410 7
> 2025 06 15 13 47 20.0000000  0 24
C06  38688085.109 6  38688080.398 6 201459013.265 6 155780888.011 6
C11  24596222.742 6  24596220.980 7 128078991.382 6  99038799.341 7
C12  22136457.195 7  22136455.445 7 115270350.645 7  89134437.393 7
C16  39173897.703 5  39173900.254 6 203988774.999 5 157737062.624 6
C19  25120223.523 5                 130807587.418 5
C21  23343849.133 7                 121557551.736 7
C22  21572644.563 8                 112334418.481 8
E03  26069633.492 7  26069637.527 8 136996853.401 7 103637247.585 8
E05  22169523.961 8  22169525.551 8 116501632.231 8  88132736.374 8
E15  25247559.836 7  25247563.723 8 132676816.678 7 100369170.957 8
E34  23352488.422 8  23352490.594 9 122718154.774 8  92835492.260 9
E36  26024756.336 6  26024760.301 6 136761009.527 6 103458830.146 6
G01  20427151.727 7                  20427156.383 8 107345403.599 7                  83645786.109 8
G02  22421797.406 7  22421800.270 5                 117827341.174 7  91813518.051 5
G03  19977978.141 8                  19977984.793 7 104984985.246 8                  81806509.123 7
G04  22113201.617 7                  22113207.395 7 116205661.206 7                  90549893.643 7
G17  22356636.297 7                  22356641.063 7 117484923.230 7                  91546858.329 7
G19  22739897.695 7  22739902.750 5                 119498971.174 7  93116394.410 5
G28  23220122.078 7                  23220128.512 7 122022585.330 7                  95082538.771 7
G31  22911882.906 5                  22911889.438 5 120402731.381 5                  93820353.788 5
R03  19349327.266 8  19349331.430 8 103578452.676 8  80561096.182 8
R04  20388302.633 8  20388307.652 7 109178441.289 8  84916892.755 7
R18  19895539.031 8  19895542.531 7 106203741.133 8  82602862.092 7
R19  19796198.219 8  19796201.289 7 105896312.595 8  82364078.216 7
> 2025 06 15 13 47 25.0000000  0 24
C06  38685879.219 6  38685874.543 6 201447527.022 6 155772006.119 6
C11  24592389.961 6  24592388.734 7 128059032.782 6  99023366.076 7
C12  22135461.367 7  22135458.398 7 115265158.825 7  89130422.760 7
C16  39171851.414 5  39171853.227 6 203978112.856 5 157728817.971 6
C19  25121626.695 4                 130814903.406 4
C21  23340344.602 7                 121539305.425 7
C22  21571895.289 8                 112330516.773 8
E03  26065506.797 7  26065511.211 8 136975169.735 7 103620844.054 8
E05  22167514.750 8  22167516.512 8 116491074.568 8  88124749.566 8
E15  25244091.406 7  25244095.191 8 132658589.578 7 100355382.300 8
E34  23351392.641 8  23351394.516 9 122712394.801 8  92831134.867 9
E36  26025785.219 6  26025788.242 6 136766411.247 6 103462916.502 6
G01  20426943.938 7                  20426948.195 8 107344311.777 7                  83644935.322 8
G02  22422936.773 7  22422939.984 5                 117833329.956 7  91818184.631 5
G03  19976165.477 8                  19976172.590 8 104975459.468 8                  81799086.437 8
G04  22108877.039 7                  22108882.609 6 116182934.592 7                  90532184.609 6
G17  22355373.000 7                  22355377.469 7 117478283.044 7                  91541684.162 7
G19  22736722.461 7  22736727.125 5                 119482282.738 7  93103390.449 5
G28  23218546.578 7                  23218553.359 7 122014307.961 7                  95076088.880 7
G31  22908553.711 5                  22908559.824 6 120385236.342 5                  93806721.253 6
R03  19348901.305 8  19348906.457 7 103576176.482 8  80559325.811 7
R04  20384486.828 8  20384491.191 7 109158002.226 8  84900995.729 7
R18  19896472.211 8  19896475.691 7 106208724.830 8  82606738.295 7
R19  19793113.828 8  19793115.883 7 105879807.725 8  82351241.084 7
> 2025 06 15 13 47 30.0000000  0 23
C06  38683674.820 6  38683670.004 6 201436048.201 6 155763129.964 6
C11  24588559.734 6  24588557.852 7 128039085.155 6  99007941.325 7
C12  22134467.172 7  22134464.945 7 115259983.979 7  89126421.241 7
C16  39169804.750 6  39169806.621 6 203967458.104 6 157720579.037 6
C21  23336843.172 7                 121521069.589 7
C22  21571148.359 8                 112326627.768 8
E03  26061381.375 7  26061386.402 8 136953493.842 7 103604446.389 8
E05  22165508.359 8  22165510.078 8 116480530.788 8  88116773.279 8
E15  25240624.281 7  25240628.086 8 132640369.873 7 100341599.227 8
E34  23350298.883 8  23350300.680 8 122706646.703 8  92826786.471 8
E36  26026814.844 6  26026817.684 6 136771820.859 6 103467008.805 6
G01  20426738.781 7                  20426743.727 8 107343236.176 7                  83644097.187 8
G02  22424078.813 7  22424081.898 5                 117839329.803 7  91822859.825 5
G03  19974356.320 8                  19974362.578 8 104965947.707 8                  81791674.672 8
G04  22104554.664 7                  22104560.695 6 116160219.588 7                  90514484.619 6
G17  22354112.938 7                  22354117.102 7 117471661.115 7                  91536524.214 7
G19  22733549.836 7  22733554.434 5                 119465612.641 7  93090400.769 5
G28  23216975.438 7                  23216981.891 7 122006050.010 7                  95069654.146 7
G31  22905227.172 5                  22905233.836 5 120367757.942 5                  93793101.746 5
R03  19348480.516 8  19348483.770 7 103573919.103 8  80557570.061 7
R04  20380673.117 8  20380677.090 7 109137579.838 8  84885111.646 7
R18  19897409.742 8  19897413.375 7 106213729.061 8  82610630.457 7
R19  19790031.672 8  19790033.938 7 105863324.098 8  82338420.495 7
> 2025 06 15 13 47 35.0000000  0 23
C06  38681470.844 6  38681466.711 6 201424575.653 6 155754258.658 6
C11  24584730.859 6  24584728.613 7 128019147.432 6  98992524.214 7
C12  22133476.391 7  22133474.281 7 115254824.944 7  89122431.935 7
C16  39167760.305 6  39167761.844 6 203956809.684 6 157712345.021 6
C21  23333342.984 7                 121502843.110 7
C22  21570403.609 7                 112322750.345 7
E03  26057258.461 7  26057262.891 8 136931824.543 7 103588053.711 8
E05  22163504.102 8  22163506.059 8 116469999.772 8  88108806.643 8
E15  25237157.773 7  25237162.184 8 132622156.366 7 100327820.827 8
E34  23349207.133 8  23349208.926 8 122700909.377 8  92822446.220 8
E36  26027846.727 6  26027848.215 6 136777237.270 6 103471106.24616
G01  20426537.352 7                  20426541.973 8 107342175.632 7                  83643270.784 8
G02  22425222.063 7  22425225.309 5                 117845339.453 7  91827542.667 5
G03  19972548.492 8                  19972555.035 8 104956448.801 8                  81784272.918 8
G04  22100234.242 7                  22100240.258 6 116137515.046 7                  90496792.807 6
G17  22352856.367 7                  22352860.555 7 117465056.262 7                  91531377.571 7
G19  22730380.625 7  22730385.383 5                 119448959.702 7  93077424.470 5
G28  23215407.664 7                  23215413.563 7 121997810.323 7                  95063233.623 7
G31  22901905.164 5                  22901910.188 5 120350295.014 5                  93779494.210 5
R03  19348061.914 8  19348065.813 7 103571679.256 8  80555827.967 7
R04  20376861.930 8  20376866.219 7 109117172.745 8  84869239.483 7
R18  19898350.336 8  19898354.895 7 106218752.766 8  82614537.765 7
R19  19786953.852 8  19786956.574 7 105846860.552 8  82325615.510 7
> 2025 06 15 13 47 40.0000000  0 23
C06  38679268.891 6  38679265.047 6 201413109.171 6 155745392.063 6
C11  24580903.078 6  24580901.590 7 127999219.348 6  98977114.553 7
C12  22132489.016 7  22132486.281 7 115249681.539 7  89118454.719 7
C16  39165716.164 6  39165718.258 6 203946167.340 6 157704115.676 6
C21  23329843.969 7                 121484625.784 7
C22  21569661.555 7                 112318884.289 7
E03  26053136.023 7  26053140.574 8 136910161.692 7 103571665.922 8
E05  22161502.859 8  22161504.516 8 116459481.317 8  88100849.499 8
E15  25233693.148 7  25233697.348 8 132603948.864 7 100314046.978 8
E34  23348117.164 8  23348119.176 8 122695182.596 8  92818113.943 8
E36  26028878.094 6  26028880.277 6 136782660.176 6 103475208.642 6
G01  20426338.430 7                  20426342.965 8 107341129.958 7                  83642455.968 8
G02  22426367.820 7  22426370.852 5                 117851358.778 7  91832233.058 5
G03  19970743.266 8                  19970749.695 7 104946962.562 8                  81776881.052 7
G04  22095915.414 7                  22095921.711 7 116114820.798 7                  90479108.975 7
G17  22351602.594 7                  22351606.813 7 117458468.289 7                  91526244.070 7
G19  22727215.242 7  22727219.277 5                 119432323.766 7  93064461.418 5
G28  23213842.797 7                  23213849.082 7 121989588.729 7                  95056827.189 7
G31  22898584.430 5                  22898589.098 5 120332847.359 5                  93765898.609 5
R03  19347645.992 8  19347650.453 7 103569456.938 8  80554099.519 7
R04  20373053.656 8  20373058.637 7 109096780.747 8  84853379.046 7
R18  19899295.063 7  19899299.797 7 106223795.634 7  82618459.996 7
R19  19783879.547 8  19783882.629 7 105830416.811 8  82312825.971 7
> 2025 06 15 13 47 45.0000000  0 23
C06  38677068.641 6  38677063.867 6 201401648.835 6 155736530.189 6
C11  24577078.234 6  24577075.762 7 127979301.110 6  98961712.524 7
C12  22131503.695 7  22131501.488 7 115244553.785 7  89114489.621 7
C16  39163673.094 6  39163675.695 6 203935531.133 6 157695891.093 6
C21  23326347.570 7                 121466417.666 7
C22  21568920.750 7                 112315029.611 7
E03  26049015.078 7  26049019.520 8 136888505.311 7 103555283.015 8
E05  22159502.969 8  22159505.352 8 116448975.475 8  88092901.904 8
E15  25230229.906 7  25230233.691 8 132585747.472 7 100300277.737 8
E34  23347029.383 8  23347031.418 9 122689466.431 8  92813789.701 9
E36  26029911.070 6  26029913.570 6 136788089.734 6 103479316.032 6
G01  20426141.602 7                  20426146.551 8 107340099.187 7                  83641652.769 8
G02  22427515.289 7  22427518.395 5                 117857387.815 7  91836931.008 5
G03  19968940.492 8                  19968947.098 7 104937489.034 8                  81769499.090 7
G04  22091598.773 7                  22091604.723 7 116092136.884 7                  90461433.226 7
G17  22350352.813 7                  22350356.215 7 117451897.318 7                  91521123.822 7
G19  22724052.945 7  22724056.137 5                 119415704.888 7  93051511.655 5
G28  23212281.844 7                  23212287.574 7 121981385.284 7                  95050434.895 7
G31  22895269.258 6                  22895270.574 5 120315414.954 6                  93752314.972 5
R03  19347233.711 8  19347239.051 7 103567251.853 8  80552384.475 7
R04  20369249.125 8  20369253.148 7 109076403.979 8  84837530.442 7
R18  19900242.125 8  19900248.566 7 106228857.784 8  82622397.226 7
R19  19780809.031 8  19780812.543 7 105813992.979 8  82300051.885 7
> 2025 06 15 13 47 50.0000000  0 23
C06  38674867.953 6  38674864.496 6 201390193.572 6 155727672.273 6
C11  24573254.813 6  24573251.922 7 127959391.563 6  98946317.196 7
C12  22130521.758 7  22130519.652 7 115239440.684 7  89110535.849 7
C16  39161631.211 6  39161633.957 6 203924900.059 6 157687670.467 6
C21  23322852.094 7                 121448217.748 7
C22  21568182.164 7                 112311185.372 7
E03  26044895.305 7  26044899.504 8 136866854.397 7 103538904.249 8
E05  22157505.914 8  22157508.375 8 116438481.242 8  88084963.088 8
E15  25226767.359 7  25226770.977 8 132567551.116 7 100286512.318 8
E34  23345943.398 8  23345945.504 8 122683759.853 8  92809472.719 8
E36  26030944.992 6  26030947.859 6 136793524.874 6 103483427.657 6
G01  20425948.414 7                  20425952.953 8 107339082.324 7                  83640860.386 8
G02  22428664.906 7  22428667.918 5                 117863425.529 7  91841635.698 5
G03  19967140.289 8                  19967146.566 7 104928027.219 8                  81762126.246 7
G04  22087283.797 7                  22087289.453 7 116069462.319 7                  90443764.730 7
G17  22349104.516 7                  22349108.887 7 117445342.226 7                  91516015.961 7
G19  22720893.742 7  22720896.270 5                 119399102.052 7  93038574.399 5
G28  23210724.375 7                  23210729.672 7 121973198.939 7                  95044055.932 7
G31  22891952.289 5                  22891954.781 5 120297996.904 5                  93738742.521 5
R03  19346825.109 8  19346830.082 7 103565063.332 8  80550682.282 7
R04  20365446.734 8  20365450.809 7 109056041.382 8  84821692.880 7
R18  19901194.547 7  19901200.051 7 106233938.085 7  82626348.553 7
R19  19777744.148 8  19777745.898 7 105797588.071 8  82287292.484 7
> 2025 06 15 13 47 55.0000000  0 23
C06  38672669.313 6  38672665.434 6 201378744.353 6 155718818.991 6
C11  24569433.594 6  24569430.074 6 127939491.625 6  98930929.318 6
C12  22129543.641 7  22129540.273 7 115234343.154 7  89106594.108 7
C16  39159589.953 6  39159593.738 6 203914275.036 6 157679454.529 6
C21  23319358.797 7                 121430026.914 7
C22  21567446.469 7                 112307352.381 7
E03  26040776.539 7  26040780.672 8 136845209.828 7 103522530.292 8
E05  22155511.305 8  22155513.750 8 116427999.467 8  88077033.696 8
E15  25223305.844 7  25223309.418 8 132549360.711 7 100272751.408 8
E34  23344858.836 8  23344861.531 8 122678063.761 8  92805163.661 8
E36  26031978.727 5  26031983.281 6 136798966.504 5 103487544.178 6
G01  20425757.977 7                  20425762.215 8 107338080.224 7                  83640079.530 8
G02  22429815.297 7  22429818.793 5                 117869472.770 7  91846347.834 5
G03  19965341.758 8                  19965348.227 7 104918578.010 8                  81754763.222 7
G04  22082971.289 7                  22082976.672 7 116046798.006 7                  90426104.216 7
G17  22347860.039 7                  22347864.559 7 117438803.969 7                  91510921.228 7
G19  22717737.391 7  22717739.344 5                 119382516.171 7  93025650.324 5
G28  23209169.680 7                  23209175.480 7 121965030.608 7                  95037690.999 7
G31  22888642.148 5                  22888644.133 5 120280594.027 5                  93725181.874 5
R03  19346418.961 8  19346424.113 7 103562891.903 8  80548993.397 7
R04  20361646.094 8  20361650.461 7 109035693.850 8  84805867.037 7
R18  19902150.063 8  19902155.086 7 106239037.512 8  82630314.773 7
R19  19774681.523 8  19774682.652 7 105781203.008 8  82274548.545 7
> 2025 06 15 13 48  0.0000000  0 23
C06  38670471.352 6  38670467.449 6 201367299.707 6 155709969.264 6
C11  24565612.773 6  24565610.000 6 127919599.928 6  98915547.786 6
C12  22128567.422 7  22128563.859 8 115229259.784 7  89102663.313 8
C16  39157550.266 6  39157553.953 7 203903654.631 6 157671242.151 7
C21  23315867.055 7                 121411843.783 7
C22  21566711.961 7                 112303529.280 7
E03  26036658.422 7  26036662.809 8 136823570.276 7 103506160.120 8
E05  22153518.813 8  22153521.227 8 116417528.801 8  88069112.710 8
E15  25219845.203 7  25219848.648 8 132531174.878 7 100258993.947 8
E34  23343776.797 8  23343779.348 8 122672376.745 8  92800861.480 8
E36  26033016.195 5  26033019.699 6 136804413.166 5 103491664.567 6
G01  20425569.922 7                  20425573.895 8 107337091.501 7                  83639309.104 8
G02  22430967.578 7  22430970.918 5                 117875528.163 7  91851066.327 5
G03  19963546.008 7                  19963552.477 8 104909139.987 7                  81747408.912 8
G04  22078660.055 7                  22078665.184 7 116024142.503 7                  90408450.589 7
G17  22346618.688 7                  22346623.586 7 117432281.128 7                  91505838.513 7
G19  22714583.406 7  22714585.566 5                 119365945.882 7  93012738.421 5
G28  23207618.711 7                  23207624.098 7 121956878.897 7                  95031339.021 7
G31  22885333.375 5                  22885336.352 5 120263205.011 5                  93711631.981 5
R03  19346015.898 8  19346021.711 7 103560736.367 8  80547316.875 7
R04  20357848.203 8  20357853.242 7 109015360.003 8  84790051.833 7
R18  19903108.711 8  19903113.660 7 106244154.606 8  82634294.730 7
R19  19771621.141 8  19771623.551 8 105764836.281 8  82261818.878 8
> 2025 06 15 13 48  5.0000000  0 23
C06  38668274.953 6  38668270.348 6 201355860.255 6 155701123.559 6
C11  24561794.875 6  24561791.898 6 127899717.128 6  98900173.167 6
C12  22127593.906 7  22127590.598 7 115224191.132 7  89098743.917 7
C16  39155512.773 6  39155515.602 7 203893039.471 6 157663033.834 7
C21  23312376.367 7                 121393668.903 7
C22  21565980.180 7                 112299716.631 7
E03  26032541.430 7  26032545.980 8 136801936.240 7 103489794.134 8
E05  22151528.375 8  22151530.918 8 116407069.801 8  88061200.551 8
E15  25216385.391 7  25216388.938 8 132512994.184 7 100245240.375 8
E34  23342696.398 8  23342698.980 8 122666699.424 8  92796566.623 8
E36  26034052.289 5  26034057.191 6 136809865.47815 103495789.28916
G01  20425384.883 7                  20425388.652 8 107336116.729 7                  83638549.542 8
G02  22432121.953 7  22432124.871 5                 117881592.296 7  91855791.605 5
G03  19961752.164 7                  19961758.691 7 104899713.727 7                  81740063.785 7
G04  22074351.047 7                  22074355.746 7 116001496.451 7                  90390804.313 7
G17  22345381.156 7                  22345385.402 7 117425774.324 7                  91500768.269 7
G19  22711433.656 7  22711435.402 5                 119349391.740 7  92999839.104 5
G28  23206070.883 8                  23206076.316 7 121948744.393 8                  95025000.437 7
G31  22882030.156 6                  22882030.355 5 120245830.333 6                  93698093.314 5
R03  19345616.977 8  19345622.109 7 103558597.302 8  80545653.151 7
R04  20354053.594 8  20354058.996 7 108995040.381 8  84774247.702 7
R18  19904070.797 8  19904075.602 7 106249289.953 8  82638288.883 7
R19  19768565.430 8  19768567.559 7 105748488.535 8  82249103.981 7
> 2025 06 15 13 48 10.0000000  0 23
C06  38666078.930 6  38666074.973 6 201344427.039 6 155692282.651 6
C11  24557978.641 6  24557975.527 6 127879844.252 6  98884806.198 6
C12  22126622.828 7  22126620.383 8 115219138.238 7  89094836.699 8
C16  39153474.641 6  39153478.180 7 203882430.491 6 157654830.303 7
C21  23308888.180 7                 121375503.356 7
C22  21565250.172 7                 112295915.484 7
E03  26028426.023 7  26028430.367 8 136780308.826 7 103473433.140 8
E05  22149540.867 8  22149543.039 8 116396623.525 8  88053298.003 8
E15  25212927.234 7  25212930.332 8 132494819.735 7 100231491.527 8
E34  23341617.961 8  23341620.645 8 122661032.830 8  92792279.875 8
E36  26035088.469 5  26035096.035 6 136815324.528 5 103499918.991 6
G01  20425201.305 7                  20425206.000 8 107335156.953 7                  83637801.677 8
G02  22433277.305 7  22433280.602 5                 117887666.222 7  91860524.541 5
G03  19959961.289 8                  19959967.031 7 104890300.289 8                  81732728.634 7
G04  22070042.781 7                  22070048.285 7 115978860.888 7                  90373166.199 7
G17  22344145.563 7                  22344150.531 7 117419284.515 7                  91495711.295 7
G19  22708287.461 7  22708288.949 5                 119332854.790 7  92986953.167 5
G28  23204526.641 7                  23204531.656 7 121940628.129 7                  95018676.053 7
G31  22878724.586 6                  22878727.086 6 120228471.249 6                  93684566.751 6
R03  19345221.570 8  19345225.918 7 103556475.600 8  80544002.927 7
R04  20350262.508 8  20350267.289 7 108974736.151 8  84758455.521 7
R18  19905036.414 8  19905041.160 7 106254444.608 8  82642298.033 7
R19  19765512.547 8  19765515.035 7 105732160.929 8  82236404.750 7
> 2025 06 15 13 48 15.0000000  0 23
C06  38663884.141 6  38663880.207 7 201332998.368 6 155683445.292 7
C11  24554162.930 6  24554161.176 6 127859979.540 6  98869445.555 6
C12  22125656.008 7  22125652.957 7 115214099.411 7  89090940.374 7
C16  39151437.680 6  39151441.887 7 203871826.054 6 157646630.293 7
C21  23305401.461 7                 121357345.441 7
C22  21564521.836 7                 112292124.129 7
E03  26024311.922 7  26024315.719 8 136758686.333 7 103457075.874 8
E05  22147555.227 8  22147557.266 8 116386188.221 8  88045403.757 8
E15  25209469.094 7  25209472.598 8 132476649.755 7 100217746.057 8
E34  23340541.211 8  23340544.023 8 122655375.240 8  92787999.944 8
E36  26036126.289 4  26036135.965 6 136820788.55814 103504052.49316
G01  20425021.563 7                  20425025.801 8 107334210.484 7                  83637064.161 8
G02  22434435.258 7  22434438.141 5                 117893748.200 7  91865263.737 5
G03  19958171.148 8                  19958177.980 7 104880897.951 8                  81725402.141 7
G04  22065737.023 7                  22065742.836 7 115956234.074 7                  90355534.951 7
G17  22342914.242 7                  22342918.348 7 117412810.051 7                  91490666.251 7
G19  22705142.984 7  22705145.367 5                 119316333.335 7  92974079.314 5
G28  23202984.938 7                  23202990.090 7 121932528.390 7                  95012364.588 7
G31  22875422.383 6                  22875426.898 6 120211125.840 6                  93671050.848 6
R03  19344826.992 8  19344832.602 8 103554369.597 8  80542364.913 8
R04  20346473.547 8  20346477.590 7 108954445.668 8  84742674.023 7
R18  19906005.430 8  19906009.898 7 106259616.819 8  82646320.840 7
R19  19762462.648 8  19762466.316 7 105715851.642 8  82223719.760 7
> 2025 06 15 13 48 20.0000000  0 24
C06  38661690.203 6  38661686.434 7 201321574.659 6 155674611.746 7
C11  24550349.953 6  24550348.207 6 127840123.523 6  98854091.617 6
C12  22124691.313 7  22124688.129 8 115209075.092 7  89087055.261 8
C16  39149402.414 5  39149406.402 7 203861226.643 5 157638434.155 7
C21  23301915.711 7                 121339195.590 7
C22  21563795.133 7                 112288342.966 7
E03  26020198.516 7  26020202.102 8 136737069.143 7 103440722.628 8
E05  22145571.555 8  22145573.684 8 116375764.352 8  88037518.174 8
E09  25831463.219 5                 135745417.89615
E15  25206012.109 7  25206015.910 8 132458484.702 7 100204004.321 8
E34  23339467.180 8  23339469.211 9 122649727.082 8  92783727.158 9
E36  26037167.805 5  26037176.887 6 136826258.074 5 103508190.113 6
G01  20424844.172 7                  20424848.375 8 107333277.718 7                  83636337.336 8
G02  22435593.953 7  22435597.180 5                 117899838.673 7  91870009.532 5
G03  19956385.016 8                  19956390.836 8 104871507.154 8                  81718084.639 8
G04  22061432.656 7                  22061439.250 7 115933616.506 7                  90337910.894 7
G17  22341685.250 7                  22341689.633 7 117406351.364 7                  91485633.464 7
G19  22702002.258 7  22702004.434 5                 119299827.821 7  92961217.883 5
G28  23201446.625 7                  23201451.766 7 121924445.651 7                  95006066.345 7
G31  22872123.531 6                  22872128.789 6 120193794.670 6                  93657546.050 6
R03  19344437.227 8  19344442.145 8 103552279.591 8  80540739.344 8
R04  20342687.523 8  20342691.938 7 108934169.109 8  84726903.375 7
R18  19906977.695 8  19906982.109 7 106264807.001 8  82650357.646 7
R19  19759417.109 8  19759421.199 7 105699561.203 8  82211049.422 7
> 2025 06 15 13 48 25.0000000  0 25
C06  38659496.891 6  38659493.121 7 201310154.668 6 155665781.092 7
C11  24546537.781 6  24546536.480 7 127820274.832 6  98838743.366 7
C12  22123728.695 7  22123725.816 7 115204064.044 7  89083180.390 7
C16  39147368.695 5  39147371.668 7 203850630.939 5 157630240.921 7
C21  23298431.820 7                 121321052.523 7
C22  21563070.969 7                 112284570.737 7
E03  26016085.211 7  26016089.277 8 136715456.020 7 103424372.448 8
E05  22143590.000 8  22143592.051 8 116365350.651 8  88029640.289 8
E09  25832124.063 4  25832126.121 7 135748895.214 4 102693038.83217
E15  25202556.852 7  25202559.871 8 132440323.327 7 100190265.364 8
E34  23338393.797 8  23338395.977 8 122644087.125 8  92779460.560 8
E36  26038209.086 5  26038218.523 6 136831731.64615 103512330.85016
G01  20424669.164 7                  20424673.121 8 107332357.407 7                  83635620.205 8
G02  22436754.875 7  22436757.867 5                 117905936.363 7  91874760.964 5
G03  19954599.133 8                  19954605.832 7 104862126.638 8                  81710775.138 7
G04  22057129.734 7                  22057136.801 7 115911006.893 7                  90320293.022 7
G17  22340458.578 7                  22340463.555 7 117399907.097 7                  91480611.962 7
G19  22698864.148 7  22698866.605 5                 119283336.995 7  92948367.887 5
G28  23199911.789 7                  23199916.727 7 121916378.602 7                  94999780.334 7
G31  22868828.109 6                  22868833.762 6 120176476.488 6                  93644051.376 6
R02  22764865.500 5                 121477686.33815
R03  19344049.484 8  19344054.965 7 103550204.651 8  80539125.510 7
R04  20338902.383 8  20338907.367 7 108913905.291 8  84711142.627 7
R18  19907953.188 8  19907957.625 7 106270013.892 8  82654407.438 7
R19  19756375.578 8  19756379.102 8 105683288.253 8  82198392.690 8
> 2025 06 15 13 48 30.0000000  0 25
C06  38657303.922 6  38657300.957 7 201298740.011 6 155656954.542 7
C11  24542728.883 6  24542727.484 7 127800435.259 6  98823402.170 7
C12  22122768.492 7  22122766.430 8 115199067.922 7  89079317.050 8
C16  39145335.063 6  39145338.094 7 203840040.582 6 157622051.772 7
C21  23294949.703 7                 121302917.946 7
C22  21562348.461 7                 112280809.145 7
E03  26011973.094 7  26011977.559 8 136693848.717 7 103408026.674 8
E05  22141610.523 8  22141612.672 8 116354948.818 8  88021771.365 8
E09  25832788.156 4  25832789.438 7 135752380.43114 102695675.35617
E15  25199101.266 7  25199104.848 8 132422167.339 7 100176530.481 8
E34  23337322.563 8  23337324.629 8 122638457.039 8  92775201.433 8
E36  26039255.289 4                                
G01  20424496.297 7                  20424500.832 8 107331451.226 7                  83634914.108 8
G02  22437916.250 7  22437920.430 5                 117912042.963 7  91879519.335 5
G03  19952817.203 8                  19952823.211 7 104852758.069 8                  81703474.962 7
G04  22052830.008 7                  22052835.625 7 115888406.978 7                  90302682.708 7
G17  22339234.977 7                  22339240.180 7 117393479.030 7                  91475603.062 7
G19  22695729.148 7  22695732.098 5                 119266862.577 7  92935530.688 5
G28  23198379.977 7                  23198384.648 7 121908328.933 7                  94993507.887 7
G31  22865536.094 6                  22865540.582 6 120159173.042 6                  93630568.178 6
R02  22767104.984 5                 121489608.609 5
R03  19343664.242 8  19343670.094 7 103548146.220 8  80537524.503 7
R04  20335121.992 8  20335125.570 7 108893656.094 8  84695393.266 7
R18  19908932.867 8  19908936.176 7 106275239.146 8  82658471.538 7
R19  19753338.031 8  19753340.484 7 105667034.654 8  82185750.996 7
> 2025 06 15 13 48 35.0000000  0 25
C06  38655114.281 6  38655110.285 7 201287331.031 6 155648132.389 7
C11  24538920.195 6  24538919.086 7 127780604.956 6  98808068.122 7
C12  22121813.141 7  22121810.059 7 115194086.967 7  89075465.477 7
C16  39143303.164 6  39143305.574 7 203829455.937 6 157613867.063 7
C21  23291469.000 7                 121284792.108 7
C22  21561628.680 7                 112277058.428 7
E03  26007862.992 7  26007867.004 8 136672247.442 7 103391685.459 8
E05  22139633.266 8  22139635.594 8 116344559.105 8  88013911.616 8
E09  25833453.305 4  25833454.098 7 135755873.68514 102698318.00517
E15  25195648.156 7  25195651.039 8 132404016.998 7 100162799.869 8
E34  23336253.281 8  23336255.223 9 122632837.103 8  92770949.979 9
E36  26040301.805 5  26040305.313 6 136842696.62015 103520625.77116
G01  20424327.625 8                  20424331.598 8 107330559.479 8                  83634219.230 8
G02  22439080.484 7  22439083.879 5                 117918158.703 7  91884284.830 5
G03  19951036.477 8                  19951042.328 7 104843401.735 8                  81696184.318 7
G04  22048530.164 7                  22048537.207 7 115865817.028 7                  90285080.164 7
G17  22338015.258 7                  22338019.953 7 117387067.392 7                  91470606.984 7
G19  22692597.555 7  22692599.793 5                 119250404.720 7  92922706.386 5
G28  23196851.367 7                  23196855.977 7 121900296.948 7                  94987249.188 7
G31  22862245.906 6                  22862250.832 6 120141884.557 6                  93617096.591 6
R02  22769329.805 5                 121501534.928 5
R03  19343282.680 8  19343288.859 8 103546104.446 8  80535936.469 8
R04  20331343.039 8  20331347.551 7 108873421.622 8  84679655.332 7
R18  19909914.859 8  19909918.641 7 106280483.056 8  82662550.125 7
R19  19750303.453 8  19750305.707 7 105650800.630 8  82173124.548 7
> 2025 06 15 13 48 40.0000000  0 23
C06  38652923.352 6  38652919.988 7 201275926.694 6 155639313.826 7
C11  24535113.797 6  24535112.781 7 127760783.064 6  98792740.608 7
C12  22120859.250 7  22120855.953 7 115189120.183 7  89071624.836 7
C16  39141270.336 6  39141273.578 7 203818875.958 6 157605685.947 7
C21  23287989.773 7                 121266674.033 7
C22  21560909.039 7                 112273317.623 7
E03  26003753.992 7  26003757.402 8 136650651.197 7 103375348.052 8
E05  22137658.461 8  22137660.605 8 116334180.490 8  88006060.261 8
E15  25192195.117 8  25192197.961 8 132385871.281 8 100149072.755 8
E34  23335185.805 8  23335187.527 8 122627226.284 8  92766705.436 8
E36  26041345.445 5  26041350.301 6 136848187.314 5 103524779.397 6
G01  20424159.906 8                  20424164.707 8 107329681.125 8                  83633534.785 8
G02  22440245.289 7  22440248.645 5                 117924282.604 7  91889056.671 5
G03  19949257.859 8                  19949264.215 7 104834056.619 8                  81688902.416 7
G04  22044233.766 7                  22044240.430 7 115843235.979 7                  90267484.546 7
G17  22336797.891 7                  22336802.969 7 117380671.173 7                  91465622.939 7
G19  22689468.891 7  22689470.996 5                 119233962.526 7  92909894.298 5
G28  23195325.945 7                  23195330.543 7 121892281.607 7                  94981003.503 7
G31  22858958.531 5                  22858964.023 6 120124609.937 5                  93603635.856 6
R03  19342904.914 8  19342910.375 8 103544078.548 8  80534360.753 8
R04  20327567.789 8  20327571.234 7 108853200.832 8  84663928.053 7
R18  19910900.508 8  19910904.633 7 106285744.548 8  82666642.401 7
R19  19747272.648 8  19747274.313 7 105634585.147 8  82160512.483 7
> 2025 06 15 13 48 45.0000000  0 24
C06  38650734.164 6  38650731.512 7 201264529.777 6 155630501.046 7
C11  24531309.484 6  24531307.926 7 127740972.360 6  98777421.731 7
C12  22119908.203 7  22119905.457 8 115184170.386 7  89067797.322 8
C16  39139240.156 6  39139243.551 7 203808303.399 6 157597510.582 7
C21  23284512.359 7                 121248566.489 7
C22  21560194.039 7                 112269589.447 7
E03  25999644.875 7  25999649.238 8 136629062.840 7 103359016.605 8
E05  22135686.078 8  22135688.273 8 116323815.821 8  87998219.441 8
E09  25834790.523 5                 135762887.49015
E15  25188743.250 7  25188746.352 8 132367733.038 7 100135351.290 8
E34  23334120.398 8  23334122.082 9 122621627.417 8  92762469.930 9
E36  26042391.258 5  26042396.824 6 136853685.80115 103528938.97516
G01  20423995.805 8                  20424000.344 8 107328818.960 8                  83632862.961 8
G02  22441413.523 7  22441416.555 5                 117930417.418 7  91893837.028 5
G03  19947481.969 7                  19947488.660 7 104824725.547 7                  81681631.451 7
G04  22039940.133 7                  22039945.563 7 115820666.703 7                  90249898.098 7
G17  22335583.508 7                  22335589.234 7 117374293.179 7                  91460653.080 7
G19  22686343.063 7  22686345.633 5                 119217538.869 7  92897096.669 5
G28  23193804.945 7                  23193809.445 7 121884285.753 7                  94974772.960 7
G31  22855674.625 6                  22855679.664 6 120107352.134 6                  93590188.220 6
R03  19342530.578 8  19342535.594 8 103542071.441 8  80532799.665 8
R04  20323794.164 8  20323797.766 7 108832996.725 8  84648213.768 7
R18  19911889.805 8  19911893.227 7 106291026.579 8  82670750.622 7
R19  19744244.617 8  19744246.859 7 105618391.003 8  82147917.048 7
> 2025 06 15 13 48 50.0000000  0 24
C06  38648546.367 6  38648543.758 7 201253138.866 6 155621692.862 7
C11  24527507.523 7  24527505.160 7 127721171.358 7  98762110.347 7
C12  22118960.547 7  22118957.934 7 115179236.143 7  89063981.867 7
C16  39137210.953 6  39137214.227 7 203797736.895 6 157589339.914 7
C21  23281036.773 7                 121230468.060 7
C22  21559480.273 7                 112265872.501 7
E03  25995539.133 7  25995542.270 8 136607480.899 7 103342690.022 8
E05  22133716.477 8  22133718.320 8 116313463.619 8  87990388.077 8
E09  25835456.398 5  25835457.734 7 135766406.44215 102706282.67417
E15  25185292.578 7  25185295.883 8 132349600.787 7 100121634.378 8
E34  23333057.000 8  23333058.660 9 122616039.075 8  92758242.384 9
E36  26043439.664 5  26043444.438 6 136859190.789 5 103533103.438 6
G01  20423834.281 7                  20423838.945 8 107327971.562 7                  83632202.663 8
G02  22442581.789 7  22442585.379 5                 117936561.715 7  91898624.795 5
G03  19945709.172 8                  19945715.375 7 104815407.065 8                  81674370.284 7
G04  22035647.250 7                  22035652.766 7 115798107.768 7                  90232319.740 7
G17  22334374.406 7                  22334379.176 7 117367932.028 7                  91455696.348 7
G19  22683221.375 7  22683223.551 5                 119201132.300 7  92884312.324 5
G28  23192286.477 7                  23192291.461 7 121876307.951 7                  94968556.472 7
G31  22852393.492 6                  22852398.129 6 120090109.682 6                  93576752.537 6
R03  19342159.133 8  19342163.770 8 103540081.363 8  80531251.798 8
R04  20320023.742 8  20320028.109 7 108812807.674 8  84632511.196 7
R18  19912882.531 8  19912886.777 7 106296327.551 8  82674873.626 7
R19  19741220.578 8  19741223.418 7 105602216.833 8  82135337.148 7
> 2025 06 15 13 48 55.0000000  0 24
C06  38646360.016 6  38646357.105 6 201241753.773 6 155612889.171 6
C11  24523706.164 6  24523704.293 7 127701379.955 6  98746806.378 7
C12  22118015.891 7  22118013.328 7 115174317.236 7  89060178.248 7
C16  39135183.430 6  39135186.223 6 203787176.213 6 157581173.738 6
C21  23277562.297 7                 121212378.587 7
C22  21558768.898 8                 112262166.588 8
E03  25991432.234 7  25991436.547 8 136585905.207 7 103326368.157 8
E05  22131748.484 8  22131750.691 8 116303123.718 8  87982566.012 8
E09  25836128.305 4  25836128.895 7 135769933.577 4 102708951.001 7
E15  25181843.578 7  25181846.566 8 132331474.355 7 100107921.858 8
E34  23331995.430 8  23331997.207 9 122610461.064 8  92754022.648 9
E36  26044488.406 5  26044493.121 6 136864702.060 5 103537272.62816
G01  20423676.055 7                  20423680.867 8 107327138.723 7                  83631553.675 8
G02  22443752.891 7  22443755.801 5                 117942715.333 7  91903419.809 5
G03  19943938.375 7                  19943944.348 7 104806100.960 7                  81667118.788 7
G04  22031356.063 7                  22031361.480 7 115775558.989 7                  90214749.275 7
G17  22333166.016 7                  22333171.766 7 117361587.520 7                  91450752.578 7
G19  22680102.336 7  22680104.953 5                 119184742.601 7  92871541.112 5
G28  23190772.008 7                  23190776.559 7 121868347.961 7                  94962353.846 7
G31  22849116.055 6                  22849120.047 6 120072882.392 6                  93563328.721 6
R03  19341790.922 8  19341795.074 8 103538108.288 8  80529717.184 8
R04  20316255.867 8  20316260.680 7 108792633.614 8  84616820.269 7
R18  19913879.969 8  19913882.891 7 106301647.343 8  82679011.238 7
R19  19738200.961 8  19738203.059 7 105586062.452 8  82122772.618 7
> 2025 06 15 13 49  0.0000000  0 23
C06  38644174.523 6  38644171.910 7 201230375.305 6 155604090.629 7
C11  24519907.578 7  24519904.805 7 127681598.898 7  98731510.418 7
C12  22117074.922 7  22117071.438 7 115169414.423 7  89056387.081 7
C16  39133157.211 6  39133159.609 7 203776622.163 6 157573012.680 7
C21  23274090.930 7                 121194298.802 7
C22  21558059.789 8                 112258472.463 8
E03  25987327.906 7  25987332.223 8 136564336.513 7 103310051.614 8
E05  22129783.664 8  22129785.551 8 116292796.919 8  87974753.853 8
E15  25178395.008 7  25178398.527 8 132313354.595 7 100094214.376 8
E34  23330935.672 8  23330937.852 8 122604894.147 8  92749811.310 8
E36  26045537.836 5  26045543.063 6 136870220.374 5 103541447.184 6
G01  20423520.266 7                  20423525.133 8 107326321.268 7                  83630916.675 8
G02  22444925.727 7  22444928.262 5                 117948879.030 7  91908222.686 5
G03  19942169.516 8                  19942176.344 8 104796808.072 8                  81659877.583 8
G04  22027066.758 7                  22027073.094 7 115753021.174 7                  90197187.369 7
G17  22331962.375 7                  22331967.527 7 117355260.379 7                  91445822.352 7
G19  22676986.016 7  22676989.188 5                 119168370.597 7  92858783.702 5
G28  23189261.125 7                  23189265.781 7 121860406.652 7                  94956165.801 7
G31  22845839.875 6                  22845844.445 6 120055671.125 6                  93549917.371 6
R03  19341424.500 8  19341429.246 7 103536152.896 8  80528196.338 7
R04  20312491.289 8  20312495.914 7 108772475.372 8  84601141.664 7
R18  19914879.406 8  19914883.449 7 106306986.722 8  82683164.073 7
R19  19735184.914 8  19735186.898 7 105569928.659 8  82110224.114 7
> 2025 06 15 13 49  5.0000000  0 24
C06  38641990.117 5  38641988.281 6 201219004.040 5 155595297.659 6
C11  24516110.516 6  24516108.461 7 127661828.837 6  98716222.974 7
C12  22116136.734 7  22116133.363 7 115164528.443 7  89052608.935 7
C16  39131131.828 6  39131134.230 7 203766075.362 6 157564857.223 7
C21  23270620.828 7                 121176229.404 7
C22  21557352.797 8                 112254790.830 8
E03  25983224.594 7  25983229.309 8 136542775.557 7 103293740.918 8
E05  22127821.016 8  22127823.020 8 116282483.832 8  87966952.082 8
E09  25837476.945 4                 135776882.88614
E15  25174948.766 8  25174951.910 8 132295242.131 8 100080512.422 8
E34  23329878.992 8  23329880.746 8 122599339.035 8  92745608.897 8
E36  26046589.422 5  26046594.695 6 136875746.401 5 103545627.545 6
G01  20423368.328 7                  20423372.473 8 107325519.811 7                  83630292.162 8
G02  22446100.891 7  22446103.633 5                 117955053.431 7  91913033.914 5
G03  19940404.336 7                  19940410.508 7 104787529.064 7                  81652647.186 7
G04  22022780.109 7                  22022786.387 7 115730494.984 7                  90179634.486 7
G17  22330762.289 7                  22330766.922 7 117348951.335 7                  91440906.190 7
G19  22673874.164 7  22673877.059 5                 119152016.953 7  92846040.609 5
G28  23187753.023 7                  23187758.313 7 121852484.630 7                  94949992.799 7
G31  22842567.844 5                  22842571.832 6 120038476.521 5                  93536519.027 6
R03  19341061.984 8  19341067.633 7 103534215.905 8  80526689.814 7
R04  20308730.586 8  20308734.918 7 108752333.707 8  84585475.905 7
R18  19915883.891 8  19915887.758 7 106312346.382 8  82687332.696 7
R19  19732173.156 8  19732175.590 7 105553816.151 8  82097692.182 7
> 2025 06 15 13 49 10.0000000  0 24
C06  38639808.922 6  38639805.789 7 201207639.585 6 155586509.972 7
C11  24512315.414 6  24512313.813 7 127642069.297 6  98700943.659 7
C12  22115200.734 7  22115198.277 7 115159658.734 7  89048843.373 7
C16  39129107.539 6  39129110.504 7 203755535.327 6 157556706.999 7
C21  23267152.547 7                 121158169.838 7
C22  21556648.219 7                 112251121.099 7
E03  25979123.289 7  25979127.797 8 136521221.769 7 103277435.629 8
E05  22125860.758 8  22125863.020 8 116272183.971 8  87959160.311 8
E09  25838152.289 6  25838152.813 7 135780438.135 6 102716997.16617
E15  25171503.359 7  25171506.523 8 132277136.422 7 100066815.584 8
E34  23328823.898 8  23328825.770 8 122593795.141 8  92741414.979 8
E36  26047642.078 5  26047647.621 6 136881279.591 5 103549813.303 6
G01  20423219.063 7                  20423222.625 8 107324733.856 7                  83629679.703 8
G02  22447277.953 7  22447280.742 5                 117961238.083 7  91917853.109 5
G03  19938641.227 8                  19938647.125 7 104778263.348 8                  81645427.146 7
G04  22018495.430 7                  22018501.859 7 115707979.853 7                  90162090.256 7
G17  22329564.813 7                  22329569.676 7 117342659.843 7                  91436003.694 7
G19  22670765.813 7  22670767.992 5                 119135681.116 7  92833311.392 5
G28  23186248.547 7                  23186254.184 7 121844581.383 7                  94943834.425 7
G31  22839297.023 5                  22839302.965 5 120021297.999 5                  93523133.205 5
R03  19340703.438 8  19340708.805 7 103532296.650 8  80525197.065 7
R04  20304972.406 8  20304976.859 7 108732207.748 8  84569822.410 7
R18  19916891.391 8  19916895.703 7 106317725.681 8  82691516.578 7
R19  19729165.477 8  19729166.703 7 105537724.518 8  82085176.453 7
> 2025 06 15 13 49 15.0000000  0 24
C06  38637627.570 6  38637624.699 7 201196279.684 6 155577725.734 7
C11  24508522.703 6  24508520.973 7 127622318.105 6  98685670.807 7
C12  22114268.852 7  22114265.934 7 115154803.150 7  89045088.729 7
C16  39127083.563 6  39127087.152 7 203744999.853 6 157548560.314 7
C21  23263685.016 7                 121140118.005 7
C22  21555945.453 7                 112247461.156 7
E03  25975022.570 7  25975027.238 8 136499673.001 7 103261134.140 8
E05  22123902.961 8  22123905.145 8 116261895.172 8  87951376.904 8
E09  25838829.383 5  25838830.910 7 135784000.390 5 102719691.946 7
E15  25168058.406 7  25168062.012 8 132259035.352 7 100053122.247 8
E34  23327770.617 8  23327772.563 8 122588260.351 8  92737227.949 8
E36  26048696.594 5  26048701.543 7 136886817.768 5 103554002.917 7
G01  20423072.000 8                  20423075.926 8 107323961.210 8                  83629077.654 8
G02  22448456.820 7  22448458.824 5                 117967430.777 7  91922678.591 5
G03  19936879.750 8                  19936885.867 7 104769008.778 8                  81638215.801 7
G04  22014212.406 7                  22014218.738 7 115685473.685 7                  90144552.981 7
G17  22328370.789 7                  22328375.316 7 117336383.688 7                  91431113.193 7
G19  22667660.305 7  22667662.176 5                 119119360.977 7  92820594.396 5
G28  23184748.023 7                  23184753.734 7 121836694.746 7                  94937688.975 7
G31  22836029.906 5                  22836036.918 6 120004133.530 5                  93509758.276 6
R03  19340347.461 8  19340353.586 7 103530393.184 8  80523716.602 7
R04  20301216.875 8  20301221.090 7 108712095.587 8  84554179.628 7
R18  19917902.117 8  19917906.551 7 106323122.495 8  82695714.107 7
R19  19726160.219 8  19726162.363 7 105521651.452 8  82072675.186 7
> 2025 06 15 13 49 20.0000000  0 24
C06  38635446.430 6  38635444.102 7 201184925.354 6 155568945.848 7
C11  24504732.172 6  24504730.648 7 127602576.259 6  98670405.193 7
C12  22113339.328 7  22113335.879 7 115149962.679 7  89041345.764 7
C16  39125062.758 6  39125064.668 6 203734469.997 6 157540417.958 6
C21  23260220.438 7                 121122074.830 7
C22  21555244.875 7                 112243812.001 7
E03  25970922.781 7  25970927.715 8 136478130.280 7 103244837.234 8
E05  22121947.180 8  22121949.563 8 116251618.406 8  87943602.604 8
E09  25839509.977 5  25839510.352 7 135787570.663 5 102722392.805 7
E15  25164615.180 7  25164618.645 8 132240939.896 7 100039433.160 8
E34  23326719.344 8  23326721.219 8 122582735.659 8  92733048.546 8
E36  26049752.516 5  26049756.484 6 136892361.979 5 103558197.038 6
G01  20422927.109 7                  20422931.684 8 107323202.869 7                  83628486.758 8
G02  22449637.000 7  22449638.484 5                 117973632.492 7  91927511.063 5
G03  19935120.742 7                  19935127.172 7 104759766.397 7                  81631013.940 7
G04  22009931.766 7                  22009938.023 7 115662977.502 7                  90127023.486 7
G17  22327179.047 7                  22327184.109 7 117330123.868 7                  91426235.383 7
G19  22664557.789 7  22664560.004 5                 119103057.493 7  92807890.391 5
G28  23183250.391 7                  23183255.691 7 121828825.727 7                  94931557.270 7
G31  22832769.188 5                  22832773.715 6 119986984.068 5                  93496395.067 6
R03  19339996.273 8  19340000.895 7 103528506.444 8  80522249.125 7
R04  20297462.344 8  20297467.891 7 108691998.275 8  84538548.396 7
R18  19918916.047 8  19918921.141 7 106328537.811 8  82699926.017 7
R19  19723158.555 8  19723161.172 7 105505597.975 8  82060189.141 7
> 2025 06 15 13 49 25.0000000  0 24
C06  38633266.594 5  38633264.559 7 201173576.367 5 155560170.111 7
C11  24500942.141 6  24500940.598 7 127582843.609 6  98655146.652 7
C12  22112412.406 7  22112409.512 7 115145137.039 7  89037614.267 7
C16  39123041.570 6  39123043.594 7 203723945.503 6 157532279.767 7
C21  23256757.711 7                 121104040.104 7
C22  21554545.945 7                 112240173.354 7
E03  25966825.547 7  25966829.285 8 136456593.330 7 103228544.682 8
E05  22119994.203 8  22119996.258 8 116241353.457 8  87935837.229 8
E09  25840189.711 6  25840191.359 7 135791148.596 6 102725099.560 7
E15  25161172.445 7  25161176.203 8 132222849.822 7 100025748.134 8
E34  23325670.039 8  23325671.793 8 122577220.777 8  92728876.574 8
E36  26050809.000 5  26050812.516 7 136897911.876 5 103562395.531 7
G01  20422785.594 7                  20422790.332 8 107322458.594 7                  83627906.807 8
G02  22450817.922 7  22450820.262 5                 117979842.995 7  91932350.410 5
G03  19933364.000 7                  19933370.887 7 104750535.922 7                  81623821.363 7
G04  22005653.141 7                  22005658.738 7 115640490.977 7                  90109501.539 7
G17  22325990.930 7                  22325996.328 7 117323880.138 7                  91421370.142 7
G19  22661457.945 7  22661460.648 5                 119086770.450 7  92795199.204 5
G28  23181756.289 7                  23181762.172 7 121820974.075 7                  94925439.108 7
G31  22829508.680 6                  22829511.961 5 119969849.274 6                  93483043.224 5
R03  19339646.211 8  19339651.242 7 103526635.946 8  80520794.301 7
R04  20293712.656 8  20293717.328 7 108671915.321 8  84522928.323 7
R18  19919933.352 8  19919938.949 7 106333971.328 8  82704152.083 7
R19  19720161.961 8  19720164.012 7 105489563.943 8  82047718.234 7
> 2025 06 15 13 49 30.0000000  0 24
C06  38631088.555 5  38631086.305 7 201162232.819 5 155551398.585 7
C11  24497155.930 6  24497152.992 7 127563120.267 6  98639895.332 7
C12  22111488.602 7  22111485.555 7 115140326.479 7  89033894.431 7
C16  39121021.820 6  39121023.297 6 203713426.509 6 157524145.814 6
C21  23253295.805 7                 121086014.036 7
C22  21553849.563 7                 112236545.405 7
E03  25962727.828 7  25962732.156 8 136435062.348 7 103212256.640 8
E05  22118043.031 8  22118045.215 8 116231100.475 8  87928080.916 8
E09  25840871.406 5  25840873.891 7 135794734.514 5 102727812.306 7
E15  25157731.367 7  25157734.887 8 132204765.324 7 100012067.337 8
E34  23324622.406 8  23324624.285 8 122571715.934 8  92724712.196 8
E36  26051866.586 6  26051869.789 7 136903467.747 6 103566598.474 7
G01  20422646.391 7                  20422651.668 8 107321728.535 7                  83627337.934 8
G02  22452001.945 7  22452003.859 5                 117986062.451 7  91937196.714 5
G03  19931610.375 7                  19931616.410 7 104741317.517 7                  81616638.181 7
G04  22001375.297 7                  22001381.848 7 115618014.367 7                  90091987.312 7
G17  22324805.352 7                  22324810.398 7 117317652.688 7                  91416517.574 7
G19  22658362.180 7  22658364.660 5                 119070500.030 7  92782520.968 5
G28  23180265.281 7                  23180271.484 7 121813139.961 7                  94919334.628 7
G31  22826251.039 6                  22826254.383 5 119952729.395 6                  93469703.116 5
R03  19339299.469 8  19339305.180 8 103524782.033 8  80519352.362 8
R04  20289965.063 8  20289969.969 7 108651847.038 8  84507319.643 7
R18  19920954.836 8  19920960.094 7 106339423.247 8  82708392.425 7
R19  19717167.688 8  19717170.430 7 105473549.454 8  82035262.542 7
> 2025 06 15 13 49 35.0000000  0 24
C06  38628911.023 5  38628908.543 7 201150894.352 5 155542630.970 7
C11  24493369.281 6  24493367.262 7 127543405.749 6  98624650.830 7
C12  22110568.258 7  22110564.762 7 115135530.439 7  89030185.834 7
C16  39119001.914 6  39119004.504 7 203702912.567 6 157516015.745 7
C21  23249835.383 7                 121067996.105 7
C22  21553153.719 7                 112232927.665 7
E03  25958631.344 7  25958635.945 8 136413536.838 7 103195972.762 8
E05  22116094.172 8  22116096.301 8 116220858.975 8  87920333.290 8
E09  25841554.984 5  25841557.539 7 135798327.842 5 102730530.657 7
E15  25154290.508 7  25154294.418 8 132186685.883 7  99998390.361 8
E34  23323576.961 8  23323578.563 8 122566220.627 8  92720555.031 8
E36  26052924.031 6  26052927.852 6 136909029.047 6 103570805.562 6
G01  20422510.359 7                  20422515.129 8 107321012.236 7                  83626779.768 8
G02  22453186.547 7  22453189.473 5                 117992290.361 7  91942049.630 5
G03  19929857.789 7                  19929864.551 7 104732110.703 7                  81609464.058 7
G04  21997100.883 7                  21997106.457 7 115595547.166 7                  90074480.410 7
G17  22323624.617 7                  22323628.359 7 117311441.069 7                  91411677.351 7
G19  22655269.945 7  22655271.395 5                 119054245.740 7  92769855.294 5
G28  23178777.781 7                  23178783.438 7 121805322.904 7                  94913243.395 7
G31  22822997.688 6                  22823000.113 5 119935624.071 6                  93456374.311 5
R03  19338957.391 8  19338962.070 7 103522944.074 8  80517922.834 7
R04  20286219.766 8  20286224.449 7 108631793.021 8  84491722.086 7
R18  19921980.195 7  19921984.617 7 106344893.062 7  82712646.705 7
R19  19714178.172 8  19714179.992 7 105457554.043 8  82022821.659 7
> 2025 06 15 13 49 40.0000000  0 25
C06  38626735.164 6  38626732.195 7 201139560.177 6 155533866.670 7
C11  24489584.469 7  24489582.176 7 127523699.337 7  98609412.565 7
C12  22109650.359 7  22109646.176 7 115130748.228 7  89026487.933 7
C16  39116984.797 6  39116986.082 6 203692402.946 6 157507889.058 6
C21  23246376.570 7                 121049985.613 7
C22  21552461.258 7                 112229319.364 7
E03  25954536.719 7  25954540.672 8 136392016.093 7 103179692.463 8
E05  22114147.594 7  22114149.457 8 116210628.219 7  87912593.784 8
E09  25842239.125 5  25842242.633 7 135801927.879 5 102733254.058 7
E15  25150851.031 7  25150854.863 8 132168610.778 7  99984716.670 8
E34  23322532.977 8  23322534.539 8 122560734.125 8  92716404.520 8
E36  26053983.063 6  26053986.840 6 136914595.011 6 103575016.143 6
G01  20422376.359 7                  20422381.121 8 107320308.962 7                  83626231.757 8
G02  22454373.656 7  22454376.008 5                 117998525.995 7  91946908.542 5
G03  19928107.750 7                  19928114.801 7 104722914.754 7                  81602298.398 7
G04  21992827.133 7                  21992832.629 7 115573088.655 7                  90056980.279 7
G17  22322445.398 7                  22322449.121 7 117305244.476 7                  91406848.869 7
G19  22652179.289 7  22652181.363 5                 119038006.854 7  92757201.611 5
G28  23177294.266 7                  23177299.242 7 121797522.181 7                  94907164.896 7
G31  22819743.938 6                  22819747.555 5 119918532.417 6                  93443056.193 5
R03  19338617.594 8  19338621.434 7 103521121.348 8  80516505.156 7
R04  20282478.016 8  20282482.078 7 108611752.452 8  84476134.989 7
R17  23523138.477 5                 125877061.92315
R18  19923008.375 7  19923012.496 7 106350380.021 7  82716914.330 7
R19  19711190.789 8  19711193.191 7 105441576.941 8  82010395.017 7
> 2025 06 15 13 49 45.0000000  0 26
C06  38624559.977 6  38624556.695 7 201128231.567 6 155525106.684 7
C11  24485802.445 7  24485799.586 7 127504002.291 7  98594181.570 7
C12  22108735.109 7  22108730.445 7 115125981.088 7  89022801.667 7
C16  39114966.609 6  39114968.379 6 203681898.816 6 157499766.580 6
C21  23242919.438 7                 121031983.771 7
C22  21551770.672 8                 112225721.759 8
E03  25950442.320 7  25950446.559 8 136370501.354 7 103163416.710 8
E05  22112203.250 8  22112204.887 8 116200409.500 8  87904863.382 8
E09  25842926.727 6  25842929.203 7 135805535.857 6 102735983.486 7
E15  25147412.750 7  25147416.391 8 132150541.302 7  99971047.235 8
E34  23321490.531 8  23321492.469 8 122555257.671 8  92712261.617 8
E36  26055045.016 6  26055046.984 6 136920166.921 6 103579231.250 6
G01  20422245.297 7                  20422250.387 8 107319619.949 7                  83625694.841 8
G02  22455561.414 7  22455564.461 5                 118004770.575 7  91951774.438 5
G03  19926360.727 7                  19926367.305 7 104713730.906 7                  81595142.152 7
G04  21988554.453 7                  21988561.230 7 115550640.119 7                  90039487.904 7
G17  22321269.172 7                  22321273.039 7 117299064.203 7                  91402033.071 7
G19  22649091.539 7  22649094.914 5                 119021784.648 7  92744560.937 5
G28  23175812.203 6                  23175818.438 7 121789739.063 6                  94901100.127 7
G31  22816493.930 5                  22816498.836 5 119901455.665 5                  93429749.698 5
R02  22800680.031 5                 121668953.06115
R03  19338280.086 8  19338284.039 7 103519315.299 8  80515100.444 7
R04  20278738.078 8  20278742.910 7 108591726.496 8  84460559.278 7
R17  23525954.039 5  23525958.801 5 125892143.513 5
R18  19924039.148 7  19924044.105 7 106355885.347 7  82721196.254 7
R19  19708207.305 8  19708210.281 7 105425619.540 8  81997983.708 7
> 2025 06 15 13 49 50.0000000  0 25
C06  38622385.031 6  38622382.254 7 201116909.313 6 155516351.607 7
C11  24482021.781 7  24482018.613 7 127484315.482 7  98578958.461 7
C12  22107822.250 7  22107817.840 7 115121229.853 7  89019127.693 7
C16  39112951.219 6  39112952.305 6 203671401.106 6 157491649.056 6
C21  23239464.727 7                 121013991.413 7
C22  21551081.219 7                 112222135.665 7
E03  25946349.633 7  25946353.727 8 136348993.464 7 103147146.131 8
E05  22110261.086 8  22110262.730 8 116190203.585 8  87897142.678 8
E09  25843614.188 5  25843617.672 7 135809152.576 5 102738719.530 7
E15  25143975.680 7  25143979.090 8 132132478.238 7  99957382.644 8
E34  23320450.203 8  23320452.359 8 122549792.100 8  92708126.945 8
E36  26056104.305 6  26056108.609 6 136925745.624 6 103583451.471 6
G01  20422117.352 8                  20422121.711 8 107318946.023 8                  83625169.704 8
G02  22456751.438 7  22456754.953 5                 118011024.887 7  91956647.904 5
G03  19924615.438 7                  19924622.109 7 104704560.016 7                  81587996.001 7
G04  21984285.656 7                  21984291.539 7 115528202.339 7                  90022003.928 7
G17  22320096.117 7                  22320100.086 7 117292901.044 7                  91397230.627 7
G19  22646007.602 7  22646011.125 5                 119005579.926 7  92731933.899 5
G28  23174335.305 6                  23174340.676 7 121781974.264 6                  94895049.641 7
G31  22813247.578 5                  22813253.051 5 119884394.866 5                  93416455.624 5
R03  19337945.461 8  19337950.059 7 103517526.644 8  80513709.258 7
R04  20275002.758 8  20275006.211 7 108571716.231 8  84444995.742 7
R17  23528773.250 5  23528776.656 4 125907230.895 5  97927855.10614
R18  19925074.422 8  19925078.184 7 106361409.940 8  82725493.168 7
R19  19705228.375 8  19705231.160 7 105409682.556 8  81985588.288 7
> 2025 06 15 13 49 55.0000000  0 26
C06  38620212.211 6  38620209.098 7 201105593.146 6 155507601.233 7
C11  24478242.680 7  24478240.488 7 127464638.696 7  98563743.111 7
C12  22106912.992 7  22106908.879 7 115116494.271 7  89015465.833 7
C16  39110936.328 6  39110937.410 6 203660909.517 6 157483536.316 6
C21  23236011.297 7                 120996008.349 7
C22  21550395.672 7                 112218560.870 7
E03  25942258.313 7  25942262.211 8 136327492.208 7 103130880.588 8
E05  22108320.891 8  22108322.988 8 116180010.277 8  87889431.509 8
E09  25844303.938 5  25844307.484 7 135812777.925 5 102741462.006 7
E15  25140539.234 7  25140542.883 8 132114421.402 7  99943722.777 8
E34  23319411.930 8  23319414.305 8 122544337.183 8  92704000.343 8
E36  26057165.891 6  26057171.441 6 136931330.884 6 103587676.665 6
G01  20421991.727 8                  20421996.219 8 107318286.960 8                  83624656.129 8
G02  22457942.625 6  22457946.652 5                 118017288.755 6  91961528.854 5
G03  19922872.609 8                  19922879.746 8 104695401.838 8                  81580859.764 8
G04  21980017.023 7                  21980023.652 7 115505775.167 7                  90004528.216 7
G17  22318927.078 7                  22318930.449 7 117286754.813 7                  91392441.354 7
G19  22642927.742 7  22642931.172 5                 118989392.529 7  92719320.337 5
G28  23172861.453 7                  23172866.191 7 121774227.686 7                  94889013.358 7
G31  22810003.484 6                  22810009.551 5 119867349.775 6                  93403173.703 5
R02  22805172.016 5                 121692928.03015
R03  19337615.086 8  19337619.176 7 103515755.183 8  80512331.452 7
R04  20271267.984 8  20271272.238 7 108551721.349 8  84429444.178 7
R17  23531598.031 5                 125922323.584 5
R18  19926112.031 8  19926117.066 7 106366953.486 8  82729804.796 7
R19  19702252.664 8  19702255.277 7 105393765.854 8  81973208.634 7
> 2025 06 15 13 50  0.0000000  0 26
C06  38618040.125 6  38618037.152 7 201094281.649 6 155498854.465 7
C11  24474465.531 7  24474463.676 7 127444970.362 7  98548534.315 7
C12  22106004.938 7  22106001.754 7 115111772.916 7  89011814.975 7
C16  39108923.148 6  39108923.836 7 203650422.589 6 157475427.175 7
C19  25165525.141 5                 131043524.69615
C21  23232559.422 7                 120978033.071 7
C22  21549710.625 7                 112214995.877 7
E03  25938167.617 7  25938171.559 8 136305996.081 7 103114618.924 8
E05  22106382.977 8  22106385.359 8 116169828.103 8  87881728.770 8
E09  25844994.242 5  25844998.613 7 135816410.243 5 102744209.849 7
E15  25137103.898 7  25137107.648 8 132096369.313 7  99930066.493 8
E34  23318376.016 8  23318378.039 9 122538891.454 8  92699880.682 9
E36  26058229.828 6  26058235.063 6 136936921.202 6 103591905.664 6
G01  20421868.289 7                  20421873.281 8 107317641.249 7                  83624153.001 8
G02  22459137.438 6  22459140.453 5                 118023560.743 6  91966416.079 5
G03  19921132.578 8                  19921139.188 8 104686254.900 8                  81573732.268 8
G04  21975751.008 7                  21975757.855 7 115483357.053 7                  89987059.576 7
G17  22317759.047 7                  22317763.629 7 117280624.005 7                  91387664.102 7
G19  22639850.945 7  22639853.902 5                 118973220.974 7  92706719.123 5
G28  23171390.672 7                  23171394.988 7 121766497.845 7                  94882990.086 7
G31  22806761.734 5                  22806768.250 5 119850318.791 5                  93389902.853 5
R03  19337287.070 8  19337291.168 7 103513999.260 8  80510965.723 7
R04  20267535.852 8  20267540.855 7 108531740.282 8  84413903.328 7
R17  23534416.273 5  23534415.117 4 125937420.212 5  97951316.63414
R18  19927153.773 8  19927159.000 7 106372514.521 8  82734130.051 7
R19  19699281.148 8  19699283.484 7 105377867.871 8  81960843.534 7
> 2025 06 15 13 50  5.0000000  0 26
C06  38615869.133 6  38615866.023 7 201082976.011 6 155490112.219 7
C11  24470690.414 7  24470687.809 7 127425311.799 7  98533333.065 7
C12  22105100.875 7  22105097.949 7 115107066.904 7  89008175.992 7
C16  39106910.180 6  39106910.914 7 203639941.527 6 157467322.558 7
C19  25166950.766 4                 131050950.958 4
C21  23229109.172 7                 120960066.771 7
C22  21549028.422 7                 112211441.877 7
E03  25934078.805 7  25934082.184 8 136284506.319 7 103098362.056 8
E05  22104447.867 8  22104450.090 8 116159658.194 8  87874035.302 8
E09  25845687.734 5  25845691.301 7 135820050.695 5 102746963.830 7
E15  25133669.836 7  25133673.570 8 132078323.200 7  99916414.724 8
E34  23317341.547 8  23317343.750 8 122533456.103 8  92695768.873 8
E36  26059294.641 5  26059300.098 6 136942517.677 5 103596139.352 6
G01  20421748.469 7                  20421752.980 8 107317010.104 7                  83623661.205 8
G02  22460332.055 6  22460335.898 4                 118029841.915 6  91971310.485 4
G03  19919394.336 8                  19919400.660 7 104677120.387 8                  81566614.456 7
G04  21971487.867 7                  21971493.887 7 115460949.236 7                  89969598.948 7
G17  22316595.977 7                  22316600.680 7 117274509.784 7                  91382899.769 7
G19  22636775.961 7  22636779.156 5                 118957066.405 7  92694131.164 5
G28  23169923.523 7                  23169927.371 7 121758785.886 7                  94876980.788 7
G31  22803524.719 4                  22803527.527 4 119833303.061 4                  93376643.754 4
R03  19336961.961 8  19336965.828 7 103512260.272 8  80509613.178 7
R04  20263808.461 8  20263812.168 7 108511774.190 8  84398374.160 7
R17  23537236.820 5  23537238.715 4 125952521.884 5  97963062.341 4
R18  19928199.742 8  19928204.305 7 106378094.268 8  82738469.835 7
R19  19696313.766 8  19696314.793 7 105361989.898 8  81948494.007 7
> 2025 06 15 13 50 10.0000000  0 24
C06  38613698.672 6  38613695.477 7 201071675.705 6 155481374.130 7
C11  24466916.742 7  24466914.344 7 127405662.390 7  98518138.898 7
C12  22104200.336 7  22104197.445 7 115102375.753 7  89004548.503 7
C16  39104899.320 6  39104899.141 7 203629465.789 6 157459222.050 7
C19  25168376.641 4                 131058380.29514
C21  23225659.969 7                 120942108.929 7
C22  21548347.617 7                 112207898.319 7
E03  25929989.672 7  25929993.879 8 136263022.345 7 103082109.572 8
E05  22102515.172 8  22102517.027 8 116149500.116 8  87866350.773 8
E09  25846381.844 5  25846385.523 7 135823698.930 5 102749723.655 7
E15  25130236.742 7  25130240.457 8 132060282.436 7  99902767.020 8
E34  23316309.109 8  23316311.293 8 122528030.570 8  92691664.497 8
E36  26060362.258 5  26060366.324 6 136948119.856 5 103600377.338 6
G01  20421630.789 7                  20421635.188 8 107316392.980 7                  83623180.340 8
G02  22461529.422 7  22461532.777 5                 118036131.810 7  91976211.705 5
G03  19917658.805 7                  19917664.277 7 104667997.745 7                  81559505.893 7
G04  21967224.750 7                  21967231.031 7 115438551.171 7                  89952145.927 7
G17  22315435.391 7                  22315440.305 7 117268411.618 7                  91378147.951 7
G19  22633705.281 7  22633707.996 5                 118940928.333 7  92681556.063 5
G28  23168458.344 7                  23168462.902 7 121751091.293 7                  94870985.006 7
R03  19336640.539 8  19336643.539 7 103510537.526 8  80508273.255 7
R04  20260082.648 8  20260085.910 7 108491822.657 8  84382856.303 7
R18  19929248.766 8  19929252.977 7 106383692.153 8  82742823.732 7
R19  19693349.156 8  19693350.707 7 105346131.390 8  81936159.610 7
> 2025 06 15 13 50 15.0000000  0 24
C06  38611530.648 6  38611526.480 7 201060379.588 6 155472639.268 7
C11  24463145.594 7  24463142.820 7 127386021.073 7  98502951.015 7
C12  22103302.203 7  22103299.051 7 115097698.311 7  89000931.608 7
C16  39102887.922 6  39102888.348 7 203618994.315 6 157451124.838 7
C19  25169804.320 4                 131065811.38714
C21  23222212.430 7                 120924158.465 7
C22  21547669.531 7                 112204364.136 7
E03  25925902.883 7  25925906.473 8 136241543.122 7 103065860.672 8
E05  22100584.023 8  22100586.023 8 116139352.673 8  87858674.307 8
E09  25847077.602 5  25847080.848 7 135827353.673 5 102752488.456 7
E15  25126804.414 7  25126808.324 8 132042246.012 7  99889122.586 8
E34  23315277.969 8  23315280.480 8 122522613.791 8  92687566.748 8
E36  26061428.953 5  26061433.277 6 136953726.668 5 103604618.826 6
G01  20421515.992 7                  20421520.531 8 107315788.777 7                  83622709.554 8
G02  22462727.594 7  22462731.188 5                 118042429.298 7  91981118.852 5
G03  19915924.453 8                  19915930.176 7 104658885.883 8                  81552405.754 7
G04  21962964.578 7                  21962970.770 7 115416161.805 7                  89934699.680 7
G17  22314277.609 7                  22314282.723 7 117262328.470 7                  91373407.857 7
G19  22630637.031 7  22630640.480 5                 118924805.683 7  92668992.955 5
G28  23166997.859 7                  23167001.707 7 121743412.938 7                  94865001.869 7
R03  19336320.828 8  19336324.742 7 103508829.910 8  80506945.140 7
R04  20256359.219 8  20256363.047 7 108471884.699 8  84367349.018 7
R18  19930300.133 8  19930304.625 7 106389306.979 8  82747190.821 7
R19  19690387.484 8  19690389.430 7 105330291.333 8  81923839.548 7
> 2025 06 15 13 50 20.0000000  0 23
C06  38609362.422 6  38609357.695 7 201049087.023 6 155463907.154 7
C11  24459374.227 7  24459372.121 7 127366387.238 7  98487768.917 7
C12  22102405.984 7  22102403.684 7 115093033.972 7  88997324.843 7
C16  39100877.164 6  39100878.273 7 203608526.338 6 157443030.346 7
C21  23218766.258 7                 120906214.680 7
C22  21546992.422 7                 112200838.610 7
E03  25921815.945 7  25921819.906 8 136220067.891 7 103049614.810 8
E05  22098655.008 8  22098656.926 8 116129215.226 8  87851005.396 8
E09  25847773.484 5  25847777.457 7 135831014.235 5 102755257.657 7
E15  25123372.703 7  25123376.797 8 132024213.219 7  99875480.904 8
E34  23314248.375 8  23314251.207 8 122517205.060 8  92683475.081 8
E36  26062496.117 5  26062501.063 6 136959337.460 5 103608863.311 6
G01  20421403.258 7                  20421407.992 8 107315196.844 7                  83622248.290 8
G02  22463927.648 7  22463930.930 5                 118048733.677 7  91986031.354 5
G03  19914191.961 8                  19914198.430 7 104649784.132 8                  81545313.491 7
G04  21958705.688 7                  21958711.668 7 115393780.443 7                  89917259.666 7
G17  22313122.938 7                  22313127.660 6 117256259.619 7                  91368678.864 6
G19  22627570.727 7  22627575.602 5                 118908697.750 7  92656441.318 5
G28  23165539.508 7                  23165543.934 7 121735750.209 7                  94859030.903 7
R03  19336003.938 8  19336008.754 7 103507136.580 8  80505628.103 7
R04  20252637.242 8  20252641.988 7 108451959.295 8  84351851.508 7
R18  19931355.516 8  19931359.730 7 106394938.069 8  82751570.540 7
R19  19687429.617 8  19687431.617 7 105314468.793 8  81911533.135 7
> 2025 06 15 13 50 25.0000000  0 23
C06  38607194.984 6  38607189.695 7 201037799.563 6 155455178.968 7
C11  24455605.867 7  24455603.930 7 127346762.405 7  98472593.778 7
C12  22101513.047 7  22101511.027 7 115088384.228 7  88993729.364 7
C16  39098867.844 6  39098868.898 7 203598063.499 6 157434939.809 7
C21  23215322.797 7                 120888279.140 7
C22  21546316.703 7                 112197323.314 7
E03  25917730.445 7  25917734.359 8 136198598.256 7 103033373.192 8
E05  22096727.758 8  22096730.078 8 116119089.343 8  87843345.232 8
E09  25848471.586 5  25848475.453 7 135834682.330 5 102758032.538 7
E15  25119942.055 7  25119946.297 8 132006185.637 7  99861843.164 8
E34  23313221.234 8  23313223.781 8 122511805.963 8  92679390.693 8
E36  26063565.039 5  26063569.984 6 136964953.582 5 103613111.885 6
G01  20421293.875 7                  20421297.871 8 107314618.680 7                  83621797.763 8
G02  22465128.633 7  22465132.086 5                 118055046.500 7  91990950.437 5
G03  19912462.375 8                  19912468.477 7 104640694.055 8                  81538230.318 7
G04  21954448.773 7                  21954454.660 7 115371408.649 7                  89899827.111 7
G17  22311971.047 7                  22311976.117 7 117250206.610 7                  91363962.240 7
G19  22624509.570 7  22624513.664 5                 118892606.100 7  92643902.379 5
G28  23164084.305 6                  23164088.844 7 121728104.603 6                  94853073.264 7
R03  19335691.164 8  19335695.379 7 103505459.429 8  80504323.658 7
R04  20248919.852 8  20248924.004 7 108432048.314 8  84336365.188 7
R18  19932414.594 8  19932418.035 7 106400587.048 8  82755964.183 7
R19  19684475.000 8  19684476.453 7 105298665.571 8  81899241.749 7
> 2025 06 15 13 50 30.0000000  0 24
C06  38605027.523 6  38605023.246 7 201026517.558 6 155446455.021 7
C11  24451839.211 7  24451837.340 7 127327146.882 7  98457425.838 7
C12  22100623.727 7  22100620.828 7 115083749.436 7  88990145.459 7
C16  39096858.945 6  39096860.645 7 203587606.114 6 157426853.481 7
C21  23211879.508 7                 120870352.168 7
C22  21545643.586 7                 112193818.547 7
E03  25913645.961 7  25913650.070 8 136177134.584 7 103017136.087 8
E05  22094803.172 8  22094805.453 8 116108975.345 8  87835694.066 8
E09  25849170.648 5  25849174.898 7 135838358.107 5 102760813.239 7
E15  25116512.805 7  25116516.766 8 131988163.596 7  99848209.616 8
E34  23312195.953 8  23312198.277 8 122506416.829 8  92675313.838 8
E36  26064636.758 5  26064640.051 6 136970575.548 5 103617364.858 6
G01  20421186.523 7                  20421190.449 8 107314054.672 7                  83621358.262 8
G02  22466331.953 7  22466334.793 5                 118061368.134 7  91995876.363 5
G03  19910735.000 8                  19910740.773 8 104631615.987 8                  81531156.488 8
G04  21950193.313 7                  21950199.301 7 115349046.769 7                  89882402.294 7
G17  22310821.734 7                  22310827.672 7 117244169.787 7                  91359258.215 7
G19  22621450.930 7  22621454.699 5                 118876531.128 7  92631376.434 5
G28  23162632.664 6                  23162637.266 7 121720476.464 6                  94847129.288 7
G31  22787379.469 5                                                                
R03  19335381.273 8  19335385.434 7 103503798.644 8  80503031.925 7
R04  20245204.086 8  20245208.313 7 108412151.916 8  84320890.224 7
R18  19933475.836 8  19933479.980 7 106406254.228 8  82760371.960 7
R19  19681524.258 8  19681526.570 7 105282882.058 8  81886965.698 7
> 2025 06 15 13 50 35.0000000  0 24
C06  38602862.289 6  38602857.609 7 201015241.169 6 155437735.401 7
C11  24448073.883 7  24448072.309 7 127307540.988 7  98442265.338 7
C12  22099736.500 7  22099733.738 7 115079129.844 7  88986573.284 7
C16  39094852.055 6  39094853.426 7 203577154.398 6 157418771.563 7
C21  23208438.813 7                 120852434.007 7
C22  21544972.586 7                 112190324.588 7
E03  25909563.195 7  25909566.953 8 136155677.117 7 103000903.660 8
E05  22092881.500 8  22092883.156 8 116098873.473 8  87828052.066 8
E09  25849872.188 5  25849875.836 7 135842041.846 5 102763599.980 7
E15  25113084.156 7  25113088.348 8 131970147.355 7  99834580.464 8
E34  23311172.320 8  23311174.707 8 122501037.879 8  92671244.693 8
E36  26065708.633 5  26065711.137 6 136976203.553 5 103621622.428 6
G01  20421081.836 8                  20421085.941 8 107313505.021 8                  83620929.938 8
G02  22467535.844 7  22467538.836 5                 118067698.806 7  92000809.347 5
G03  19909009.398 8                  19909015.695 7 104622550.129 8                  81524092.189 7
G04  21945939.281 7                  21945945.633 7 115326695.058 7                  89864985.390 7
G17  22309676.320 7                  22309681.754 7 117238149.384 7                  91354566.992 7
G19  22618394.945 7  22618398.648 5                 118860473.028 7  92618863.631 5
G28  23161183.883 6                  23161189.293 7 121712866.025 6                  94841199.089 7
G31  22784160.023 6                  22784152.199 4 119731506.01516                  93297290.83514
R03  19335074.070 8  19335078.891 8 103502154.494 8  80501753.156 8
R04  20241490.891 8  20241495.605 7 108392270.374 8  84305426.838 7
R18  19934540.430 8  19934544.992 7 106411939.844 8  82764794.075 7
R19  19678578.195 8  19678580.148 7 105267118.313 8  81874704.989 7
> 2025 06 15 13 50 40.0000000  0 24
C06  38600697.211 6  38600693.102 7 201003970.525 6 155429020.201 7
C11  24444310.117 7  24444308.777 7 127287944.742 7  98427112.273 7
C12  22098852.664 7  22098849.773 7 115074525.538 7  88983012.956 7
C16  39092845.891 6  39092847.430 7 203566708.433 6 157410694.080 7
C21  23204999.766 7                 120834524.749 7
C22  21544303.383 7                 112186841.465 7
E03  25905480.602 7  25905485.047 8 136134225.917 7 102984675.979 8
E05  22090961.477 8  22090963.188 8 116088783.827 8  87820419.312 8
E09  25850575.891 5  25850578.316 7 135845733.746 5 102766392.873 7
E15  25109657.250 7  25109661.094 8 131952136.984 7  99820955.732 8
E34  23310150.680 8  23310153.113 8 122495669.217 8  92667183.336 8
E36  26066780.758 5  26066783.340 7 136981837.692 5 103625884.608 7
G01  20420980.086 8                  20420984.535 8 107312969.810 8                  83620512.879 8
G02  22468743.148 7  22468745.043 5                 118074038.599 7  92005749.410 5
G03  19907286.633 8                  19907292.855 7 104613496.604 8                  81517037.521 7
G04  21941688.508 7                  21941694.262 7 115304353.598 7                  89847576.463 7
G17  22308533.836 7                  22308538.828 7 117232145.467 7                  91349888.630 7
G19  22615342.477 7  22615346.215 5                 118844431.922 7  92606364.096 5
G28  23159740.398 6                  23159744.488 7 121705273.427 6                  94835282.794 7
G31  22780936.117 5                                 119714592.435 5                
R03  19334769.781 8  19334774.441 7 103500526.781 8  80500487.150 7
R04  20237780.719 8  20237786.000 7 108372404.001 8  84289975.202 7
R18  19935608.852 8  19935614.242 7 106417643.980 8  82769230.649 7
R19  19675634.727 8  19675637.012 7 105251374.570 8  81862459.853 7
> 2025 06 15 13 50 45.0000000  0 24
C06  38598534.953 6  38598530.164 7 200992705.208 6 155420309.144 7
C11  24440548.578 7  24440547.082 7 127268357.718 7  98411966.360 7
C12  22097971.180 7  22097968.348 7 115069935.968 7  88979463.994 7
C16  39090840.234 6  39090842.418 7 203556267.716 6 157402620.643 7
C21  23201561.820 7                 120816623.902 7
C22  21543636.398 8                 112183368.681 8
E03  25901399.969 7  25901404.141 8 136112780.509 7 102968452.684 8
E05  22089043.086 8  22089045.332 8 116078705.869 8  87812795.388 8
E09  25851279.398 5  25851282.395 7 135849433.124 5 102769191.446 7
E15  25106230.711 7  25106234.824 8 131934132.005 7  99807335.082 8
E34  23309131.391 8  23309133.348 9 122490310.360 8  92663129.391 9
E36  26067851.633 6  26067856.520 7 136987477.470 6 103630151.051 7
G01  20420880.977 8                  20420885.152 8 107312448.546 8                  83620106.697 8
G02  22469950.844 7  22469952.902 5                 118080386.965 7  92010696.194 5
G03  19905565.602 7                  19905572.313 7 104604454.903 7                  81509992.049 7
G04  21937438.961 7                  21937445.016 7 115282021.909 7                  89830175.156 7
G17  22307394.313 7                  22307399.707 7 117226157.552 7                  91345222.696 7
G19  22612293.547 7  22612297.348 5                 118828407.317 7  92593877.405 5
G28  23158298.563 7                  23158303.152 7 121697698.112 7                  94829379.979 7
G31  22777720.055 5                                 119697693.650 5                
R03  19334468.148 8  19334473.559 7 103498915.257 8  80499233.728 7
R04  20234074.086 8  20234078.387 7 108352552.090 8  84274534.830 7
R18  19936681.016 8  19936685.965 7 106423366.072 8  82773681.163 7
R19  19672695.609 8  19672697.531 7 105235650.335 8  81850229.898 7
> 2025 06 15 13 50 50.0000000  0 24
C06  38596372.297 6  38596367.961 7 200981445.397 6 155411602.347 7
C11  24436788.938 7  24436787.711 7 127248780.205 7  98396827.792 7
C12  22097092.617 7  22097089.605 7 115065361.489 7  88975926.709 7
C16  39088836.391 6  39088838.707 7 203545832.600 6 157394551.569 7
C21  23198126.016 7                 120798731.762 7
C22  21542971.680 7                 112179906.572 7
E03  25897319.953 7  25897324.395 8 136091341.190 7 102952233.989 8
E05  22087127.719 8  22087129.852 8 116068639.925 8  87805180.580 8
E09  25851984.586 5  25851987.793 7 135853140.415 5 102771995.978 7
E15  25102806.164 7  25102809.703 8 131916132.732 7  99793718.757 8
E34  23308113.367 8  23308115.500 9 122484961.585 8  92659083.083 9
E36  26068925.914 6  26068930.723 7 136993123.139 6 103634421.930 7
G01  20420784.359 8                  20420788.520 8 107311941.527 8                  83619711.625 8
G02  22471160.656 7  22471162.570 5                 118086744.232 7  92015649.913 5
G03  19903847.766 7                  19903853.848 7 104595425.335 7                  81502956.009 7
G04  21933191.234 7                  21933197.051 7 115259700.294 7                  89812781.716 7
G17  22306258.406 7                  22306262.996 7 117220185.904 7                  91340569.465 7
G19  22609247.844 7  22609250.590 5                 118812399.493 7  92581403.787 5
G28  23156859.938 7                  23156865.309 7 121690140.432 7                  94823490.893 7
G31  22774506.688 5                                 119680810.049 5                
R03  19334171.070 8  19334175.211 7 103497320.201 8  80497993.114 7
R04  20230370.047 8  20230373.961 7 108332714.954 8  84259105.919 7
R18  19937756.008 8  19937760.992 7 106429106.464 8  82778145.932 7
R19  19669759.578 8  19669762.098 7 105219945.865 8  81838015.323 7
> 2025 06 15 13 50 55.0000000  0 24
C06  38594211.938 6  38594206.715 7 200970191.151 6 155402899.864 7
C11  24433031.523 7  24433029.934 7 127229212.208 7  98381696.612 7
C12  22096217.859 7  22096213.633 7 115060802.111 7  88972401.097 7
C16  39086833.477 6  39086835.934 7 203535403.052 6 157386486.789 7
C21  23194691.484 7                 120780848.384 7
C22  21542308.648 7                 112176455.129 7
E03  25893241.758 7  25893245.762 8 136069908.029 7 102936019.947 8
E05  22085214.781 8  22085216.645 8 116058585.984 8  87797574.851 8
E09  25852691.008 5  25852694.785 7 135856855.524 5 102774806.430 7
E15  25099381.641 7  25099385.590 8 131898139.167 7  99780106.733 8
E34  23307097.805 8  23307099.574 9 122479622.934 8  92655044.424 9
E36  26070000.609 5  26070006.211 7 136998774.754 5 103638697.341 7
G01  20420690.453 8                  20420694.918 8 107311448.784 8                  83619327.661 8
G02  22472372.188 7  22472374.039 5                 118093110.351 7  92020610.538 5
G03  19902132.195 7                  19902137.836 7 104586407.932 7                  81495929.431 7
G04  21928945.297 7                  21928951.988 7 115237388.778 7                  89795396.146 7
G17  22305125.258 7                  22305129.988 7 117214230.591 7                  91335928.982 7
G19  22606204.680 7  22606207.797 5                 118796408.522 7  92568943.311 5
G28  23155425.336 7                  23155431.074 7 121682600.407 7                  94817615.532 7
G31  22771297.078 5                                 119663941.685 5                
R03  19333875.484 8  19333880.410 7 103495741.667 8  80496765.358 7
R04  20226667.898 8  20226672.121 7 108312892.726 8  84243688.651 7
R18  19938835.047 8  19938839.543 7 106434865.138 8  82782624.884 7
R19  19666826.320 8  19666829.633 7 105204261.328 8  81825816.252 7
> 2025 06 15 13 51  0.0000000  0 24
C06  38592051.445 6  38592046.293 7 200958941.950 6 155394201.271 7
C11  24429275.547 7  24429274.383 7 127209653.236 7  98366572.364 7
C12  22095345.141 7  22095340.867 7 115056257.271 7  88968886.726 7
C16  39084831.875 6  39084833.809 7 203524978.530 6 157378425.861 7
C21  23191258.750 7                 120762973.180 7
C22  21541647.898 7                 112173013.787 7
E03  25889164.023 7  25889168.184 8 136048480.440 7 102919810.116 8
E05  22083303.992 8  22083305.652 8 116048543.570 8  87789977.823 8
E09  25853400.000 5  25853403.078 7 135860577.989 5 102777622.433 7
E15  25095959.227 7  25095962.449 8 131880150.775 7  99766498.635 8
E34  23306083.633 8  23306085.492 9 122474293.845 8  92651013.007 9
E36  26071077.555 6  26071082.898 7 137004431.799 6 103642976.823 7
G01  20420599.328 8                  20420603.828 8 107310969.765 8                  83618954.403 8
G02  22473584.531 7  22473587.160 5                 118099484.934 7  92025577.712 5
G03  19900417.680 7                  19900424.574 7 104577402.099 7                  81488911.920 7
G04  21924701.313 7                  21924707.828 7 115215086.833 7                  89778018.010 7
G17  22303994.938 7                  22303999.797 7 117208291.103 7                  91331300.782 7
G19  22603165.516 7  22603167.449 5                 118780433.871 7  92556495.529 5
G28  23153993.734 7                  23153999.617 7 121675077.479 7                  94811753.521 7
G31  22768090.539 5                                 119647087.912 5                
R03  19333583.211 8  19333588.516 8 103494179.072 8  80495550.009 8
R04  20222970.273 8  20222973.230 7 108293084.640 8  84228282.353 7
R18  19939917.047 8  19939921.543 7 106440641.515 8  82787117.644 7
R19  19663898.063 8  19663900.633 7 105188596.018 8  81813632.149 7
> 2025 06 15 13 51  5.0000000  0 24
C06  38589892.352 6  38589887.137 7 200947699.037 6 155385507.559 7
C11  24425521.359 7  24425519.574 7 127190104.576 7  98351456.096 7
C12  22094475.063 7  22094471.035 7 115051728.285 7  88965384.628 7
C16  39082831.344 6  39082833.426 7 203514560.365 6 157370369.887 7
C21  23187827.336 7                 120745107.469 7
C22  21540989.359 7                 112169583.859 7
E03  25885087.805 7  25885091.762 8 136027059.688 7 102903605.463 8
E05  22081394.641 8  22081397.109 8 116038513.912 8  87782390.465 8
E09  25854110.859 5  25854112.766 7 135864308.994 5 102780445.008 7
E15  25092537.586 7  25092540.633 8 131862168.870 7  99752895.442 8
E34  23305071.422 8  23305073.492 9 122468975.634 8  92646989.801 9
E36  26072155.016 6  26072160.688 7 137010095.478 6 103647261.318 7
G01  20420511.531 8                  20420515.570 8 107310505.744 8                  83618592.829 8
G02  22474800.656 7  22474801.848 5                 118105869.111 7  92030552.378 5
G03  19898706.945 8                  19898712.992 7 104568409.164 8                  81481904.445 7
G04  21920459.148 7                  21920465.793 7 115192795.759 7                  89760648.360 7
G17  22302868.531 7                  22302872.672 7 117202368.605 7                  91326685.871 7
G19  22600128.828 7  22600131.074 5                 118764476.828 7  92544061.433 5
G28  23152566.383 7                  23152571.434 7 121667572.908 7                  94805905.807 7
G31  22764886.703 5                  22764889.402 5 119630250.243 5                
R03  19333294.375 8  19333299.977 8 103492633.472 8  80494347.877 8
R04  20219273.211 8  20219277.383 7 108273292.325 8  84212888.324 7
R18  19941002.867 8  19941008.059 7 106446436.913 8  82791625.132 7
R19  19660973.633 8  19660976.160 7 105172951.376 8  81801464.080 7
> 2025 06 15 13 51 10.0000000  0 24
C06  38587734.055 6  38587729.391 7 200936461.146 6 155376817.705 7
C11  24421769.563 7  24421767.398 7 127170564.882 7  98336346.773 7
C12  22093609.359 7  22093604.488 7 115047213.770 7  88961893.733 7
C16  39080831.430 6  39080833.602 7 203504147.176 6 157362317.757 7
C21  23184398.375 7                 120727249.900 7
C22  21540332.719 7                 112166163.991 7
E03  25881011.891 7  25881016.582 8 136005644.513 7 102887405.031 8
E05  22079488.008 8  22079490.668 8 116028495.689 8  87774811.757 8
E09  25854821.055 5  25854823.949 7 135868047.254 5 102783272.948 7
E15  25089116.391 7  25089119.754 8 131844192.104 7  99739296.155 8
E34  23304061.469 8  23304063.277 9 122463666.952 8  92642973.814 9
E36  26073233.469 6  26073239.594 7 137015764.480 6 103651549.876 7
G01  20420426.023 8                  20420429.707 8 107310055.409 8                  83618241.901 8
G02  22476017.047 7  22476018.398 5                 118112261.630 7  92035533.537 5
G03  19896997.688 7                  19897004.105 7 104559427.798 7                  81474905.962 7
G04  21916219.641 7                  21916225.191 7 115170514.237 7                  89743286.139 7
G17  22301743.797 7                  22301748.309 7 117196461.842 7                  91322083.203 7
G19  22597094.891 7  22597096.695 5                 118748536.037 7  92531640.059 5
G28  23151141.273 7                  23151146.023 7 121660085.388 7                  94800071.392 7
G31  22761685.813 5                  22761688.613 4 119613427.113 5                  93205306.61614
R03  19333008.945 8  19333013.836 7 103491103.961 8  80493158.261 7
R04  20215579.992 8  20215583.742 7 108253514.078 8  84197505.270 7
R18  19942091.844 8  19942096.699 7 106452250.005 8  82796146.419 7
R19  19658052.953 8  19658054.512 7 105157326.107 8  81789311.083 7
> 2025 06 15 13 51 15.0000000  0 24
C06  38585577.008 6  38585572.074 7 200925228.038 6 155368131.569 7
C11  24418018.117 7  24418016.141 7 127151033.955 7  98321244.244 7
C12  22092745.234 7  22092740.109 7 115042713.585 7  88958413.905 7
C16  39078832.297 6  39078834.797 7 203493738.800 6 157354269.338 7
C21  23180970.969 7                 120709400.304 7
C22  21539677.266 7                 112162754.028 7
E03  25876938.016 7  25876942.379 8 135984234.699 7 102871208.671 8
E05  22077584.211 8  22077586.387 8 116018488.753 8  87767241.564 8
E09  25855534.203 5  25855536.609 7 135871792.573 5 102786106.291 7
E15  25085696.820 7  25085699.715 8 131826220.300 7  99725700.598 8
E34  23303053.250 8  23303054.844 8 122458367.620 8  92638964.903 8
E36  26074313.352 5  26074319.453 7 137021438.662 5 103655842.337 7
G01  20420342.789 8                  20420346.660 8 107309618.531 8                  83617901.472 8
G02  22477234.727 7  22477236.184 5                 118118662.237 7  92040521.014 5
G03  19895290.828 7                  19895296.969 7 104550457.790 7                  81467916.356 7
G04  21911981.625 7                  21911987.016 7 115148242.058 7                  89725931.198 7
G17  22300623.023 7                  22300627.480 7 117190570.696 7                  91317492.688 7
G19  22594064.352 7  22594066.449 5                 118732611.322 7  92519231.209 5
G28  23149719.273 7                  23149724.387 7 121652614.768 7                  94794250.129 7
G31  22758486.055 5                  22758488.762 4 119596618.467 5                  93192208.917 4
R03  19332727.141 8  19332731.199 7 103489589.769 8  80491980.568 7
R04  20211889.664 8  20211892.957 7 108233750.047 8  84182133.265 7
R18  19943185.297 8  19943188.563 7 106458080.588 8  82800681.298 7
R19  19655136.406 8  19655137.805 7 105141719.911 8  81777172.937 7
> 2025 06 15 13 51 20.0000000  0 24
C06  38583419.930 6  38583415.871 7 200914000.570 6 155359449.785 7
C11  24414270.320 7  24414267.316 7 127131512.680 7  98306149.162 7
C12  22091882.844 7  22091878.723 7 115038228.565 7  88954945.794 7
C16  39076834.266 6  39076837.023 7 203483336.043 6 157346225.263 7
C21  23177544.602 7                 120691559.490 7
C22  21539024.867 7                 112159354.694 7
E03  25872865.023 7  25872869.383 8 135962831.071 7 102855016.969 8
E05  22075682.195 8  22075684.395 8 116008493.859 8  87759680.485 8
E09  25856247.859 5  25856250.656 7 135875545.75115 102788945.56517
E15  25082277.680 7  25082280.938 8 131808254.267 7  99712109.424 8
E34  23302046.898 8  23302048.383 8 122453078.437 8  92634963.671 8
E36  26075395.336 6  26075400.477 7 137027118.760 6 103660139.279 7
G01  20420262.398 8                  20420266.086 8 107309195.949 8                  83617572.180 8
G02  22478454.078 7  22478455.922 5                 118125071.758 7  92045515.427 5
G03  19893586.164 7                  19893592.797 7 104541499.969 7                  81460936.239 7
G04  21907744.969 7                  21907750.719 7 115125980.084 7                  89708584.205 7
G17  22299505.172 7                  22299509.637 7 117184695.868 7                  91312914.878 7
G19  22591036.938 7  22591039.367 5                 118716703.537 7  92506835.553 5
G28  23148301.195 7                  23148306.355 7 121645161.825 7                  94788442.629 7
G31  22755296.336 5                  22755290.426 4 119579825.204 5                  93179123.296 4
R03  19332446.820 8  19332451.516 7 103488092.297 8  80490815.868 7
R04  20208201.195 8  20208204.871 7 108214000.872 8  84166772.802 7
R18  19944280.578 8  19944284.613 7 106463929.435 8  82805230.383 7
R19  19652222.969 8  19652224.410 7 105126133.652 8  81765050.292 7
> 2025 06 15 13 51 25.0000000  0 24
C06  38581265.656 7  38581260.820 7 200902777.796 7 155350771.636 7
C11  24410522.648 7  24410520.066 7 127112000.110 7  98291060.803 7
C12  22091025.164 7  22091020.250 7 115033757.720 7  88951488.647 7
C16  39074837.500 6  39074839.883 7 203472937.987 6 157338184.816 7
C21  23174120.781 7                 120673726.552 7
C22  21538374.281 7                 112155965.144 7
E03  25868793.133 7  25868797.371 8 135941432.723 7 102838829.264 8
E05  22073782.094 8  22073784.543 8 115998510.121 8  87752127.856 8
E09  25856963.297 5  25856966.148 6 135879305.912 5 102791790.073 6
E15  25078859.398 7  25078863.059 8 131790293.153 7  99698521.965 8
E34  23301041.891 8  23301043.625 8 122447798.512 8  92630969.442 8
E36  26076476.539 5  26076482.387 7 137032803.896 5 103664440.029 7
G01  20420184.313 8                  20420188.273 8 107308786.741 8                  83617253.326 8
G02  22479675.492 7  22479677.473 5                 118131489.256 7  92050516.065 5
G03  19891883.734 7                  19891890.207 7 104532553.418 7                  81453964.891 7
G04  21903510.234 7                  21903515.961 7 115103727.377 7                  89691244.443 7
G17  22298390.313 7                  22298394.711 7 117178836.504 7                  91308349.150 7
G19  22588012.727 7  22588015.414 5                 118700811.775 7  92494452.357 5
G28  23146885.750 7                  23146891.367 7 121637725.663 7                  94782648.198 7
G31  22752101.250 4                  22752097.109 4 119563046.41514                  93166048.89514
R03  19332170.258 8  19332174.473 7 103486610.055 8  80489663.025 7
R04  20204515.508 8  20204519.480 7 108194265.606 8  84151423.171 7
R18  19945379.320 8  19945383.707 7 106469795.598 8  82809792.938 7
R19  19649311.773 8  19649314.012 7 105110566.548 8  81752942.549 7
> 2025 06 15 13 51 30.0000000  0 23
C06  38579111.313 6  38579106.563 7 200891560.125 6 155342097.429 7
C11  24406776.781 7  24406774.480 7 127092496.666 7  98275979.513 7
C12  22090168.367 7  22090164.129 7 115029301.501 7  88948042.798 7
C16  39072841.953 6  39072844.191 7 203462545.034 6 157330148.341 7
C21  23170696.984 7                 120655901.877 7
C22  21537724.609 7                 112152585.737 7
E03  25864722.188 7  25864726.438 8 135920040.033 7 102822645.847 8
E05  22071884.477 8  22071886.910 8 115988537.918 8  87744583.956 8
E09  25857680.773 5  25857683.113 6 135883073.396 5 102794640.165 6
E15  25075442.352 7  25075446.148 8 131772337.238 7  99684938.458 8
E34  23300039.125 8  23300040.719 9 122442528.215 8  92626982.499 9
E36  26077559.617 6  26077565.281 7 137038494.483 6 103668744.884 7
G01  20420108.805 8                  20420113.172 8 107308391.296 8                  83616945.188 8
G02  22480897.586 7  22480900.789 5                 118137915.152 7  92055523.247 5
G03  19890183.484 8                  19890190.445 7 104523618.510 8                  81447002.635 7
G04  21899277.008 7                  21899283.277 7 115081484.344 7                  89673912.230 7
G17  22297278.188 7                  22297282.859 7 117172992.933 7                  91303795.719 7
G19  22584991.258 7  22584994.605 5                 118684936.419 7  92482081.949 5
G28  23145474.516 7                  23145479.266 7 121630306.640 7                  94776867.123 7
R03  19331896.023 8  19331900.980 8 103485143.884 8  80488522.666 8
R04  20200832.516 8  20200836.676 7 108174544.834 8  84136084.813 7
R18  19946481.961 8  19946485.770 7 106475679.480 8  82814369.293 7
R19  19646405.195 8  19646408.273 8 105095018.765 8  81740849.837 8
> 2025 06 15 13 51 35.0000000  0 23
C06  38576957.672 6  38576953.168 7 200880346.448 6 155333426.313 7
C11  24403032.750 7  24403030.602 7 127073001.284 7  98260904.440 7
C12  22089314.297 7  22089311.117 7 115024858.833 7  88944607.427 7
C16  39070846.398 6  39070849.242 7 203452156.106 6 157322114.957 7
C21  23167275.672 7                 120638084.402 7
C22  21537078.031 7                 112149215.380 7
E03  25860652.164 7  25860656.406 8 135898651.949 7 102806465.913 8
E05  22069988.883 8  22069991.242 8 115978576.167 8  87737047.949 8
E09  25858399.133 5  25858401.258 6 135886847.090 5 102797494.938 6
E15  25072026.086 7  25072030.113 8 131754385.567 7  99671358.146 8
E34  23299037.477 8  23299039.449 8 122437266.487 8  92623002.029 8
E36  26078644.180 5  26078648.934 7 137044189.403 5 103673053.055 7
G01  20420035.773 8                  20420040.414 8 107308008.531 8                  83616646.920 8
G02  22482122.547 7  22482125.066 5                 118144348.318 7  92060536.090 5
G03  19888485.164 8                  19888492.027 8 104514694.170 8                  81440048.609 8
G04  21895046.258 7                  21895052.020 7 115059249.902 7                  89656586.698 7
G17  22296168.578 7                  22296173.461 7 117167164.119 7                  91299253.773 7
G19  22581973.703 7  22581976.742 5                 118669076.360 7  92469723.460 5
G28  23144064.656 7                  23144070.625 7 121622903.677 7                  94771098.589 7
R03  19331624.813 8  19331629.629 8 103483692.412 8  80487393.736 8
R04  20197151.867 8  20197156.484 7 108154837.285 8  84120756.737 7
R18  19947586.680 8  19947591.145 7 106481579.960 8  82818958.552 7
R19  19643502.773 8  19643504.961 7 105079489.339 8  81728771.382 7
> 2025 06 15 13 51 40.0000000  0 23
C06  38574805.656 6  38574800.926 7 200869137.794 6 155324759.080 7
C11  24399290.984 7  24399288.676 7 127053514.977 7  98245836.388 7
C12  22088463.914 7  22088460.770 7 115020430.660 7  88941183.278 7
C16  39068852.125 6  39068854.805 7 203441772.206 6 157314085.478 7
C21  23163855.188 7                 120620275.118 7
C22  21536432.711 7                 112145855.144 7
E03  25856583.422 7  25856587.457 8 135877269.440 7 102790290.196 8
E05  22068095.672 8  22068097.750 8 115968625.892 8  87729520.635 8
E09  25859119.445 5  25859120.895 6 135890628.067 5 102800355.186 6
E15  25068611.211 7  25068615.004 8 131736439.113 7  99657781.779 8
E34  23298038.070 8  23298039.973 8 122432014.325 8  92619028.806 8
E36  26079729.648 5  26079733.605 7 137049889.64915 103677365.24817
G01  20419965.695 8                  20419970.078 8 107307639.438 8                  83616359.322 8
G02  22483348.555 7  22483350.895 5                 118150789.771 7  92065555.394 5
G03  19886789.383 8                  19886796.117 8 104505781.428 8                  81433103.616 8
G04  21890816.961 7                  21890822.676 7 115037025.121 7                  89639268.679 7
G17  22295063.367 7                  22295067.266 7 117161351.037 7                  91294724.092 7
G19  22578958.570 7  22578962.070 5                 118653232.660 7  92457377.715 5
G28  23142659.617 7                  23142665.547 7 121615517.810 7                  94765343.379 7
R03  19331356.125 8  19331361.688 7 103482256.501 8  80486276.921 7
R04  20193474.734 8  20193478.859 7 108135144.073 8  84105439.777 7
R18  19948695.805 8  19948699.520 7 106487498.108 8  82823561.529 7
R19  19640603.148 8  19640604.969 7 105063979.384 8  81716708.084 7
> 2025 06 15 13 51 45.0000000  0 23
C06  38572654.008 6  38572649.371 7 200857935.567 6 155316096.809 7
C11  24395550.805 6  24395548.484 7 127034039.133 6  98230776.436 7
C12  22087616.367 7  22087613.684 8 115016018.455 7  88937771.489 8
C16  39066859.758 6  39066861.707 7 203431394.743 6 157306060.960 7
C21  23160436.445 7                 120602475.430 7
C22  21535789.391 7                 112142506.340 7
E03  25852515.992 7  25852519.855 8 135855894.007 7 102774119.819 8
E05  22066204.789 8  22066206.715 8 115958688.473 8  87722003.039 8
E09  25859840.219 5  25859842.215 6 135894417.703 5 102803221.992 6
E15  25065197.555 7  25065201.168 8 131718499.286 7  99644210.429 8
E34  23297040.484 8  23297042.621 8 122426773.144 8  92615063.876 8
E36  26080816.070 5  26080819.488 7 137055596.631 5 103681682.549 7
G01  20419897.953 8                  20419902.781 8 107307285.424 8                  83616083.474 8
G02  22484576.250 7  22484578.711 5                 118157240.939 7  92070582.286 5
G03  19885095.625 8                  19885102.102 8 104496881.674 8                  81426168.738 8
G04  21886589.672 7                  21886595.559 7 115014811.342 7                  89621959.270 7
G17  22293960.195 7                  22293964.531 7 117155555.104 7                  91290207.799 7
G19  22575946.875 7  22575950.660 5                 118637406.740 7  92445045.818 5
G28  23141256.992 7                  23141263.426 7 121608150.468 7                  94759602.596 7
R03  19331091.016 8  19331096.668 8 103480838.063 8  80485173.687 8
R04  20189799.305 8  20189803.910 7 108115466.527 8  84090135.022 7
R18  19949808.078 8  19949812.520 7 106493435.267 8  82828179.307 7
R19  19637707.688 8  19637710.070 7 105048490.189 8  81704660.944 7
> 2025 06 15 13 51 50.0000000  0 23
C06  38570503.297 6  38570499.133 7 200846737.362 6 155307437.654 7
C11  24391811.305 6  24391809.602 7 127014571.353 6  98215722.720 7
C12  22086771.992 7  22086768.840 8 115011619.760 7  88934370.136 8
C16  39064868.328 6  39064869.395 7 203421021.289 6 157298039.557 7
C21  23157019.656 7                 120584682.959 7
C22  21535148.086 7                 112139166.585 7
E03  25848449.148 7  25848453.086 8 135834523.167 7 102757952.934 8
E05  22064315.844 8  22064317.605 8 115948761.549 8  87714493.383 8
E09  25860562.828 5  25860564.695 7 135898213.488 5 102806093.479 7
E15  25061784.742 7  25061788.133 8 131700563.691 7  99630642.265 8
E34  23296044.734 8  23296046.852 8 122421540.534 8  92611105.450 8
E36  26081903.875 5  26081906.176 7 137061307.979 5 103686003.138 7
G01  20419832.984 7                  20419837.852 8 107306944.076 7                  83615817.490 8
G02  22485805.391 7  22485807.887 5                 118163699.397 7  92075614.839 5
G03  19883403.875 7                  19883410.445 7 104487992.504 7                  81419242.103 7
G04  21882364.047 7                  21882369.879 7 114992606.217 7                  89604656.587 7
G17  22292859.820 7                  22292864.250 7 117149773.826 7                  91285702.908 7
G19  22572938.625 7  22572941.723 5                 118621596.156 7  92432725.889 5
G28  23139858.555 6                  23139864.355 7 121600799.182 6                  94753874.307 7
R03  19330828.859 8  19330834.438 8 103479434.308 8  80484081.860 8
R04  20186127.031 8  20186131.789 7 108095802.379 8  84074840.684 7
R18  19950923.023 8  19950927.219 7 106499389.021 8  82832810.000 7
R19  19634815.773 8  19634817.910 7 105033019.431 8  81692628.148 7
> 2025 06 15 13 51 55.0000000  0 23
C06  38568353.367 6  38568349.305 7 200835543.648 6 155298781.974 7
C11  24388074.648 6  24388073.094 7 126995112.100 6  98200675.607 7
C12  22085929.828 7  22085926.844 8 115007235.053 7  88930979.606 8
C16  39062876.289 6  39062878.590 7 203410652.313 6 157290021.619 7
C21  23153604.203 7                 120566898.149 7
C22  21534508.609 7                 112135836.378 7
E03  25844383.094 7  25844387.332 8 135813157.389 7 102741789.878 8
E05  22062428.883 8  22062430.637 8 115938845.520 8  87706991.967 8
E09  25861286.672 5  25861288.375 7 135902016.026 5 102808970.080 7
E15  25058372.031 7  25058375.934 8 131682632.775 7  99617077.642 8
E34  23295050.703 8  23295052.836 9 122416316.961 8  92607153.844 9
E36  26082991.695 5  26082993.844 7 137067024.053 5 103690327.316 7
G01  20419770.484 7                  20419775.148 8 107306615.887 7                  83615561.766 8
G02  22487036.086 7  22487038.172 5                 118170165.553 7  92080653.394 5
G03  19881714.680 8                  19881720.875 7 104479114.381 8                  81412324.086 7
G04  21878140.742 7                  21878146.125 7 114970410.170 7                  89587360.975 7
G17  22291762.844 7                  22291766.758 7 117144007.739 7                  91281209.876 7
G19  22569933.125 7  22569936.043 5                 118605801.426 7  92420418.311 5
G28  23138463.031 6                  23138469.012 7 121593464.496 6                  94748158.965 7
R03  19330570.047 8  19330574.711 7 103478045.844 8  80483001.930 7
R04  20182457.688 8  20182462.188 7 108076151.983 8  84059557.050 7
R18  19952041.227 8  19952045.859 7 106505359.819 8  82837453.981 7
R19  19631927.125 8  19631929.723 7 105017567.506 8  81680610.007 7
> 2025 06 15 13 52  0.0000000  0 24
C06  38566205.531 6  38566201.043 7 200824356.139 6 155290131.094 7
C11  24384338.992 6  24384338.551 7 126975663.188 6  98185636.489 7
C12  22085090.664 7  22085087.801 7 115002866.040 7  88927601.208 7
C16  39060886.320 6  39060888.773 6 203400289.573 6 157282008.508 6
C21  23150190.984 7                 120549122.724 7
C22  21533871.602 8                 112132517.358 8
E03  25840318.672 7  25840322.867 8 135791798.448 7 102725631.986 8
E05  22060544.117 8  22060546.055 8 115928942.156 8  87699500.142 8
E09  25862010.797 5  25862013.555 7 135905826.86415 102811852.95417
E15  25054961.305 7  25054965.039 8 131664708.268 7  99603517.875 8
E34  23294058.688 8  23294060.852 8 122411104.138 8  92603210.381 8
E36  26084080.047 5  26084082.750 7 137072746.709 5 103694656.482 7
G01  20419710.461 7                  20419715.465 8 107306302.576 7                  83615317.612 8
G02  22488268.000 7  22488270.945 5                 118176641.222 7  92085699.357 5
G03  19880027.469 8                  19880033.879 7 104470249.022 8                  81405416.025 7
G04  21873919.117 7                  21873924.395 7 114948224.992 7                  89570073.811 7
G17  22290668.164 7                  22290672.922 7 117138258.597 7                  91276730.021 7
G19  22566930.555 7  22566933.664 5                 118590024.290 7  92408124.437 5
G28  23137071.047 6                  23137076.797 7 121586148.049 6                  94742457.833 7
G31  22729821.531 5                                                                
R03  19330313.742 8  19330318.270 7 103476674.285 8  80481935.154 7
R04  20178790.875 8  20178796.055 7 108056517.124 8  84044285.495 7
R18  19953164.602 8  19953168.063 7 106511349.439 8  82842112.568 7
R19  19629041.781 8  19629044.551 8 105002136.206 8  81668607.870 8
